     2.11           OBSERVATION DATA    G (GPS)             RINEX VERSION / TYPE
teqc  2008Oct2      WCDA Operator       20090108 00:18:53UTCPGM / RUN BY / DATE
Solaris x86 5.10|AMD64|cc SC5.8 -xarch=amd64|=+|=+          COMMENT
teqc  2008Oct2      WCDA Operator       20090107 01:18:42UTCCOMMENT
flin  WCDA-ACP   965000   CFS Flin Flon SASK Canada         MARKER NAME
40135M001                                                   MARKER NUMBER
PGC-WCDA            GEOL. SURV. CANADA                      OBSERVER / AGENCY
1115                AOA BENCHMARK ACT   3.3.32.4            REC # / TYPE / VERS
231                 AOAD/M_T        SCIS                    ANT # / TYPE
  -766174.4630 -3611375.3160  5184056.2210                  APPROX POSITION XYZ
        0.1500        0.0000        0.0000                  ANTENNA: DELTA H/E/N
     1     1                                                WAVELENGTH FACT L1/2
     7    C1    P1    P2    L1    L2    S1    S2            # / TYPES OF OBSERV
STATION INFORMATION EFFECTIVE FROM: 2001/01/13 18:20:00     COMMENT
                                TO: CURRENT DATE (above)    COMMENT
BIT 2 OF LLI FLAGS (+4) DATA COLLECTED UNDER 'AS' CONDITION COMMENT
L1 PHASE CENTRE 0.110m ABOVE ARP                            COMMENT
L2 PHASE CENTRE 0.128m ABOVE ARP                            COMMENT
where ARP is the Antenna Reference Point for HI measurement COMMENT
CONTACT gps@pgc.nrcan.gc.ca FOR ADDITIONAL INFORMATION      COMMENT
    P1 =    P1  TurboRogue; =    Y1  Benchmark              COMMENT
    L1 = L1(CA)                                             COMMENT
    P2 =    P2  TurboRogue; =    Y2  Benchmark              COMMENT
    L2 = L2(P2) TurboRogue; = L2(Y2) Benchmark              COMMENT
 SNR is mapped to RINEX snr flag value [0-9]                COMMENT
  L1 & L2: min(max(int(snr_dBHz/6), 0), 9)                  COMMENT
  2009     1     7     0     0    0.0000000     GPS         TIME OF FIRST OBS
                                                            END OF HEADER
 09  1  7  0  0  0.0000000  0 11G26G24G 9G15G21G 6G14G19G 3G18G22
  23308933.601    23308933.042    23308931.587    -5238291.225 3  -4081777.335 3
        18.600          21.600
  24308306.909    24308305.565    24308306.485    -2249603.445 1  -1752932.973 2
        11.000          13.900
  23392843.272    23392842.540    23392842.412    -7641925.819 3  -5954743.720 3
        19.900          22.100
  22155099.795    22155099.744    22155098.145   -14054304.665 6 -10951398.062 6
        36.100          37.200
  20809488.747    20809487.963    20809486.215   -24998995.314 6 -19479729.016 6
        40.900          40.200
  22319243.082    22319242.482    22319242.228   -12338673.252 5  -9614547.039 5
        33.000          33.000
  25227429.064    25227428.620    25227426.820          -1.11012         -.48512
        12.600          13.900
  23722575.000    23722573.665    23722571.849    -6906069.583 3  -5381351.512 4
        23.800          24.900
  22389262.094    22389261.383    22389260.835   -11189620.606 5  -8719180.993 5
        32.100          30.400
  20435799.940    20435799.138    20435796.744   -25789150.683 6 -20095432.660 7
        38.200          46.600
  21475731.245    21475730.747    21475727.705   -19227858.510 6 -14982740.030 6
        39.700          39.500
 09  1  7  0  0 30.0000000  0 11G22G26G24G 9G15G21G 6G14G19G 3G18
  21463138.271    21463137.791    21463134.881   -19294034.401 6 -15034305.643 6
        39.900          39.700
  23330235.550    23330235.401    23330234.469    -5126344.097 3  -3994545.807 3
        19.300          22.100
  24328256.366    24328256.565    24328256.698    -2144765.447 1  -1671241.044 2
        11.000          13.900
  23373272.599    23373271.814    23373272.409    -7744768.002 3  -6034880.465 3
        19.300          23.400
  22168848.885    22168848.802    22168847.306   -13982052.194 5 -10895097.431 6
        35.900          37.100
  20819561.538    20819560.697    20819559.033   -24946062.378 6 -19438482.574 6
        40.700          40.200
  22323120.612    22323119.867    22323119.785   -12318297.370 5  -9598669.730 5
        32.800          33.000
  25205384.574    25205383.921    25205382.258     -115849.800 2    -90272.118 2
        13.900          16.100
  23709855.972    23709854.111    23709852.282    -6972910.397 3  -5433435.260 4
        23.800          24.900
  22391491.672    22391490.910    22391490.752   -11177903.299 5  -8710050.629 5
        31.800          30.800
  20433845.592    20433844.801    20433843.721   -25799420.737 6 -20103435.296 7
        38.100          46.500
 09  1  7  0  1  0.0000000  0 11G22G26G24G 9G15G21G 6G14G19G 3G18
  21450600.502    21450600.094    21450597.168   -19359920.263 6 -15085645.263 6
        39.900          39.700
  23351590.338    23351589.750    23351589.227    -5014124.455 3  -3907101.908 3
        19.300          21.600
  24348228.572    24348227.456    24348226.607    -2039819.525 1  -1589465.029 2
        11.000          12.600
  23353761.187    23353760.447    23353760.769    -7847305.299 3  -6114779.612 4
        21.600          24.600
  22182674.308    22182674.193    22182672.800   -13909398.312 5 -10838484.010 6
        35.500          36.800
  20829723.405    20829722.538    20829720.864   -24892661.897 6 -19396871.815 6
        40.700          40.200
  22327103.621    22327102.935    22327102.463   -12297367.101 5  -9582360.437 5
        33.200          32.600
  25183344.564    25183343.385    25183344.265     -231661.529 2   -180514.953 2
        12.600          13.900
  23697222.123    23697220.212    23697218.519    -7039301.079 4  -5485168.251 4
        24.200          25.600
  22393836.582    22393835.886    22393835.512   -11165581.491 5  -8700449.217 5
        31.800          30.800
  20431964.863    20431964.060    20431961.660   -25809304.065 6 -20111136.585 7
        38.100          46.500
 09  1  7  0  1 30.0000000  0 11G22G26G24G 9G15G21G 6G14G19G 3G18
  21438120.406    21438119.904    21438116.819   -19425504.315 6 -15136749.703 6
        40.000          39.700
  23372997.895    23372997.583    23372996.900    -4901624.952 2  -3819439.932 3
        17.800          21.100
  24368221.493    24368220.308    24368219.403    -1934756.239 2  -1507597.528 2
        12.600          12.600
  23334309.586    23334308.797    23334308.932    -7949523.121 3  -6194429.841 4
        22.100          24.600
  22196577.987    22196577.916    22196576.361   -13836334.495 5 -10781551.158 6
        35.500          36.800
  20839975.826    20839975.130    20839973.524   -24838783.812 6 -19354888.892 6
        40.700          40.000
  22331193.809    22331193.170    22331193.028   -12275872.651 5  -9565611.521 5
        33.200          32.800
  25161311.657    25161313.210    25161315.711     -347423.576 1   -270719.104 2
        11.000          12.600
  23684677.028    23684674.999    23684672.264    -7105229.046 3  -5536540.678 4
        23.800          25.300
  22396298.209    22396297.365    22396297.031   -11152645.596 5  -8690369.296 5
        31.600          30.600
  20430159.859    20430159.010    20430157.932   -25818789.654 6 -20118527.947 7
        38.100          46.600
 09  1  7  0  2  0.0000000  0 11G22G26G24G 9G15G21G 6G14G19G 3G18
  21425697.940    21425697.412    21425694.327   -19490785.464 6 -15187618.121 6
        40.300          39.800
  23394459.199    23394458.752    23394457.391    -4788848.561 2  -3731562.222 3
        17.800          21.600
  24388236.170    24388235.271    24388234.629    -1829576.755 1  -1425639.483 2
        11.000          12.600
  23314919.470    23314918.640    23314918.816    -8051417.822 3  -6273828.284 3
        21.600          23.800
  22210559.207    22210559.103    22210557.570   -13762862.691 5 -10724300.399 6
        35.500          36.600
  20850319.455    20850318.596    20850316.980   -24784428.776 6 -19312534.321 6
        40.700          40.000
  22335391.127    22335390.585    22335390.425   -12253814.757 5  -9548423.563 5
        33.100          32.700
  25139292.148    25139293.423    25139295.766     -463133.572 1   -360882.711 1
         9.000          11.000
  23672219.424    23672217.577    23672215.347    -7170691.407 3  -5587550.310 4
        23.800          24.600
  22398876.700    22398875.794    22398875.553   -11139095.829 5  -8679811.039 5
        31.500          31.000
  20428430.580    20428429.747    20428427.196   -25827877.071 6 -20125609.048 7
        38.100          46.600
 09  1  7  0  2 30.0000000  0 11G22G26G24G 9G15G21G 6G14G19G 3G18
  21413331.991    21413331.532    21413328.617   -19555767.391 6 -15238253.380 6
        40.100          39.800
  23415971.070    23415970.591    23415969.544    -4675803.007 2  -3643474.787 3
        17.000          21.600
  24408271.787    24408271.471    24408271.180    -1724287.292 1  -1343595.754 2
         9.000          13.900
  23295590.868    23295590.037    23295590.281    -8152990.402 3  -6352975.734 4
        21.600          24.600
  22224616.754    22224616.654    22224614.932   -13688990.079 5 -10666737.318 6
        35.700          36.500
  20860752.488    20860751.668    20860749.856   -24729602.671 6 -19269812.690 6
        40.600          39.600
  22339694.501    22339694.085    22339694.040   -12231199.084 5  -9530800.972 5
        32.800          32.700
  25117285.651    25117283.941    25117284.450     -578794.430 1   -451008.056 1
         6.500          11.000
  23659849.934    23659847.978    23659846.482    -7235691.114 3  -5638199.430 4
        23.800          25.300
  22401570.586    22401569.850    22401569.807   -11124938.022 5  -8668778.975 5
        31.500          31.300
  20426776.075    20426775.239    20426774.196   -25836571.232 6 -20132383.713 7
        38.100          46.500
 09  1  7  0  3  0.0000000  0 11G22G26G24G 9G15G21G 6G14G19G 3G18
  21401023.559    21401022.970    21401019.953   -19620449.902 6 -15288655.324 6
        40.300          40.000
  23437534.075    23437533.607    23437531.169    -4562492.393 3  -3555180.797 3
        18.600          20.500
  24428327.520    24428326.247    24428326.454    -1618890.247 1  -1261468.205 2
         9.000          13.900
  23276323.742    23276323.092    23276323.304    -8254238.327 3  -6431870.204 4
        21.100          25.300
  22238750.114    22238749.857    22238748.297   -13614720.116 5 -10608864.613 6
        35.600          36.600
  20871274.959    20871274.186    20871272.312   -24674306.951 6 -19226725.120 6
        40.700          39.400
  22344104.491    22344103.742    22344103.394   -12208027.498 5  -9512745.197 5
        33.000          32.700
  25095284.139    25095283.549    25095285.206     -694405.054 1   -541094.200 1
         6.500          11.000
  23647569.350    23647567.554    23647566.138    -7300227.122 4  -5688487.227 4
        24.200          26.500
  22404380.246    22404379.518    22404379.451   -11110173.601 5  -8657274.232 5
        31.600          31.100
  20425196.378    20425195.542    20425193.111   -25844872.502 6 -20138852.231 7
        38.100          46.500
 09  1  7  0  3 30.0000000  0 11G22G26G24G 9G15G21G 6G14G19G 3G18
  21388772.486    21388771.925    21388768.802   -19684829.864 6 -15338821.512 6
        40.400          39.900
  23459145.592    23459145.299    23459144.184    -4448917.093 3  -3466680.557 3
        18.600          21.100
  24448404.210    24448404.268    24448404.362    -1513383.875 1  -1179255.471 2
         6.500          16.100
  23257120.360    23257119.829    23257119.663    -8355154.992 3  -6510506.518 4
        22.600          26.500
  22252959.047    22252958.808    22252957.079   -13540051.969 5 -10550681.637 6
        35.500          36.400
  20881887.144    20881886.303    20881884.513   -24618539.469 6 -19183269.940 6
        40.600          39.300
  22348619.831    22348619.152    22348618.878   -12184298.019 5  -9494254.702 5
        33.000          32.400
  25073295.893    25073295.548    25073295.319     -809960.397 1   -631137.261 1
         9.000           9.000
  23635378.156    23635376.316    23635374.279    -7364294.037 4  -5738409.498 4
        24.900          25.900
  22407306.027    22407305.132    22407304.751   -11094800.387 5  -8645295.103 5
        31.600          31.000
  20423691.892    20423691.094    20423689.985   -25852778.194 6 -20145012.505 7
        38.100          46.300
 09  1  7  0  4  0.0000000  0 11G22G26G24G 9G15G21G 6G14G19G 3G18
  21376578.973    21376578.387    21376575.313   -19748906.664 6 -15388751.480 6
        40.300          40.000
  23480807.430    23480807.630    23480806.523    -4335080.427 3  -3377976.646 3
        18.600          22.100
  24468502.301    24468502.607    24468501.941    -1407770.149    -1096959.101 2
         3.000          16.100
  23237979.848    23237979.413    23237979.138    -8455737.454 3  -6588882.428 4
        22.600          25.600
  22267243.052    22267242.962    22267241.263   -13464988.266 5 -10492190.428 6
        35.300          36.400
  20892588.740    20892587.925    20892586.218   -24562301.843 6 -19139448.416 6
        40.600          39.100
  22353241.330    22353240.883    22353240.343   -12160012.053 5  -9475330.585 5
        33.100          32.700
  25051318.268    25051317.852    25051317.399     -925459.028 1   -721136.214 1
         9.000           9.000
  23623275.507    23623274.021    23623272.318    -7427890.302 4  -5787965.032 4
        24.900          25.900
  22410346.828    22410345.886    22410345.548   -11078820.172 5  -8632842.983 5
        31.500          30.800
  20422262.851    20422261.973    20422259.607   -25860288.830 6 -20150864.945 7
        38.100          46.700
 09  1  7  0  4 30.0000000  0 11G22G26G24G 9G15G21G 6G14G19G 3G18
  21364442.984    21364442.536    21364439.564   -19812681.218 6 -15438445.927 6
        40.400          40.300
  23502519.573    23502518.720    23502518.281    -4220987.408 2  -3289072.985 3
        17.000          23.000
  24488620.280    24488618.962    24488619.925    -1302052.427    -1014581.670 2
         3.000          16.100
  23218903.184    23218902.890    23218903.005    -8555983.533 3  -6666996.238 4
        22.100          25.300
  22281601.527    22281601.475    22281599.918   -13389533.251 5 -10433394.310 6
        35.100          36.500
  20903379.344    20903378.565    20903376.829   -24505596.691 6 -19095262.585 6
        40.700          39.000
  22357967.972    22357967.450    22357967.315   -12135172.558 5  -9455975.133 5
        33.000          33.000
  25029351.100    25029350.558    25029349.949    -1040900.569     -811090.635 2
         3.000          12.600
  23611263.079    23611261.804    23611259.618    -7491015.678 4  -5837153.636 4
        24.600          25.600
  22413502.421    22413501.746    22413501.748   -11062234.966 5  -8619919.453 5
        31.100          31.000
  20420908.467    20420907.557    20420906.511   -25867405.975 6 -20156410.767 7
        38.100          46.600
 09  1  7  0  5  0.0000000  0 11G22G26G24G 9G15G21G 6G14G19G 3G18
  21352364.408    21352363.808    21352360.823   -19876155.199 6 -15487906.160 6
        40.400          40.300
  23524278.705    23524277.988    23524276.662    -4106644.035 2  -3199974.276 3
        17.000          21.600
  24508754.124    24508754.061    24508753.630    -1196234.926     -932126.506 2
                        12.600
  23199892.006    23199890.989    23199891.020    -8655892.345 3  -6744847.239 4
        22.100          25.600
  22296033.418    22296033.319    22296031.695   -13313692.269 5 -10374297.438 6
        34.700          36.000
  20914258.402    20914257.565    20914255.693   -24448427.689 6 -19050715.314 6
        40.600          38.800
  22362799.402    22362798.961    22362798.861   -12109783.220 5  -9436191.246 5
        32.700          33.100
  25007394.094    25007393.446    25007392.325    -1156286.113     -901001.389 2
         3.000          12.600
  23599340.102    23599338.533    23599336.798    -7553670.779 3  -5885975.793 4
        23.800          26.200
  22416773.159    22416772.243    22416772.206   -11045048.413 5  -8606527.344 5
        31.600          31.300
  20419628.404    20419627.603    20419625.113   -25874132.442 6 -20161652.168 7
        38.200          46.700
 09  1  7  0  5 30.0000000  0 11G22G26G24G 9G15G21G 6G14G19G 3G18
  21340343.124    21340342.687    21340339.725   -19939326.376 6 -15537130.445 6
        40.600          40.500
  23546085.069    23546084.490    23546082.729    -3992051.917 3  -3110681.715 3
        18.600          21.100
  24528910.258    24528910.313    24528913.222    -1090317.589     -849593.577 2
                        13.900
  23180944.872    23180944.048    23180944.308    -8755458.969 3  -6822431.591 4
        22.600          25.900
  22310538.395    22310538.508    22310537.007   -13237466.194 5 -10314900.487 5
        34.500          35.900
  20925225.551    20925224.740    20925223.000   -24390794.432 6 -19005806.284 6
        40.700          38.700
  22367735.757    22367735.050    22367734.947   -12083843.750 5  -9415978.684 5
        32.600          33.000
  24985446.933    24985448.263    24985446.410    -1271612.182     -990865.848 2
         3.000          12.600
  23587507.862    23587505.989    23587503.974    -7615852.255 3  -5934428.899 4
        23.800          26.200
  22420158.169    22420157.391    22420157.121   -11027260.608 5  -8592666.709 5
        31.800          31.300
  20418423.026    20418422.165    20418421.112   -25880466.573 6 -20166587.847 7
        38.200          46.500
 09  1  7  0  6  0.0000000  0 11G22G26G24G 9G15G21G 6G14G19G 3G18
  21328381.259    21328380.778    21328377.840   -20002186.865 6 -15586112.635 6
        40.600          40.600
  23567939.025    23567938.579    23567936.970    -3877207.443 2  -3021192.508 3
        17.800          21.100
  24549086.719    24549085.989    24549087.250     -984295.295     -766978.857 2
                        13.900
  23162064.854    23162064.204    23162064.362    -8854673.022 3  -6899741.223 4
        23.000          26.200
  22325118.153    22325118.285    22325116.615   -13160850.646 5 -10255200.057 6
        34.900          36.000
  20936282.258    20936281.457    20936279.689   -24332691.211 6 -18960531.041 6
        40.600          38.600
  22372777.520    22372776.962    22372776.927   -12057348.422 5  -9395332.983 5
        32.700          33.000
  24963512.786    24963514.918    24963512.232    -1386869.993    -1080677.128 1
         3.000          11.000
  23575767.155    23575764.940    23575763.265    -7677551.300 3  -5982506.088 4
        23.800          26.500
  22423658.683    22423657.895    22423657.701   -11008865.312 5  -8578332.718 5
        31.500          31.100
  20417293.512    20417292.755    20417290.220   -25886401.805 6 -20171212.702 7
        38.200          46.600
 09  1  7  0  6 30.0000000  0 11G22G26G24G 9G15G21G 6G14G19G 3G18
  21316477.221    21316476.741    21316473.895   -20064742.294 6 -15634857.111 6
        40.500          40.600
  23589839.071    23589838.447    23589837.480    -3762119.873 2  -2931513.896 3
        16.100          21.100
  24569281.787    24569280.292    24569281.837     -878175.613     -684288.212 2
         3.000          17.000
  23143251.233    23143250.823    23143251.237    -8953537.381 3  -6976778.362 4
        22.600          26.800
  22339770.385    22339770.237    22339768.621   -13083854.186 5 -10195202.809 6
        34.900          36.000
  20947427.073    20947426.161    20947424.345   -24274125.048 6 -18914895.066 6
        40.500          38.300
  22377924.135    22377923.382    22377923.185   -12030304.603 5  -9374259.884 5
        32.600          33.000
  24941593.675    24941594.615    24941590.937    -1502063.952    -1170438.681 1
         3.000          11.000
  23564116.874    23564115.521    23564113.625    -7738772.100 4  -6030210.619 4
        24.900          26.800
  22427272.857    22427272.153    22427272.256   -10989869.865 5  -8563531.080 5
        30.800          31.000
  20416239.080    20416238.242    20416237.059   -25891944.068 6 -20175531.344 7
        38.300          46.800
 09  1  7  0  7  0.0000000  0 11G22G26G24G 9G15G21G 6G14G19G 3G18
  21304631.506    21304630.932    21304627.888   -20126992.988 6 -15683364.138 6
        40.700          40.600
  23611784.282    23611784.361    23611783.056    -3646793.577 2  -2841649.242 3
        16.100          21.600
  24589493.876    24589493.003    24589494.057     -771960.918 1   -601523.522 2
         9.000          16.100
  23124505.691    23124504.978    23124504.995    -9052049.303 3  -7053540.847 4
        23.000          26.200
  22354494.074    22354493.958    22354492.418   -13006480.451 5 -10134911.583 5
        34.600          35.900
  20958659.391    20958658.619    20958656.839   -24215098.194 6 -18868900.115 6
        40.500          38.300
  22383174.339    22383173.588    22383173.262   -12002714.677 5  -9352761.245 5
        32.700          32.800
  24919685.395    24919684.541    24919682.631    -1617192.878    -1260149.508 2
         3.000          13.900
  23552559.077    23552557.089    23552555.135    -7799513.546 4  -6077541.629 4
        24.200          27.100
  22431001.695    22431000.930    22431000.766   -10970276.317 5  -8548263.382 5
        31.100          30.800
  20415258.824    20415258.063    20415255.572   -25897094.711 6 -20179544.827 7
        38.300          46.800
 09  1  7  0  7 30.0000000  0 11G22G26G24G 9G15G21G 6G14G19G 3G18
  21292844.530    21292843.975    21292840.903   -20188933.742 6 -15731629.652 6
        40.600          40.700
  23633776.519    23633775.654    23633774.703    -3531227.347 2  -2751597.643 3
        16.100          21.600
  24609724.342    24609723.842    24609724.064     -665648.498 1   -518682.684 2
         9.000          15.100
  23105827.647    23105827.268    23105827.099    -9150201.045 3  -7130022.715 4
        23.800          25.900
  22369290.209    22369289.948    22369288.450   -12928727.525 5 -10074324.883 6
        34.600          36.300
  20969980.214    20969979.352    20969977.719   -24155607.309 6 -18822543.587 6
        40.500          38.200
  22388528.825    22388528.277    22388528.055   -11974575.363 5  -9330834.510 5
        32.800          32.800
  24897790.363    24897789.065    24897788.788    -1732250.504    -1349804.763 2
         3.000          13.900
  23541091.690    23541089.795    23541088.563    -7859769.464 3  -6124494.291 4
        23.000          26.800
  22434844.928    22434844.130    22434843.954   -10950081.487 5  -8532527.164 5
        31.500          30.800
  20414354.083    20414353.233    20414352.089   -25901849.098 6 -20183249.540 7
        38.400          46.600
 09  1  7  0  8  0.0000000  0 11G21G26G24G 9G15G 6G14G19G 3G18G22
  20981388.268    20981387.456    20981385.599   -24095657.754 6 -18775829.654 6
        40.500          37.900
  23655812.361    23655811.997    23655810.406    -3415428.553 2  -2661364.826 3
        16.100          21.100
  24629971.795    24629970.517    24629972.104     -559244.220 1   -435770.292 2
         6.500          15.100
  23087218.543    23087217.970    23087217.778    -9247993.309 3  -7206224.471 4
        23.800          25.900
  22384157.045    22384156.575    22384155.106   -12850602.084 5 -10013447.918 6
        34.100          36.300
  22393986.791    22393986.185    22393986.304   -11945892.218 5  -9308484.013 5
        32.300          32.700
  24875908.196    24875908.200    24875907.611    -1847239.303 1  -1439406.441 2
         6.500          15.100
  23529716.874    23529715.469    23529714.524    -7919542.138 3  -6171070.400 4
        23.400          27.100
  22438801.071    22438800.315    22438800.138   -10929290.696 5  -8516326.558 5
        31.100          30.400
  20413523.914    20413523.115    20413520.678   -25906211.827 6 -20186649.065 7
        38.400          46.900
  21281115.649    21281115.243    21281112.307   -20250568.408 6 -15779656.656 6
        40.600          40.900
 09  1  7  0  8 30.0000000  0 11G21G26G24G 9G15G 6G14G19G 3G18G22
  20992884.384    20992883.483    20992881.617   -24035245.854 6 -18728755.456 6
        40.500          37.800
  23677892.250    23677892.231    23677890.967    -3299395.700 2  -2570949.621 3
        17.000          21.100
  24650237.802    24650235.924    24650238.093     -452745.032     -352783.909 2
         3.000          13.900
  23068679.225    23068678.652    23068678.599    -9345418.044 3  -7282139.831 4
        23.800          26.200
  22399094.708    22399094.634    22399093.197   -12772101.693 5  -9952278.779 5
        34.000          35.900
  22399549.227    22399548.517    22399548.491   -11916661.976 5  -9285707.207 5
        32.300          32.800
  24854042.759    24854041.593    24854040.445    -1962152.708 1  -1528949.357 2
         6.500          15.100
  23518436.219    23518434.932    23518432.834    -7978825.125 4  -6217264.926 4
        24.600          26.500
  22442871.790    22442870.856    22442870.701   -10907900.432 5  -8499658.831 5
        31.100          30.400
  20412769.099    20412768.295    20412767.087   -25910178.246 6 -20189739.777 7
        38.400          46.800
  21269446.327    21269445.833    21269443.011   -20311891.074 6 -15827440.544 6
        40.600          41.000
 09  1  7  0  9  0.0000000  0 11G21G26G24G 9G15G 6G14G19G 3G18G22
  21004468.669    21004467.767    21004465.917   -23974370.204 6 -18681319.886 6
        40.500          37.800
  23700017.426    23700017.304    23700016.133    -3183129.287 2  -2480352.409 3
        17.000          20.500
  24670522.247    24670521.582    24670522.705     -346149.787     -269722.678 2
                        13.900
  23050210.900    23050210.070    23050210.298    -9442469.329 3  -7357764.182 4
        23.400          26.200
  22414104.448    22414104.077    22414102.713   -12693226.610 5  -9890817.668 5
        33.800          35.500
  22405216.210    22405215.435    22405215.431   -11886883.274 5  -9262503.028 5
        32.600          32.800
  24832191.540    24832189.773    24832188.451    -2076986.399 1  -1618430.116 2
         6.500          16.100
  23507249.219    23507247.504    23507245.495    -8037614.206 4  -6263074.605 4
        24.900          26.200
  22447056.350    22447055.519    22447055.278   -10885909.370 5  -8482522.957 5
        31.100          30.400
  20412090.224    20412089.382    20412086.927   -25913745.954 6 -20192519.810 7
        38.400          46.900
  21257836.964    21257836.531    21257833.573   -20372898.502 6 -15874978.789 6
        40.600          41.000
 09  1  7  0  9 30.0000000  0 11G21G26G24G 9G15G 6G14G19G 3G18G22
  21016139.088    21016138.224    21016136.295   -23913041.771 6 -18633531.500 6
        40.500          37.700
  23722184.152    23722183.764    23722182.695    -3066642.365 2  -2389583.374 3
        16.100          19.900
  24690822.881    24690821.443    24690823.938     -239469.445     -186595.163 2
                        13.900
  23031812.975    23031812.338    23031811.871    -9539153.158 3  -7433102.199 4
        23.800          25.900
  22429182.787    22429182.494    22429181.101   -12613988.748 5  -9829073.873 5
        33.600          35.100
  22410985.023    22410984.464    22410984.465   -11856567.181 5  -9238880.101 5
        32.600          32.700
  24810352.355    24810351.357    24810350.396    -2191748.184 1  -1707854.872 2
         9.000          17.000
  23496154.653    23496153.118    23496151.293    -8095916.908 4  -6308505.273 4
        25.600          27.100
  22451353.401    22451352.469    22451352.386   -10863328.687 5  -8464927.627 5
        31.100          30.400
  20411485.376    20411484.567    20411483.329   -25916924.457 6 -20194996.562 7
        38.500          46.900
  21246285.988    21246285.484    21246282.559   -20433599.764 6 -15922278.464 6
        40.600          41.200
 09  1  7  0 10  0.0000000  0 11G26G24G 9G15G21G 6G14G19G 3G18G22
  23744392.366    23744392.707    23744392.080    -2949932.655 2  -2298640.751 3
        15.100          19.900
  24711140.818    24711139.006    24711142.176     -132700.516     -103398.627 2
                        12.600
  23013485.484    23013485.059    23013485.093    -9635460.695 3  -7508147.017 4
        23.400          24.900
  22444330.595    22444330.449    22444329.074   -12534385.281 5  -9767045.193 5
        33.600          35.100
  21027896.374    21027895.444    21027893.709   -23851256.542 6 -18585387.172 6
        40.300          37.500
  22416857.241    22416856.514    22416856.051   -11825709.811 5  -9214835.402 5
        32.400          32.300
  24788526.262    24788525.706    24788526.520    -2306430.862 1  -1797217.969 2
         6.500          17.000
  23485153.777    23485152.357    23485150.699    -8153726.322 4  -6353551.539 4
        25.900          27.400
  22455763.316    22455762.462    22455762.559   -10840153.560 5  -8446869.093 5
        31.100          31.000
  20410955.429    20410954.669    20410952.199   -25919709.047 6 -20197166.368 7
        38.400          46.900
  21234794.155    21234793.753    21234790.892   -20493988.935 6 -15969334.950 6
        40.700          41.300
 09  1  7  0 10 30.0000000  0 11G21G26G24G 9G15G 6G14G19G 3G18G22
  21039741.421    21039740.552    21039738.619   -23789010.524 6 -18536883.788 6
        40.300          37.200
  23766643.669    23766644.254    23766643.602    -2832998.528 2  -2207523.234 3
        16.100          19.300
  24731476.186    24731475.309    24731477.458      -25839.692      -20130.481 2
                        13.900
  22995232.648    22995231.906    22995231.299    -9731383.692 3  -7582892.189 4
        23.400          24.900
  22459548.566    22459548.598    22459547.195   -12454413.976 5  -9704729.883 5
        33.600          35.300
  22422832.661    22422832.082    22422831.842   -11794307.653 5  -9190366.191 5
        32.400          32.400
  24766719.974    24766719.398    24766719.210    -2421027.346 1  -1886513.938 2
        11.000          16.100
  23474248.769    23474247.035    23474244.675    -8211035.418 4  -6398207.970 4
        26.800          26.500
  22460287.294    22460286.455    22460286.334   -10816381.211 5  -8428345.198 5
        31.100          31.000
  20410501.413    20410500.641    20410499.447   -25922094.568 6 -20199025.209 7
        38.500          46.700
  21223363.151    21223362.665    21223359.693   -20554060.253 6 -16016143.757 6
        40.900          41.400
 09  1  7  0 11  0.0000000  0 11G21G26G24G 9G15G 6G14G19G 3G18G22
  21051672.667    21051671.751    21051669.806   -23726311.751 6 -18488027.605 6
        40.200          37.200
  23788936.564    23788936.798    23788937.002    -2715849.383 2  -2116238.172 3
        16.100          19.900
  24751829.470    24751828.903    24751827.773       81104.903 1     63202.949 2
         6.500          13.900
  22977051.459    22977050.931    22977050.489    -9826924.980 4  -7657339.921 4
        24.600          25.300
  22474834.820    22474834.783    22474833.592   -12374083.774 5  -9642134.911 5
        33.400          35.300
  22428910.378    22428909.839    22428909.577   -11762368.463 5  -9165478.517 5
        32.100          32.300
  24744928.630    24744928.073    24744928.022    -2535542.218 1  -1975746.315 2
        11.000          17.000
  23463437.336    23463435.704    23463433.571    -8267849.123 4  -6442478.378 4
        27.600          26.500
  22464923.419    22464922.489    22464922.128   -10792018.972 5  -8409361.648 5
        31.300          30.600
  20410122.229    20410121.449    20410119.018   -25924087.723 6 -20200578.313 7
        38.500          47.000
  21211991.205    21211990.775    21211987.805   -20613819.281 6 -16062709.222 6
        40.700          41.300
 09  1  7  0 11 30.0000000  0 11G21G26G24G 9G15G 6G14G19G 3G18G22
  21063689.532    21063688.784    21063687.043   -23663161.045 6 -18438819.273 6
        39.800          37.200
  23811271.313    23811270.733    23811269.194    -2598488.521 2  -2024788.133 3
        16.100          19.300
  24772194.007    24772191.875    24772192.703      188131.781 1    146600.498 1
         6.500          11.000
  22958943.711    22958943.048    22958942.775    -9922081.340 4  -7731487.703 4
        24.600          25.300
  22490189.039    22490188.969    22490187.555   -12293397.244 5  -9579262.293 5
        33.000          35.100
  22435090.284    22435089.645    22435089.236   -11729893.755 5  -9140173.556 5
        32.100          32.000
  24723153.652    24723152.829    24723152.983    -2649973.777 2  -2064913.748 2
        12.600          17.000
  23452720.319    23452718.704    23452716.825    -8324165.359 4  -6486361.134 4
        27.600          26.200
  22469671.599    22469670.599    22469670.237   -10767067.857 5  -8389919.240 5
        31.500          30.600
  20409817.566    20409816.746    20409815.536   -25925688.437 6 -20201825.617 7
        38.500          46.900
  21200679.318    21200678.744    21200675.648   -20673265.298 6 -16109030.787 6
        40.900          41.500
 09  1  7  0 12  0.0000000  0 11G21G26G24G 9G15G 6G14G19G 3G18G22
  21075792.776    21075792.049    21075790.352   -23599558.325 6 -18389258.720 6
        40.000          37.200
  23833644.832    23833643.824    23833641.833    -2480917.423 2  -1933174.263 3
        15.100          18.600
  24792575.206    24792574.479    24792574.403      295240.931 1    230062.174 1
         6.500          11.000
  22940910.100    22940909.519    22940909.187   -10016847.861 3  -7805331.722 4
        23.800          25.600
  22505610.744    22505610.648    22505609.126   -12212355.248 5  -9516112.682 5
        32.700          34.600
  22441371.743    22441371.262    22441371.039   -11696883.367 5  -9114451.181 5
        31.800          32.000
  24701394.208    24701393.529    24701393.512    -2764318.694 1  -2154013.677 2
        11.000          15.100
  23442098.742    23442097.198    23442095.323    -8379980.900 4  -6529853.737 4
        27.600          26.500
  22474531.571    22474530.663    22474530.302   -10741528.045 5  -8370018.108 5
        31.100          30.400
  20409588.030    20409587.201    20409584.741   -25926895.316 6 -20202766.039 7
        38.600          47.200
  21189426.993    21189426.461    21189423.469   -20732396.172 6 -16155106.780 6
        40.900          41.800
 09  1  7  0 12 30.0000000  0 11G21G26G24G 9G15G 6G14G19G 3G18G22
  21087981.424    21087980.653    21087979.045   -23535506.890 6 -18339348.518 6
        39.900          37.200
  23856056.304    23856056.255    23856054.240    -2363141.485 2  -1841400.816 3
        12.600          19.300
  24812972.117    24812971.426    24812973.729      402428.712 1    313585.076 2
         6.500          12.600
  22922950.715    22922950.332    22922949.957   -10111223.061 3  -7878870.794 4
        23.400          25.600
  22521099.251    22521099.174    22521097.688   -12130962.330 5  -9452689.622 5
        32.600          34.500
  22447754.747    22447754.158    22447754.022   -11663340.861 5  -9088314.175 5
        31.600          32.300
  24679651.581    24679650.339    24679650.678    -2878577.181 1  -2243046.263 2
        11.000          12.600
  23431573.160    23431571.626    23431569.417    -8435296.227 4  -6572956.569 4
        27.900          26.500
  22479502.470    22479501.706    22479501.577   -10715403.673 5  -8349661.463 5
        30.400          30.200
  20409432.762    20409431.965    20409430.759   -25927710.619 6 -20203401.337 7
        38.600          47.000
  21178234.425    21178233.950    21178230.846   -20791213.399 6 -16200938.378 6
        41.000          41.800
 09  1  7  0 13  0.0000000  0 11G26G24G 9G15G21G 6G14G19G 3G18G22
  23878506.213    23878505.650    23878505.083    -2245161.740 2  -1749468.570 3
        12.600          18.600
  24833384.232    24833383.330    24833386.655      509695.391      397169.509 2
         3.000          12.600
  22905068.041    22905067.402    22905066.491   -10205201.588 4  -7952100.784 4
        24.600          25.900
  22536654.777    22536654.536    22536653.043   -12049219.056 5  -9388993.565 5
        32.800          34.500
  21100255.441    21100254.716    21100252.994   -23471006.020 6 -18289088.103 6
        39.700          36.900
  22454238.857    22454238.315    22454238.318   -11629266.008 5  -9061762.342 5
        31.600          32.400
  24657925.460    24657924.361    24657924.425    -2992745.398 1  -2332008.516 1
         6.500          11.000
  23421142.617    23421140.346    23421139.062    -8490107.702 4  -6615666.794 4
        26.500          26.500
  22484585.221    22484584.458    22484584.544   -10688693.095 5  -8328848.026 5
        30.200          30.200
  20409352.534    20409351.705    20409349.285   -25928132.576 6 -20203730.132 7
        38.600          47.000
  21167102.013    21167101.589    21167098.509   -20849714.127 6 -16246523.352 6
        41.000          41.900
 09  1  7  0 13 30.0000000  0 11G26G24G 9G15G21G 6G14G19G 3G18G22
  23900996.055    23900996.183    23900994.911    -2126975.510 1  -1657375.404 3
        11.000          19.300
  24853812.381    24853810.267    24853812.624      617045.261      480818.734 1
                        11.000
  22887261.346    22887260.792    22887260.463   -10298774.509 4  -8025014.721 4
        24.900          26.500
  22552277.047    22552277.150    22552275.667   -11967122.209 5  -9325021.989 5
        32.800          34.500
  21112616.113    21112615.289    21112613.569   -23406050.982 6 -18238473.793 6
        39.600          36.800
  22460825.563    22460824.930    22460824.670   -11594654.217 5  -9034792.125 5
        31.600          32.100
  24636219.531    24636218.142    24636217.577    -3106815.523 1  -2420894.269 1
         6.500          11.000
  23410809.199    23410807.433    23410805.967    -8544407.791 4  -6657978.530 4
        26.800          26.800
  22489780.770    22489779.883    22489779.877   -10661391.825 5  -8307574.320 5
        30.400          30.200
  20409348.213    20409347.350    20409346.153   -25928155.649 6 -20203748.108 7
        38.600          47.200
  21156030.982    21156030.519    21156027.731   -20907891.893 6 -16291856.666 7
        40.800          42.000
 09  1  7  0 14  0.0000000  0 11G26G24G 9G15G21G 6G14G19G 3G18G22
  23923523.165    23923522.640    23923522.948    -2008591.033 1  -1565127.764 3
         9.000          18.600
  24874254.160    24874253.953    24874255.292      724471.895      564527.775 1
                        11.000
  22869531.642    22869531.020    22869531.363   -10391943.270 4  -8097613.722 4
        25.600          27.600
  22567965.295    22567965.393    22567963.838   -11884679.420 5  -9260780.853 5
        32.300          34.300
  21125061.747    21125060.914    21125059.236   -23340648.134 6 -18187510.539 6
        39.500          36.600
  22467512.805    22467512.124    22467511.919   -11559512.087 5  -9007408.655 5
        31.500          31.800
  24614530.680    24614529.887    24614527.680    -3220790.791 1  -2509706.146 1
         6.500           6.500
  23400573.129    23400571.442    23400569.538    -8598199.612 4  -6699894.223 4
        27.400          26.800
  22495087.015    22495086.215    22495085.848   -10633506.965 5  -8285845.857 4
        30.400          29.900
  20409418.679    20409417.871    20409415.347   -25927785.073 6 -20203459.345 7
        38.700          47.200
  21145020.826    21145020.333    21145017.474   -20965750.928 6 -16336941.616 7
        40.900          42.100
 09  1  7  0 14 30.0000000  0 11G26G24G 9G15G21G 6G14G19G 3G18G22
  23946088.615    23946089.071    23946089.436    -1890005.491 1  -1472723.434 3
        11.000          18.600
  24894712.143    24894711.185    24894712.683      831979.272      648299.688 1
                         6.500
  22851881.053    22851880.552    22851879.931   -10484698.630 4  -8169890.603 4
        25.900          27.600
  22583720.288    22583720.244    22583718.744   -11801887.135 5  -9196267.384 5
        32.400          34.400
  21137593.677    21137592.839    21137590.977   -23274793.483 6 -18136195.232 6
        39.600          36.500
  22474301.859    22474301.391    22474300.980   -11523835.549 5  -8979608.758 5
        31.600          32.300
  24592860.718    24592859.726    24592858.321    -3334663.581 1  -2598438.096 1
         6.500           6.500
  23390434.910    23390433.462    23390431.715    -8651475.749 4  -6741408.077 4
        27.400          27.600
  22500505.122    22500504.470    22500504.306   -10605034.108 5  -8263659.223 5
        30.800          30.100
  20409565.233    20409564.362    20409563.137   -25927015.047 6 -20202859.319 7
        38.700          47.200
  21134072.618    21134072.156    21134069.159   -21023284.907 6 -16381773.287 7
        41.100          42.100
 09  1  7  0 15  0.0000000  0 11G21G26G24G 9G15G 6G14G19G 3G18G22
  21150209.744    21150208.847    21150207.201   -23208495.402 6 -18084534.394 6
        39.400          36.600
  23968690.872    23968691.252    23968692.198    -1771229.518 2  -1380170.709 3
        12.600          19.300
  24915186.659    24915185.038    24915183.126      939558.281      732127.492 1
                         9.000
  22834308.008    22834307.590    22834307.396   -10577044.158 4  -8241848.122 4
        24.600          27.600
  22599540.019    22599539.835    22599538.144   -11718755.401 5  -9131489.401 5
        32.800          34.100
  22481191.177    22481190.438    22481190.200   -11487633.521 5  -8951399.395 5
        31.500          32.400
  24571210.389    24571209.678    24571207.885    -3448439.371 1  -2687094.469 1
         6.500           9.000
  23380394.102    23380392.450    23380390.613    -8704242.005 4  -6782524.611 4
        27.400          27.600
  22506033.990    22506033.046    22506032.714   -10575982.210 5  -8241021.388 5
        30.600          30.200
  20409786.340    20409785.463    20409783.051   -25925853.255 6 -20201954.022 7
        38.700          47.400
  21123184.855    21123184.331    21123181.354   -21080500.428 6 -16426356.799 7
        41.100          42.100
 09  1  7  0 15 30.0000000  0 11G21G26G24G 9G15G 6G14G19G 3G18G22
  21162909.961    21162909.108    21162907.419   -23141754.991 6 -18032528.889 6
        39.300          36.500
  23991330.369    23991330.717    23991330.570    -1652266.089 1  -1287471.912 3
        11.000          18.600
  24935671.783    24935670.514    24935669.659     1047207.694      816010.145 1
         3.000           9.000
  22816814.087    22816813.201    22816812.978   -10668976.763 4  -8313483.883 4
        24.900          27.600
  22615423.813    22615423.406    22615421.770   -11635286.946 5  -9066449.039 5
        32.700          34.500
  22488179.763    22488179.085    22488178.689   -11450907.609 5  -8922781.809 5
        31.800          32.000
  24549577.978    24549578.069    24549576.141    -3562116.466 1  -2775673.892 1
        11.000          11.000
  23370449.865    23370448.442    23370447.167    -8756496.739 4  -6823242.569 4
        27.400          27.900
  22511671.837    22511670.857    22511671.082   -10546352.610 5  -8217933.404 5
        30.100          30.200
  20410081.935    20410081.114    20410079.867   -25924299.736 6 -20200743.482 7
        38.800          47.400
  21112357.824    21112357.391    21112354.311   -21137396.612 6 -16470691.483 7
        41.300          42.200
 09  1  7  0 16  0.0000000  0 11G21G26G24G 9G15G 6G14G19G 3G18G22
  21175694.166    21175693.366    21175691.610   -23074573.519 6 -17980179.698 6
        39.300          36.300
  24014003.551    24014004.134    24014003.127    -1533117.795 1  -1194629.078 2
        11.000          17.000
  24956168.535    24956167.845    24956166.748     1154926.546 1    899946.930 1
         6.500           6.500
  22799399.072    22799398.355    22799397.922   -10760492.655 4  -8384794.937 4
        25.600          26.800
  22631370.668    22631370.602    22631369.043   -11551483.814 5  -9001147.898 5
        32.300          34.700
  22495267.620    22495267.118    22495266.848   -11413658.913 5  -8893756.859 5
        31.300          31.500
  24527965.495    24527964.365    24527964.333    -3675692.276 2  -2864174.398 2
        12.600          12.600
  23360604.595    23360603.160    23360600.900    -8808237.822 4  -6863560.285 4
        27.900          27.600
  22517419.937    22517419.105    22517419.106   -10516146.092 5  -8194395.869 5
        30.100          30.200
  20410452.137    20410451.344    20410448.945   -25922354.207 6 -20199227.482 7
        38.800          47.400
  21101591.738    21101591.223    21101588.353   -21193972.531 6 -16514776.608 7
        41.200          42.300
 09  1  7  0 16 30.0000000  0 11G26G24G 9G15G21G 6G14G19G 3G18G22
  24036711.630    24036711.848    24036710.167    -1413788.720 1  -1101645.374 2
        11.000          17.000
  24976678.986    24976678.203    24976679.528     1262712.035      983935.646 1
                         9.000
  22782064.235    22782063.595    22782062.660   -10851589.693 4  -8455779.629 4
        26.800          26.500
  22647381.192    22647380.943    22647379.392   -11467349.365 5  -8935588.591 5
        32.300          34.500
  21188561.988    21188561.151    21188559.264   -23006953.135 6 -17927488.495 6
        39.200          36.100
  22502454.861    22502454.279    22502454.015   -11375890.105 5  -8864326.625 5
        31.500          31.600
  24506371.977    24506371.148    24506371.033    -3789165.968 1  -2952595.345 2
        11.000          15.100
  23350856.051    23350854.498    23350852.284    -8859464.617 4  -6903477.254 4
        27.100          27.100
  22523277.494    22523276.554    22523276.427   -10485365.714 5  -8170411.172 5
        30.400          30.100
  20410896.777    20410895.918    20410894.718   -25920017.637 6 -20197406.771 7
        38.800          47.400
  21090886.755    21090886.242    21090883.257   -21250228.368 6 -16558612.315 7
        41.500          42.400
 09  1  7  0 17  0.0000000  0 11G21G26G24G 9G15G 6G14G19G 3G18G22
  21201512.240    21201511.469    21201509.679   -22938898.408 6 -17874458.843 6
        39.000          36.000
  24059452.908    24059452.420    24059450.204    -1294285.093 2  -1008525.646 2
        12.600          16.100
  24997200.860    24997199.815    24997202.327     1370559.142     1067972.293 1
                         9.000
  22764808.842    22764808.163    22764807.237   -10942267.491 4  -8526437.636 4
        26.200          27.100
  22663453.282    22663453.090    22663451.580   -11382889.412 5  -8869775.639 5
        32.300          34.400
  22509739.959    22509739.425    22509739.296   -11337606.081 5  -8834494.923 5
        31.100          31.600
  24484797.361    24484797.175    24484795.893    -3902539.104 1  -3040937.905 2
        11.000          16.100
  23341204.877    23341203.829    23341202.049    -8910178.763 4  -6942994.752 4
        27.100          27.400
  22529243.149    22529242.320    22529242.389   -10454015.648 5  -8145982.563 5
        30.400          30.200
  20411415.020    20411414.186    20411411.774   -25917294.003 6 -20195284.457 7
        38.800          47.300
  21080242.007    21080241.492    21080238.524   -21306166.651 6 -16602200.581 7
        41.400          42.500
 09  1  7  0 17 30.0000000  0 11G21G26G24G 9G15G 6G14G19G 3G18G22
  21214549.902    21214549.083    21214547.404   -22870385.266 6 -17821071.985 5
        38.900          35.900
  24082231.290    24082230.549    24082229.020    -1174584.563 2   -915252.502 2
        15.100          16.100
  25017741.032    25017739.252    25017742.015     1478491.820     1152075.648 1
         3.000          11.000
  22747638.381    22747637.643    22747637.227   -11032497.213 4  -8596746.481 4
        25.600          27.600
  22679591.742    22679591.681    22679589.960   -11298080.866 5  -8803691.050 5
        32.100          34.100
  22517127.716    22517127.191    22517127.139   -11298782.913 5  -8804243.117 5
        31.100          31.800
  24463247.463    24463247.051    24463246.454    -4015784.209 2  -3129180.732 2
        12.600          17.800
  23331657.416    23331656.002    23331654.494    -8960353.074 4  -6982091.599 4
        26.800          27.600
  22535321.956    22535321.281    22535320.818   -10422072.284 5  -8121091.645 5
        30.600          30.100
  20412011.804    20412010.921    20412009.817   -25914157.628 6 -20192840.524 7
        38.700          47.100
  21069662.530    21069662.062    21069659.093   -21361761.204 6 -16645521.005 7
        41.400          42.400
 09  1  7  0 18  0.0000000  0 11G21G26G24G 9G15G 6G14G19G 3G18G22
  21227669.316    21227668.446    21227666.671   -22801442.856 6 -17767350.641 5
        39.000          35.900
  24105040.612    24105040.266    24105038.588    -1054717.966 2   -821849.949 2
        15.100          16.100
  25038289.891    25038287.803    25038289.521     1586480.800     1236222.868 1
         3.000          11.000
  22730548.919    22730548.182    22730547.919   -11122303.353 4  -8666725.269 4
        25.600          27.900
  22695790.849    22695790.667    22695788.657   -11212954.183 5  -8737358.567 5
        31.800          33.600
  22524612.624    22524612.062    22524611.967   -11259450.080 5  -8773594.159 5
        30.600          31.600
  24441717.649    24441716.365    24441716.258    -4128927.256 2  -3217344.013 3
        15.100          18.600
  23322207.271    23322205.809    23322204.137    -9010013.428 4  -7020787.964 4
        26.500          27.600
  22541507.951    22541507.007    22541506.645   -10389565.027 5  -8095761.331 4
        30.200          29.700
  20412681.939    20412681.084    20412678.673   -25910636.453 6 -20190096.749 7
        38.700          47.300
  21059143.698    21059143.202    21059140.135   -21417038.953 6 -16688594.570 7
        41.500          42.600
 09  1  7  0 18 30.0000000  0 11G21G26G24G 9G15G 6G14G19G 3G18G22
  21240870.718    21240869.923    21240868.127   -22732068.762 6 -17713292.908 5
        38.700          35.600
  24127882.191    24127881.778    24127880.357     -934684.308 2   -728317.220 2
        13.900          17.000
  25058851.906    25058851.372    25058850.737     1694528.629     1320415.966 1
                         9.000
  22713541.215    22713540.565    22713540.217   -11211678.654 4  -8736368.331 4
        25.300          27.900
  22712050.381    22712050.391    22712048.549   -11127508.146 5  -8670777.241 5
        31.800          33.500
  22532194.975    22532194.348    22532193.796   -11219605.600 5  -8742546.525 5
        30.800          31.300
  24420207.033    24420206.589    24420206.141    -4241962.407 2  -3305423.260 3
        15.100          19.300
  23312856.017    23312854.482    23312852.474    -9059155.214 4  -7059080.250 4
        26.500          27.900
  22547801.433    22547800.575    22547800.190   -10356491.627 5  -8069989.860 4
        30.100          29.500
  20413425.835    20413425.019    20413423.857   -25906726.912 6 -20187050.350 7
        38.800          47.300
  21048685.879    21048685.306    21048682.385   -21471995.505 6 -16731417.846 7
        41.500          42.800
 09  1  7  0 19  0.0000000  0 11G21G26G24G 9G15G 6G14G19G 3G18G22
  21254154.604    21254153.848    21254152.268   -22662260.046 6 -17658896.511 5
        38.500          35.500
  24150756.464    24150756.066    24150754.575     -814482.194 2   -634653.253 3
        12.600          18.600
  25079423.598    25079423.575    25079423.712     1802637.881     1404656.930 1
                         6.500
  22696616.752    22696616.528    22696616.061   -11300615.020 4  -8805669.374 4
        25.600          28.400
  22728371.630    22728371.645    22728369.913   -11041740.095 5  -8603944.996 5
        31.800          33.500
  22539874.886    22539874.258    22539874.106   -11179246.459 5  -8711097.848 5
        31.000          31.300
  24398718.699    24398717.646    24398718.266    -4354883.356 2  -3393413.519 3
        16.100          19.900
  23303604.454    23303602.828    23303601.042    -9107771.821 4  -7096963.301 4
        27.400          27.900
  22554203.447    22554202.703    22554202.112   -10322849.655 5  -8043775.338 4
        30.800          29.500
  20414244.554    20414243.714    20414241.409   -25902424.606 6 -20183697.901 7
        38.800          47.400
  21038290.111    21038289.588    21038286.473   -21526625.745 6 -16773986.852 7
        41.500          42.700
 09  1  7  0 19 30.0000000  0 11G21G26G24G 9G15G 6G14G19G 3G18G22
  21267522.347    21267521.497    21267519.764   -22592013.946 6 -17604159.299 5
        38.800          35.700
  24173662.878    24173662.238    24173660.160     -694110.568 2   -540857.193 2
        12.600          17.800
  25100009.032    25100010.173    25100010.162     1910811.115     1488947.728 1
                         6.500
  22679778.160    22679777.386    22679777.220   -11389105.119 4  -8874622.671 4
        26.200          28.600
  22744754.438    22744754.288    22744752.412   -10955648.681 5  -8536860.766 5
        31.800          33.100
  22547653.521    22547653.000    22547652.500   -11138370.414 5  -8679246.398 5
        31.100          31.600
  24377253.005    24377252.399    24377252.587    -4467684.351 2  -3481310.333 3
        15.100          19.300
  23294454.452    23294452.790    23294450.875    -9155857.843 4  -7134432.931 4
        27.600          28.600
  22560713.740    22560712.967    22560712.752   -10288636.449 4  -8017115.721 4
        29.900          29.500
  20415138.825    20415137.975    20415136.802   -25897725.676 6 -20180036.392 7
        38.900          47.600
  21027957.205    21027956.776    21027953.654   -21580924.760 6 -16816297.767 7
        41.700          42.700
 09  1  7  0 20  0.0000000  0 11G21G22G26G24G 9G15G 6G14G19G 3G18
  21280973.763    21280972.914    21280971.140   -22521326.236 6 -17549077.967 5
        38.600          35.400
  21017688.478    21017688.004    21017685.033   -21634886.875 6 -16858346.160 7
        41.600          42.900
  24196600.775    24196600.054    24196598.951     -573566.492 1   -446926.745 2
        11.000          16.100
  25120607.468    25120605.255    25120606.116     2019052.366     1573291.578 1
                         6.500
  22663025.326    22663024.615    22663024.592   -11477140.215 4  -8943221.428 4
        26.200          28.800
  22761199.136    22761198.851    22761197.103   -10869231.345 5  -8469522.575 5
        31.300          32.800
  22555530.724    22555530.061    22555530.293   -11096973.624 5  -8646989.159 5
        30.800          31.800
  24355811.626    24355811.453    24355811.492    -4580357.723 2  -3569107.686 3
        15.100          19.300
  23285405.406    23285403.872    23285402.878    -9203405.839 4  -7171483.290 4
        26.800          29.200
  22567333.923    22567333.081    22567333.065   -10253847.777 4  -7990007.681 4
        29.700          29.900
  20416109.486    20416108.602    20416106.285   -25892624.825 6 -20176061.701 7
        38.900          47.600
 09  1  7  0 20 30.0000000  0 10G21G22G26G 9G15G 6G14G19G 3G18
  21294507.194    21294506.334    21294504.639   -22450207.143 6 -17493660.498 5
        38.400          35.200
  21007482.663    21007482.177    21007479.107   -21688519.574 6 -16900137.865 7
        41.800          42.900
  24219569.905    24219569.411    24219568.372     -452862.240 1   -352871.485 2
        11.000          16.100
  22646358.187    22646357.515    22646357.505   -11564725.958 4  -9011470.034 4
        26.500          28.800
  22777703.424    22777703.297    22777701.740   -10782499.320 5  -8401939.180 5
        31.000          33.200
  22563505.775    22563505.021    22563504.667   -11055066.892 5  -8614334.565 5
        30.800          31.300
  24334393.974    24334393.641    24334392.672    -4692910.629 2  -3656811.183 3
        15.100          19.300
  23276458.779    23276456.978    23276455.770    -9250423.678 4  -7208120.558 4
        28.100          29.700
  22574061.367    22574060.441    22574060.546   -10218494.626 4  -7962459.778 4
        29.200          29.700
  20417154.735    20417153.936    20417152.880   -25887131.168 6 -20171780.923 7
        38.900          47.400
 09  1  7  0 21  0.0000000  0 10G21G22G26G 9G15G 6G14G19G 3G18
  21308120.517    21308119.778    21308118.008   -22378668.536 6 -17437916.132 5
        38.400          34.900
  20997337.666    20997337.117    20997333.894   -21741832.423 6 -16941680.339 7
        41.900          43.000
  24242566.973    24242566.553    24242566.355     -332011.152 1   -258701.814 2
        11.000          16.100
  22629776.032    22629775.301    22629774.771   -11651868.936 4  -9079373.644 4
        27.100          28.800
  22794265.116    22794265.116    22794263.751   -10695465.225 5  -8334120.401 5
        30.800          33.200
  22571574.593    22571574.204    22571573.892   -11012662.197 5  -8581291.954 5
        30.400          31.100
  24312998.353    24312997.576    24312995.616    -4805351.386 2  -3744427.298 3
        16.100          19.300
  23267610.844    23267609.388    23267607.874    -9296919.654 4  -7244351.180 4
        28.600          29.900
  22580893.612    22580892.941    22580892.937   -10182589.057 4  -7934481.427 4
        29.500          29.700
  20418273.021    20418272.155    20418269.888   -25881254.989 6 -20167202.081 7
        38.900          47.600
 09  1  7  0 21 30.0000000  0 10G21G26G 9G15G 6G14G19G 3G18G22
  21321816.451    21321815.618    21321813.986   -22306695.392 6 -17381833.169 5
        38.100          34.800
  24265594.962    24265594.913    24265594.542     -210999.488 2   -164406.998 2
        12.600          16.100
  22613280.722    22613280.117    22613280.039   -11738549.692 4  -9146917.065 4
        27.400          29.200
  22810887.537    22810887.376    22810885.930   -10608115.420 5  -8266055.623 5
        30.800          33.200
  22579742.101    22579741.377    22579740.928   -10969744.977 5  -8547849.973 5
        30.800          31.500
  24291626.368    24291625.422    24291623.855    -4917661.842 2  -3831941.885 3
        16.100          19.300
  23258866.017    23258864.134    23258862.392    -9342876.379 4  -7280161.603 4
        28.100          29.900
  22587834.231    22587833.596    22587833.656   -10146116.269 4  -7906061.083 4
        29.200          29.900
  20419467.000    20419466.183    20419465.004   -25874980.339 6 -20162312.737 7
        39.100          47.600
  20987256.279    20987255.796    20987252.857   -21794808.640 6 -16982960.501 7
        41.500          43.000
 09  1  7  0 22  0.0000000  0 10G21G26G 9G15G 6G14G19G 3G18G22
  21335595.407    21335594.616    21335592.998   -22234287.022 6 -17325411.072 5
        38.100          34.800
  24288653.214    24288652.100    24288652.503      -89827.939 1    -69987.605 2
        11.000          17.000
  22596875.111    22596874.711    22596874.115   -11824762.874 4  -9214096.138 4
        27.100          29.000
  22827570.059    22827569.738    22827568.341   -10520449.831 5  -8197744.781 5
        31.000          33.200
  22588006.479    22588005.837    22588005.619   -10926314.729 5  -8514008.222 5
        31.000          31.500
  24270279.816    24270278.617    24270277.467    -5029837.450 2  -3919351.387 3
        16.100          19.300
  23250224.192    23250222.505    23250220.213    -9388290.000 4  -7315548.821 4
        28.600          29.500
  22594882.683    22594881.975    22594882.111   -10109076.022 4  -7877198.552 4
        28.800          29.700
  20420737.221    20420736.439    20420734.191   -25868305.148 6 -20157111.286 7
        39.100          47.700
  20977239.872    20977239.369    20977236.450   -21847445.336 6 -17023976.098 7
        41.500          43.100
 09  1  7  0 22 30.0000000  0 10G21G26G 9G15G 6G14G19G 3G18G22
  21349454.374    21349453.552    21349451.830   -22161458.164 6 -17268661.326 5
        38.100          34.600
  24311738.403    24311738.102    24311737.112       31487.363 1     24543.793 2
         9.000          17.800
  22580556.617    22580555.887    22580555.414   -11910518.103 4  -9280918.369 4
        27.100          28.800
  22844309.255    22844309.129    22844307.386   -10432484.058 5  -8129200.026 5
        30.800          32.600
  22596365.599    22596365.148    22596364.896   -10882386.441 5  -8479778.390 5
        31.000          31.500
  24248956.169    24248955.564    24248954.573    -5141889.933 2  -4006664.958 2
        15.100          17.800
  23241683.284    23241681.813    23241679.443    -9433172.062 4  -7350521.841 4
        29.200          29.700
  22602036.571    22602035.927    22602036.043   -10071482.442 4  -7847904.868 5
        28.800          30.100
  20422081.256    20422080.453    20422079.332   -25861242.186 6 -20151607.674 7
        39.100          47.700
  20967285.888    20967285.414    20967282.351   -21899754.685 6 -17064736.624 7
        41.700          43.300
 09  1  7  0 23  0.0000000  0 10G21G26G 9G15G 6G14G19G 3G18G22
  21363394.466    21363393.626    21363391.605   -22088203.437 6 -17211579.732 5
        38.000          34.400
  24334851.388    24334850.661    24334850.912      152950.260 1    119190.179 3
         9.000          19.300
  22564327.160    22564326.557    22564325.484   -11995805.231 4  -9347375.851 4
        27.900          28.400
  22861106.403    22861106.275    22861104.562   -10344214.082 5  -8060418.218 5
        30.200          32.100
  22604820.484    22604819.829    22604819.834   -10837955.226 5  -8445156.657 5
        30.100          31.300
  24227658.152    24227658.333    24227656.875    -5253810.517 2  -4093875.772 2
        15.100          17.800
  23233245.196    23233243.363    23233241.669    -9477514.372 4  -7385074.275 5
        29.000          30.400
  22609297.199    22609296.211    22609296.278   -10033331.280 4  -7818176.692 5
        29.000          30.400
  20423500.294    20423499.409    20423497.206   -25853785.775 6 -20145797.480 8
        39.100          48.000
  20957395.382    20957394.880    20957391.868   -21951729.490 6 -17105236.467 7
        41.600          43.300
 09  1  7  0 23 30.0000000  0 10G21G26G 9G15G 6G14G19G 3G18G22
  21377416.793    21377415.976    21377413.983   -22014514.988 6 -17154160.168 5
        38.000          34.000
  24357994.381    24357994.201    24357993.648      274567.034 1    213956.474 3
         9.000          19.900
  22548188.690    22548187.966    22548187.523   -12080611.665 4  -9413458.773 4
        27.900          28.600
  22877962.834    22877962.519    22877960.917   -10255633.009 4  -7991394.003 5
        29.700          31.800
  22613372.390    22613371.892    22613371.614   -10793013.759 5  -8410137.328 5
        30.100          31.100
  24206387.807    24206387.298    24206386.224    -5365588.232 2  -4180975.260 2
        15.100          17.000
  23224911.956    23224909.984    23224908.631    -9521306.243 4  -7419197.804 5
        28.600          30.400
  22616664.367    22616663.521    22616663.176    -9994615.475 4  -7788008.537 4
        29.500          29.700
  20424995.690    20424994.879    20424993.709   -25845926.594 6 -20139673.437 7
        39.100          47.700
  20947570.511    20947570.021    20947566.963   -22003359.595 6 -17145467.710 7
        41.700          43.400
 09  1  7  0 24  0.0000000  0 11G21G26G24G 9G15G 6G14G19G 3G18G22
  21391518.543    21391517.750    21391515.834   -21940409.504 6 -17096415.641 5
        37.700          34.000
  24381163.514    24381162.251    24381161.872      396319.807 1    308828.753 3
        11.000          19.900
  25285757.790    25285759.019                          -1.1011

  22532139.541    22532138.937    22532138.704   -12164949.586 4  -9479176.604 4
        27.600          29.200
  22894875.139    22894874.801    22894873.168   -10166758.439 4  -7922141.095 5
        29.200          31.800
  22622018.702    22622018.053    22622017.923   -10747578.877 5  -8374733.530 5
        30.100          31.100
  24185141.142    24185140.342    24185140.863    -5477236.254 2  -4267973.678 2
        15.100          17.000
  23216680.315    23216678.646    23216677.134    -9564561.566 4  -7452903.243 5
        28.600          30.400
  22624136.030    22624135.230    22624134.903    -9955351.398 4  -7757413.152 4
        29.700          29.200
  20426564.990    20426564.159    20426562.055   -25837679.751 6 -20133247.322 7
        39.100          47.700
  20937808.423    20937807.956    20937804.925   -22054659.485 6 -17185441.647 7
        41.700          43.500
 09  1  7  0 24 30.0000000  0 10G21G26G 9G15G 6G14G19G 3G18G22
  21405697.950    21405697.180    21405695.477   -21865895.082 6 -17038352.462 5
        37.400          33.800
  24404356.855    24404356.910    24404355.122      518198.868 2    403799.423 3
        13.900          19.300
  22516179.401    22516178.806    22516178.137   -12248821.978 4  -9544531.684 4
        28.100          29.700
  22911841.641    22911841.395    22911839.728   -10077599.564 4  -7852666.640 5
        29.700          32.100
  22630756.688    22630755.930    22630755.937   -10701659.105 4  -8338951.900 5
        29.700          31.000
  24163918.725    24163918.814    24163918.185    -5588758.941 2  -4354874.452 2
        15.100          16.100
  23208550.057    23208548.658    23208547.044    -9607285.394 4  -7486194.525 5
        28.600          30.200
  22631710.310    22631709.403    22631709.241    -9915547.208 4  -7726396.905 4
        29.000          29.000
  20428206.793    20428205.998    20428204.805   -25829052.287 6 -20126524.619 7
        39.200          47.800
  20928107.995    20928107.485    20928104.470   -22105635.493 6 -17225163.205 7
        41.600          43.500
 09  1  7  0 25  0.0000000  0 10G21G26G 9G15G 6G14G19G 3G18G22
  21419954.781    21419953.937    21419952.107   -21790975.780 6 -16979973.793 5
        37.600          33.600
  24427572.472    24427572.560    24427570.910      640199.129 2    498864.552 3
        13.900          19.300
  22500307.858    22500307.136    22500306.420   -12332228.175 4  -9609523.503 4
        28.400          29.500
  22928860.955    22928860.611    22928859.137    -9988161.103 4  -7782974.335 5
        28.600          32.100
  22639586.492    22639585.905    22639585.567   -10655258.829 5  -8302795.842 5
        30.100          31.000
  24142721.551    24142720.496    24142719.267    -5700157.216 2  -4441678.283 2
        16.100          16.100
  23200521.087    23200519.478    23200517.991    -9649478.873 4  -7519072.551 5
        28.400          30.400
  22639386.624    22639385.902    22639385.808    -9875207.478 4  -7694963.344 4
        29.000          29.200
  20429920.385    20429919.573    20429917.510   -25820046.876 6 -20119507.414 7
        39.200          47.800
  20918468.965    20918468.504    20918465.419   -22156288.653 6 -17264633.196 7
        41.600          43.600
 09  1  7  0 25 30.0000000  0 10G21G26G 9G15G 6G14G19G 3G18G22
  21434294.251    21434293.295    21434291.495   -21715622.465 6 -16921256.930 5
        37.600          33.600
  24450816.810    24450816.324    24450815.328      762348.373 2    594045.768 3
        12.600          18.600
  22484531.171    22484530.497    22484529.966   -12415134.165 4  -9674125.553 4
        28.600          29.700
  22945939.194    22945938.927    22945937.383    -9898414.958 4  -7713042.283 5
        28.800          32.300
  22648513.093    22648512.605    22648512.307   -10608349.481 4  -8266243.096 5
        29.900          31.000
  24121553.126    24121552.020    24121550.496    -5811398.611 2  -4528359.863 2
        16.100          15.100
  23192599.452    23192597.569    23192595.792    -9691110.270 4  -7551512.598 5
        28.600          30.400
  22647170.608    22647169.791    22647169.462    -9834303.950 4  -7663090.468 4
        29.200          29.500
  20431711.836    20431711.039    20431709.937   -25810632.944 6 -20112171.878 7
        39.300          47.900
  20908897.239    20908896.791    20908893.890   -22206587.810 6 -17303827.339 7
        41.500          43.700
 09  1  7  0 26  0.0000000  0 10G21G26G 9G15G 6G14G19G 3G18G22
  21448715.732    21448714.850    21448712.862   -21639837.095 6 -16862203.398 5
        37.400          33.200
  24474088.595    24474088.063    24474087.421      884643.495 1    689340.672 2
        11.000          17.000
  22468850.440    22468849.601    22468849.117   -12497537.136 4  -9738335.634 4
        28.800          29.700
  22963075.730    22963075.178    22963073.340    -9808363.931 4  -7642872.652 5
        28.800          31.600
  22657535.654    22657535.248    22657535.354   -10560933.241 4  -8229295.378 5
        29.200          31.100
  24100414.631    24100413.721    24100413.110    -5922481.297 2  -4614917.780 2
        17.000          16.100
  23184784.020    23184782.095    23184780.737    -9732178.062 4  -7583513.478 5
        28.100          30.200
  22655061.120    22655060.412    22655059.998    -9792838.337 4  -7630779.598 4
        29.000          29.000
  20433580.894    20433580.085    20433578.002   -25800811.257 6 -20104518.610 8
        39.300          48.100
  20899393.109    20899392.593    20899389.705   -22256532.870 6 -17342745.562 7
        41.500          43.900
 09  1  7  0 26 30.0000000  0 10G21G26G 9G15G 6G14G19G 3G18G22
  21463214.978    21463214.249    21463212.505   -21563641.514 6 -16802830.227 5
        37.200          33.200
  24497383.348    24497382.832    24497382.878     1007060.910 1    784730.870 2
         9.000          13.900
  22453261.932    22453261.150    22453260.686   -12579454.508 4  -9802167.335 4
        28.100          29.200
  22980265.469    22980264.941    22980263.145    -9718031.009 4  -7572483.364 5
        28.600          31.000
  22666651.079    22666650.486    22666650.597   -10513032.415 4  -8191970.064 5
        29.000          31.000
  24079302.400    24079301.828    24079300.982    -6033424.088 2  -4701366.696 2
        16.100          15.100
  23177072.476    23177070.545    23177069.247    -9772701.620 4  -7615090.265 5
        28.100          30.200
  22663054.225    22663053.489    22663053.373    -9750833.254 4  -7598048.370 4
        28.600          29.000
  20435523.455    20435522.693    20435521.547   -25790602.420 6 -20096563.669 8
        39.300          48.100
  20889952.491    20889951.995    20889949.168   -22306143.598 6 -17381403.262 7
        41.600          44.100
 09  1  7  0 27  0.0000000  0 10G21G26G 9G15G 6G14G19G 3G18G22
  21477792.172    21477791.427    21477789.596   -21487037.995 6 -16743139.182 5
        37.100          33.100
  24520700.470    24520701.354    24520700.367     1129597.455 1    880213.887 2
         6.500          12.600
  22437766.344    22437765.567    22437765.364   -12660883.417 4  -9865618.412 4
        27.900          29.500
  22997508.380    22997508.035    22997506.302    -9627419.100 4  -7501876.671 5
        29.900          31.100
  22675858.112    22675857.421    22675857.326   -10464649.543 4  -8154269.121 5
        29.000          30.400
  24058217.153    24058216.703    24058216.242    -6144225.595 2  -4787705.521 2
        15.100          17.000
  23169465.070    23169463.320    23169461.615    -9812680.255 4  -7646242.441 5
        28.600          30.100
  22671150.082    22671149.156    22671148.863    -9708290.734 4  -7564898.359 4
        29.000          29.000
  20437539.773    20437538.987    20437536.873   -25780007.190 6 -20088307.642 8
        39.300          48.200
  20880575.733    20880575.194    20880572.176   -22355419.544 6 -17419800.098 7
        41.700          44.100
 09  1  7  0 27 30.0000000  0 10G21G26G 9G15G 6G14G19G 3G18G22
  21492447.315    21492446.389    21492444.649   -21410025.002 6 -16683129.063 5
        36.600          33.100
  24544041.081    24544041.661    24544041.571     1252253.518 1    975790.059 1
         6.500           9.000
  22422365.563    22422364.734    22422364.155   -12741817.370 4  -9928683.808 4
        28.800          29.700
  23014804.300    23014804.091    23014802.343    -9536527.867 4  -7431052.319 5
        29.700          31.300
  22685157.019    22685156.385    22685156.343   -10415783.532 4  -8116191.715 5
        29.000          30.400
  24037159.963    24037159.143    24037159.736    -6254880.614 2  -4873930.186 2
        16.100          17.000
  23161962.174    23161960.500    23161958.412    -9852109.601 4  -7676966.601 4
        29.500          29.500
  22679348.126    22679347.202    22679347.126    -9665209.839 4  -7531328.831 4
        29.000          29.200
  20439630.056    20439629.265    20439628.068   -25769022.487 6 -20079748.127 8
        39.400          48.300
  20871263.110    20871262.610    20871259.545   -22404357.125 6 -17457933.274 7
        41.600          44.000
 09  1  7  0 28  0.0000000  0 10G21G26G 9G15G 6G14G19G 3G18G22
  21507182.271    21507181.381    21507179.573   -21332592.667 6 -16622792.190 5
        36.600          33.000
  24567407.239    24567407.119    24567405.345     1375037.267     1071465.725 1
         3.000           6.500
  22407060.808    22407060.091    22407059.723   -12822242.275 4  -9991352.552 5
        29.000          30.200
  23032155.127    23032154.841    23032153.250    -9445348.145 4  -7360003.184 5
        28.800          31.300
  22694549.733    22694549.016    22694549.072   -10366425.288 4  -8077730.744 5
        29.000          30.400
  24016132.938    24016133.253    24016133.426    -6365376.381 2  -4960030.772 2
        17.000          17.000
  23154565.189    23154563.777    23154562.033    -9890977.171 4  -7707253.012 4
        29.500          29.000
  22687650.100    22687649.280    22687649.221    -9621581.982 4  -7497333.095 4
        28.800          29.500
  20441796.425    20441795.636    20441793.641   -25757637.825 6 -20070876.959 8
        39.500          48.200
  20862017.315    20862016.806    20862013.849   -22452944.139 6 -17495793.279 7
        41.600          44.200
 09  1  7  0 28 30.0000000  0 10G21G26G 9G15G 6G14G19G 3G18G22
  21521993.511    21521992.568    21521990.461   -21254760.231 6 -16562143.540 5
        36.700          32.700
  24590794.547    24590792.586    24590790.297     1497928.627 1   1167225.246 1
         6.500           6.500
  22391850.616    22391850.182    22391849.710   -12902172.142 4 -10053635.542 5
        29.200          30.400
  23049557.402    23049557.053    23049555.270    -9353900.159 4  -7288745.011 5
        28.400          31.500
  22704032.213    22704031.595    22704031.301   -10316594.241 4  -8038901.351 5
        28.800          30.200
  23995134.281    23995133.674    23995133.666    -6475728.565 2  -5046019.478 3
        17.000          18.600
  23147272.646    23147271.461    23147269.441    -9929299.151 4  -7737114.294 4
        29.000          29.000
  22696052.654    22696051.820    22696051.798    -9577425.959 4  -7462925.819 4
        28.600          29.200
  20444035.699    20444034.890    20444033.747   -25745870.549 6 -20061707.650 8
        39.500          48.200
  20852834.950    20852834.423    20852831.387   -22501198.087 6 -17533393.753 7
        41.700          44.300
 09  1  7  0 29  0.0000000  0 10G21G26G 9G15G 6G14G19G 3G18G22
  21536880.229    21536879.427    21536877.667   -21176528.010 6 -16501183.374 5
        36.400          32.700
  24614200.985    24614198.918    24614198.402     1620926.052     1263067.406 1
         3.000           6.500
  22376735.668    22376734.958    22376734.584   -12981602.559 4 -10115529.355 5
        29.000          30.600
  23067009.955    23067009.521    23067008.188    -9262184.987 4  -7217278.642 5
        28.100          31.300
  22713604.271    22713603.714    22713603.862   -10266291.043 4  -7999704.058 5
        28.600          30.400
  23974162.687    23974162.537    23974162.188    -6585933.568 2  -5131893.476 3
        17.800          19.300
  23140084.939    23140083.455    23140081.403    -9967072.970 4  -7766548.424 4
        29.000          29.000
  22704555.805    22704554.919    22704554.680    -9532742.772 4  -7428107.746 4
        28.400          29.500
  20446347.947    20446347.178    20446345.182   -25733719.641 6 -20052239.405 8
        39.500          48.400
  20843716.208    20843715.722    20843712.715   -22549116.776 6 -17570732.985 7
        41.800          44.400
 09  1  7  0 29 30.0000000  0 10G21G26G 9G15G 6G14G19G 3G18G22
  21551845.612    21551844.755    21551842.901   -21097885.227 6 -16439903.295 5
        36.300          32.700
  24637628.711    24637627.337    24637625.826     1744039.124 1   1358999.650 1
         6.500           6.500
  22361718.504    22361717.762    22361717.283   -13060517.994 4 -10177021.875 5
        28.800          30.400
  23084515.253    23084514.882    23084513.473    -9170192.606 4  -7145596.269 5
        27.900          30.800
  22723268.683    22723268.058    22723268.023   -10215505.436 4  -7960130.853 5
        29.000          30.400
  23953222.074    23953221.742    23953221.538    -6695977.614 2  -5217642.061 3
        17.800          20.500
  23133003.703    23133002.275    23132999.693   -10004285.298 4  -7795545.033 4
        29.200          28.600
  22713160.813    22713160.087    22713160.118    -9487521.766 4  -7392870.605 4
        28.600          29.200
  20448735.512    20448734.658    20448733.383   -25721173.419 6 -20042463.125 8
        39.500          48.700
  20834664.108    20834663.577    20834660.467   -22596686.761 6 -17607800.500 7
        41.900          44.600
 09  1  7  0 30  0.0000000  0 10G21G26G 9G15G 6G14G19G 3G18G22
  21566887.195    21566886.320    21566884.486   -21018840.854 6 -16378310.280 5
        36.200          32.300
  24661076.312    24661074.613    24661074.894     1867257.798 1   1455014.227 1
         9.000           6.500
  22346798.140    22346797.388    22346797.528   -13138922.831 4 -10238116.533 5
        28.400          30.400
  23102071.327    23102071.424    23102070.025    -9077932.672 4  -7073705.414 5
        27.900          30.600
  22733022.967    22733022.205    22733022.098   -10164246.807 4  -7920189.069 5
        28.800          30.400
  23932311.332    23932311.011    23932310.937    -6805865.843 2  -5303269.239 3
        17.800          20.500
  23126027.952    23126026.607    23126024.654   -10040941.902 4  -7824108.608 4
        29.500          29.000
  22721866.532    22721865.870    22721866.152    -9441772.706 4  -7357221.987 4
        28.400          29.500
  20451196.672    20451195.885    20451193.930   -25708239.193 6 -20032384.505 8
        39.600          48.600
  20825676.790    20825676.313    20825673.345   -22643914.938 6 -17644601.671 7
        41.800          44.800
 09  1  7  0 30 30.0000000  0 10G21G26G 9G15G 6G14G19G 3G18G22
  21582005.998    21582005.171    21582003.483   -20939390.886 6 -16316401.228 5
        36.000          32.400
  24684544.437    24684543.425    24684543.048     1990585.002 1   1551113.366 1
         6.500           9.000
  22331977.129    22331976.681    22331976.411   -13216808.024 4 -10298806.275 5
        29.000          30.600
  23119679.989    23119679.723    23119677.596    -8985402.289 4  -7001603.814 5
        28.100          30.100
  22742867.869    22742867.320    22742867.139   -10112511.629 4  -7879875.954 5
        28.800          30.600
  23911431.549    23911430.969    23911430.061    -6915590.879 2  -5388769.244 3
        17.000          20.500
  23119159.395    23119157.770    23119155.977   -10077036.261 4  -7852234.079 4
        29.000          29.000
  22730673.432    22730672.487    22730673.006    -9395492.044 4  -7321159.143 4
        27.600          29.200
  20453733.052    20453732.241    20453730.973   -25694911.048 6 -20021998.932 8
        39.700          48.700
  20816755.818    20816755.337    20816752.370   -22690794.838 6 -17681131.457 7
        41.800          44.900
 09  1  7  0 31  0.0000000  0 10G21G26G 9G15G 6G14G19G 3G18G22
  21597202.653    21597201.782    21597199.910   -20859532.210 5 -16254173.700 5
        35.900          32.100
  24708033.216    24708031.727    24708031.759     2114022.928 1   1647298.766 1
         6.500           9.000
  22317256.930    22317256.146    22317255.459   -13294165.604 4 -10359084.891 5
        29.500          30.400
  23137340.099    23137339.639    23137337.488    -8892598.784 4  -6929289.384 5
        28.400          30.100
  22752803.951    22752803.208    22752803.342   -10060297.106 4  -7839189.315 5
        28.600          30.800
  23890583.559    23890583.221    23890582.746    -7025146.049 2  -5474136.888 3
        17.000          20.500
  23112398.822    23112397.436    23112396.029   -10112562.246 4  -7879916.655 4
        29.000          29.700
  22739582.304    22739581.546    22739581.406    -9348676.735 4  -7284679.683 4
        28.600          29.000
  20456345.009    20456344.178    20456342.240   -25681185.120 6 -20011303.402 8
        39.700          48.700
  20807902.248    20807901.708    20807898.793   -22737320.557 6 -17717385.261 7
        41.800          44.900
 09  1  7  0 31 30.0000000  0 10G26G 9G15G21G 6G14G19G 3G18G22
  24731539.606    24731537.963    24731538.257     2237551.949     1743555.132 1
                         9.000
  22302633.749    22302633.170    22302632.807   -13371009.563 4 -10418963.284 5
        29.700          30.600
  23155047.665    23155047.520    23155045.494    -8799541.594 4  -6856777.282 4
        27.600          29.500
  21612473.347    21612472.695    21612471.106   -20779282.976 5 -16191641.833 5
        35.900          32.400
  22762827.893    22762827.281    22762827.029   -10007622.141 4  -7798143.891 5
        29.000          30.600
  23869766.090    23869765.260    23869764.704    -7134546.208 2  -5559383.742 3
        17.000          22.100
  23105743.985    23105742.314    23105740.818   -10147535.694 4  -7907168.683 4
        29.200          29.500
  22748588.788    22748588.129    22748587.927    -9301345.793 4  -7247798.435 4
        28.400          28.800
  20459029.429    20459028.619    20459027.238   -25667078.284 6 -20000311.060 8
        39.700          48.700
  20799112.915    20799112.390    20799109.413   -22783509.267 6 -17753376.459 7
        41.900          45.100
 09  1  7  0 32  0.0000000  0 10G26G 9G15G21G 6G14G19G 3G18G22
  24755064.185    24755062.847    24755063.191     2361177.793     1839886.951 1
                        11.000
  22288110.884    22288110.202    22288109.780   -13447328.158 4 -10478432.298 5
        29.700          30.400
  23172804.864    23172805.128    23172803.354    -8706224.425 4  -6784062.601 4
        26.800          29.900
  21627819.967    21627819.170    21627817.483   -20698636.900 5 -16128800.747 5
        35.700          32.300
  22772940.159    22772939.635    22772939.411    -9954480.590 4  -7756734.892 5
        29.000          30.400
  23848980.035    23848978.941    23848978.387    -7243781.047 3  -5644501.773 3
        19.300          21.600
  23099196.012    23099194.386    23099192.195   -10181946.808 4  -7933982.532 4
        29.500          29.000
  22757695.166    22757694.240    22757694.112    -9253493.176 4  -7210510.683 4
        28.100          29.000
  20461787.922    20461787.092    20461785.110   -25652582.402 6 -19989015.564 8
        39.700          48.800
  20790389.434    20790388.913    20790385.911   -22829351.128 6 -17789097.383 7
        41.900          45.200
 09  1  7  0 32 30.0000000  0 10G26G 9G15G21G 6G14G19G 3G18G22
  24778607.220    24778605.953    24778607.597     2484900.911     1936294.568 1
         3.000          11.000
  22273689.119    22273688.418    22273687.602   -13523115.230 4 -10537487.145 5
        29.900          30.100
  23190612.376    23190612.404    23190611.150    -8612646.730 4  -6711144.918 5
        27.100          30.600
  21643242.528    21643241.581    21643239.654   -20617592.034 5 -16065648.915 5
        35.600          31.600
  22783141.614    22783141.043    22783141.119    -9900871.224 4  -7714961.364 5
        28.800          30.400
  23828225.634    23828224.417    23828223.430    -7352845.727 3  -5729487.232 3
        19.300          21.600
  23092755.389    23092753.781    23092751.986   -10215791.545 4  -7960355.053 4
        29.000          29.500
  22766900.850    22766899.887    22766899.637    -9205117.471 4  -7172815.331 4
        27.900          28.800
  20464620.917    20464620.117    20464618.823   -25637694.305 6 -19977414.445 8
        39.500          48.900
  20781732.853    20781732.332    20781729.251   -22874842.243 7 -17824544.999 7
        42.100          45.200
 09  1  7  0 33  0.0000000  0 10G26G 9G15G21G 6G14G19G 3G18G22
  24802167.231    24802166.886    24802167.592     2608712.810     2032771.332 2
         3.000          12.600
  22259368.018    22259367.224    22259366.609   -13598373.493 4 -10596129.926 5
        29.900          30.600
  23208467.711    23208467.655    23208466.253    -8518816.845 4  -6638030.725 5
        27.600          30.800
  21658739.063    21658738.171    21658736.448   -20536156.261 5 -16002192.477 5
        35.400          32.000
  22793430.788    22793430.210    22793430.033    -9846802.185 4  -7672829.654 5
        28.800          30.200
  23807503.078    23807502.232    23807501.211    -7461743.946 3  -5814342.974 3
        19.300          21.600
  23086422.055    23086420.362    23086418.225   -10249074.711 4  -7986289.982 4
        29.000          29.700
  22776204.515    22776203.687    22776203.391    -9156226.865 4  -7134718.760 4
        28.400          29.000
  20467527.456    20467526.630    20467524.791   -25622420.290 6 -19965512.611 8
        39.700          48.800
  20773141.867    20773141.337    20773138.234   -22919988.353 7 -17859723.780 7
        42.200          45.400
 09  1  7  0 33 30.0000000  0 10G26G 9G15G21G 6G14G19G 3G18G22
  24825744.962    24825745.013    24825745.951     2732617.068     2129320.090 2
         3.000          12.600
  22245148.945    22245148.198    22245147.874   -13673093.566 4 -10654353.340 5
        29.500          30.400
  23226372.015    23226371.887    23226370.193    -8424730.869 4  -6564716.970 5
        28.100          30.600
  21674311.103    21674310.269    21674308.564   -20454324.868 5 -15938427.767 5
        35.300          32.100
  22803807.849    22803807.098    22803807.162    -9792269.329 4  -7630336.524 5
        28.100          30.100
  23786812.959    23786812.395    23786811.852    -7570467.870 3  -5899062.894 3
        19.300          21.600
  23080196.315    23080194.589    23080192.877   -10281788.644 4  -8011781.354 4
        28.600          29.900
  22785606.506    22785605.808    22785605.765    -9106817.127 4  -7096217.666 4
        28.400          29.000
  20470508.665    20470507.832    20470506.458   -25606754.328 6 -19953305.366 8
        39.700          48.800
  20764617.749    20764617.256    20764614.170   -22964782.443 7 -17894628.258 7
        42.200          45.400
 09  1  7  0 34  0.0000000  0 10G26G 9G15G21G 6G14G19G 3G18G22
  24849341.184    24849341.505    24849343.197     2856615.506     2225942.233 2
         3.000          12.600
  22231034.029    22231033.439    22231033.040   -13747267.926 4 -10712151.526 5
        29.900          31.000
  23244325.230    23244325.070    23244323.279    -8330386.842 4  -6491202.143 5
        27.600          30.100
  21689958.857    21689958.106    21689956.333   -20372095.433 5 -15874352.896 5
        35.400          31.800
  22814273.740    22814273.121    22814273.302    -9737270.208 4  -7587480.073 5
        27.900          30.100
  23766157.562    23766157.032    23766156.754    -7679010.913 3  -5983641.884 3
        19.300          21.100
  23074080.500    23074078.825    23074076.682   -10313928.251 4  -8036825.198 4
        29.200          29.900
  22795108.572    22795107.685    22795107.318    -9056886.410 4  -7057310.622 4
        28.100          29.200
  20473565.052    20473564.253    20473562.388   -25590692.824 6 -19940789.903 8
        39.800          49.000
  20756161.696    20756161.192    20756158.074   -23009219.258 7 -17929254.341 7
        42.200          45.500
 09  1  7  0 34 30.0000000  0 10G26G 9G15G21G 6G14G19G 3G18G22
  24872954.376    24872955.490    24872955.161     2980700.214     2322631.590 2
         3.000          13.900
  22217022.752    22217021.972    22217021.781   -13820898.766 5 -10769526.178 5
        30.100          31.800
  23262326.105    23262325.931    23262324.007    -8235792.165 4  -6417492.000 4
        27.100          29.900
  21705681.286    21705680.333    21705678.514   -20289474.352 5 -15809972.840 5
        35.100          31.500
  22824826.811    22824826.426    22824826.367    -9681812.372 4  -7544266.189 4
        27.900          29.500
  23745536.626    23745535.876    23745535.761    -7787376.343 3  -6068082.471 3
        19.300          21.600
  23068073.356    23068071.755    23068069.513   -10345497.438 5  -8061424.567 5
        30.400          30.100
  22804707.328    22804706.622    22804706.571    -9006441.782 4  -7018003.124 4
        27.600          29.000
  20476695.704    20476694.897    20476693.561   -25574240.779 6 -19927970.122 8
        39.800          48.900
  20747772.666    20747772.142    20747769.228   -23053303.458 7 -17963605.659 7
        42.100          45.600
 09  1  7  0 35  0.0000000  0 10G26G 9G15G21G 6G14G19G 3G18G22
  24896583.752    24896584.062    24896582.428     3104869.937     2419387.215 2
                        12.600
  22203115.534    22203114.631    22203114.383   -13893981.788 4 -10826473.963 5
        29.900          31.600
  23280374.371    23280374.028    23280372.444    -8140948.094 4  -6343587.532 5
        26.500          30.100
  21721477.619    21721476.887    21721475.279   -20206462.363 5 -15745288.183 5
        34.800          31.600
  22835467.592    22835466.936    22835466.731    -9625896.819 4  -7500695.620 4
        28.100          29.000
  23724949.880    23724948.917    23724948.239    -7895561.497 3  -6152382.564 3
        18.600          21.100
  23062174.634    23062173.008    23062171.229   -10376494.304 5  -8085577.965 5
        30.600          30.800
  22814404.426    22814403.664    22814403.537    -8955484.209 4  -6978295.933 4
        27.900          29.200
  20479901.034    20479900.221    20479898.386   -25557397.181 6 -19914845.239 8
        39.800          49.000
  20739451.363    20739450.829    20739447.812   -23097032.734 7 -17997680.414 7
        42.200          45.700
 09  1  7  0 35 30.0000000  0 11G26G28G 9G15G21G 6G14G19G 3G18G22
  24920226.738    24920226.164    24920224.982     3229114.362     2516201.041 2
                        12.600
  25628670.463    25628669.859    25628667.824           -.2961          -.70611
                         6.500
  22189311.634    22189310.959    22189310.302   -13966521.740 5 -10882998.584 5
        30.400          31.500
  23298467.795    23298467.626    23298466.078    -8045864.619 4  -6269496.515 4
        25.600          29.500
  21737346.990    21737346.118    21737344.661   -20123068.724 5 -15680306.135 5
        34.600          31.600
  22846193.411    22846192.837    22846192.455    -9569533.417 4  -7456776.091 4
        28.400          29.200
  23704396.031    23704395.598    23704394.283    -8003571.833 3  -6236546.443 3
        19.300          21.100
  23056383.980    23056382.153    23056380.437   -10406925.189 5  -8109290.335 5
        30.200          31.000
  22824196.998    22824196.229    22824196.162    -8904023.755 4  -6938196.885 4
        28.100          29.000
  20483179.287    20483178.407    20483176.870   -25540170.131 6 -19901421.561 8
        39.900          49.100
  20731196.116    20731195.602    20731192.501   -23140414.434 7 -18031484.329 7
        42.300          45.800
 09  1  7  0 36  0.0000000  0 11G26G28G 9G15G21G 6G14G19G 3G18G22
  24943882.973    24943884.429    24943879.473     3353422.467     2613064.477 1
                        11.000
  25622791.804    25622789.796    25622790.477      -30907.912      -24084.510
                         3.000
  22175609.733    22175609.078    22175608.573   -14038524.267 5 -10939104.435 5
        30.200          31.300
  23316604.889    23316604.819    23316603.552    -7950552.898 4  -6195227.642 4
        25.300          29.700
  21753287.065    21753286.217    21753284.533   -20039303.293 5 -15615034.382 5
        34.500          31.100
  22857002.250    22857001.628    22857001.424    -9512732.659 4  -7412515.761 4
        27.900          29.500
  23683874.159    23683873.484    23683872.525    -8111413.988 3  -6320579.275 3
        19.300          21.100
  23050699.513    23050697.807    23050695.717   -10436797.674 5  -8132567.589 5
        30.100          30.600
  22834083.355    22834082.450    22834082.202    -8852070.900 4  -6897714.150 4
        27.600          28.600
  20486528.659    20486527.923    20486526.134   -25522568.396 6 -19887705.920 8
        39.900          49.100
  20723005.493    20723004.991    20723001.948   -23183456.066 7 -18065023.259 7
        42.300          45.800
 09  1  7  0 36 30.0000000  0 11G26G28G 9G15G21G 6G14G19G 3G18G22
  24967553.685    24967552.779    24967550.406     3477808.466     2709988.615 1
                        11.000
  25616999.911    25616999.324    25617000.939      -61337.124      -47796.602 1
                         6.500
  22162014.072    22162013.423    22162012.836   -14109969.347 5 -10994775.908 5
        30.200          31.100
  23334788.139    23334788.138    23334786.918    -7854998.036 4  -6120769.311 4
        25.300          29.500
  21769300.940    21769300.090    21769298.312   -19955151.577 5 -15549461.626 5
        34.700          31.100
  22867897.044    22867896.327    22867896.059    -9455480.247 4  -7367903.506 4
        27.900          29.500
  23663388.071    23663387.077    23663386.086    -8219069.507 3  -6404466.680 3
        19.300          21.100
  23045124.224    23045122.545    23045121.007   -10466093.977 5  -8155395.880 5
        30.200          31.100
  22844066.021    22844065.133    22844065.297    -8799611.297 4  -6856836.536 4
        27.900          28.800
  20489952.724    20489951.865    20489950.279   -25504575.213 6 -19873685.252 8
        39.800          49.100
  20714883.075    20714882.581    20714879.561   -23226139.357 7 -18098282.960 7
        42.300          45.900
 09  1  7  0 37  0.0000000  0 11G26G28G 9G15G21G 6G14G19G 3G18G22
  24991239.339    24991238.325    24991234.606     3602266.408     2806968.809 1
                        11.000
  25611300.905    25611300.101    25611293.099      -91290.508      -71137.999 1
                         6.500
  22148524.559    22148523.879    22148523.364   -14180857.752 5 -11050013.607 5
        30.200          31.100
  23353017.013    23353016.831    23353015.200    -7759206.194 4  -6046126.315 4
        25.300          29.200
  21785386.870    21785386.029    21785384.302   -19870619.008 5 -15483592.100 5
        34.500          31.000
  22878876.338    22878875.711    22878875.796    -9397781.644 4  -7322943.556 4
        27.400          29.500
  23642937.154    23642935.902    23642935.137    -8326539.897 3  -6488209.827 3
        19.300          21.100
  23039658.641    23039657.135    23039655.335   -10494816.889 5  -8177777.362 5
        31.000          31.100
  22854144.035    22854143.192    22854142.930    -8746650.254 4  -6815568.195 4
        27.600          27.900
  20493450.276    20493449.508    20493447.902   -25486194.530 6 -19859362.640 8
        39.900          49.100
  20706828.085    20706827.541    20706824.496   -23268468.858 7 -18131266.979 7
        42.300          45.900
 09  1  7  0 37 30.0000000  0 11G26G28G 9G15G21G 6G14G19G 3G18G22
  25014936.022    25014935.540    25014929.552     3726788.933     2903999.324 1
                        11.000
  25605688.263    25605682.409    25605684.537     -120771.306      -94105.819 1
                         6.500
  22135140.813    22135140.155    22135139.382   -14251190.927 5 -11104818.661 5
        30.800          31.000
  23371289.508    23371289.118    23371287.362    -7663184.036 4  -5971303.864 4
        25.600          28.800
  21801544.162    21801543.358    21801541.589   -19785711.260 5 -15417430.230 5
        34.000          30.800
  22889939.563    22889939.197    22889939.096    -9339643.756 4  -7277641.311 4
        27.100          29.200
  23622521.248    23622520.051    23622519.313    -8433827.656 3  -6571810.662 3
        19.300          22.100
  23034301.599    23034299.803    23034297.586   -10522969.858 5  -8199714.743 5
        31.100          30.800
  22864316.268    22864315.307    22864315.166    -8693195.535 4  -6773915.178 4
        27.400          27.900
  20497020.936    20497020.160    20497018.479   -25467431.158 6 -19844741.827 8
        39.900          49.000
  20698839.821    20698839.280    20698836.175   -23310447.906 7 -18163977.921 7
        42.400          46.000
 09  1  7  0 38  0.0000000  0 11G26G28G 9G15G21G 6G14G19G 3G18G22
  25038641.374    25038640.018    25038637.841     3851381.197     3001084.171 1
                         9.000
  25600170.478    25600171.147    25600168.197     -149770.901     -116700.905 1
                         9.000
  22121864.446    22121863.789    22121862.968   -14320958.148 5 -11159182.722 5
        30.800          31.300
  23389606.026    23389606.128    23389604.637    -7566926.648 4  -5896298.103 4
        25.300          28.400
  21817774.145    21817773.243    21817771.282   -19700422.715 5 -15350971.640 5
        34.000          30.400
  22901087.388    22901086.609    22901086.887    -9281061.409 4  -7231992.748 4
        26.800          29.000
  23602141.358    23602140.121    23602139.947    -8540923.631 3  -6655262.038 3
        19.900          22.600
  23029054.353    23029052.460    23029050.475   -10550544.430 5  -8221201.420 5
        30.800          31.000
  22874583.348    22874582.622    22874582.505    -8639241.390 4  -6731872.993 4
        27.600          27.900
  20500665.573    20500664.803    20500663.147   -25448278.193 6 -19829817.436 8
        40.000          49.000
  20690919.712    20690919.179    20690916.100   -23352067.914 7 -18196409.090 7
        42.300          46.100
 09  1  7  0 38 30.0000000  0 11G26G28G 9G15G21G 6G14G19G 3G18G22
  25062361.963    25062360.914    25062359.667     3976041.525     3098222.031 1
                         9.000
  25594743.191    25594742.570    25594741.405     -178287.324     -138921.544 1
                         6.500
  22108696.221    22108695.731    22108695.272   -14390156.098 5 -11213103.177 5
        30.800          32.100
  23407966.832    23407968.114    23407966.134    -7470435.324 4  -5821110.053 4
        25.300          27.600
  21834076.144    21834075.396    21834073.591   -19614754.267 5 -15284217.014 5
        34.100          30.400
  22912319.817    22912319.184    22912319.050    -9222035.979 4  -7185998.914 4
        26.800          29.200
  23581798.539    23581797.769    23581797.323    -8647825.108 3  -6738561.857 3
        21.100          23.000
  23023917.200    23023915.458    23023913.630   -10577538.969 5  -8242236.113 5
        30.400          31.100
  22884945.512    22884944.598    22884944.388    -8584788.873 4  -6689442.461 4
        27.900          28.100
  20504384.626    20504383.793    20504382.202   -25428734.811 6 -19814588.825 8
        40.000          48.900
  20683068.282    20683067.758    20683064.720   -23393327.599 7 -18228559.487 7
        42.400          46.300
 09  1  7  0 39  0.0000000  0 11G26G28G 9G15G21G 6G14G19G 3G18G22
  25086097.341    25086098.901    25086095.074     4100768.040     3195411.556 1
                         6.500
  25589409.962    25589408.249    25589406.822     -206318.890     -160764.287 1
                         6.500
  22095637.941    22095637.130    22095636.390   -14458780.754 5 -11266576.914 5
        31.300          32.300
  23426373.319    23426373.806    23426371.953    -7373711.616 4  -5745740.926 4
        24.900          27.100
  21850450.320    21850449.555    21850448.034   -19528707.076 5 -15217167.264 5
        33.900          30.800
  22923635.582    22923635.100    22923635.356    -9162568.939 4  -7139660.967 4
        26.800          29.200
  23561493.212    23561492.742    23561491.723    -8754529.250 3  -6821707.927 3
        21.100          23.000
  23018890.763    23018889.351    23018887.403   -10603951.956 5  -8262817.658 5
        30.600          31.100
  22895401.925    22895401.156    22895400.661    -8529840.169 4  -6646625.289 4
        27.400          27.600
  20508177.944    20508177.191    20508175.464   -25408800.486 6 -19799055.581 8
        40.100          48.900
  20675285.760    20675285.167    20675282.114   -23434225.424 7 -18260427.916 7
        42.400          46.300
 09  1  7  0 39 30.0000000  0 11G26G28G 9G15G21G 6G14G19G 3G18G22
  25109843.737    25109842.592    25109842.127     4225551.292     3292645.230 1
                         6.500
  25584165.193    25584164.698    25584162.171     -233871.229     -182233.648
         3.000           3.000
  22082686.959    22082686.496    22082685.829   -14526836.178 5 -11319607.099 5
        31.100          32.300
  23444822.328    23444822.187    23444820.606    -7276765.149 4  -5670198.220 4
        24.900          27.900
  21866895.014    21866894.221    21866892.433   -19442290.020 5 -15149829.310 5
        33.500          30.100
  22935034.504    22935033.913    22935033.704    -9102669.743 4  -7092986.275 4
        27.100          28.600
  23541224.542    23541223.591    23541223.047    -8861041.435 3  -6904704.404 3
        20.500          22.600
  23013974.401    23013972.512    23013970.421   -10629789.619 5  -8282950.892 5
        30.800          30.800
  22905950.630    22905949.853    22905950.060    -8474404.430 4  -6603428.619 4
        26.800          28.100
  20512044.338    20512043.507    20512041.914   -25388482.575 6 -19783223.441 8
        40.000          48.800
  20667570.553    20667570.046    20667567.109   -23474768.032 7 -18292019.553 7
        42.300          46.400
 09  1  7  0 40  0.0000000  0 10G28G 9G15G21G 6G14G19G 3G18G22
  25579015.952    25579015.127    25579013.281     -260950.337 1   -203334.238 2
         9.000          12.600
  22069843.981    22069843.414    22069842.806   -14594326.689 5 -11372197.082 5
        31.300          32.400
  23463311.614    23463311.441    23463309.655    -7179604.979 4  -5594489.003 4
        25.300          27.900
  21883408.136    21883407.398    21883405.757   -19355512.131 5 -15082210.184 4
        33.400          29.900
  22946513.284    22946513.036    22946512.803    -9042347.531 4  -7045981.959 4
        27.900          28.400
  23520991.463    23520990.718    23520989.922    -8967366.670 3  -6987555.211 3
        20.500          22.100
  23009165.894    23009164.458    23009162.301   -10655058.018 5  -8302640.554 5
        31.100          31.100
  22916590.832    22916589.824    22916589.981    -8418490.781 4  -6559859.557 4
        26.800          27.900
  20515982.283    20515981.448    20515979.857   -25367788.557 6 -19767098.232 8
        40.200          48.800
  20659922.003    20659921.493    20659918.429   -23514961.641 7 -18323339.241 7
        42.200          46.400
 09  1  7  0 40 30.0000000  0 10G28G 9G15G21G 6G14G19G 3G18G22
  25573948.702    25573948.925    25573947.293     -287552.973     -224063.612 1
                         6.500
  22057109.417    22057108.764    22057108.073   -14661247.625 5 -11424343.241 5
        31.600          32.300
  23481841.386    23481840.951    23481839.136    -7082231.431 4  -5518613.501 4
        24.600          27.600
  21899990.393    21899989.492    21899987.858   -19268372.828 5 -15014309.444 4
        33.200          29.700
  22958072.875    22958072.302    22958071.662    -8981602.585 4  -6998648.247 4
        27.600          27.600
  23500795.030    23500793.934    23500793.186    -9073501.085 3  -7070257.323 3
        21.100          21.600
  23004466.390    23004464.629    23004462.732   -10679754.258 5  -8321884.380 5
        31.100          31.000
  22927321.695    22927320.899    22927320.804    -8362099.592 4  -6515918.364 4
        26.500          27.900
  20519992.127    20519991.325    20519989.638   -25346716.615 6 -19750678.535 8
        40.200          48.700
  20652340.402    20652339.861    20652336.802   -23554803.239 7 -18354384.636 7
        42.300          46.400
 09  1  7  0 41  0.0000000  0 10G28G 9G15G21G 6G14G19G 3G18G22
  25568983.861    25568982.740    25568980.892     -313653.568     -244401.662
         3.000           3.000
  22044488.644    22044488.011    22044487.194   -14727570.557 5 -11476023.437 5
        32.300          32.300
  23500415.381    23500415.296    23500414.098    -6984621.702 3  -5442553.967 4
        23.800          28.100
  21916645.642    21916644.950    21916643.379   -19180848.425 5 -14946108.621 4
        33.100          29.900
  22969717.079    22969716.370    22969715.970    -8920412.230 4  -6950967.454 4
        27.600          27.400
  23480639.662    23480638.535    23480637.699    -9179417.629 3  -7152789.679 3
        21.600          21.100
  22999880.468    22999878.844    22999876.992   -10703852.435 5  -8340662.172 5
        31.000          31.100
  22938147.833    22938147.025    22938146.817    -8305208.352 4  -6471587.540 4
        26.500          27.900
  20524078.616    20524077.861    20524076.207   -25325241.668 6 -19733944.806 8
        40.200          48.600
  20644830.688    20644830.125    20644826.972   -23594267.575 7 -18385136.063 7
        42.300          46.500
 09  1  7  0 41 30.0000000  0 10G28G 9G15G21G 6G14G19G 3G18G22
  25564111.603    25564111.574    25564109.521     -339266.410     -264359.836 1
         3.000           9.000
  22031979.221    22031978.494    22031977.728   -14793308.631 5 -11527247.898 5
        32.300          32.800
  23519031.131    23519031.202    23519030.085    -6886794.086 3  -5366324.669 4
        23.400          28.800
  21933371.091    21933370.143    21933368.395   -19092956.863 5 -14877621.699 4
        33.000          29.500
  22981442.666    22981441.876    22981441.322    -8858794.759 4  -6902953.843 4
        27.400          27.400
  23460523.157    23460522.565    23460521.189    -9285130.206 3  -7235163.094 3
        21.600          21.100
  22995405.505    22995403.876    22995402.109   -10727367.591 5  -8358985.673 5
        30.800          31.300
  22949065.531    22949064.665    22949064.572    -8247835.291 4  -6426881.257 4
        26.800          27.900
  20528238.886    20528238.012    20528236.271   -25303380.375 6 -19716910.031 8
        40.300          48.600
  20637389.704    20637389.150    20637386.137   -23633369.809 7 -18415605.330 7
        42.300          46.600
 09  1  7  0 42  0.0000000  0 10G28G 9G15G21G 6G14G19G 3G18G22
  25559326.938    25559326.357    25559325.642     -364395.037     -283940.551 1
                         6.500
  22019580.786    22019580.072    22019579.364   -14858463.186 5 -11578017.661 5
        32.400          33.100
  23537687.765    23537687.429    23537685.992    -6788755.001 3  -5289930.580 4
        23.800          27.900
  21950165.065    21950164.108    21950162.271   -19004704.555 5 -14808853.678 4
        33.200          29.500
  22993247.785    22993247.350    22993247.077    -8796756.582 4  -6854612.405 4
        27.100          27.400
  23440445.505    23440444.716    23440442.801    -9390641.480 3  -7317379.657 3
        21.600          21.100
  22991041.152    22991039.605    22991037.809   -10750303.689 5  -8376857.955 5
        30.800          31.100
  22960073.811    22960072.887    22960073.166    -8189986.854 4  -6381804.545 4
        26.500          28.600
  20532471.560    20532470.786    20532469.022   -25281136.938 6 -19699577.477 8
        40.300          48.500
  20630017.065    20630016.555    20630013.565   -23672113.055 7 -18445794.866 7
        42.300          46.700
 09  1  7  0 42 30.0000000  0 10G28G 9G15G21G 6G14G19G 3G18G22
  25554641.866    25554640.442    25554637.034     -389031.846     -303138.123 1
                         9.000
  22007294.930    22007294.251    22007293.593   -14923025.379 5 -11628325.845 5
        32.400          33.100
  23556385.228    23556384.911    23556383.120    -6690500.623 4  -5213368.724 4
        24.900          27.100
  21967028.460    21967027.520    21967025.602   -18916086.884 5 -14739800.949 4
        33.000          29.200
  23005134.088    23005133.593    23005133.272    -8734293.905 4  -6805940.194 4
        26.800          27.600
  23420407.275    23420406.207    23420404.442    -9495943.601 3  -7399433.234 3
        22.100          21.600
  22986788.415    22986786.404    22986784.520   -10772653.259 5  -8394273.209 5
        30.800          31.000
  22971172.787    22971172.233    22971172.077    -8131659.617 4  -6336354.756 4
        26.500          28.100
  20536778.310    20536777.425    20536775.599   -25258505.726 6 -19681942.761 8
        40.300          48.400
  20622714.228    20622713.671    20622710.487   -23710490.534 7 -18475699.389 7
        42.400          46.700
 09  1  7  0 43  0.0000000  0 10G28G 9G15G21G 6G14G19G 3G18G22
  25550044.504    25550044.598    25550042.311     -413180.507     -321955.231 1
                        11.000
  21995121.219    21995120.647    21995120.300   -14986996.896 5 -11678173.765 5
        32.300          33.400
  23575122.126    23575121.961    23575119.954    -6592037.262 4  -5136644.019 4
        24.900          26.500
  21983960.279    21983959.332    21983957.275   -18827109.729 5 -14670468.108 4
        32.600          29.000
  23017100.098    23017099.355    23017098.919    -8671413.312 4  -6756942.327 4
        26.500          27.100
  23400408.028    23400407.043    23400406.114    -9601038.446 3  -7481325.298 3
        22.600          22.600
  22982646.208    22982644.451    22982642.328   -10794420.187 5  -8411234.452 5
        31.000          30.400
  22982362.365    22982361.261    22982361.304    -8072860.031 4  -6290536.888 4
        26.200          28.100
  20541157.656    20541156.900    20541155.224   -25235491.107 6 -19664009.289 8
        40.500          48.500
  20615480.014    20615479.461    20615476.331   -23748506.154 7 -18505321.944 7
        42.400          46.800
 09  1  7  0 43 30.0000000  0 10G28G 9G15G21G 6G14G19G 3G18G22
  25545542.894    25545540.984    25545540.368     -436839.636     -340390.903 2
         3.000          13.900
  21983061.159    21983060.363    21983059.791   -15050375.039 5 -11727559.312 5
        32.400          33.500
  23593898.577    23593898.445    23593896.538    -6493367.575 4  -5059758.537 4
        24.900          27.100
  22000959.572    22000958.951    22000957.097   -18737775.183 5 -14600856.786 4
        32.400          29.000
  23029144.755    23029144.213    23029143.927    -8608117.339 4  -6707620.791 4
        25.900          27.900
  23380449.271    23380448.187    23380446.976    -9705924.390 3  -7563054.575 3
        22.600          23.000
  22978614.915    22978613.284    22978611.283   -10815603.508 5  -8427740.942 5
        31.000          30.600
  22993640.651    22993639.706    22993639.948    -8013590.412 4  -6244352.770 4
        25.900          28.100
  20545610.121    20545609.335    20545607.667   -25212093.520 6 -19645777.399 8
        40.500          48.400
  20608314.636    20608314.142    20608311.248   -23786159.321 7 -18534662.069 7
        42.300          46.900
 09  1  7  0 44  0.0000000  0 10G28G 9G15G21G 6G14G19G 3G18G22
  25541135.117    25541134.207    25541131.938     -460010.923     -358446.523 2
         3.000          16.100
  21971113.535    21971112.732    21971111.943   -15113159.162 5 -11776481.993 5
        32.400          33.100
  23612713.195    23612713.112    23612711.354    -6394496.048 4  -4982715.799 4
        24.200          27.900
  22018026.932    22018026.153    22018024.116   -18648087.497 5 -14530970.288 4
        32.400          28.800
  23041267.586    23041266.763    23041266.923    -8544410.631 4  -6657979.212 4
        25.300          28.100
  23360528.905    23360528.096    23360527.508    -9810601.971 3  -7644621.494 3
        22.100          23.000
  22974694.821    22974692.881    22974690.970   -10836205.245 5  -8443794.243 5
        30.800          30.600
  23005007.520    23005006.691    23005007.321    -7953856.015 4  -6197806.487 4
        26.200          28.600
  20550134.849    20550134.031    20550132.387   -25188315.756 6 -19627249.267 8
        40.500          48.300
  20601218.293    20601217.776    20601214.726   -23823451.478 7 -18563720.885 7
        42.400          47.000
 09  1  7  0 44 30.0000000  0 10G28G 9G15G21G 6G14G19G 3G18G22
  25536816.231    25536814.350    25536814.125     -482693.598     -376121.357 2
                        13.900
  21959279.420    21959278.821    21959278.139   -15175346.466 5 -11824939.619 5
        32.300          33.100
  23631565.687    23631565.784    23631563.907    -6295424.613 4  -4905517.285 4
        24.200          27.400
  22035161.105    22035160.252    22035158.043   -18558048.048 5 -14460809.685 4
        32.700          28.600
  23053468.848    23053468.156    23053467.755    -8480295.308 4  -6608019.224 4
        26.800          28.600
  23340649.597    23340648.663    23340648.223    -9915069.114 3  -7726024.435 3
        22.100          23.400
  22970885.005    22970883.402    22970881.467   -10856224.549 5  -8459393.702 5
        30.400          31.000
  23016463.522    23016462.597    23016462.511    -7893658.176 4  -6150899.081 4
        26.500          27.900
  20554732.009    20554731.213    20554729.549   -25164157.626 6 -19608424.748 8
        40.500          48.300
  20594190.653    20594190.149    20594187.184   -23860381.617 7 -18592497.612 7
        42.300          47.100
 09  1  7  0 45  0.0000000  0 10G28G 9G15G21G 6G14G19G 3G18G22
  25532595.691    25532594.427    25532593.421     -504882.930     -393411.705 2
         3.000          12.600
  21947560.412    21947559.887    21947559.296   -15236930.797 5 -11872927.387 5
        32.600          33.800
  23650456.394    23650456.575    23650454.504    -6196152.238 3  -4828162.189 4
        23.800          26.800
  22052362.100    22052361.196    22052359.386   -18467655.621 5 -14390374.029 4
        32.300          29.000
  23065747.190    23065746.598    23065746.362    -8415770.646 4  -6557740.272 4
        26.500          28.100
  23320811.229    23320810.566    23320809.717   -10019320.716 3  -7807259.420 4
        23.000          24.200
  22967187.042    22967185.305    22967183.619   -10875657.436 5  -8474536.208 5
        30.600          31.500
  23028006.701    23028005.895    23028005.703    -7832996.616 4  -6103630.331 4
        26.500          27.400
  20559402.080    20559401.249    20559399.579   -25139616.434 6 -19589301.739 8
        40.600          48.200
  20587232.806    20587232.287    20587229.217   -23896946.043 7 -18620989.367 7
        42.500          47.100
 09  1  7  0 45 30.0000000  0 10G28G 9G15G21G 6G14G19G 3G18G22
  25528469.428    25528468.595    25528465.156     -526572.934 1   -410313.039 1
         9.000           9.000
  21935957.522    21935957.028    21935956.472   -15297903.952 5 -11920438.919 5
        32.700          33.600
  23669386.532    23669386.273    23669384.081    -6096676.149 3  -4750648.339 4
        23.800          26.800
  22069630.736    22069629.969    22069628.607   -18376906.563 5 -14319660.493 4
        31.600          29.200
  23078104.219    23078103.729    23078103.432    -8350833.746 4  -6507140.100 4
        25.900          28.100
  23301015.385    23301014.809    23301013.846   -10123349.677 3  -7888320.936 4
        23.400          24.600
  22963601.911    22963600.112    22963598.372   -10894498.064 5  -8489217.210 5
        30.800          31.100
  23039639.063    23039638.381    23039638.099    -7771868.690 4  -6055998.186 4
        26.800          27.600
  20564145.956    20564145.183    20564143.431   -25114687.009 6 -19569876.213 8
        40.700          48.000
  20580345.641    20580345.082    20580341.915   -23933138.833 7 -18649191.537 7
        42.600          47.200
 09  1  7  0 46  0.0000000  0 10G28G 9G15G21G 6G14G19G 3G18G22
  25524431.582    25524430.102    25524430.330     -547770.127     -426830.372 1
         3.000           9.000
  21924470.149    21924469.587    21924468.870   -15358270.925 5 -11967478.105 5
        33.000          33.400
  23688353.217    23688353.006    23688350.798    -5997005.548 3  -4672982.941 4
        23.000          27.100
  22086965.947    22086965.129    22086963.634   -18285810.271 5 -14248676.386 4
        31.600          29.200
  23090537.785    23090537.379    23090536.858    -8285494.313 4  -6456226.263 4
        26.200          27.400
  23281260.725    23281260.019    23281259.054   -10227161.358 3  -7969213.129 4
        23.800          24.600
  22960127.762    22960126.226    22960124.377   -10912753.159 5  -8503441.961 5
        31.000          31.000
  23051358.239    23051357.592    23051357.815    -7710283.925 4  -6008010.058 4
        26.800          28.400
  20568962.233    20568961.434    20568959.711   -25089377.156 6 -19550154.244 8
        40.600          48.000
  20573527.653    20573527.129    20573524.066   -23968966.539 7 -18677109.224 7
        42.400          47.200
 09  1  7  0 46 30.0000000  0 10G28G 9G15G21G 6G14G19G 3G18G22
  25520494.019    25520492.630    25520493.289     -568476.375 1   -442965.102 2
         9.000          12.600
  21913098.050    21913097.386    21913097.002   -15418031.685 5 -12014044.916 5
        32.700          33.800
  23707355.974    23707355.877    23707353.254    -5897145.750 3  -4595170.108 4
        22.600          27.100
  22104366.000    22104365.255    22104363.709   -18194371.515 5 -14177425.418 4
        31.300          28.800
  23103046.823    23103046.394    23103046.224    -8219757.687 4  -6405002.921 4
        25.600          27.400
  23261547.150    23261546.249    23261545.590   -10330756.633 3  -8049936.705 4
        23.400          24.600
  22956765.171    22956763.718    22956761.447   -10930425.044 5  -8517212.257 5
        31.500          30.800
  23063163.236    23063162.387    23063162.431    -7648247.951 4  -5959670.338 4
        26.500          28.100
  20573850.439    20573849.570    20573847.800   -25063690.038 6 -19530138.306 7
        40.700          47.900
  20566778.869    20566778.377    20566775.294   -24004431.836 7 -18704744.514 7
        42.500          47.200
 09  1  7  0 47  0.0000000  0 10G28G 9G15G21G 6G14G19G 3G18G22
  25516649.967    25516648.537    25516645.594     -588683.874 2   -458711.222 1
        12.600          11.000
  21901843.110    21901842.534    21901841.787   -15477177.076 5 -12060132.221 5
        33.100          33.500
  23726395.647    23726395.302    23726392.800    -5797092.413 3  -4517206.477 4
        22.100          26.200
  22121832.243    22121831.696    22121830.134   -18102585.213 5 -14105903.634 4
        31.500          28.600
  23115632.548    23115632.088    23115631.786    -8153619.314 4  -6353466.539 4
        24.900          26.500
  23241876.259    23241875.332    23241874.640   -10434126.998 3  -8130485.026 4
        23.400          24.200
  22953514.538    22953512.998    22953511.308   -10947506.087 5  -8530522.149 5
        31.000          31.100
  23075055.220    23075054.405    23075054.196    -7585756.471 4  -5910975.682 4
        26.800          27.600
  20578811.296    20578810.563    20578808.884   -25037619.371 6 -19509823.497 7
        40.700          47.900
  20560100.516    20560099.979    20560096.840   -24039526.735 7 -18732091.184 7
        42.500          47.200
 09  1  7  0 47 30.0000000  0 10G28G 9G15G21G 6G14G19G 3G18G22
  25512895.569    25512897.310    25512896.392     -608388.561 1   -474065.621 1
         9.000          11.000
  21890706.152    21890705.503    21890705.048   -15535701.036 5 -12105735.293 5
        32.800          33.600
  23745472.375    23745472.122    23745469.501    -5696843.728 3  -4439090.618 4
        21.600          25.300
  22139365.413    22139364.770    22139362.774   -18010449.940 5 -14034109.926 4
        31.600          27.900
  23128294.983    23128294.445    23128294.551    -8087078.380 4  -6301616.460 4
        25.300          27.100
  23222249.459    23222248.832    23222247.719   -10537267.398 4  -8210854.165 4
        24.200          24.900
  22950377.478    22950375.649    22950373.774   -10963992.758 5  -8543368.892 5
        30.600          31.100
  23087033.473    23087032.702    23087032.523    -7522808.599 4  -5861925.390 4
        26.200          27.400
  20583846.162    20583845.325    20583843.620   -25011161.845 6 -19489207.240 7
        40.700          47.800
  20553493.445    20553492.907    20553489.782   -24074247.302 7 -18759146.168 7
        42.500          47.400
 09  1  7  0 48  0.0000000  0 10G28G 9G15G21G 6G14G19G 3G18G22
  25509241.442    25509241.387    25509240.431     -627600.937 1   -489036.224 2
         9.000          13.900
  21879686.005    21879685.402    21879684.956   -15593611.929 5 -12150860.651 5
        32.800          33.600
  23764583.376    23764582.886    23764580.789    -5596413.204 3  -4360833.067 4
        21.100          24.600
  22156962.243    22156961.295    22156959.591   -17917978.416 5 -13962054.201 4
        31.100          28.100
  23141031.635    23141031.088    23141030.686    -8020148.549 4  -6249463.359 4
        24.600          26.500
  23202664.399    23202663.555    23202662.856   -10640186.917 4  -8291051.182 4
        24.200          25.300
  22947351.240    22947349.616    22947347.648   -10979895.619 5  -8555760.725 5
        31.300          31.300
  23099096.810    23099095.749    23099095.333    -7459417.862 4  -5812530.018 4
        26.500          26.500
  20588952.252    20588951.484    20588949.819   -24984328.992 6 -19468298.518 7
        40.800          47.800
  20546955.531    20546955.010    20546951.922   -24108603.980 7 -18785917.597 7
        42.500          47.500
 09  1  7  0 48 30.0000000  0 10G28G 9G15G21G 6G14G19G 3G18G22
  25505682.684    25505681.527    25505679.033     -646314.615 1   -503618.285 2
        11.000          12.600
  21868784.406    21868783.854    21868783.066   -15650901.610 5 -12195501.952 5
        33.200          33.500
  23783729.860    23783729.665    23783726.959    -5495797.814 3  -4282431.458 4
        21.600          24.200
  22174623.410    22174622.556    22174620.910   -17825167.246 5 -13889733.821 4
        30.600          27.900
  23153842.615    23153841.864    23153841.413    -7952826.914 4  -6197004.945 4
        24.900          27.100
  23183122.941    23183122.257    23183121.107   -10742878.343 4  -8371070.457 4
        24.200          25.300
  22944437.194    22944435.567    22944433.503   -10995208.767 5  -8567693.043 5
        32.000          31.000
  23111243.826    23111243.098    23111243.155    -7395581.430 4  -5762787.342 4
        25.600          26.500
  20594130.810    20594129.957    20594128.261   -24957115.771 6 -19447093.410 7
        40.700          47.700
  20540488.126    20540487.572    20540484.417   -24142590.839 7 -18812400.860 7
        42.500          47.500
 09  1  7  0 49  0.0000000  0 10G28G 9G15G21G 6G14G19G 3G18G22
  25502215.198    25502214.827    25502212.489     -664531.217     -517813.038 1
         3.000           9.000
  21858000.352    21857999.843    21857999.529   -15707570.884 5 -12239659.821 5
        33.100          34.100
  23802910.475    23802910.252    23802907.863    -5395002.732 3  -4203889.815 4
        22.100          24.900
  22192347.960    22192347.435    22192346.179   -17732021.473 5 -13817152.709 4
        30.600          28.100
  23166726.429    23166726.146    23166726.187    -7885118.522 4  -6144245.173 4
        24.600          27.600
  23163624.444    23163623.610    23163623.077   -10845342.725 3  -8450912.818 4
        23.800          25.600
  22941634.914    22941633.371    22941631.385   -11009934.659 5  -8579167.750 5
        32.000          31.000
  23123475.539    23123474.784    23123474.340    -7331305.104 4  -5712701.911 4
        25.900          27.100
  20599380.988    20599380.177    20599378.484   -24929525.348 6 -19425594.376 7
        40.800          47.500
  20534090.505    20534089.953    20534086.887   -24176210.215 7 -18838597.773 7
        42.600          47.600
 09  1  7  0 49 30.0000000  0 10G28G 9G15G21G 6G14G19G 3G18G22
  25498843.369    25498841.762    25498840.032     -682248.141     -531618.365 1
                         6.500
  21847335.666    21847335.109    21847334.708   -15763614.667 5 -12283330.286 5
        33.400          34.100
  23822125.060    23822124.826    23822122.688    -5294027.829 3  -4125208.077 4
        22.600          25.300
  22210137.300    22210136.464    22210134.986   -17638540.296 5 -13744310.241 4
        30.600          28.100
  23179685.024    23179684.084    23179684.148    -7817023.738 4  -6091184.313 4
        24.900          27.900
  23144170.493    23144169.527    23144168.568   -10947575.703 4  -8530574.863 4
        24.900          25.600
  22938944.932    22938943.350    22938941.484   -11024070.427 5  -8590182.629 5
        31.800          31.100
  23135790.496    23135789.728    23135789.650    -7266588.531 4  -5662273.415 4
        25.300          27.400
  20604703.477    20604702.667    20604700.863   -24901555.704 6 -19403799.847 7
        40.800          47.400
  20527763.510    20527763.040    20527759.900   -24209458.747 7 -18864505.715 7
        42.700          47.700
 09  1  7  0 50  0.0000000  0 10G28G 9G15G21G 6G14G19G 3G18G22
  25495566.653    25495566.266    25495565.815     -699462.652 1   -545032.204 2
         6.500          12.600
  21836790.940    21836790.137    21836789.432   -15819028.510 5 -12326509.892 5
        33.400          33.600
  23841374.029    23841374.047    23841371.806    -5192872.871 3  -4046386.028 4
        22.100          25.600
  22227989.862    22227989.044    22227987.623   -17544723.855 5 -13671206.530 4
        30.400          27.600
  23192716.564    23192715.864    23192715.901    -7748543.010 4  -6037822.710 4
        25.300          28.100
  23124760.509    23124759.873    23124758.735   -11049573.580 4  -8610053.719 4
        24.900          25.600
  22936367.777    22936366.052    22936364.450   -11037613.521 5  -8600735.685 5
        32.000          31.100
  23148189.569    23148188.807    23148188.713    -7201432.228 4  -5611502.272 4
        25.300          27.600
  20610098.398    20610097.558    20610095.898   -24873205.231 6 -19381708.565 7
        40.700          47.400
  20521507.578    20521507.033    20521503.916   -24242333.938 7 -18890122.743 7
        42.600          47.800
 09  1  7  0 50 30.0000000  0 10G28G 9G15G21G 6G14G19G 3G18G22
  25492387.782    25492387.049    25492384.727     -716177.390     -558056.673 1
         3.000           9.000
  21826365.734    21826365.114    21826364.379   -15873812.944 5 -12369199.049 5
        33.400          33.900
  23860656.627    23860656.563    23860654.191    -5091543.430 3  -3967428.017 4
        22.100          25.600
  22245905.160    22245904.657    22245903.080   -17450577.333 5 -13597845.617 4
        30.200          27.600
  23205819.859    23205819.228    23205819.301    -7679682.119 4  -5984164.882 4
        24.600          27.600
  23105395.689    23105394.952    23105393.998   -11151337.627 4  -8689350.370 4
        25.300          25.600
  22933903.096    22933901.187    22933899.030   -11050567.142 5  -8610829.413 5
        32.100          30.800
  23160670.242    23160669.565    23160670.096    -7135842.204 4  -5560393.166 4
        24.600          26.800
  20615565.017    20615564.204    20615562.557   -24844477.668 6 -19359323.451 7
        40.800          47.300
  20515322.066    20515321.582    20515318.554   -24274838.647 7 -18915451.083 7
        42.700          47.900
 09  1  7  0 51  0.0000000  0 10G28G 9G15G21G 6G14G19G 3G18G22
  25489300.743    25489299.982    25489299.382     -732391.962     -570691.342
                         3.000
  21816060.588    21816060.011    21816059.451   -15927966.295 5 -12411396.452 5
        33.800          34.300
  23879971.632    23879971.042    23879969.258    -4990042.243 3  -3888336.183 4
        21.100          25.600
  22263883.211    22263882.391    22263880.816   -17356103.092 4 -13524229.328 4
        29.900          27.100
  23218994.954    23218995.121    23218994.963    -7610444.051 4  -5930213.151 4
        24.200          27.600
  23086075.032    23086074.194    23086073.703   -11252866.790 4  -8768463.991 4
        24.900          25.600
  22931549.795    22931548.456    22931546.367   -11062931.284 5  -8620463.807 5
        32.400          30.600
  23173233.388    23173232.787    23173233.311    -7069821.595 4  -5508948.545 4
        24.600          27.400
  20621103.286    20621102.511    20621100.856   -24815373.737 6 -19336645.062 7
        40.900          47.200
  20509207.216    20509206.678    20509203.618   -24306972.764 7 -18940490.651 8
        42.700          48.000
 09  1  7  0 51 30.0000000  0 10G28G 9G15G21G 6G14G19G 3G18G22
  25486311.774    25486310.696    25486310.178     -748106.391     -582936.376
         3.000           3.000
  21805876.074    21805875.476    21805874.767   -15981486.552 5 -12453100.534 5
        33.900          34.000
  23899318.943    23899318.462    23899316.485    -4888372.284 3  -3809112.839 4
        20.500          24.900
  22281923.005    22281922.089    22281920.580   -17261303.848 4 -13450359.790 4
        29.200          27.100
  23232242.503    23232242.008    23232241.768    -7540832.104 4  -5875970.093 4
        24.200          27.400
  23066799.400    23066798.846    23066798.093   -11354159.892 4  -8847393.664 4
        24.900          25.300
  22929309.465    22929307.724    22929305.524   -11074706.319 5  -8629639.150 5
        32.300          30.400
  23185877.736    23185877.394    23185877.838    -7003373.846 4  -5457171.093 4
        24.600          26.800
  20626713.049    20626712.261    20626710.483   -24785894.473 6 -19313674.204 7
        40.900          47.000
  20503162.706    20503162.288    20503159.220   -24338735.896 7 -18965241.138 8
        42.700          48.100
 09  1  7  0 52  0.0000000  0 10G28G 9G15G21G 6G14G19G 3G18G22
  25483417.538    25483416.917    25483415.542     -763310.078 1   -594783.506 1
         6.500           6.500
  21795814.151    21795813.578    21795812.826   -16034361.965 5 -12494302.141 5
        33.800          33.900
  23918699.817    23918699.004    23918697.293    -4786525.724 3  -3729751.885 4
        21.100          24.600
  22300025.857    22300025.161    22300023.631   -17166171.924 4 -13376231.032 4
        29.000          27.100
  23245561.209    23245560.702    23245560.812    -7470838.973 3  -5821429.999 4
        23.400          26.800
  23047570.897    23047570.177    23047569.720   -11455205.259 4  -8926130.297 4
        24.900          25.600
  22927182.930    22927180.969    22927178.633   -11085882.212 5  -8638347.629 5
        32.000          30.200
  23198605.694    23198604.928    23198605.238    -6936491.687 3  -5405055.122 4
        23.800          26.800
  20632395.997    20632395.116    20632393.335   -24756030.654 6 -19290403.692 7
        41.000          46.900
  20497191.026    20497190.535    20497187.431   -24370118.051 7 -18989694.760 8
        42.800          48.200
 09  1  7  0 52 30.0000000  0 10G28G 9G15G21G 6G14G19G 3G18G22
  25480620.376    25480620.029    25480619.393     -778008.810 1   -606237.126 2
         6.500          13.900
  21785874.660    21785873.931    21785873.264   -16086595.725 5 -12535003.767 5
        34.000          34.400
  23938112.367    23938112.014    23938109.959    -4684510.838 3  -3650259.752 4
        21.100          24.900
  22318190.866    22318190.101    22318188.353   -17070714.942 4 -13301848.973 4
        29.700          26.800
  23258952.288    23258951.327    23258951.098    -7400473.191 4  -5766599.531 4
        24.200          26.800
  23028389.475    23028388.722    23028387.781   -11556006.976 4  -9004677.072 4
        25.600          25.900
  22925168.837    22925166.985    22925165.147   -11096464.804 5  -8646593.805 5
        31.600          30.600
  23211413.995    23211413.312    23211413.204    -6869184.162 4  -5352607.704 4
        24.900          26.500
  20638150.959    20638150.155    20638148.396   -24725788.284 6 -19266838.208 7
        41.000          47.000
  20491290.744    20491290.223    20491287.110   -24401124.398 7 -19013855.543 8
        42.800          48.300
 09  1  7  0 53  0.0000000  0 10G28G 9G15G21G 6G14G19G 3G18G22
  25477918.951    25477918.725    25477919.891     -792200.986     -617295.998 2
                        13.900
  21776057.515    21776056.805    21776056.299   -16138184.853 5 -12575203.074 5
        34.300          34.500
  23957556.679    23957556.493    23957554.787    -4582329.271 3  -3570637.753 4
        20.500          24.600
  22336417.350    22336416.595    22336414.943   -16974934.251 4 -13227214.674 4
        29.500          26.800
  23272412.221    23272411.991    23272411.802    -7329736.741 4  -5711480.217 4
        24.600          25.900
  23009254.098    23009253.339    23009252.440   -11656562.813 4  -9083032.246 4
        25.300          25.600
  22923268.087    22923266.414    22923264.361   -11106452.742 5  -8654376.605 5
        31.500          30.400
  23224302.952    23224302.152    23224302.281    -6801452.288 4  -5299829.616 4
        24.600          26.500
  20643977.870    20643977.064    20643975.396   -24695167.248 6 -19242977.657 7
        41.000          46.900
  20485462.134    20485461.608    20485458.580   -24431753.780 7 -19037722.592 8
        42.900          48.400
 09  1  7  0 53 30.0000000  0 10G28G 9G15G21G 6G14G19G 3G18G22
  25475316.410    25475314.435    25475312.549     -805892.143     -627964.442 1
                         6.500
  21766362.409    21766361.696    21766360.954   -16189133.086 5 -12614902.987 5
        34.100          34.300
  23977030.523    23977030.471    23977029.674    -4479989.108 3  -3490892.170 4
        19.900          24.900
  22354704.239    22354703.375    22354701.619   -16878837.796 4 -13152334.329 4
        29.500          27.100
  23285941.934    23285941.390    23285941.569    -7258638.212 4  -5656078.772 4
        24.600          26.200
  22990164.562    22990164.069    22990163.305   -11756877.091 4  -9161199.192 4
        25.600          25.600
  22921479.401    22921477.933    22921475.501   -11115852.530 5  -8661701.113 5
        31.800          30.200
  23237270.909    23237270.113    23237270.128    -6733305.804 4  -5246728.479 4
        25.300          26.200
  20649875.665    20649874.836    20649873.117   -24664174.322 6 -19218827.321 7
        41.000          46.800
  20479704.248    20479703.719    20479700.671   -24462011.863 7 -19061300.313 8
        42.900          48.500
 09  1  7  0 54  0.0000000  0 10G28G 9G15G21G 6G14G19G 3G18G22
  25472807.162    25472806.704    25472804.734     -819070.976 1   -638233.640
         6.500           3.000
  21756791.533    21756790.857    21756790.333   -16239427.411 5 -12654093.364 5
        34.100          34.400
  23996537.489    23996537.373    23996536.182    -4377481.646 3  -3411016.231 4
        19.300          25.300
  22373052.509    22373051.548    22373050.089   -16782417.119 4 -13077201.350 4
        29.200          27.100
  23299541.952    23299541.292    23299541.475    -7187169.424 4  -5600388.801 4
        24.900          26.500
  22971124.097    22971123.724    22971122.745   -11856937.010 4  -9239167.943 4
        25.900          25.600
  22919804.508    22919802.862    22919801.203   -11124652.724 5  -8668558.408 5
        31.100          30.800
  23250319.129    23250318.529    23250318.655    -6664736.124 4  -5193297.552 4
        25.300          25.900
  20655846.191    20655845.344    20655843.657   -24632798.978 6 -19194378.998 7
        41.000          46.700
  20474019.247    20474018.723    20474015.569   -24491886.832 7 -19084579.505 8
        43.000          48.500
 09  1  7  0 54 30.0000000  0 10G28G 9G15G21G 6G14G19G 3G18G22
  25470394.695    25470392.792    25470393.298     -831746.709     -648110.882
                         3.000
  21747343.851    21747343.098    21747342.181   -16289075.792 5 -12692780.399 5
        34.400          34.000
  24016073.266    24016072.927    24016072.147    -4274819.108 3  -3331019.457 4
        18.600          25.300
  22391459.949    22391459.280    22391457.481   -16685684.120 4 -13001825.001 4
        29.200          26.500
  23313210.608    23313209.968    23313209.886    -7115343.110 4  -5544420.248 4
        24.600          26.800
  22952130.162    22952129.723    22952128.718   -11956750.820 4  -9316944.919 4
        25.900          25.900
  22918242.089    22918240.503    22918238.839   -11132863.106 5  -8674956.102 5
        31.000          30.800
  23263446.061    23263445.305    23263444.956    -6595755.942 4  -5139546.770 4
        24.900          25.600
  20661887.578    20661886.726    20661884.993   -24601051.482 6 -19169640.685 7
        41.100          46.600
  20468405.217    20468404.679    20468401.562   -24521388.594 7 -19107567.888 8
        43.100          48.600
 09  1  7  0 55  0.0000000  0 10G28G 9G15G21G 6G14G19G 3G18G22
  25468078.571    25468079.046    25468075.392     -843922.014     -657598.173 1
         3.000           6.500
  21738018.715    21738018.113    21738017.089   -16338079.118 5 -12730964.809 5
        34.400          33.900
  24035638.220    24035638.004    24035636.414    -4172006.833 2  -3250906.005 4
        17.800          24.900
  22409925.865    22409925.170    22409923.489   -16588643.992 4 -12926209.328 4
        28.800          25.900
  23326945.023    23326944.541    23326944.842    -7043164.893 4  -5488177.479 4
        24.200          26.500
  22933182.840    22933182.207    22933181.151   -12056319.918 4  -9394531.209 4
        25.600          25.900
  22916791.585    22916789.910    22916787.888   -11140486.817 5  -8680896.650 5
        31.600          30.400
  23276648.836    23276648.337    23276648.566    -6526371.361 4  -5085480.870 4
        24.200          24.900
  20667998.906    20667998.122    20667996.426   -24568935.643 6 -19144615.352 7
        41.000          46.500
  20462861.722    20462861.252    20462858.116   -24550519.490 7 -19130267.283 8
        43.200          48.700
 09  1  7  0 55 30.0000000  0 10G 9G28G15G21G 6G14G19G 3G18G22
  21728818.078    21728817.418    21728816.896   -16386428.471 5 -12768639.616 5
        34.300          34.400
  25465858.237    25465856.572    25465856.046     -855590.191 1   -666690.109 1
         6.500           6.500
  24055231.943    24055231.788    24055231.002    -4069040.259 2  -3170672.321 4
        17.800          24.200
  22428451.412    22428450.593    22428449.241   -16491292.086 4 -12850350.720 4
        28.800          25.900
  23340748.344    23340747.342    23340747.449    -6970630.898 3  -5431657.492 4
        23.800          26.200
  22914283.157    22914282.503    22914281.808   -12155636.438 4  -9471920.681 4
        26.200          25.900
  22915453.379    22915452.026    22915450.062   -11147517.340 5  -8686374.989 5
        31.300          30.200
  23289930.396    23289929.659    23289929.535    -6456578.319 4  -5031096.677 4
        24.200          24.600
  20674181.597    20674180.814    20674179.164   -24536445.206 6 -19119298.127 7
        41.000          46.400
  20457390.270    20457389.784    20457386.604   -24579272.449 7 -19152672.184 8
        43.200          48.800
 09  1  7  0 56  0.0000000  0 10G 9G28G15G21G 6G14G19G 3G18G22
  21719742.900    21719742.401    21719741.696   -16434118.223 5 -12805800.457 5
        34.500          34.400
  25463733.781    25463733.197    25463733.520     -866747.129     -675383.731 1
         3.000           9.000
  24074855.954    24074855.585    24074854.463    -3965918.373 2  -3090317.608 4
        17.800          24.200
  22447036.390    22447035.713    22447034.244   -16393627.117 4 -12774248.156 4
        28.800          25.600
  23354618.751    23354618.045    23354618.247    -6897740.319 3  -5374859.631 4
        23.000          26.500
  22895433.106    22895432.584    22895431.726   -12254694.704 4  -9549108.932 4
        26.500          26.200
  22914229.422    22914227.816    22914225.588   -11153951.023 5  -8691388.241 5
        31.100          30.100
  23303289.356    23303288.577    23303288.569    -6386376.336 4  -4976393.816 3
        24.200          23.800
  20680436.279    20680435.465    20680433.671   -24503577.212 6 -19093686.702 7
        41.100          46.200
  20451991.434    20451990.968    20451987.800   -24607643.581 7 -19174779.557 8
        43.300          48.900
 09  1  7  0 56 30.0000000  0 10G 9G28G15G21G 6G14G19G 3G18G22
  21710795.183    21710794.469    21710793.801   -16481140.054 5 -12842440.839 5
        34.500          34.600
  25461708.999    25461709.345    25461710.126     -877386.192 1   -683673.899 1
         6.500           6.500
  24094510.564    24094509.871    24094508.086    -3862637.092 2  -3009838.698 3
        17.800          23.800
  22465681.868    22465681.185    22465679.476   -16295645.207 4 -12697898.623 4
        28.600          25.900
  23368557.765    23368557.071    23368557.258    -6824489.786 3  -5317781.309 4
        22.600          26.800
  22876633.380    22876632.737    22876632.163   -12353487.210 4  -9626090.082 4
        26.200          26.800
  22913120.242    22913118.439    22913116.000   -11159781.874 5  -8695931.762 5
        31.600          30.100
  23316726.690    23316725.868    23316726.024    -6315762.484 3  -4921370.039 4
        23.400          24.600
  20686763.782    20686762.999    20686761.169   -24470325.873 6 -19067776.566 7
        41.100          46.100
  20446666.543    20446666.025    20446662.857   -24635626.249 7 -19196584.232 8
        43.300          49.000
 09  1  7  0 57  0.0000000  0 10G 9G28G15G21G 6G14G19G 3G18G22
  21701972.641    21701972.088    21701971.354   -16527502.602 5 -12878567.482 5
        34.700          34.700
  25459782.629    25459782.082    25459780.759     -887517.383 1   -691568.377
         6.500
  24114192.431    24114191.757    24114189.305    -3759209.263 2  -2929245.587 3
        17.800          23.400
  22484385.373    22484384.520    22484383.076   -16197358.524 4 -12621311.612 4
        27.900          26.200
  23382562.748    23382562.371    23382562.562    -6750892.239 3  -5260432.584 4
        22.100          25.600
  22857882.908    22857882.407    22857881.797   -12452022.153 4  -9702870.529 4
        26.500          27.100
  22912123.325    22912121.434    22912119.404   -11165020.493 5  -8700013.802 5
        32.000          30.600
  23330240.404    23330239.587    23330239.335    -6244749.041 3  -4866034.899 4
        23.400          24.600
  20693162.099    20693161.305    20693159.491   -24436702.226 6 -19041576.318 7
        41.100          45.900
  20441413.633    20441413.177    20441410.048   -24663229.953 7 -19218093.609 8
        43.400          49.100
 09  1  7  0 57 30.0000000  0  9G 9G15G21G 6G14G19G 3G18G22
  21693273.266    21693272.586    21693271.881   -16573217.624 5 -12914189.575 5
        34.600          34.500
  24133898.205    24133897.869    24133895.753    -3655650.887 3  -2848550.762 3
        18.600          23.000
  22503143.754    22503142.634    22503141.032   -16098783.479 4 -12544499.911 4
        27.900          25.900
  23396630.629    23396630.459    23396630.009    -6676964.611 3  -5202826.635 4
        22.600          24.600
  22839179.608    22839178.713    22839177.838   -12550312.249 4  -9779460.194 4
        27.600          27.600
  22911236.519    22911234.875    22911232.958   -11169680.593 5  -8703645.043 5
        32.300          31.100
  23343826.393    23343825.328    23343824.927    -6173353.256 3  -4810401.833 3
        22.600          23.800
  20699628.600    20699627.767    20699625.965   -24402720.906 6 -19015097.365 7
        41.100          45.800
  20436230.478    20436229.945    20436226.702   -24690468.546 7 -19239318.485 8
        43.500          49.200
 09  1  7  0 58  0.0000000  0 10G 9G28G15G21G 6G14G19G 3G18G22
  21684701.619    21684701.010    21684700.426   -16618262.081 5 -12949289.141 5
        34.700          35.100
  25456212.451    25456212.240    25456210.498           -.72811          .00111
         9.000           9.000
  24153633.142    24153632.849    24153630.576    -3551942.549 3  -2767739.059 3
        19.300          23.400
  22521960.502    22521959.631    22521957.666   -15999900.812 4 -12467448.498 4
        28.400          25.300
  23410765.231    23410764.574    23410764.426    -6602688.475 3  -5144949.119 4
        23.400          24.600
  22820525.850    22820525.206    22820524.807   -12648334.974 4  -9855841.524 4
        27.400          27.900
  22910463.704    22910462.131    22910459.808   -11173741.057 5  -8706809.041 5
        32.000          30.600
  23357488.996    23357488.063    23357487.548    -6101556.777 3  -4754456.523 3
        23.000          23.800
  20706166.993    20706166.190    20706164.362   -24368361.231 6 -18988323.589 7
        41.100          45.700
  20431120.624    20431120.105    20431116.901   -24717320.576 7 -19260242.142 8
        43.500          49.200
 09  1  7  0 58 30.0000000  0 10G 9G28G15G21G 6G14G19G 3G18G22
  21676258.333    21676257.560    21676256.774   -16662632.997 5 -12983863.872 5
        34.900          34.800
  25454575.149    25454574.437    25454573.996       -8605.986 1     -6705.402 1
         9.000          11.000
  24173396.709    24173396.105    24173393.727    -3448085.770 3  -2686811.698 3
        19.300          23.000
  22540835.278    22540834.501    22540832.630   -15900711.631 4 -12390158.235 4
        28.100          24.900
  23424965.253    23424964.706    23424964.547    -6528065.582 3  -5086801.416 4
        23.400          24.200
  22801923.810    22801923.199    22801922.757   -12746087.439 4  -9932012.259 4
        26.800          27.600
  22909805.438    22909803.671    22909801.443   -11177201.121 5  -8709505.195 5
        31.800          30.400
  23371227.614    23371226.649    23371226.261    -6029361.608 3  -4698200.556 4
        23.400          24.600
  20712777.544    20712776.730    20712774.923   -24333622.707 6 -18961254.605 7
        41.200          45.600
  20426084.725    20426084.171    20426081.009   -24743784.550 7 -19280863.416 8
        43.500          49.400
 09  1  7  0 59  0.0000000  0 10G 9G28G15G21G 6G14G19G 3G18G22
  21667939.815    21667939.225    21667938.536   -16706345.504 5 -13017925.564 5
        34.800          34.600
  25453031.678    25453032.121    25453029.350      -16711.070      -13021.033 1
         3.000           6.500
  24193183.932    24193183.380    24193181.640    -3344099.890 3  -2605783.743 3
        19.300          22.600
  22559764.387    22559764.021    22559762.640   -15801235.294 4 -12312644.227 4
        27.400          25.300
  23439227.983    23439227.266    23439227.350    -6453115.676 3  -5028398.890 4
        22.600          24.200
  22783370.834    22783370.205    22783369.510   -12843584.897 4 -10007984.286 4
        27.400          27.400
  22909257.671    22909255.829    22909253.859   -11180078.007 5  -8711746.922 5
        31.600          30.400
  23385037.214    23385036.449    23385036.665    -5956787.972 3  -4641649.680 4
        22.600          24.600
  20719456.699    20719455.939    20719454.170   -24298523.043 6 -18933904.217 7
        41.100          45.600
  20421119.609    20421119.114    20421115.830   -24769876.404 7 -19301194.728 8
        43.600          49.400
 09  1  7  0 59 30.0000000  0 10G 9G28G15G21G 6G14G19G 3G18G22
  21659749.894    21659749.175    21659748.451   -16749385.664 5 -13051463.344 5
        34.900          34.900
  25451586.821    25451586.090    25451583.619      -24303.784      -18937.340 1
         3.000           6.500
  24212997.630    24212997.822    24212996.107    -3239974.910 2  -2524647.405 3
        17.800          22.600
  22578750.878    22578750.260    22578748.885   -15701461.837 4 -12234898.693 4
        27.400          25.300
  23453554.160    23453553.555    23453553.661    -6377829.630 3  -4969734.448 3
        22.600          23.400
  22764869.153    22764868.712    22764867.489   -12940813.914 4 -10083747.138 4
        27.900          27.600
  22908823.461    22908821.925    22908819.722   -11182359.817 5  -8713524.953 5
        31.800          30.800
  23398921.359    23398920.829    23398920.572    -5883826.070 3  -4584796.264 4
        23.400          24.200
  20726206.848    20726206.111    20726204.379   -24263050.491 6 -18906263.266 7
        41.100          45.500
  20416227.456    20416226.951    20416223.770   -24795584.607 7 -19321227.090 8
        43.700          49.500
                            4 15
RINEX FILE SPLICE                                           COMMENT
teqc  2008Oct2      WCDA Operator       20090107 02:18:25UTCCOMMENT
STATION INFORMATION EFFECTIVE FROM: 2001/01/13 18:20:00     COMMENT
                                TO: CURRENT DATE (above)    COMMENT
BIT 2 OF LLI FLAGS (+4) DATA COLLECTED UNDER 'AS' CONDITION COMMENT
L1 PHASE CENTRE 0.110m ABOVE ARP                            COMMENT
L2 PHASE CENTRE 0.128m ABOVE ARP                            COMMENT
where ARP is the Antenna Reference Point for HI measurement COMMENT
CONTACT gps@pgc.nrcan.gc.ca FOR ADDITIONAL INFORMATION      COMMENT
    P1 =    P1  TurboRogue; =    Y1  Benchmark              COMMENT
    L1 = L1(CA)                                             COMMENT
    P2 =    P2  TurboRogue; =    Y2  Benchmark              COMMENT
    L2 = L2(P2) TurboRogue; = L2(Y2) Benchmark              COMMENT
 SNR is mapped to RINEX snr flag value [0-9]                COMMENT
  L1 & L2: min(max(int(snr_dBHz/6), 0), 9)                  COMMENT
 09  1  7  1  0  0.0000000  0 10G 9G28G15G21G 6G14G19G 3G18G22
  21651688.463    21651687.762    21651687.128   -16791747.396 5 -13084472.476 5
        34.800          34.900
  25450238.988    25450237.258    25450238.802      -31379.962      -24451.242 1
         3.000           6.500
  24232839.139    24232838.878    24232837.031    -3135709.169 3  -2443401.376 3
        18.600          21.600
  22597794.311    22597793.392    22597792.134   -15601389.524 4 -12156920.291 4
        27.400          25.300
  23467944.794    23467944.478    23467944.247    -6302206.113 3  -4910807.021 3
        22.600          23.000
  22746419.676    22746418.892    22746417.578   -13037768.673 4 -10159296.288 4
        28.100          27.900
  22908503.404    22908501.549    22908499.685   -11184042.719 5  -8714836.306 5
        31.800          31.000
  23412879.527    23412878.744    23412879.390    -5810475.145 3  -4527639.706 4
        23.000          24.900
  20733028.776    20733027.877    20733026.094   -24227201.872 6 -18878329.277 7
        41.000          45.300
  20411409.250    20411408.747    20411405.562   -24820904.396 7 -19340956.794 8
        43.800          49.600
 09  1  7  1  0 30.0000000  0 10G 9G28G15G21G 6G14G19G 3G18G22
  21643755.658    21643754.971    21643754.354   -16833435.023 5 -13116956.332 5
        35.100          35.200
  25448989.106    25448989.111    25448987.250      -37945.372 1    -29567.161 1
         6.500           9.000
  24252705.106    24252704.976    24252702.850    -3031310.649 2  -2362051.864 3
        17.800          21.100
  22616892.626    22616892.090    22616890.558   -15501026.426 4 -12078715.289 4
        27.400          24.900
  23482398.693    23482397.918    23482397.362    -6226254.027 3  -4851623.582 3
        22.600          23.400
  22728020.612    22728019.921    22728019.027   -13134453.648 4 -10234635.210 4
        27.600          28.100
  22908295.693    22908294.167    22908292.259   -11185133.300 5  -8715686.110 5
        32.100          31.100
  23426910.222    23426909.224    23426909.658    -5736744.054 3  -4470186.908 4
        21.600          24.900
  20739920.842    20739920.065    20739918.293   -24190983.304 6 -18850107.015 7
        41.100          45.200
  20406663.986    20406663.470    20406660.214   -24845841.099 7 -19360387.990 8
        43.800          49.700
 09  1  7  1  1  0.0000000  0 10G 9G28G15G21G 6G14G19G 3G18G22
  21635952.184    21635951.430    21635950.938   -16874442.532 5 -13148910.231 5
        35.100          35.400
  25447839.631    25447839.696    25447837.910      -43995.729 1    -34281.777 2
        11.000          12.600
  24272596.170    24272597.131    24272595.196    -2926777.531 2  -2280597.480 3
        17.000          22.100
  22636047.256    22636046.491    22636044.633   -15400370.806 4 -12000282.347 4
        27.400          24.600
  23496914.076    23496913.533    23496913.063    -6149971.874 3  -4792182.949 3
        22.100          23.000
  22709674.286    22709673.674    22709673.137   -13230863.133 4 -10309759.470 4
        27.900          28.600
  22908201.929    22908200.182    22908198.268   -11185627.174 5  -8716070.953 5
        31.800          31.600
  23441013.423    23441012.405    23441013.077    -5662631.754 3  -4412437.090 4
        22.100          25.300
  20746884.103    20746883.273    20746881.436   -24154391.598 6 -18821593.994 7
        41.100          45.100
  20401992.465    20401991.949    20401988.766   -24870390.192 7 -19379517.149 8
        43.800          49.800
 09  1  7  1  1 30.0000000  0 10G 9G28G15G21G 6G14G19G 3G18G22
  21628278.376    21628277.618    21628276.851   -16914769.252 5 -13180333.642 5
        35.500          35.200
  25446786.308    25446785.746    25446785.813      -49532.133 1    -38595.830 2
        11.000          13.900
  24292513.209    24292513.673    24292512.223    -2822113.067 2  -2199040.753 3
        17.000          22.100
  22655256.728    22655255.642    22655253.985   -15299425.916 4 -11921624.001 4
        27.100          24.600
  23511492.817    23511491.814    23511491.380    -6073363.815 3  -4732488.358 3
        22.100          23.800
  22691380.953    22691380.200    22691379.589   -13326996.727 4 -10384668.744 4
        28.100          28.800
  22908221.108    22908219.373    22908217.706   -11185525.696 5  -8715991.877 5
        31.600          32.100
  23455188.281    23455187.559    23455187.136    -5588142.348 3  -4354393.405 4
        22.600          24.200
  20753917.852    20753917.021    20753915.274   -24117428.485 6 -18792791.566 7
        41.000          44.900
  20397394.384    20397393.942    20397390.863   -24894552.434 7 -19398344.869 8
        43.800          49.900
 09  1  7  1  2  0.0000000  0 10G 9G28G15G21G 6G14G19G 3G18G22
  21620734.484    21620733.836    21620733.043   -16954411.856 5 -13211223.973 5
        35.300          34.900
  25445830.497    25445829.025    25445828.732      -54552.570      -42507.825 1
         3.000           6.500
  24312455.088    24312456.085    24312454.017    -2717317.844 2  -2117382.150 3
        16.100          21.600
  22674520.626    22674519.733    22674518.219   -15198192.301 4 -11842740.680 4
        26.800          24.900
  23526132.201    23526131.638    23526131.315    -5996430.826 3  -4672540.583 4
        21.600          24.200
  22673140.731    22673139.693    22673138.840   -13422851.167 4 -10459360.499 4
        28.100          28.400
  22908354.015    22908352.287    22908350.498   -11184827.789 5  -8715448.056 5
        32.100          31.800
  23469434.789    23469433.665    23469434.099    -5513276.678 3  -4296056.533 3
        21.600          23.800
  20761022.490    20761021.688    20761019.899   -24080092.996 6 -18763698.976 7
        41.000          44.800
  20392870.534    20392870.026    20392866.911   -24918325.833 7 -19416869.593 8
        43.900          50.000
 09  1  7  1  2 30.0000000  0 10G 9G28G15G21G 6G14G19G 3G18G22
  21613319.888    21613319.409    21613318.799   -16993374.855 5 -13241584.747 5
        35.300          35.300
  25444974.024    25444972.947    25444971.482      -59063.431      -46022.725
         3.000           3.000
  24332420.251    24332421.553    24332419.762    -2612400.485 2  -2035628.382 3
        16.100          21.600
  22693837.830    22693836.975    22693835.741   -15096678.510 4 -11763639.048 4
        26.200          24.600
  23540832.254    23540831.255    23540831.632    -5919182.447 3  -4612347.064 4
        19.900          24.900
  22654952.068    22654951.365    22654950.390   -13518431.239 4 -10533838.465 4
        28.100          28.600
  22908598.893    22908597.138    22908595.019   -11183540.346 5  -8714444.848 5
        31.800          30.800
  23483750.789    23483750.176    23483750.050    -5438044.434 3  -4237434.010 3
        22.100          23.400
  20768196.859    20768196.049    20768194.249   -24042391.888 6 -18734321.487 7
        41.100          44.700
  20388419.520    20388418.986    20388415.838   -24941716.416 7 -19435096.016 8
        43.900          50.100
 09  1  7  1  3  0.0000000  0 10G 9G28G15G21G 6G14G19G 3G18G22
  21606035.483    21606034.791    21606033.977   -17031656.119 5 -13271414.298 5
        35.300          35.200
  25444211.750    25444211.169    25444211.038      -63064.132      -49140.311
         3.000           3.000
  24352409.291    24352409.355    24352408.027    -2507362.468 2  -1953780.592 3
        17.000          21.600
  22713208.676    22713207.712    22713206.094   -14994886.305 4 -11684320.459 4
        26.800          24.900
  23555591.805    23555591.174    23555591.611    -5841620.761 3  -4551909.404 4
        22.100          25.900
  22636816.403    22636815.808    22636814.733   -13613734.926 4 -10608101.073 4
        28.800          28.800
  22908956.265    22908954.514    22908952.313   -11181663.090 5  -8712982.051 5
        31.600          30.800
  23498135.579    23498135.007    23498135.868    -5362448.225 3  -4178527.880 3
        20.500          23.000
  20775440.840    20775439.954    20775438.140   -24004325.329 6 -18704659.229 7
        41.100          44.700
  20384041.593    20384041.057    20384037.791   -24964723.155 7 -19453023.341 8
        44.000          50.200
 09  1  7  1  3 30.0000000  0 10G 9G28G15G21G 6G14G19G 3G18G22
  21598880.581    21598879.956    21598879.515   -17069253.439 5 -13300710.904 5
        34.900          35.200
  25443547.382    25443547.081    25443546.001      -66553.592      -51859.330

  24372420.073    24372419.967    24372419.263    -2402205.015 2  -1871839.733 3
        16.100          21.100
  22732631.856    22732630.904    22732629.246   -14892816.975 4 -11604785.940 4
        26.200          24.900
  23570410.218    23570409.529    23570410.094    -5763747.858 3  -4491229.241 4
        21.600          25.300
  22618734.177    22618733.424    22618732.024   -13708759.796 4 -10682146.411 4
        29.500          28.800
  22909425.905    22909424.128    22909422.067   -11179195.509 5  -8711059.270 5
        32.000          31.500
  23512591.773    23512590.852    23512590.341    -5286489.718 3  -4119339.445 3
        22.100          23.000
  20782754.096    20782753.302    20782751.564   -23965893.394 6 -18674712.263 7
        41.200          44.700
  20379736.703    20379736.095    20379732.957   -24987345.274 7 -19470650.961 8
        44.000          50.200
 09  1  7  1  4  0.0000000  0  9G 9G15G21G 6G14G19G 3G18G22
  21591857.026    21591856.300    21591855.612   -17106164.161 5 -13329472.497 5
        35.400          35.200
  24392453.246    24392453.646    24392452.467    -2296929.737 2  -1789807.061 3
        17.000          20.500
  22752107.467    22752106.434    22752104.661   -14790472.141 4 -11525036.745 4
        25.900          24.600
  23585287.977    23585287.417    23585287.573    -5685565.942 3  -4430308.282 4
        21.600          24.600
  22600705.043    22600704.307    22600702.828   -13803503.394 4 -10755972.586 4
        29.200          28.800
  22910007.778    22910005.888    22910004.033   -11176137.331 5  -8708676.270 5
        32.100          31.500
  23527113.636    23527112.768    23527112.936    -5210171.191 3  -4059870.463 3
        21.600          22.100
  20790137.046    20790136.217    20790134.463   -23927095.548 6 -18644480.173 7
        41.000          44.500
  20375505.263    20375504.723    20375501.619   -25009581.236 7 -19487977.683 8
        43.900          50.400
 09  1  7  1  4 30.0000000  0 10G 9G28G15G21G 6G14G19G 3G18G22
  21584965.006    21584964.316    21584963.466   -17142381.922 5 -13357694.123 5
        35.500          35.200
  25442513.280    25442511.493    25442510.429          -1.15511         -.1541
         6.500           3.000
  24412509.526    24412510.000    24412508.037    -2191533.856 2  -1707680.416 3
        17.000          19.300
  22771635.960    22771634.703    22771633.350   -14687849.172 4 -11445070.817 3
        24.900          23.800
  23600224.734    23600223.966    23600224.024    -5607072.885 3  -4369144.870 4
        21.600          24.200
  22582730.605    22582729.919    22582728.488   -13897959.313 4 -10829574.589 4
        29.200          28.800
  22910702.903    22910701.232    22910699.005   -11172484.013 5  -8705829.524 5
        32.100          31.100
  23541705.612    23541705.038    23541704.730    -5133491.493 3  -4000120.055 3
        22.600          23.000
  20797590.420    20797589.636    20797587.877   -23887927.585 6 -18613959.681 7
        41.100          44.400
  20371348.405    20371347.863    20371344.715   -25031425.732 7 -19504999.362 8
        43.900          50.400
 09  1  7  1  5  0.0000000  0 10G 9G28G15G21G 6G14G19G 3G18G22
  21578204.674    21578204.089    21578203.424   -17177906.235 5 -13385375.393 5
        35.300          35.200
  25442142.135    25442141.260    25442139.169       -1946.471 1     -1515.996 1
         6.500           9.000
  24432588.967    24432588.567    24432586.205    -2086020.777 2  -1625462.441 3
        17.800          18.600
  22791216.190    22791215.151    22791213.899   -14584951.442 4 -11364890.790 3
        24.600          23.000
  23615220.038    23615219.483    23615219.419    -5528272.670 3  -4307742.110 3
        21.100          23.400
  22564811.054    22564810.426    22564808.970   -13992127.262 4 -10902952.199 4
        29.900          29.000
  22911510.967    22911509.505    22911507.401   -11168237.088 5  -8702520.234 5
        32.300          31.300
  23556365.359    23556364.501    23556364.603    -5056454.068 3  -3940090.888 3
        22.600          23.000
  20805113.918    20805113.116    20805111.280   -23848391.470 6 -18583152.318 7
        41.100          44.200
  20367265.836    20367265.270    20367262.164   -25052879.706 7 -19521716.739 8
        44.000          50.500
 09  1  7  1  5 30.0000000  0 10G 9G28G15G21G 6G14G19G 3G18G22
  21571575.135    21571574.551    21571573.939   -17212744.835 5 -13412522.352 5
        35.300          35.200
  25441867.985    25441867.706    25441865.512       -3385.727 1     -2637.495 1
         9.000           9.000
  24452687.720    24452687.407    24452684.538    -1980401.604 2  -1543161.783 2
        17.800          17.800
  22810846.913    22810846.244    22810844.336   -14481790.806 4 -11284505.894 3
        25.300          22.100
  23630270.866    23630270.565    23630270.584    -5449177.547 3  -4246109.540 3
        19.900          22.100
  22546944.670    22546944.124    22546942.925   -14086014.952 5 -10976111.420 4
        30.100          29.200
  22912429.960    22912428.535    22912426.466   -11163406.403 5  -8698756.067 5
        32.000          31.000
  23571090.852    23571090.175    23571089.939    -4979071.395 3  -3879792.700 3
        22.600          23.400
  20812705.471    20812704.692    20812702.884   -23808497.213 6 -18552065.878 7
        41.100          44.000
  20363255.903    20363255.353    20363252.190   -25073952.226 7 -19538136.884 8
        44.000          50.600
 09  1  7  1  6  0.0000000  0 10G 9G28G15G21G 6G14G19G 3G18G22
  21565077.088    21565076.421    21565075.787   -17246893.543 5 -13439131.733 5
        35.700          35.400
  25441692.581    25441691.926    25441689.127       -4316.021 1     -3362.450
         9.000           3.000
  24472805.777    24472806.185    24472803.302    -1874676.017 2  -1460778.216 3
        16.100          19.300
  22830528.140    22830527.507    22830525.454   -14378366.225 4 -11203915.316 3
        25.600          22.600
  23645378.461    23645378.209    23645377.455    -5369787.757 3  -4184247.372 3
        19.300          21.600
  22529132.780    22529131.987    22529130.726   -14179618.170 4 -11049048.978 4
        29.900          29.500
  22913460.833    22913459.320    22913457.301   -11157989.976 5  -8694535.470 5
        31.800          31.000
  23585881.881    23585881.178    23585880.958    -4901343.839 3  -3819225.779 3
        23.000          23.400
  20820365.748    20820364.929    20820363.083   -23768242.416 6 -18520698.502 7
        41.100          43.900
  20359319.083    20359318.548    20359315.436   -25094639.958 7 -19554257.188 8
        44.000          50.600
 09  1  7  1  6 30.0000000  0 10G 9G28G15G21G 6G14G19G 3G18G22
  21558712.392    21558711.871    21558711.165   -17280338.473 5 -13465192.705 5
        35.500          35.100
  25441614.058    25441613.614    25441612.745       -4725.199 1     -3681.305 1
         9.000           6.500
  24492946.557    24492947.050    24492944.337    -1768833.919 2  -1378303.861 3
        15.100          19.300
  22850261.644    22850260.769    22850258.488   -14274668.182 4 -11123111.650 3
        24.900          23.400
  23660543.635    23660543.283    23660542.618    -5290094.083 3  -4122148.417 3
        19.900          21.600
  22511376.996    22511376.425    22511375.123   -14272923.364 4 -11121754.309 4
        29.700          29.000
  22914605.099    22914603.454    22914601.459   -11151976.069 5  -8689849.306 5
        31.300          30.400
  23600739.881    23600739.333    23600739.197    -4823262.252 3  -3758383.000 3
        23.000          23.800
  20828096.803    20828095.974    20828094.201   -23727615.594 6 -18489041.237 7
        41.100          43.900
  20355457.853    20355457.372    20355454.333   -25114930.315 7 -19570067.854 8
        44.000          50.700
 09  1  7  1  7  0.0000000  0 10G 9G28G15G21G 6G14G19G 3G18G22
  21552481.161    21552480.469    21552479.748   -17313084.531 5 -13490709.106 5
        35.400          35.100
  25441630.606    25441630.573    25441633.594       -4619.598       -3598.995 1
                         6.500
  24513107.351    24513109.458    24513106.387    -1662883.412 2  -1295745.033 3
        15.100          19.900
  22870045.469    22870044.303    22870042.347   -14170704.975 4 -11042101.386 3
        24.600          23.800
  23675765.094    23675764.386    23675764.452    -5210105.474 3  -4059819.640 3
        19.900          22.100
  22493677.666    22493676.948    22493675.560   -14365935.075 5 -11194230.964 4
        30.100          29.200
  22915862.139    22915860.577    22915858.162   -11145371.246 5  -8684702.683 5
        31.600          30.100
  23615664.081    23615663.429    23615663.379    -4744835.915 3  -3697271.570 3
        22.600          23.800
  20835897.360    20835896.554    20835894.620   -23686623.784 6 -18457099.565 7
        41.100          43.700
  20351671.274    20351670.747    20351667.606   -25134829.414 7 -19585573.640 8
        44.100          50.700
 09  1  7  1  7 30.0000000  0 10G 9G28G15G21G 6G14G19G 3G18G22
  21546382.310    21546381.764    21546381.041   -17345134.241 5 -13515682.905 5
        35.800          35.400
  25441748.244    25441749.492    25441747.129       -4003.028       -3118.588
                         3.000
  24533288.173    24533290.062    24533288.024    -1556830.554 2  -1213106.455 3
        15.100          20.500
  22889877.873    22889876.990    22889875.339   -14066482.791 4 -10960889.321 3
        24.600          23.000
  23691041.502    23691041.058    23691040.714    -5129828.664 3  -3997266.289 3
        20.500          22.100
  22476033.468    22476032.720    22476031.582   -14458655.663 5 -11266480.758 4
        30.200          29.700
  22917230.608    22917228.802    22917226.684   -11138180.004 5  -8679099.116 5
        31.600          30.400
  23630653.074    23630652.044    23630651.888    -4666071.664 3  -3635896.837 3
        22.600          23.800
  20843766.586    20843765.653    20843763.680   -23645271.301 6 -18424876.849 7
        41.100          43.600
  20347958.408    20347957.909    20347954.716   -25154340.618 7 -19600777.173 8
        44.100          50.700
 09  1  7  1  8  0.0000000  0 10G 9G28G15G21G 6G14G19G 3G18G22
  21540417.713    21540417.056    21540416.457   -17376478.580 5 -13540107.056 5
        35.600          35.600
  25441968.789    25441967.602    25441964.971       -2868.360       -2234.371
         3.000           3.000
  24553491.071    24553490.685    24553489.588    -1450670.101 2  -1130384.031 3
        13.900          20.500
  22909760.646    22909759.999    22909758.659   -13961996.507 4 -10879471.454 3
        24.200          23.400
  23706372.881    23706372.340    23706372.022    -5049259.213 3  -3934484.908 3
        21.100          22.100
  22458446.165    22458445.492    22458444.516   -14551076.194 5 -11338496.738 4
        30.100          29.900
  22918712.128    22918710.209    22918708.436   -11130395.737 5  -8673033.458 5
        31.500          31.100
  23645706.503    23645705.642    23645705.129    -4586965.082 3  -3574255.350 3
        21.600          23.400
  20851705.450    20851704.586    20851702.835   -23603551.377 6 -18392367.813 7
        41.100          43.600
  20344320.776    20344320.253    20344317.145   -25173456.365 7 -19615672.556 8
        44.100          50.800
 09  1  7  1  8 30.0000000  0 10G 9G28G15G21G 6G14G19G 3G18G22
  21534587.547    21534586.907    21534586.152   -17407115.980 5 -13563980.347 5
        35.700          35.300
  25442281.882    25442280.749    25442279.083       -1214.963 1      -946.076
         9.000           3.000
  24573712.957    24573712.577    24573711.466    -1344403.320 2  -1047578.769 3
        13.900          21.600
  22929693.689    22929692.818    22929692.002   -13857247.783 4 -10797849.097 3
        24.200          23.800
  23721760.633    23721759.948    23721759.155    -4968399.374 3  -3871477.253 3
        22.600          22.600
  22440916.580    22440915.912    22440915.053   -14643194.457 5 -11410277.178 5
        30.200          30.100
  22920306.097    22920304.406    22920302.458   -11122018.127 5  -8666505.443 5
        31.800          31.100
  23660823.897    23660823.244    23660823.748    -4507518.527 3  -3512348.954 3
        19.900          23.800
  20859714.406    20859713.520    20859711.720   -23561464.223 6 -18359572.629 7
        41.100          43.400
  20340758.788    20340758.259    20340755.002   -25192175.375 7 -19630258.794 8
        44.100          50.800
 09  1  7  1  9  0.0000000  0 10G 9G28G15G21G 6G14G19G 3G18G22
  21528891.915    21528891.257    21528890.302   -17437048.075 6 -13587304.056 5
        36.000          35.300
  25442694.888    25442694.299    25442692.520         953.404 1       743.539 1
         6.500           9.000
  24593954.375    24593954.506    24593953.309    -1238035.501 2   -964694.772 3
        15.100          22.100
  22949675.622    22949674.827    22949673.585   -13752242.278 3 -10716026.653 3
        23.800          23.000
  23737201.161    23737200.794    23737200.686    -4887255.432 3  -3808248.217 3
        22.600          23.000
  22423444.234    22423443.599    22423442.393   -14735012.502 5 -11481823.679 5
        30.400          30.100
  22922012.513    22922010.940    22922009.075   -11113051.133 5  -8659518.168 5
        32.000          31.500
  23676005.467    23676004.634    23676005.482    -4427738.457 3  -3450182.700 3
        19.900          23.800
  20867792.479    20867791.577    20867789.747   -23519013.851 6 -18326494.414 7
        41.100          43.400
  20337271.546    20337271.012    20337267.849   -25210500.410 7 -19644538.039 8
        44.100          50.800
 09  1  7  1  9 30.0000000  0 10G 9G28G15G21G 6G14G19G 3G18G22
  21523329.086    21523328.248    21523327.633   -17466281.084 5 -13610083.014 5
        35.800          35.500
  25443202.521    25443201.176    25443202.144        3629.463        2828.760 1
         3.000           9.000
  24614212.321    24614212.442    24614211.318    -1131576.293 2   -881739.564 3
        15.100          23.000
  22969704.798    22969703.896    22969702.495   -13646989.471 4 -10634011.500 3
        24.200          22.600
  23752694.764    23752694.096    23752694.338    -4805837.518 3  -3744805.680 3
        21.600          23.800
  22406028.026    22406027.289    22406026.261   -14826535.704 5 -11553140.442 5
        30.600          30.100
  22923829.786    22923827.866    22923825.900   -11103502.710 5  -8652077.848 5
        31.600          31.500
  23691249.558    23691248.495    23691248.360    -4347635.018 3  -3387764.420 3
        21.100          22.600
  20875938.020    20875937.206    20875935.525   -23476207.949 6 -18293139.163 7
        41.000          43.300
  20333857.965    20333857.466    20333854.337   -25228438.675 7 -19658515.906 8
        44.100          50.800
 09  1  7  1 10  0.0000000  0 10G 9G28G15G21G 6G14G19G 3G18G22
  21517899.405    21517898.683    21517898.049   -17494813.278 5 -13632315.887 5
        35.800          35.600
  25443810.279    25443809.549    25443808.812        6813.235 1      5309.553 1
         9.000           9.000
  24634488.024    24634488.308    24634487.143    -1025027.832 2   -798714.788 3
        13.900          22.600
  22989780.440    22989779.487    22989778.188   -13541491.538 3 -10551805.340 3
        23.800          22.100
  23768240.523    23768239.799    23768239.403    -4724148.493 3  -3681151.911 3
        21.600          23.800
  22388668.158    22388667.242    22388666.261   -14917762.789 5 -11624226.470 5
        30.400          30.200
  22925756.844    22925755.014    22925753.249   -11093373.742 5  -8644185.143 5
        31.100          31.500
  23706553.209    23706552.368    23706552.599    -4267211.270 3  -3325096.602 3
        20.500          22.100
  20884151.326    20884150.445    20884148.767   -23433047.002 6 -18259507.259 7
        41.000          43.200
  20330517.998    20330517.485    20330514.311   -25245990.269 7 -19672192.467 8
        44.100          50.800
 09  1  7  1 10 30.0000000  0 10G 9G28G15G21G 6G14G19G 3G18G22
  21512604.886    21512604.226    21512603.545   -17522635.943 5 -13653995.886 5
        35.900          35.500
  25444513.574    25444512.832    25444509.565       10512.040        8191.748 1
         3.000           9.000
  24654781.184    24654781.526    24654779.536     -918384.193 2   -715615.861 3
        13.900          21.600
  23009903.781    23009902.590    23009901.278   -13435743.102 3 -10469403.983 3
        23.000          21.600
  23783837.434    23783836.748    23783836.317    -4642183.785 3  -3617283.295 3
        19.300          23.000
  22371366.052    22371365.403    22371364.454   -15008684.799 5 -11695074.761 5
        30.800          30.600
  22927796.230    22927794.528    22927792.882   -11082657.451 5  -8635834.792 5
        31.800          31.600
  23721919.175    23721918.179    23721918.170    -4186462.849 3  -3262175.749 3
        21.100          22.100
  20892433.450    20892432.617    20892430.793   -23389524.523 6 -18225593.638 7
        41.200          43.100
  20327253.268    20327252.767    20327249.585   -25263146.702 7 -19685561.112 8
        44.200          50.900
 09  1  7  1 11  0.0000000  0 10G 9G28G15G21G 6G14G19G 3G18G22
  21507446.659    21507445.899    21507445.090   -17549743.321 6 -13675118.505 5
        36.000          35.300
  25445316.029    25445313.660    25445315.079       14730.082       11478.500 1
         3.000          11.000
  24675093.453    24675094.036    24675093.182     -811642.692 2   -632440.672 3
        15.100          21.100
  23030074.832    23030073.790    23030072.315   -13329741.844 3 -10386805.617 3
        22.600          21.100
  23799487.325    23799486.789    23799486.360    -4559941.442 2  -3553198.388 3
        17.800          23.000
  22354123.182    22354122.598    22354121.787   -15099295.318 5 -11765680.349 5
        31.300          30.800
  22929947.970    22929946.417    22929944.350   -11071349.638 5  -8627023.507 5
        32.100          31.300
  23737347.712    23737346.835    23737346.048    -4105387.840 3  -3199000.427 3
        21.600          22.100
  20900785.084    20900784.250    20900782.499   -23345636.067 6 -18191394.836 7
        41.200          43.000
  20324064.777    20324064.184    20324061.079   -25279902.434 7 -19698617.523 8
        44.100          51.000
 09  1  7  1 11 30.0000000  0 10G 9G28G15G21G 6G14G19G 3G18G22
  21502422.892    21502422.226    21502421.540   -17576142.712 6 -13695689.457 5
        36.000          35.400
  25446216.130    25446215.826    25446212.669       19458.720       15163.201
         3.000           3.000
  24695423.574    24695422.896    24695420.594     -704814.068 2   -549197.598 3
        15.100          23.800
  23050291.948    23050291.570    23050289.974   -13223498.732 3 -10304018.794 3
        23.000          20.500
  23815187.956    23815187.607    23815187.737    -4477432.999 3  -3488906.110 3
        19.300          23.400
  22336938.583    22336937.978    22336937.218   -15189601.526 5 -11836048.800 5
        31.300          30.800
  22932211.056    22932209.181    22932206.887   -11059459.619 5  -8617758.554 5
        32.100          31.500
  23752834.421    23752833.972    23752834.431    -4023998.036 3  -3135579.788 3
        21.100          23.000
  20909204.730    20909203.867    20909202.070   -23301390.913 6 -18156918.092 7
        41.100          42.900
  20320950.915    20320950.382    20320947.191   -25296266.015 7 -19711368.361 8
        44.300          51.000
 09  1  7  1 12  0.0000000  0 10G 9G28G15G21G 6G14G19G 3G18G22
  21497533.550    21497532.766    21497531.977   -17601836.960 5 -13715710.946 5
        35.900          35.300
  25447211.552    25447210.799    25447208.989       24693.685       19242.464
                         3.000
  24715768.632    24715767.919    24715765.512     -597904.535 2   -465891.471 4
        15.100          24.900
  23070554.065    23070553.279    23070552.106   -13117020.166 3 -10221048.489 3
        23.400          20.500
  23830937.838    23830937.440    23830938.076    -4394665.691 3  -3424412.108 3
        18.600          23.800
  22319811.429    22319810.755    22319809.695   -15279605.804 5 -11906181.987 5
        31.300          30.600
  22934583.760    22934581.868    22934579.778   -11046992.188 5  -8608043.669 5
        32.400          32.300
  23768381.468    23768380.834    23768380.809    -3942300.420 3  -3071919.301 3
        21.600          23.400
  20917691.274    20917690.446    20917688.525   -23256794.037 6 -18122167.275 7
        41.200          42.700
  20317910.536    20317910.076    20317906.936   -25312242.563 7 -19723817.616 8
        44.300          51.000
 09  1  7  1 12 30.0000000  0 10G 9G28G15G21G 6G14G19G 3G18G22
  21492779.787    21492779.163    21492778.363   -17626817.152 6 -13735176.021 5
        36.000          35.400
  25448308.142    25448306.691    25448305.222       30442.618       23722.074 1
         3.000           9.000
  24736129.258    24736128.593    24736125.954     -490907.892 2   -382517.472 3
        15.100          23.800
  23090862.356    23090861.257    23090860.532   -13010300.258 3 -10137890.131 3
        23.000          20.500
  23846737.870    23846737.596    23846738.358    -4311634.176 2  -3359712.242 3
        17.800          23.800
  22302743.383    22302742.586    22302741.815   -15369298.988 5 -11976072.758 5
        31.300          31.000
  22937066.956    22937065.197    22937063.354   -11033940.121 5  -8597873.235 5
        32.300          32.100
  23783988.388    23783987.023    23783986.802    -3860290.148 3  -3008015.217 3
        21.100          23.000
  20926246.184    20926245.339    20926243.259   -23211838.033 6 -18087136.617 7
        41.200          42.500
  20314945.726    20314945.247    20314942.112   -25327822.788 7 -19735958.048 8
        44.300          51.000
 09  1  7  1 13  0.0000000  0 10G 9G28G15G21G 6G14G19G 3G18G22
  21488164.066    21488163.356    21488162.643   -17651073.251 6 -13754076.879 5
        36.000          35.400
  25449497.111    25449496.880    25449496.237       36713.692       28608.656 1
                         9.000
  24756507.732    24756507.628    24756504.780     -383817.611 2   -299070.490 3
        15.100          23.000
  23111217.156    23111216.548    23111215.509   -12903332.878 3 -10054538.952 3
        22.600          21.100
  23862590.226    23862589.634    23862589.941    -4228332.894 3  -3294802.154 3
        19.300          23.400
  22285736.458    22285735.819    22285734.965   -15458671.030 5 -12045713.292 5
        31.600          31.300
  22939663.109    22939661.497    22939659.682   -11020295.729 5  -8587241.242 5
        31.800          32.000
  23799655.038    23799653.840    23799653.318    -3777962.026 3  -2943863.434 3
        21.100          23.000
  20934870.755    20934869.870    20934868.059   -23166514.697 6 -18051819.730 7
        41.000          42.500
  20312058.199    20312057.628    20312054.489   -25342997.241 7 -19747782.293 8
        44.300          51.100
 09  1  7  1 13 30.0000000  0 10G 9G28G15G21G 6G14G19G 3G18G22
  21483683.704    21483683.112    21483682.503   -17674616.853 5 -13772422.536 5
        35.900          35.500
  25450790.357    25450789.710    25450787.554       43494.073       33892.116 1
         3.000           6.500
  24776902.782    24776901.983    24776898.727     -276648.188 2   -215561.838 3
        12.600          23.000
  23131616.761    23131616.142    23131615.149   -12796132.787 3  -9971006.438 3
        22.100          20.500
  23878490.821    23878490.111    23878490.106    -4144777.310 3  -3229693.914 3
        19.300          23.400
  22268788.756    22268787.964    22268786.846   -15547732.894 5 -12115112.134 5
        31.800          31.100
  22942370.030    22942368.275    22942366.521   -11006072.441 5  -8576158.169 5
        31.800          32.400
  23815378.735    23815377.567    23815377.949    -3695331.091 3  -2879475.698 3
        19.900          23.800
  20943562.789    20943561.940    20943560.038   -23120837.628 6 -18016227.210 7
        41.100          42.400
  20309245.389    20309244.862    20309241.647   -25357778.594 7 -19759300.226 8
        44.400          51.000
 09  1  7  1 14  0.0000000  0 10G 9G28G15G21G 6G14G19G 3G18G22
  21479338.744    21479338.059    21479337.269   -17697450.332 6 -13790214.851 5
        36.200          35.200
  25452176.844    25452176.047    25452173.867       50780.412 1     39569.759 1
         9.000           6.500
  24797309.806    24797308.889    24797306.544     -169405.031 1   -131995.748 3
        11.000          22.100
  23152060.276    23152059.584    23152058.183   -12688705.588 3  -9887296.947 3
        23.000          21.600
  23894438.127    23894437.402    23894437.264    -4060973.754 3  -3164392.459 3
        19.900          23.400
  22251899.226    22251898.542    22251897.680   -15636486.430 5 -12184270.716 5
        32.000          31.100
  22945185.484    22945183.926    22945182.205   -10991274.506 5  -8564627.308 5
        31.800          32.000
  23831159.072    23831158.101    23831158.601    -3612404.010 3  -2814857.198 4
        19.300          24.200
  20952321.366    20952320.540    20952318.672   -23074810.909 6 -17980362.234 7
        41.100          42.200
  20306506.859    20306506.329    20306503.059   -25372169.865 7 -19770514.201 8
        44.400          51.000
 09  1  7  1 14 30.0000000  0 10G 9G28G15G21G 6G14G19G 3G18G22
  21475130.263    21475129.564    21475128.782   -17719566.574 6 -13807448.284 5
        36.300          35.200
  25453657.568    25453657.045    25453657.711       58578.073       45645.831 1
         3.000           9.000
  24817730.809    24817731.118    24817729.948      -62083.764 1    -48368.792 3
         9.000          19.900
  23172547.260    23172546.140    23172544.512   -12581047.468 3  -9803407.528 3
        23.000          21.600
  23910433.345    23910432.734    23910432.256    -3976919.132 3  -3098895.350 3
        20.500          23.400
  22235070.224    22235069.504    22235068.483   -15724924.092 5 -12253183.163 5
        32.100          31.300
  22948112.338    22948110.645    22948108.572   -10975896.569 5  -8552644.512 5
        32.000          31.800
  23846996.432    23846995.627    23846996.066    -3529177.954 3  -2750005.756 3
        18.600          23.800
  20961147.751    20961146.860    20961144.889   -23028428.884 6 -17944220.392 7
        41.100          42.100
  20303843.704    20303843.194    20303839.982   -25386164.570 7 -19781419.162 8
        44.400          51.100
 09  1  7  1 15  0.0000000  0 10G 9G28G15G21G 6G14G19G 3G18G22
  21471059.385    21471058.639    21471058.072   -17740959.143 6 -13824117.810 5
        36.400          35.300
  25455242.277    25455241.410    25455239.356       66891.960       52124.225 1
         3.000           9.000
  24838166.521    24838166.956    24838168.094       45318.977       35321.645 2
         3.000          15.100
  23193078.627    23193077.614    23193075.863   -12473155.338 3  -9719335.759 3
        22.600          21.100
  23926475.661    23926475.375    23926475.095    -3892610.683 3  -3033200.459 3
        19.300          22.600
  22218302.764    22218301.977    22218300.788   -15813038.787 5 -12321843.940 5
        32.300          31.500
  22951149.765    22951148.075    22951146.252   -10959934.014 5  -8540206.153 5
        31.600          31.600
  23862891.636    23862889.990    23862890.712    -3445650.279 2  -2684919.253 3
        17.000          23.000
  20970042.341    20970041.526    20970039.613   -22981686.661 6 -17907797.881 7
        41.000          42.000
  20301257.240    20301256.633    20301253.482   -25399756.749 7 -19792010.467 8
        44.400          51.100
 09  1  7  1 15 30.0000000  0  9G 9G28G21G 6G14G19G 3G18G22
  21467126.956    21467126.189    21467125.483   -17761625.140 6 -13840221.188 5
        36.500          35.500
  25456922.044    25456922.911    25456921.008       75723.985       59006.229 1
         3.000           9.000
  23213654.220    23213653.133    23213651.444   -12365029.769 3  -9635082.094 3
        21.600          19.900
  23942567.817    23942567.142    23942566.724    -3808049.571 3  -2967308.695 3
        18.600          22.600
  22201596.970    22201596.151    22201595.104   -15900827.651 5 -12390250.828 5
        32.400          31.800
  22954298.635    22954296.955    22954294.699   -10943385.957 5  -8527311.564 5
        31.100          31.100
  23878842.771    23878842.392    23878842.297    -3361822.096 2  -2619598.604 3
        16.100          22.100
  20979005.791    20979004.990    20979003.196   -22934583.311 6 -17871093.967 7
        41.000          42.000
  20298747.648    20298747.138    20298743.911   -25412944.498 7 -19802286.633 8
        44.500          51.100
 09  1  7  1 16  0.0000000  0  9G28G 9G21G 6G14G19G 3G18G22
  25458697.991    25458698.480    25458695.021       85053.808       66276.248 1
                         9.000
  21463328.847    21463328.177    21463327.393   -17781583.291 6 -13855772.991 5
        36.500          35.300
  23234269.631    23234268.991    23234267.503   -12256692.534 3  -9550663.486 3
        21.600          19.900
  23958702.759    23958702.180    23958702.422    -3723258.236 2  -2901237.557 3
        17.800          22.100
  22184949.925    22184949.264    22184947.980   -15988308.581 5 -12458417.767 5
        32.700          32.100
  22957555.570    22957553.594    22957551.364   -10926272.812 5  -8513976.650 5
        30.600          31.000
  23894847.995    23894847.395    23894847.285    -3277716.080 2  -2554061.482 3
        17.000          21.100
  20988034.256    20988033.434    20988031.570   -22887138.877 6 -17834124.280 6
        41.000          41.900
  20296311.521    20296310.957    20296307.695   -25425747.133 7 -19812262.709 8
        44.600          51.200
 09  1  7  1 16 30.0000000  0  9G28G 9G21G 6G14G19G 3G18G22
  25460572.432    25460572.597    25460570.092       94903.193       73951.133 1
         3.000           6.500
  21459669.985    21459669.236    21459668.617   -17800810.863 6 -13870755.514 5
        36.500          35.400
  23254929.903    23254928.843    23254926.951   -12148124.319 3  -9466064.892 3
        21.100          19.900
  23974885.625    23974884.686    23974885.257    -3638218.035 2  -2834972.486 3
        17.000          21.600
  22168365.721    22168364.991    22168364.016   -16075458.308 5 -12526326.617 5
        32.600          32.100
  22960923.318    22960921.809    22960919.595   -10908574.060 5  -8500185.410 5
        31.300          31.000
  23910908.221    23910907.686    23910908.240    -3193314.043 2  -2488293.666 3
        16.100          19.900
  20997131.395    20997130.645    20997128.817   -22839332.419 6 -17796872.492 6
        41.100          41.800
  20293952.548    20293952.056    20293948.833   -25438142.698 7 -19821921.589 8
        44.500          51.100
 09  1  7  1 17  0.0000000  0  9G28G 9G21G 6G14G19G 3G18G22
  25462543.736    25462544.041    25462543.104      105263.126 1     82023.784 1
         6.500           9.000
  21456148.561    21456147.943    21456147.270   -17819315.283 6 -13885174.538 5
        36.500          35.300
  23275630.749    23275630.192    23275628.620   -12039335.765 3  -9381294.621 3
        21.100          18.600
  23991113.615    23991113.418    23991112.512    -3552940.297 3  -2768522.304 3
        18.600          20.500
  22151843.412    22151842.742    22151841.546   -16162283.681 5 -12593982.727 5
        32.800          32.100
  22964400.706    22964399.205    22964397.072   -10890298.911 5  -8485945.036 5
        30.800          30.600
  23927024.670    23927024.106    23927023.554    -3108627.178 2  -2422303.897 3
        17.800          19.300
  21006295.952    21006295.122    21006293.235   -22791172.839 6 -17759345.539 6
        41.000          41.700
  20291669.752    20291669.216    20291666.030   -25450139.180 7 -19831269.496 8
        44.600          51.200
 09  1  7  1 17 30.0000000  0  9G28G 9G21G 6G14G19G 3G18G22
  25464613.388    25464613.907    25464613.500      116149.337       90506.437 1
                        11.000
  21452768.099    21452767.449    21452766.798   -17837079.834 6 -13899017.039 5
        36.500          35.200
  23296377.537    23296376.981    23296375.085   -11930312.688 3  -9296341.590 3
        21.600          19.900
  24007388.605    24007387.989    24007387.902    -3467411.651 2  -2701876.622 3
        17.800          19.300
  22135386.045    22135385.185    22135384.252   -16248767.485 5 -12661372.685 5
        32.700          32.400
  22967990.895    22967989.168    22967987.047   -10871432.242 5  -8471243.735 5
        30.600          30.400
  23943196.454    23943195.720    23943195.467    -3023642.373 2  -2356081.960 2
        17.000          17.800
  21015530.579    21015529.678    21015527.869   -22742644.844 6 -17721531.516 6
        40.700          41.600
  20289466.042    20289465.477    20289462.223   -25461720.141 7 -19840293.620 8
        44.600          51.300
 09  1  7  1 18  0.0000000  0 10G28G15G 9G21G 6G14G19G 3G18G22
  25466780.453    25466781.962    25466777.501      127537.382       99380.269 1
                         6.500
  24961089.539    24961090.124    24961088.604           -.91811         -.76212
        11.000          12.600
  21449524.401    21449523.647    21449522.716   -17854127.119 6 -13912300.639 5
        36.600          35.200
  23317163.783    23317162.723    23317160.997   -11821081.555 3  -9211226.441 3
        21.100          19.900
  24023707.478    24023706.460    24023706.238    -3381658.920 2  -2635056.329 3
        17.800          18.600
  22118989.631    22118988.847    22118987.783   -16334931.844 5 -12728513.717 5
        33.000          32.600
  22971689.171    22971687.333    22971685.286   -10851999.114 5  -8456101.031 5
        31.300          30.800
  23959420.381    23959419.437    23959419.404    -2938386.280 3  -2289648.646 2
        18.600          17.000
  21024830.618    21024829.766    21024828.079   -22693772.659 6 -17683449.293 6
        40.800          41.800
  20287336.775    20287336.281    20287333.059   -25472908.912 7 -19849012.143 8
        44.600          51.300
 09  1  7  1 18 30.0000000  0 10G28G15G 9G21G 6G14G19G 3G18G22
  25469044.568    25469043.501    25469042.130      139425.027 1    108643.362
         6.500           3.000
  24981620.174    24981622.195    24981619.709      107887.925 1     84068.505 1
         9.000          11.000
  21446416.529    21446415.746    21446415.024   -17870458.453 6 -13925026.350 5
        36.400          35.100
  23337988.713    23337987.344    23337986.238   -11711646.597 3  -9125952.473 3
        19.300          19.900
  24040067.762    24040067.116    24040066.251    -3295686.818 3  -2568065.078 2
        19.900          17.800
  22102653.880    22102653.068    22102651.761   -16420777.417 5 -12795406.357 5
        33.400          32.700
  22975494.572    22975492.912    22975490.725   -10832002.112 5  -8440518.960 5
        31.600          31.100
  23975694.903    23975694.440    23975694.273    -2852864.021 3  -2223007.920 3
        18.600          19.300
  21034195.716    21034194.835    21034193.063   -22644559.056 6 -17645101.031 6
        40.800          41.500
  20285282.025    20285281.477    20285278.295   -25483706.983 7 -19857426.222 8
        44.600          51.400
 09  1  7  1 19  0.0000000  0 10G28G15G 9G21G 6G14G19G 3G18G22
  25471401.664    25471401.884    25471399.850      151813.565      118296.765 1
         3.000           6.500
  25002161.484    25002161.969    25002160.290      215831.128 1    168180.103 2
        11.000          12.600
  21443445.483    21443444.779    21443443.788   -17886071.090 6 -13937192.032 5
        36.400          35.100
  23358851.925    23358851.130    23358850.367   -11602007.626 3  -9040519.545 3
        19.900          21.600
  24056468.334    24056468.026    24056467.823    -3209496.316 3  -2500903.643 2
        19.900          17.000
  22086379.032    22086378.287    22086377.313   -16506300.472 5 -12862047.677 5
        33.100          32.800
  22979407.057    22979405.586    22979403.475   -10811440.298 5  -8424496.764 5
        31.100          31.100
  23992019.222    23992018.408    23992018.424    -2767076.674 2  -2156160.638 3
        17.800          18.600
  21043625.892    21043625.121    21043623.182   -22595002.348 6 -17606485.409 6
        40.700          41.300
  20283301.847    20283301.367    20283298.270   -25494112.162 7 -19865534.152 8
        44.600          51.400
 09  1  7  1 19 30.0000000  0 10G28G15G 9G21G 6G14G19G 3G18G22
  25473858.018    25473857.966    25473855.279      164714.895 1    128349.774 1
         9.000           6.500
  25022715.236    25022715.428    25022713.456      323839.176 1    252342.212 2
         9.000          15.100
  21440613.832    21440613.073    21440612.426   -17900951.905 6 -13948787.470 5
        36.500          35.500
  23379756.068    23379755.271    23379754.483   -11492155.197 3  -8954920.287 3
        18.600          21.100
  24072912.836    24072912.159    24072912.267    -3123077.940 3  -2433564.657 2
        19.300          17.000
  22070168.882    22070168.136    22070166.888   -16591487.008 5 -12928426.771 5
        33.800          33.000
  22983429.977    22983427.836    22983425.935   -10790302.544 5  -8408025.785 5
        31.100          31.000
  24008396.955    24008396.029    24008395.556    -2681015.168 2  -2089099.719 3
        17.800          18.600
  21053123.747    21053122.860    21053121.015   -22545091.608 6 -17567593.926 6
        40.600          41.200
  20281399.107    20281398.563    20281395.376   -25504111.792 7 -19873326.069 8
        44.600          51.400
 09  1  7  1 20  0.0000000  0 10G28G15G 9G21G 6G14G19G 3G18G22
  25476410.801    25476408.956    25476406.606      178125.198 1    138799.239 1
         6.500           6.500
  25043278.423    25043278.750    25043277.994      431906.546 1    336550.534 2
         9.000          13.900
  21437920.514    21437919.936    21437919.361   -17915103.458 6 -13959814.650 5
        36.500          35.400
  23400700.324    23400699.098    23400698.101   -11382094.754 2  -8869158.952 3
        17.000          20.500
  24089400.080    24089399.500    24089399.752    -3036438.128 3  -2366053.100 3
        18.600          18.600
  22054021.892    22054021.058    22054019.752   -16676339.724 5 -12994545.760 5
        33.900          33.000
  22987560.573    22987558.864    22987556.906   -10768593.094 5  -8391109.330 5
        31.100          31.000
  24024824.043    24024823.837    24024823.987    -2594685.464 2  -2021829.819 3
        17.000          18.600
  21062687.938    21062687.132    21062685.194   -22494830.682 6 -17528429.565 6
        40.600          41.000
  20279572.728    20279572.215    20279568.983   -25513709.132 7 -19880804.514 8
        44.600          51.400
 09  1  7  1 20 30.0000000  0 10G28G15G 9G21G 6G14G19G 3G18G22
  25479060.468    25479058.233    25479057.697      192046.576      149647.022 2
                        12.600
  25063853.530    25063854.534    25063854.314      540034.482      420806.021 2
         3.000          12.600
  21435367.223    21435366.506    21435365.831   -17928522.371 6 -13970270.939 5
        36.500          35.200
  23421683.495    23421682.599    23421681.574   -11271825.519 3  -8783234.927 3
        18.600          19.900
  24105929.382    24105928.679    24105929.070    -2949576.811 2  -2298368.954 3
        17.000          19.900
  22037939.212    22037938.491    22037937.257   -16760854.023 5 -13060401.038 5
        33.900          33.100
  22991801.250    22991799.426    22991797.323   -10746310.372 5  -8373746.169 5
        31.600          31.100
  24041303.256    24041302.331    24041302.898    -2508087.638 2  -1954351.011 3
        17.000          19.300
  21072319.473    21072318.607    21072316.680   -22444217.007 6 -17488990.334 6
        40.500          40.700
  20277823.588    20277823.073    20277819.867   -25522900.869 7 -19887966.903 8
        44.600          51.300
 09  1  7  1 21  0.0000000  0 10G28G15G 9G21G 6G14G19G 3G18G22
  25481807.553    25481805.626    25481804.503      206477.994      160892.337 1
         3.000           9.000
  25084441.498    25084441.779    25084441.931      648220.636      505106.898 2
         3.000          12.600
  21432952.913    21432952.308    21432951.494   -17941208.974 6 -13980156.597 5
        36.600          35.200
  23442706.557    23442705.521    23442704.754   -11161350.719 3  -8697150.708 3
        19.900          19.900
  24122500.648    24122499.823    24122499.577    -2862497.723 2  -2230515.130 3
        15.100          20.500
  22021921.151    22021920.419    22021919.209   -16845029.217 5 -13125992.082 5
        34.000          33.200
  22996149.826    22996148.226    22996146.342   -10723456.108 5  -8355937.640 5
        31.600          31.300
  24057831.635    24057831.743    24057831.975    -2421226.446 2  -1886666.974 3
        17.000          19.300
  21082017.759    21082016.902    21082014.958   -22393252.216 6 -17449277.506 6
        40.500          40.600
  20276151.661    20276151.119    20276147.872   -25531687.409 7 -19894813.556 8
        44.700          51.400
 09  1  7  1 21 30.0000000  0 10G28G15G 9G21G 6G14G19G 3G18G22
  25484647.158    25484644.965    25484644.625      221412.933      172529.790
         3.000           3.000
  25105037.907    25105039.178    25105038.889      756457.270      589447.125 2
                        12.600
  21430677.184    21430676.558    21430675.802   -17953168.276 6 -13989475.526 5
        36.500          35.100
  23463767.379    23463766.257    23463764.677   -11050678.779 3  -8610912.868 3
        21.100          19.300
  24139111.009    24139109.779    24139110.259    -2775209.661 2  -2162498.483 3
        16.100          21.100
  22005966.827    22005966.129    22005964.894   -16928869.799 5 -13191322.389 5
        33.900          33.200
  23000606.589    23000604.967    23000602.877   -10700037.561 5  -8337689.424 5
        31.500          31.300
  24074409.933    24074409.342    24074409.477    -2334110.407 2  -1818784.364 3
        17.800          19.300
  21091781.536    21091780.743    21091778.838   -22341942.913 6 -17409296.228 6
        40.500          40.600
  20274555.590    20274555.082    20274551.839   -25540074.436 7 -19901348.898 8
        44.700          51.400
 09  1  7  1 22  0.0000000  0 10G28G15G 9G21G 6G14G19G 3G18G22
  25487587.252    25487584.022    25487585.427      236852.547      184560.573
                         3.000
  25125646.178    25125645.158    25125642.968      864744.392      673826.677 2
                        12.600
  21428540.365    21428539.662    21428538.808   -17964397.997 6 -13998225.952 5
        36.600          35.200
  23484865.048    23484863.915    23484862.675   -10939809.791 3  -8524521.463 2
        20.500          17.800
  24155760.801    24155760.356    24155759.821    -2687713.629 2  -2094319.772 3
        17.000          21.100
  21990077.074    21990076.179    21990075.017   -17012372.385 5 -13256389.329 5
        34.300          33.500
  23005170.394    23005168.493    23005166.583   -10676053.992 5  -8319000.937 5
        30.800          31.500
  24091037.745    24091036.258    24091035.410    -2246740.174 3  -1750703.702 3
        18.600          19.900
  21101611.170    21101610.357    21101608.570   -22290287.746 6 -17369045.447 6
        40.300          40.600
  20273036.083    20273035.551    20273032.315   -25548059.663 7 -19907571.148 8
        44.700          51.500
 09  1  7  1 22 30.0000000  0 10G28G15G 9G21G 6G14G19G 3G18G22
  25490620.610    25490619.397    25490618.894      252795.213 1    196983.568 1
        11.000           9.000
  25146258.457    25146261.103    25146261.835      973079.370      758243.533 1
                         9.000
  21426542.202    21426541.489    21426540.768   -17974898.298 6 -14006408.006 5
        36.600          35.200
  23505999.442    23505998.498    23505997.123   -10828746.778 3  -8437978.873 2
        20.500          17.800
  24172449.335    24172448.887    24172448.424    -2600013.354 2  -2025981.932 3
        16.100          21.100
  21974251.129    21974250.281    21974249.302   -17095536.386 5 -13321192.434 5
        34.300          33.500
  23009841.223    23009839.662    23009837.735   -10651507.354 5  -8299873.690 5
        30.600          31.800
  24107710.435    24107709.278    24107708.755    -2159119.899 3  -1682428.178 3
        18.600          19.300
  21111506.354    21111505.544    21111503.713   -22238288.241 6 -17328526.352 6
        40.200          40.300
  20271592.761    20271592.221    20271589.122   -25555643.902 7 -19913480.943 8
        44.600          51.600
 09  1  7  1 23  0.0000000  0 10G28G15G 9G21G 6G14G19G 3G18G22
  25493749.321    25493747.461    25493746.409      269239.599 1    209797.282 1
        11.000           9.000
  25166881.824    25166880.793    25166882.950     1081459.488      842696.488 1
                         9.000
  21424682.831    21424682.099    21424681.356   -17984669.502 6 -14014021.922 5
        36.600          35.200
  23527170.066    23527169.511    23527168.334   -10717493.222 3  -8351287.819 3
        19.300          18.600
  24189176.559    24189176.005    24189175.265    -2512112.760 2  -1957487.954 3
        15.100          20.500
  21958489.938    21958489.278    21958488.137   -17178361.492 5 -13385731.465 5
        34.500          33.500
  23014618.959    23014617.320    23014615.546   -10626399.730 5  -8280309.319 5
        30.100          31.600
  24124430.373    24124429.376    24124428.950    -2071254.153 2  -1613961.372 3
        17.800          19.300
  21121466.645    21121465.804    21121464.082   -22185945.817 6 -17287740.043 6
        40.200          40.200
  20270225.897    20270225.314    20270222.054   -25562827.665 7 -19919078.676 8
        44.700          51.500
 09  1  7  1 23 30.0000000  0 10G28G15G 9G21G 6G14G19G 3G18G22
  25496972.632    25496971.834    25496972.099      286193.670      223008.209 1
                        11.000
  25187519.408    25187516.760    25187518.297     1189891.356      927188.909 2
                        12.600
  21422963.809    21422963.113    21422962.236   -17993702.953 6 -14021060.972 5
        36.600          34.900
  23548378.859    23548377.769    23548376.557   -10606043.014 3  -8264443.530 3
        19.900          19.300
  24205941.979    24205941.570    24205941.203    -2424006.291 2  -1888833.562 3
        16.100          20.500
  21942795.135    21942794.384    21942793.354   -17260838.335 5 -13449999.122 5
        34.600          33.600
  23019505.132    23019503.422    23019501.297   -10600724.034 5  -8260302.291 5
        30.200          31.100
  24141197.293    24141197.221    24141197.782    -1983136.962 2  -1545298.642 3
        17.000          20.500
  21131493.650    21131492.902    21131491.058   -22133253.392 6 -17246681.010 6
        40.200          40.000
  20268936.565    20268936.071    20268932.873   -25569602.340 7 -19924357.639 8
        44.700          51.600
 09  1  7  1 24  0.0000000  0 10G28G15G 9G21G 6G14G19G 3G18G22
  25500296.770    25500295.709    25500295.135      303654.035 1    236613.705 1
         6.500          11.000
  25208163.165    25208160.808    25208161.466     1298371.092     1011718.533 2
         3.000          15.100
  21421384.793    21421384.155    21421383.295   -18002000.438 6 -14027526.543 5
        36.700          35.100
  23569623.560    23569622.736    23569621.119   -10494400.728 3  -8177449.558 3
        18.600          18.600
  24222747.383    24222746.515    24222745.723    -2335699.241 2  -1820022.895 3
        16.100          19.900
  21927166.787    21927166.062    21927164.851   -17342966.969 5 -13513995.448 5
        34.900          33.900
  23024498.193    23024496.649    23024494.909   -10574483.643 5  -8239855.254 5
        30.400          31.300
  24158013.443    24158012.612    24158012.735    -1894773.901 3  -1476444.311 3
        19.300          20.500
  21141586.945    21141586.154    21141584.234   -22080213.650 6 -17205351.336 6
        40.200          39.900
  20267724.828    20267724.330    20267721.161   -25575970.078 7 -19929319.510 8
        44.700          51.600
 09  1  7  1 24 30.0000000  0 10G28G15G 9G21G 6G14G19G 3G18G22
  25503713.296    25503713.440    25503714.717      321612.793      250607.606 1
         3.000          11.000
  25228813.851    25228813.356    25228812.083     1406889.361 1   1096278.159 2
         6.500          15.100
  21419944.722    21419944.016    21419943.019   -18009568.495 6 -14033423.728 5
        36.800          35.100
  23590902.981    23590902.327    23590900.547   -10382575.989 2  -8090313.437 3
        17.000          19.300
  24239586.803    24239586.548    24239587.152    -2247201.734 2  -1751063.821 3
        17.000          20.500
  21911603.279    21911602.524    21911601.332   -17424753.512 5 -13577725.209 5
        34.800          33.900
  23029597.840    23029596.105    23029594.115   -10547687.359 5  -8218975.030 5
        31.000          31.000
  24174873.628    24174872.709    24174872.147    -1806175.146 3  -1407406.329 3
        19.300          19.900
  21151744.534    21151743.729    21151741.886   -22026834.434 6 -17163757.142 6
        39.900          39.700
  20266589.370    20266588.809    20266585.612   -25581937.274 7 -19933969.271 8
        44.600          51.600
 09  1  7  1 25  0.0000000  0 10G28G15G 9G21G 6G14G19G 3G18G22
  25507226.295    25507227.563    25507225.276      340068.292      264988.404
                         3.000
  25249470.764    25249471.237    25249468.651     1515443.639 1   1180865.856 2
         9.000          16.100
  21418643.197    21418642.466    21418641.724   -18016408.027 6 -14038753.235 5
        36.600          35.200
  23612216.607    23612215.804    23612214.352   -10270571.876 2  -8003037.522 3
        17.800          19.300
  24256463.352    24256462.627    24256463.282    -2158517.616 2  -1681959.332 3
        16.100          21.600
  21896104.851    21896104.221    21896103.096   -17506197.775 5 -13641188.258 5
        35.200          34.000
  23034802.417    23034800.401    23034798.575   -10520337.559 5  -8197663.510 5
        30.800          31.000
  24191777.035    24191776.306    24191775.764    -1717345.052 3  -1338188.076 3
        19.300          18.600
  21161966.714    21161965.833    21161964.001   -21973117.465 6 -17121899.762 6
        40.000          39.700
  20265529.838    20265529.299    20265526.080   -25587505.200 7 -19938307.908 8
        44.700          51.600
 09  1  7  1 25 30.0000000  0 10G28G15G 9G21G 6G14G19G 3G18G22
  25510833.563    25510832.594    25510831.282      359025.376      279760.079 1
                         6.500
  25270135.919    25270135.201    25270132.942     1624037.698 1   1265484.553 2
         9.000          13.900
  21417481.662    21417480.875    21417480.038   -18022513.171 6 -14043510.483 5
        36.700          35.400
  23633564.592    23633563.514    23633562.874   -10158385.268 2  -7915619.426 3
        16.100          19.300
  24273375.520    24273374.629    24273375.004    -2069644.145 2  -1612707.285 3
        17.000          20.500
  21880673.108    21880672.378    21880670.968   -17587292.871 5 -13704379.235 5
        35.300          34.000
  23040112.859    23040111.351    23040109.337   -10492429.958 5  -8175917.333 5
        31.500          30.800
  24208726.187    24208725.390    24208724.222    -1628280.396 3  -1268787.066 2
        19.300          17.800
  21172253.887    21172253.000    21172251.074   -21919057.843 6 -17079775.382 6
        40.000          39.500
  20264547.329    20264546.852    20264543.733   -25592667.699 7 -19942330.633 8
        44.700          51.700
 09  1  7  1 26  0.0000000  0 10G28G15G 9G21G 6G14G19G 3G18G22
  25514538.772    25514536.737    25514534.920      378485.238      294923.615 1
         3.000          11.000
  25290809.366    25290807.965    25290805.653     1732671.676 1   1350134.328 2
         6.500          13.900
  21416459.808    21416459.132    21416458.091   -18027881.602 6 -14047693.680 5
        36.600          35.100
  23654947.191    23654946.405    23654946.051   -10046016.988 2  -7828059.767 3
        15.100          18.600
  24290323.229    24290322.405    24290322.666    -1980582.672 2  -1543308.751 3
        16.100          18.600
  21865308.032    21865307.266    21865306.336   -17668035.739 5 -13767295.742 5
        35.300          34.400
  23045529.924    23045528.312    23045526.254   -10463963.573 5  -8153735.731 5
        31.500          30.800
  24225718.610    24225717.157    24225717.069    -1538983.310 2  -1199204.924 3
        16.100          18.600
  21182606.627    21182605.805    21182603.645   -21864654.419 6 -17037383.099 6
        40.100          39.300
  20263642.592    20263642.030    20263638.841   -25597422.807 7 -19946035.907 8
        44.700          51.700
 09  1  7  1 26 30.0000000  0 10G28G15G 9G21G 6G14G19G 3G18G22
  25518334.663    25518332.554    25518332.340      398440.435 1    310473.131 1
         6.500           9.000
  25311486.577    25311486.418    25311484.862     1841337.431     1434808.899 2
         3.000          13.900
  21415577.488    21415576.743    21415575.755   -18032519.405 6 -14051307.550 5
        36.900          35.300
  23676361.988    23676361.609    23676361.919    -9933475.499 2  -7740365.114 2
        16.100          17.000
  24307305.221    24307305.161    24307304.044    -1891342.631 2  -1473771.078 2
        16.100          17.000
  21850008.927    21850008.381    21850007.540   -17748431.351 5 -13829941.657 5
        35.200          34.500
  23051051.541    23051050.000    23051047.840   -10434946.661 5  -8131125.162 5
        31.100          30.600
  24242752.516    24242751.393    24242752.819    -1449463.168 2  -1129448.979 3
        15.100          19.300
  21193023.077    21193022.254    21193020.389   -21809914.674 6 -16994728.752 6
        40.000          39.300
  20262813.877    20262813.450    20262810.349   -25601776.624 7 -19949428.485 8
        44.700          51.700
 09  1  7  1 27  0.0000000  0 10G28G15G 9G21G 6G14G19G 3G18G22
  25522227.339    25522225.740    25522226.196      418895.815 1    326412.399 1
         6.500           9.000
  25332170.004    25332170.140    25332169.316     1950038.635     1519511.141 2
         3.000          13.900
  21414834.990    21414834.184    21414833.159   -18036421.227 6 -14054347.931 5
        36.800          34.900
  23697812.310    23697811.623    23697811.821    -9820757.365 2  -7652532.814 2
        16.100          17.000
  24324322.433    24324321.019    24324320.757    -1801921.488 2  -1404092.262 2
        17.000          17.800
  21834777.724    21834777.135    21834775.995   -17828472.633 5 -13892311.472 5
        35.300          34.400
  23056679.039    23056677.258    23056675.558   -10405374.607 5  -8108082.008 5
        31.000          31.000
  24259831.014    24259830.288    24259830.916    -1359717.527 2  -1059517.296 3
        13.900          19.300
  21203504.620    21203503.819    21203501.968   -21754833.623 6 -16951808.454 6
        40.000          39.100
  20262062.980    20262062.462    20262059.290   -25605723.253 7 -19952503.779 8
        44.700          51.600
 09  1  7  1 27 30.0000000  0 10G28G15G 9G21G 6G14G19G 3G18G22
  25526213.829    25526211.185    25526210.966      439846.019      342737.184 1
                         6.500
  25352860.577    25352860.813    25352859.733     2058769.115     1604236.188 1
                        11.000
  21414231.598    21414230.865    21414229.808   -18039591.220 6 -14056818.053 5
        36.700          34.900
  23719294.966    23719293.851    23719293.577    -9707869.539 2  -7564568.316 2
        15.100          17.000
  24341370.039    24341370.125    24341369.789    -1712326.392 2  -1334277.911 2
        13.900          17.000
  21819613.334    21819612.537    21819611.509   -17908163.097 5 -13954407.927 5
        35.500          34.700
  23062410.445    23062408.911    23062407.259   -10375253.914 5  -8084611.338 5
        30.200          31.100
  24276949.892    24276949.765    24276949.739    -1269753.526 2   -989415.489 2
        13.900          17.800
  21214050.028    21214049.270    21214047.465   -21699416.667 6 -16908626.407 6
        40.000          39.100
  20261388.567    20261388.036    20261384.802   -25609267.422 7 -19955265.466 8
        44.700          51.600
 09  1  7  1 28  0.0000000  0  9G28G 9G21G 6G14G19G 3G18G22
  25530295.410    25530291.915    25530291.530      461286.647      359444.209 1
                         6.500
  21413766.961    21413766.376    21413765.499   -18042032.302 6 -14058720.197 5
        36.600          35.300
  23740808.588    23740807.496    23740806.458    -9594817.777 2  -7476476.062 2
        16.100          16.100
  24358450.960    24358450.044    24358451.051    -1622563.640 1  -1264332.938 2
        11.000          17.000
  21804515.336    21804514.619    21804513.301   -17987504.684 5 -14016232.529 5
        35.900          34.800
  23068246.241    23068244.387    23068242.351   -10344589.284 5  -8060716.826 5
        30.100          31.000
  24294111.204    24294110.749    24294109.855    -1179577.686 2   -919148.613 3
        15.100          19.300
  21224658.830    21224658.019    21224656.178   -21643667.745 6 -16865185.690 6
        39.900          39.000
  20260790.122    20260789.588    20260786.340   -25612412.304 7 -19957716.023 8
        44.700          51.500
 09  1  7  1 28 30.0000000  0  9G28G 9G21G 6G14G19G 3G18G22
  25534469.304    25534467.854    25534464.578      483223.492      376537.774 1
         3.000          11.000
  21413442.381    21413441.652    21413441.091   -18043738.137 6 -14060049.407 5
        36.600          35.500
  23762353.449    23762351.763    23762350.632    -9481598.058 2  -7388252.910 2
        15.100          15.100
  24375565.653    24375565.784    24375564.431    -1532629.662 2  -1194254.518 2
        13.900          13.900
  21789484.891    21789484.046    21789482.831   -18066489.782 6 -14077779.353 5
        36.000          34.900
  23074185.878    23074184.180    23074182.022   -10313375.696 5  -8036394.562 5
        30.800          30.400
  24311311.372    24311310.691    24311311.282    -1089186.693 2   -848714.090 3
        15.100          19.900
  21235331.752    21235330.946    21235329.059   -21587581.131 6 -16821481.834 6
        39.900          38.900
  20260268.882    20260268.348    20260265.127   -25615151.417 7 -19959850.398 8
        44.700          51.500
 09  1  7  1 29  0.0000000  0  9G28G 9G21G 6G14G19G 3G18G22
  25538740.538    25538739.274    25538739.664      505672.756 1    394030.707 2
         6.500          12.600
  21413260.898    21413260.255    21413259.495   -18044691.466 6 -14060792.256 5
        36.700          35.300
  23783933.206    23783931.759    23783930.651    -9368195.970 2  -7299887.673 2
        15.100          16.100
  24392715.545    24392715.091    24392713.619    -1442510.517 2  -1124031.799 2
        15.100          15.100
  21774525.835    21774525.096    21774523.865   -18145099.708 6 -14139033.833 5
        36.200          35.200
  23080232.747    23080231.155    23080229.252   -10281597.403 5  -8011632.255 5
        30.400          30.600
  24328556.485    24328555.522    24328555.725     -998566.800 2   -778101.199 3
        16.100          20.500
  21246071.934    21246071.182    21246069.556   -21531140.305 6 -16777501.968 6
        39.800          38.900
  20259828.238    20259827.734    20259824.538   -25617466.677 7 -19961654.499 8
        44.700          51.600
 09  1  7  1 29 30.0000000  0  9G28G 9G21G 6G14G19G 3G18G22
  25543104.465    25543103.074    25543104.552      528619.947      411911.641 1
                         9.000
  21413220.543    21413219.706    21413218.819   -18044905.223 6 -14060958.819 5
        36.800          35.400
  23805544.379    23805542.665    23805541.403    -9254626.631 2  -7211392.110 2
        13.900          13.900
  24409895.313    24409895.673    24409895.307    -1352222.045 2  -1053677.183 2
        13.900          15.100
  21759635.896    21759635.224    21759634.102   -18223346.471 6 -14200005.326 5
        36.100          35.400
  23086384.758    23086383.107    23086381.626   -10249269.010 5  -7986441.314 5
        30.200          31.100
  24345841.154    24345839.922    24345839.972     -907734.163 2   -707322.524 3
        17.000          19.900
  21256877.065    21256876.270    21256874.452   -21474359.426 6 -16733257.129 6
        39.700          38.700
  20259465.797    20259465.289    20259462.108   -25619371.276 7 -19963138.604 8
        44.700          51.600
 09  1  7  1 30  0.0000000  0  9G28G 9G21G 6G14G19G 3G18G22
  25547565.784    25547565.838    25547564.481      552061.604      430177.858 1
                         9.000
  21413319.731    21413318.996    21413318.316   -18044382.645 6 -14060551.608 5
        36.600          35.400
  23827186.060    23827185.585    23827183.333    -9140895.274 2  -7122770.272 2
        13.900          12.600
  24427107.973    24427107.518    24427107.880    -1261770.774 2   -983195.700 2
        12.600          15.100
  21744814.880    21744814.136    21744812.844   -18301232.309 6 -14260695.580 5
        36.400          35.500
  23092640.559    23092638.943    23092636.991   -10216395.416 5  -7960825.535 5
        30.400          30.800
  24363164.250    24363164.208    24363164.107     -816694.858 2   -636382.833 3
        15.100          19.300
  21267746.175    21267745.380    21267743.554   -21417242.439 6 -16688750.383 6
        39.800          38.600
  20259181.092    20259180.514    20259177.245   -25620868.395 7 -19964305.191 8
        44.800          51.500
 09  1  7  1 30 30.0000000  0  9G28G 9G21G 6G14G19G 3G18G22
  25552120.933    25552121.358    25552120.959      575994.368      448826.682 2
                        13.900
  21413558.914    21413558.215    21413557.438   -18043125.781 6 -14059572.233 5
        36.800          35.400
  23848857.959    23848857.386    23848856.448    -9027006.463 2  -7034025.750 2
        13.900          12.600
  24444350.199    24444350.308    24444349.998    -1171161.341 2   -912590.938 2
        12.600          13.900
  21730062.356    21730061.548    21730060.491   -18378757.654 6 -14321104.930 5
        36.500          35.700
  23098999.158    23098997.593    23098995.492   -10182980.188 5  -7934787.716 5
        30.200          30.400
  24380527.232    24380526.583    24380526.948     -725454.355 2   -565286.378 3
        16.100          19.300
  21278678.639    21278677.817    21278675.913   -21359792.052 6 -16643983.851 6
        39.600          38.500
  20258973.287    20258972.732    20258969.553   -25621959.843 7 -19965155.670 8
        44.700          51.500
 09  1  7  1 31  0.0000000  0  9G28G 9G21G 6G14G19G 3G18G22
  25556766.890    25556767.293    25556768.118      600415.602      467856.262 2
                        13.900
  21413937.464    21413936.809    21413935.891   -18041136.476 6 -14058022.122 5
        36.800          35.300
  23870559.357    23870558.981    23870557.069    -8912964.738 2  -6945162.099 2
        12.600          13.900
  24461623.716    24461622.919    24461621.243    -1080398.618 2   -841866.726 2
        13.900          15.100
  21715378.068    21715377.288    21715376.084   -18455923.432 6 -14381234.100 5
        36.700          35.600
  23105460.390    23105458.706    23105456.574   -10149026.656 5  -7908330.438 5
        30.200          30.100
  24397927.674    24397926.594    24397926.450     -634017.183 2   -494036.648 3
        13.900          18.600
  21289673.920    21289673.083    21289671.259   -21302011.219 6 -16598959.823 6
        39.600          38.400
  20258842.420    20258841.892    20258838.627   -25622647.667 7 -19965691.635 8
        44.800          51.500
 09  1  7  1 31 30.0000000  0  9G28G 9G21G 6G14G19G 3G18G22
  25561505.070    25561508.770    25561503.453      625322.702      487264.411 1
                         6.500
  21414455.187    21414454.520    21414453.573   -18038416.730 6 -14055902.835 5
        36.800          35.400
  23892290.893    23892289.754    23892287.492    -8798774.003 2  -6856182.347 2
        15.100          15.100
  24478922.645    24478921.730    24478921.720     -989487.224 2   -771026.668 2
        12.600          17.000
  21700762.283    21700761.583    21700760.304   -18532729.720 6 -14441083.150 5
        36.700          35.700
  23112023.645    23112021.879    23112019.594   -10114538.082 5  -7881456.227 4
        30.400          29.500
  24415363.693    24415362.335    24415362.760     -542388.098 2   -422637.357 3
        15.100          18.600
  21300731.801    21300730.954    21300729.232   -21243901.798 6 -16553679.755 6
        39.500          38.400
  20258788.157    20258787.664    20258784.397   -25622932.774 7 -19965913.794 8
        44.800          51.500
 09  1  7  1 32  0.0000000  0  9G28G 9G21G 6G14G19G 3G18G22
  25566341.141    25566339.492    25566341.090      650720.472      507055.090 1
                         9.000
  21415112.530    21415111.907    21415111.061   -18034960.641 6 -14053209.774 5
        36.600          35.200
  23914049.858    23914048.775    23914047.001    -8684430.237 2  -6767083.331 2
        16.100          13.900
  24496251.045    24496249.933    24496250.803     -898424.060 2   -700068.389 2
        12.600          17.800
  21686216.370    21686215.595    21686214.374   -18609169.397 6 -14500646.521 5
        36.700          35.900
  23118689.157    23118687.356    23118685.160   -10079510.098 5  -7854161.710 4
        30.600          29.700
  24432836.889    24432836.302    24432836.738     -450564.675 2   -351086.651 3
        15.100          18.600
  21311853.050    21311852.216    21311850.481   -21185458.815 6 -16508139.770 6
        39.400          38.200
  20258811.786    20258811.207    20258807.914   -25622809.165 7 -19965817.471 8
        44.700          51.400
 09  1  7  1 32 30.0000000  0  8G 9G21G 6G14G19G 3G18G22
  21415908.109    21415907.458    21415906.565   -18030780.627 6 -14049952.620 5
        36.800          35.200
  23935834.800    23935834.071    23935831.675    -8569948.329 2  -6677876.685 2
        15.100          13.900
  24513606.058    24513606.163    24513605.432     -807224.403 2   -629003.736 3
        12.600          18.600
  21671738.023    21671737.230    21671735.855   -18685253.620 6 -14559932.919 5
        36.700          35.900
  23125454.612    23125452.925    23125450.890   -10043956.829 5  -7826457.873 5
        30.800          30.100
  24450345.211    24450344.671    24450344.154     -358561.906 2   -279396.196 2
        17.000          17.800
  21323035.404    21323034.622    21323032.735   -21126695.321 6 -16462350.031 6
        39.500          38.100
  20258910.550    20258910.054    20258906.836   -25622289.359 7 -19965412.426 8
        44.800          51.400
 09  1  7  1 33  0.0000000  0  8G 9G21G 6G14G19G 3G18G22
  21416843.475    21416842.786    21416841.948   -18025865.347 6 -14046122.526 5
        36.800          35.300
  23957648.107    23957647.371    23957645.226    -8455319.366 2  -6588555.444 2
        15.100          13.900
  24530988.036    24530987.786    24530987.902     -715880.133 1   -557826.393 2
        11.000          17.800
  21657329.600    21657328.905    21657327.579   -18760969.962 6 -14618932.654 6
        36.900          36.100
  23132322.140    23132320.408    23132318.334   -10007868.471 5  -7798337.088 5
        30.400          30.200
  24467887.438    24467886.586    24467887.349     -266371.590 2   -207559.580 2
        13.900          16.100
  21334280.728    21334279.927    21334278.109   -21067600.921 6 -16416302.444 6
        39.400          38.100
  20259087.252    20259086.692    20259083.369   -25621361.362 7 -19964689.308 8
        44.800          51.400
 09  1  7  1 33 30.0000000  0  8G 9G21G 6G14G19G 3G18G22
  21417922.302    21417921.578    21417920.682   -18020196.067 6 -14041704.904 5
        36.700          35.200
  23979492.699    23979491.899    23979489.751    -8340527.082 2  -6499106.940 2
        17.000          15.100
  24548400.239    24548398.546    24548399.852     -624375.004 1   -486523.688 2
         6.500          16.100
  21642995.068    21642994.335    21642993.061   -18836298.063 6 -14677629.871 6
        37.000          36.200
  23139294.547    23139292.876    23139290.908    -9971227.574 4  -7769785.748 5
        29.900          30.100
  24485469.765    24485469.201    24485469.894     -173977.818 2   -135564.449 2
        13.900          16.100
  21345592.440    21345591.621    21345589.835   -21008157.256 6 -16369982.710 6
        39.200          37.900
  20259345.031    20259344.526    20259341.177   -25620006.345 7 -19963633.451 8
        44.800          51.400
 09  1  7  1 34  0.0000000  0  8G 9G21G 6G14G19G 3G18G22
  21419141.007    21419140.250    21419139.521   -18013791.601 6 -14036714.414 5
        36.600          35.300
  24001364.116    24001363.177    24001361.558    -8225591.838 2  -6409547.029 2
        17.800          16.100
  24565839.969    24565840.509    24565838.766     -532730.289 1   -415112.247 2
         9.000          15.100
  21628731.183    21628730.492    21628729.365   -18911255.266 6 -14736038.071 6
        36.900          36.500
  23146368.289    23146366.559    23146364.710    -9934054.705 5  -7740819.897 5
        30.100          30.100
  24503086.846    24503086.524    24503085.501      -81402.279 2    -63427.665 2
        15.100          15.100
  21356967.114    21356966.251    21356964.375   -20948383.900 6 -16323406.068 6
        39.300          37.700
  20259680.598    20259680.088    20259676.841   -25618242.777 7 -19962259.240 8
        44.800          51.400
 09  1  7  1 34 30.0000000  0  9G 9G11G21G 6G14G19G 3G18G22
  21420500.870    21420500.263    21420499.459   -18006645.153 6 -14031145.749 5
        36.700          35.300
  24828420.484    24828420.557    24828420.271           -.7341          -.20411
                         9.000
  24023263.270    24023262.727    24023261.176    -8110508.806 2  -6319871.971 2
        17.000          15.100
  24583308.253    24583307.175    24583306.323     -440941.885 2   -343588.858 2
        12.600          16.100
  21614539.335    21614538.699    21614537.620   -18985833.155 6 -14794150.700 6
        36.900          36.600
  23153544.149    23153542.714    23153540.704    -9896344.172 4  -7711435.073 4
        29.900          29.700
  24520738.107    24520737.816    24520737.647       11358.935 2      8853.794 2
        12.600          13.900
  21368405.439    21368404.609    21368402.690   -20888274.313 6 -16276567.426 6
        39.100          37.600
  20260095.441    20260094.924    20260091.676   -25616063.010 7 -19960560.720 8
        44.800          51.500
 09  1  7  1 35  0.0000000  0  9G 9G11G21G 6G14G19G 3G18G22
  21421998.287    21421997.661    21421996.857   -17998775.719 6 -14025013.723 5
        36.700          35.100
  24809858.207    24809858.229    24809857.853      -97550.470      -76012.990 1
         3.000          11.000
  24045186.528    24045185.644    24045184.601    -7995299.310 2  -6230098.376 2
        15.100          12.600
  24600797.438    24600796.904    24600797.121     -349031.564 2   -271970.470 3
        12.600          18.600
  21600416.623    21600415.832    21600414.808   -19060049.559 6 -14851981.655 6
        37.100          36.700
  23160818.723    23160817.027    23160815.324    -9858116.486 4  -7681647.272 4
        29.200          29.500
  24538421.427    24538420.866    24538419.926      104283.867 1     81262.812 2
        11.000          15.100
  21379904.037    21379903.235    21379901.408   -20827848.103 6 -16229482.066 6
        39.000          37.400
  20260585.881    20260585.313    20260582.086   -25613485.856 7 -19958552.546 8
        44.700          51.400
 09  1  7  1 35 30.0000000  0  9G 9G11G21G 6G14G19G 3G18G22
  21423635.243    21423634.583    21423633.482   -17990174.338 6 -14018311.344 5
        36.600          34.800
  24791339.526    24791340.322    24791340.559     -194862.459 1   -151840.525 2
         6.500          12.600
  24067134.992    24067134.122    24067134.056    -7879956.178 2  -6140220.645 1
        13.900          11.000
  24618310.170    24618309.996    24618311.879     -256992.891 1   -200252.032 3
        11.000          19.300
  21586364.419    21586363.638    21586362.718   -19133893.759 6 -14909522.579 6
        37.100          37.100
  23168193.368    23168191.601    23168189.137    -9819363.809 4  -7651450.393 4
        29.500          28.800
  24556136.788    24556135.631    24556135.633      197379.134 1    153804.549 2
         6.500          13.900
  21391464.776    21391463.923    21391461.983   -20767096.851 6 -16182143.425 6
        39.000          37.400
  20261153.676    20261153.160    20261149.933   -25610501.839 7 -19956227.335 8
        44.700          51.400
 09  1  7  1 36  0.0000000  0  9G 9G11G21G 6G14G19G 3G18G22
  21425412.418    21425411.732    21425410.852   -17980834.098 6 -14011033.237 5
        36.400          34.700
  24772869.729    24772869.236    24772869.664     -291927.857 1   -227475.922 1
         6.500          11.000
  24089111.474    24089109.715    24089109.825    -7764475.085 2  -6050235.410 1
        15.100           9.000
  24635851.809    24635851.118    24635851.314     -164821.751 2   -128430.347 3
        16.100          19.300
  21572384.817    21572384.047    21572382.871   -19207357.642 6 -14966767.151 6
        37.300          37.000
  23175667.999    23175666.532    23175664.543    -9780081.502 4  -7620840.819 4
        29.200          28.600
  24573886.684    24573885.500    24573884.942      290648.619 1    226482.046 2
        11.000          15.100
  21403088.149    21403087.393    21403085.613   -20706014.246 6 -16134546.590 6
        38.900          37.200
  20261800.289    20261799.763    20261796.451   -25607104.147 7 -19953579.780 8
        44.800          51.400
 09  1  7  1 36 30.0000000  0  9G 9G11G21G 6G14G19G 3G18G22
  21427330.274    21427329.472    21427328.552   -17970757.429 6 -14003181.283 5
        36.600          35.100
  24754447.720    24754446.959    24754446.713     -388745.597 1   -302918.345 1
         6.500          11.000
  24111111.075    24111110.237    24111109.313    -7648859.853 2  -5960145.647 1
        16.100          11.000
  24653416.419    24653415.321    24653414.488      -72522.858 2    -56509.155 2
        16.100          17.000
  21558477.447    21558476.670    21558475.484   -19280441.957 6 -15023715.963 6
        37.400          37.200
  23183243.737    23183242.058    23183240.093    -9740272.776 4  -7589821.033 4
        29.000          29.200
  24591667.509    24591666.291    24591665.616      384087.339 2    299291.456 2
        12.600          13.900
  21414774.593    21414773.829    21414771.916   -20644602.444 6 -16086693.239 6
        38.800          37.200
  20262525.290    20262524.737    20262521.446   -25603294.247 7 -19950611.022 8
        44.700          51.400
 09  1  7  1 37  0.0000000  0  9G 9G11G21G 6G14G19G 3G18G22
  21429386.498    21429385.725    21429384.848   -17959952.712 6 -13994762.022 5
        36.700          35.300
  24736069.365    24736068.234    24736067.787     -485321.090     -378172.000 1
                        11.000
  24133134.639    24133134.998    24133134.185    -7533121.078 2  -5869959.637 1
        15.100          11.000
  24671000.778    24671000.130    24670999.512       19893.140 2     15503.265 2
        13.900          15.100
  21544640.868    21544640.206    21544638.879   -19353153.254 6 -15080374.113 6
        37.700          37.200
  23190917.657    23190915.855    23190914.013    -9699946.830 4  -7558398.215 4
        29.000          29.900
  24609476.809    24609476.275    24609477.616      477684.747 2    372224.539 2
        13.900          13.900
  21426521.922    21426521.060    21426519.109   -20582870.496 6 -16038590.421 6
        38.600          37.000
  20263327.238    20263326.751    20263323.596   -25599079.176 7 -19947326.548 8
        44.600          51.400
 09  1  7  1 37 30.0000000  0  9G 9G11G21G 6G14G19G 3G18G22
  21431581.379    21431580.749    21431579.942   -17948416.025 6 -13985772.389 5
        36.200          35.200
  24717738.537    24717739.325    24717735.524     -581647.667     -453231.661 1
                         9.000
  24155184.129    24155183.513    24155181.609    -7417256.245 2  -5779675.394 1
        15.100           9.000
  24688609.933    24688609.898    24688608.980      112427.532 2     87607.989 2
        12.600          16.100
  21530876.439    21530875.689    21530874.539   -19425485.832 6 -15136737.156 6
        37.800          37.500
  23198690.124    23198688.444    23198686.522    -9659101.762 4  -7526570.902 5
        29.200          30.100
  24627318.621    24627318.147    24627318.266      571441.813 2    445281.989 2
        15.100          13.900
  21438330.554    21438329.738    21438327.918   -20520815.018 6 -15990235.508 6
        38.500          36.900
  20264207.284    20264206.714    20264203.491   -25594455.151 7 -19943723.410 8
        44.600          51.400
 09  1  7  1 38  0.0000000  0  9G 9G11G21G 6G14G19G 3G18G22
  21433915.169    21433914.579    21433913.975   -17936151.652 6 -13976215.738 5
        36.100          35.200
  24699457.642    24699456.377    24699450.807     -677726.934     -528098.599 1
         3.000          11.000
  24177255.923    24177254.952    24177253.607    -7301271.962 2  -5689298.079 1
        17.800           6.500
  24706240.747    24706240.128    24706239.472      205073.485 1    159799.603 2
        11.000          17.800
  21517183.647    21517182.816    21517181.434   -19497442.995 6 -15192807.666 6
        37.900          37.500
  23206560.252    23206558.522    23206556.864    -9617743.320 4  -7494343.554 4
        29.000          29.900
  24645189.648    24645188.627    24645188.608      665351.438 2    518458.277 2
        13.900          13.900
  21450199.928    21450199.232    21450197.229   -20458440.904 6 -15941632.301 6
        38.600          36.700
  20265164.188    20265163.653    20265160.462   -25589426.315 7 -19939804.835 8
        44.600          51.300
 09  1  7  1 38 30.0000000  0  9G 9G11G21G 6G14G19G 3G18G22
  21436389.185    21436388.495    21436387.370   -17923153.286 6 -13966087.133 5
        36.600          35.300
  24681221.576    24681219.940    24681216.478     -773549.581     -602765.559 1
                         9.000
  24199350.907    24199349.673    24199349.546    -7185163.711 3  -5598824.136 1
        18.600           6.500
  24723891.592    24723891.256    24723892.899      297834.959 1    232081.229 2
         9.000          17.800
  21503563.534    21503562.775    21503561.461   -19569016.427 6 -15248579.165 6
        38.100          37.600
  23214529.580    23214527.692    23214525.902    -9575866.289 4  -7461712.105 5
        29.000          30.100
  24663089.874    24663089.216    24663087.634      759417.535 2    591756.509 2
        13.900          13.900
  21462131.198    21462130.432    21462128.700   -20395741.334 6 -15892775.491 6
        38.400          36.800
  20266199.633    20266199.130    20266195.821   -25583985.047 7 -19935564.886 8
        44.600          51.200
 09  1  7  1 39  0.0000000  0  9G 9G11G21G 6G14G19G 3G18G22
  21439002.347    21439001.665    21439000.843   -17909419.709 6 -13955385.642 5
        36.500          35.200
  24663035.289    24663034.833    24663033.130     -869111.414     -677229.298 1
         3.000          11.000
  24221468.872    24221468.335    24221467.006    -7068931.951 3  -5508253.950 1
        19.300           6.500
  24741567.369    24741566.279    24741565.612      390710.696 1    304451.900 2
         6.500          17.800
  21490016.909    21490016.202    21490015.074   -19640203.311 6 -15304049.453 6
        38.000          37.700
  23222596.851    23222595.152    23222593.101    -9533470.734 4  -7428676.617 4
        29.200          29.700
  24681019.143    24681017.459    24681017.890      853638.881 1    665175.744 2
        11.000          16.100
  21474124.664    21474123.854    21474122.034   -20332715.870 6 -15843664.740 6
        38.400          36.600
  20267313.847    20267313.305    20267310.104   -25578129.755 7 -19931002.319 8
        44.500          51.200
 09  1  7  1 39 30.0000000  0  9G 9G11G21G 6G14G19G 3G18G22
  21441755.051    21441754.363    21441753.494   -17894954.286 6 -13944113.883 5
        36.400          35.100
  24644901.635    24644900.347    24644898.699     -964412.830 1   -751490.085 2
         9.000          12.600
  24243610.577    24243609.391    24243607.863    -6952582.077 3  -5417591.741 1
        18.600           6.500
  24759258.941    24759259.204    24759259.961      483695.305      376907.409 2
                        12.600
  21476543.624    21476542.923    21476541.923   -19711005.527 6 -15359220.000 6
        38.000          37.800
  23230762.457    23230760.559    23230758.859    -9490561.520 4  -7395240.873 4
        29.000          29.900
  24698977.396    24698976.295    24698977.515      948009.645 1    738711.380 3
        11.000          18.600
  21486179.333    21486178.528    21486176.720   -20269368.131 6 -15794302.865 6
        38.200          36.500
  20268506.373    20268505.859    20268502.635   -25571863.194 7 -19926119.283 8
        44.500          51.300
 09  1  7  1 40  0.0000000  0  9G 9G11G21G 6G14G19G 3G18G22
  21444646.255    21444645.531    21444644.796   -17879760.152 6 -13932274.295 5
        36.200          34.900
  24626817.181    24626816.875    24626813.546    -1059453.630 2   -825547.821 2
        13.900          12.600
  24265772.249    24265771.159    24265769.143    -6836118.489 2  -5326840.907 1
        17.000           9.000
  24776974.819    24776976.761    24776974.042      576783.400      449443.479 1
                        11.000
  21463143.564    21463142.732    21463141.634   -19781424.117 6 -15414091.624 6
        38.100          37.800
  23239024.884    23239023.001    23239020.887    -9447142.787 4  -7361408.106 4
        28.800          29.500
  24716962.889    24716961.803    24716961.925     1042524.290 2    812359.165 2
        12.600          17.800
  21498294.686    21498293.885    21498292.036   -20205701.519 6 -15744692.525 6
        38.100          36.400
  20269776.854    20269776.366    20269773.084   -25565186.669 7 -19920916.795 8
        44.500          51.200
 09  1  7  1 40 30.0000000  0  9G 9G14G11G21G 6G19G 3G18G22
  21447675.852    21447675.209    21447674.439   -17863839.958 6 -13919868.945 5
        36.400          35.100
  21449816.193    21449815.428    21449814.254   -19851459.912 6 -15468664.968 6
        38.200          38.100
  24608781.507    24608780.865    24608777.072    -1154233.530 2   -899402.260 2
        13.900          12.600
  24287954.283    24287953.760    24287953.296    -6719545.539 2  -5236004.917 2
        17.800          13.900
  24794708.435    24794706.720    24794705.657      669970.052      522056.370 1
                         9.000
  23247382.835    23247381.336    23247379.513    -9403218.528 4  -7327181.412 4
        28.400          28.800
  24734975.644    24734974.907    24734973.504     1137177.884 2    886115.189 2
        13.900          16.100
  21510470.272    21510469.459    21510467.417   -20141718.646 6 -15694835.740 5
        38.100          35.900
  20271124.688    20271124.146    20271120.931   -25558103.811 7 -19915397.682 8
        44.400          51.100
 09  1  7  1 41  0.0000000  0  9G 9G14G11G21G 6G19G 3G18G22
  21450844.347    21450843.731    21450843.119   -17847188.750 6 -13906893.973 5
        36.400          34.900
  21436562.962    21436562.187    21436560.981   -19921106.221 6 -15522934.817 6
        38.300          38.100
  24590796.267    24590795.707    24590792.402    -1248744.546 2   -973047.149 2
        12.600          12.600
  24310159.089    24310158.343    24310157.347    -6602860.469 3  -5145081.536 2
        19.300          15.100
  24812458.579    24812459.802    24812458.475      763257.725      594748.100 1
                         9.000
  23255838.642    23255837.091    23255834.740    -9358785.151 4  -7292558.012 4
        29.000          29.000
  24753012.921    24753012.437    24753012.716     1231972.719 2    959981.268 2
        12.600          17.000
  21522707.073    21522706.246    21522704.082   -20077414.591 6 -15644728.683 5
        38.100          35.900
  20272551.164    20272550.608    20272547.234   -25550607.984 7 -19909556.775 8
        44.500          51.000
 09  1  7  1 41 30.0000000  0  9G 9G14G11G21G 6G19G 3G18G22
  21454151.419    21454150.745    21454150.083   -17829810.151 6 -13893352.205 5
        36.300          35.100
  21423383.522    21423382.759    21423381.496   -19990364.881 6 -15576902.600 6
        38.400          38.200
  24572862.934    24572861.932    24572859.464    -1342987.112 1  -1046482.889 1
         9.000           9.000
  24332384.481    24332383.241    24332382.089    -6486067.796 3  -5054074.288 2
        18.600          16.100
  24830231.470    24830230.227    24830229.376      856641.046      667514.258 1
         3.000          11.000
  23264390.044    23264388.360    23264386.245    -9313847.378 4  -7257541.570 4
        28.600          29.500
  24771077.770    24771077.809    24771078.021     1326903.437 1   1033953.237 2
        11.000          17.000
  21535003.710    21535003.026    21535001.218   -20012793.226 6 -15594374.372 5
        38.000          35.900
  20274055.523    20274054.994    20274051.686   -25542702.260 7 -19903396.469 8
        44.400          51.100
 09  1  7  1 42  0.0000000  0  9G 9G14G11G21G 6G19G 3G18G22
  21457597.107    21457596.438    21457595.774   -17811703.235 6 -13879242.921 5
        36.300          34.900
  21410278.119    21410277.330    21410276.188   -20059233.551 6 -15630566.494 6
        38.400          38.400
  24554979.755    24554978.942    24554977.120    -1436957.166 1  -1119706.300 1
         9.000           6.500
  24354629.616    24354628.385    24354626.948    -6369168.731 2  -4962984.158 2
        16.100          16.100
  24848019.065    24848018.902    24848016.518      950118.407      740353.767 2
         3.000          12.600
  23273036.992    23273035.370    23273033.402    -9268405.685 4  -7222132.464 4
        28.400          29.000
  24789167.834    24789167.532    24789167.555     1421968.379 1   1108029.805 2
        11.000          17.000
  21547361.516    21547360.713    21547358.810   -19947853.593 6 -15543772.065 5
        38.000          35.700
  20275638.257    20275637.723    20275634.487   -25534384.866 7 -19896915.382 8
        44.400          51.100
 09  1  7  1 42 30.0000000  0  9G 9G14G19G11G21G 6G 3G18G22
  21461182.154    21461181.456    21461180.633   -17792863.169 6 -13864562.349 5
        36.100          34.500
  21397248.392    21397247.666    21397246.404   -20127705.353 6 -15683921.139 6
        38.500          38.400
  23281780.624    23281778.852    23281777.364    -9222456.484 4  -7186327.899 4
        27.900          29.200
  24537148.776    24537149.028    24537146.399    -1530646.991 1  -1192711.350 1
         6.500           6.500
  24376895.277    24376894.142    24376893.241    -6252159.928 1  -4871808.533 2
        11.000          15.100
  24865822.349    24865821.660    24865824.456     1043692.555      813268.687 1
                        11.000
  24807285.661    24807283.996    24807283.940     1517169.668 1   1182212.587 2
         9.000          16.100
  21559780.625    21559779.670    21559777.747   -19882591.073 6 -15492918.147 5
        37.800          35.400
  20277300.432    20277299.898    20277296.551   -25525650.223 7 -19890109.167 8
        44.400          51.000
 09  1  7  1 43  0.0000000  0  9G 9G14G19G11G21G 6G 3G18G22
  21464904.999    21464904.388    21464903.338   -17773300.000 6 -13849318.318 5
        36.400          34.500
  21384292.660    21384291.888    21384290.723   -20195788.172 6 -15736972.678 6
        38.500          38.600
  23290619.621    23290617.772    23290615.858    -9176010.921 4  -7150136.547 4
        28.600          29.700
  24519372.238    24519372.922    24519370.093    -1624062.727    -1265502.829 1
                         9.000
  24399178.769    24399178.379    24399177.885    -6135052.806 1  -4780556.289 2
         6.500          13.900
  24883647.194    24883646.409    24883646.319     1137351.575 1    886249.784 1
         6.500          11.000
  24825425.091    24825424.044    24825424.556     1612495.724 1   1256492.597 2
         9.000          17.000
  21572259.199    21572258.328    21572256.484   -19817015.775 6 -15441820.513 5
        37.900          35.500
  20279040.231    20279039.668    20279036.493   -25516507.297 7 -19882984.809 8
        44.300          51.000
 09  1  7  1 43 30.0000000  0  9G 9G14G19G11G21G 6G 3G18G22
  21468765.724    21468765.052    21468764.102   -17753012.836 6 -13833510.132 5
        36.500          34.700
  21371411.318    21371410.579    21371409.547   -20263479.482 6 -15789719.144 6
        38.400          38.900
  23299551.647    23299550.165    23299548.502    -9129069.121 4  -7113558.525 4
        27.600          29.700
  24501649.944    24501647.987    24501647.792    -1717200.402    -1338077.629 1
                         9.000
  24421482.385    24421481.450    24421481.259    -6017848.202 1  -4689228.071 1
         6.500          11.000
  24901486.708    24901485.846    24901485.444     1231094.473 2    959296.175 1
        12.600          11.000
  24843588.515    24843586.995    24843586.985     1707945.401 1   1330868.914 2
         9.000          16.100
  21584797.679    21584796.843    21584794.619   -19751126.862 6 -15390478.502 5
        38.000          35.200
  20280858.028    20280857.524    20280854.324   -25506954.540 7 -19875541.101 8
        44.300          51.000
 09  1  7  1 44  0.0000000  0  9G 9G14G19G18G11G21G 6G 3G22
  21472765.212    21472764.559    21472763.856   -17731994.217 6 -13817131.990 5
        36.200          34.700
  21358606.361    21358605.578    21358604.543   -20330770.034 6 -15842153.331 6
        38.400          39.000
  23308580.143    23308578.470    23308576.756    -9081625.002 4  -7076589.095 4
        27.600          29.900
  21597396.882    21597395.973    21597393.805   -19684916.693 6 -15338886.165 5
        37.600          34.900
  24483981.374    24483981.337    24483979.853    -1810049.649    -1410427.685 1
                         9.000
  24443807.135    24443806.060    24443804.439    -5900539.772    -4597818.956 2
         3.000          12.600
  24919340.410    24919340.273    24919340.604     1324926.348 2   1032411.922 1
        15.100           6.500
  24861776.597    24861775.658    24861775.901     1803523.417 2   1405345.263 2
        12.600          15.100
  20282755.437    20282754.898    20282751.709   -25496983.470 7 -19867771.434 8
        44.100          50.900
 09  1  7  1 44 30.0000000  0  9G 9G14G19G18G11G21G 6G 3G22
  21476902.071    21476901.382    21476900.464   -17710255.270 6 -13800192.546 5
        36.100          34.500
  21345875.747    21345875.021    21345874.060   -20397669.025 6 -15894282.402 6
        38.400          39.100
  23317701.791    23317699.994    23317698.751    -9033690.728 4  -7039237.729 5
        27.600          30.100
  21610055.366    21610054.540    21610052.375   -19618396.147 6 -15287051.972 5
        37.700          35.100
  24466367.774    24466367.173    24466365.790    -1902617.849    -1482558.752 1
                        11.000
  24466148.758    24466148.450    24466144.530    -5783140.266 1  -4506338.888 2
         6.500          13.900
  24937211.137    24937210.504    24937209.889     1418834.349 2   1105586.981
        15.100           3.000
  24879986.322    24879985.375    24879985.792     1899216.502 2   1479911.295 2
        12.600          12.600
  20284730.697    20284730.165    20284726.914   -25486603.736 7 -19859683.328 8
        44.100          50.900
 09  1  7  1 45  0.0000000  0  9G 9G14G19G11G21G 6G 3G18G22
  21481175.675    21481174.973    21481174.378   -17687796.571 5 -13782692.259 5
        35.800          34.800
  21333220.316    21333219.558    21333218.475   -20464174.662 6 -15946104.968 6
        38.600          39.200
  23326916.764    23326914.680    23326912.833    -8985267.953 4  -7001505.706 4
        27.600          29.500
  24448805.368    24448804.512    24448803.981    -1994902.498    -1554468.888 1
                         9.000
  24488504.951    24488503.695    24488502.583    -5665651.650 1  -4414789.391 2
         6.500          13.900
  24955094.928    24955094.084    24955094.848     1512815.799 2   1178819.330
        15.100           3.000
  24898217.131    24898216.731    24898216.509     1995022.148 2   1554565.017 1
        12.600          11.000
  21622772.564    21622771.712    21622769.952   -19551566.144 6 -15234976.649 5
        37.600          35.200
  20286783.607    20286783.080    20286779.792   -25475815.562 7 -19851276.957 8
        44.100          50.800
 09  1  7  1 45 30.0000000  0  9G 9G14G19G11G21G 6G 3G18G22
  21485586.299    21485585.668    21485584.958   -17664619.160 5 -13764631.936 5
        35.800          34.900
  21320639.659    21320638.984    21320637.816   -20530286.117 6 -15997620.378 6
        38.600          39.300
  23336223.341    23336222.031    23336220.042    -8936358.948 4  -6963394.797 4
        28.400          29.500
  24431300.441    24431300.924    24431295.880    -2086901.075    -1626156.146 1
                         9.000
  24510878.812    24510878.503    24510875.861    -5548076.315 1  -4323172.330 2
         6.500          12.600
  24972993.856    24972992.943    24972993.799     1606867.899 2   1252106.719
        13.900           3.000
  24916466.757    24916468.228    24916468.068     2090937.588 1   1629304.351 1
        11.000          11.000
  21635548.601    21635547.835    21635546.004   -19484427.363 6 -15182660.719 5
        37.500          35.100
  20288914.120    20288913.653    20288910.517   -25464619.009 7 -19842552.370 8
        44.100          50.800
 09  1  7  1 46  0.0000000  0  9G 9G14G19G11G21G 6G 3G18G22
  21490132.665    21490131.879    21490131.293   -17640727.733 5 -13746015.240 5
        35.700          34.700
  21308133.708    21308132.969    21308131.647   -20596006.424 6 -16048831.000 6
        38.700          39.400
  23345621.602    23345620.059    23345618.529    -8886969.473 4  -6924909.515 4
        27.600          29.200
  24413850.035    24413849.015    24413843.709    -2178614.864    -1697621.394 1
                         9.000
  24533268.369    24533267.723    24533265.178    -5430420.661 1  -4231492.658 1
         6.500           9.000
  24990903.615    24990902.874    24990903.645     1700984.045 2   1325444.000 1
        13.900           9.000
  24934740.011    24934739.704    24934740.832     2186955.459 1   1704123.476 1
        11.000          11.000
  21648382.602    21648381.739    21648379.824   -19416984.523 6 -15130107.857 5
        37.300          34.700
  20291121.879    20291121.311    20291118.067   -25453017.903 7 -19833512.545 8
        44.100          50.800
 09  1  7  1 46 30.0000000  0  9G 9G14G19G11G21G 6G 3G18G22
  21494816.890    21494816.292    21494815.365   -17616112.539 6 -13726834.571 5
        36.000          34.700
  21295704.121    21295703.416    21295702.139   -20661323.595 6 -16099727.487 6
        38.700          39.500
  23355113.384    23355112.060    23355110.030    -8837091.187 4  -6886043.324 4
        27.600          28.400
  24396451.854    24396450.751    24396446.243    -2270030.702    -1768854.483 1
                         9.000
  24555673.292    24555672.975    24555672.313    -5312676.084 1  -4139743.738
         9.000           3.000
  25008826.334    25008826.137    25008825.269     1795172.070 1   1398837.233
        11.000           3.000
  24953033.292    24953032.315    24953033.428     2283083.746 2   1779028.620 1
        12.600          11.000
  21661276.512    21661275.562    21661273.707   -19349227.485 6 -15077310.167 5
        37.200          34.700
  20293408.760    20293408.200    20293404.858   -25441000.543 7 -19824148.366 8
        44.100          50.700
 09  1  7  1 47  0.0000000  0  9G 9G14G19G11G21G 6G 3G18G22
  21499639.133    21499638.492    21499637.454   -17590771.681 6 -13707088.444 5
        36.000          34.600
  21283352.212    21283351.465    21283350.233   -20726233.400 6 -16150306.543 6
        38.800          39.500
  23364698.681    23364696.745    23364694.806    -8786722.728 4  -6846795.176 4
        28.100          28.400
  24379112.255    24379111.068    24379106.911    -2361143.328    -1839851.231 1
                         6.500
  24578098.353    24578096.824    24578097.576    -5194841.276 2  -4047924.435
        13.900
  25026762.216    25026761.395    25026761.900     1889432.448 1   1472286.829 1
         6.500           6.500
  24971350.086    24971348.904    24971347.646     2379323.137 2   1854020.321 2
        15.100          12.600
  21674230.215    21674229.403    21674227.518   -19281154.432 6 -15024266.228 5
        37.100          34.700
  20295775.062    20295774.560    20295771.328   -25428564.859 7 -19814458.220 8
        44.000          50.600
 09  1  7  1 47 30.0000000  0  8G 9G14G19G11G 6G 3G18G22
  21504597.807    21504597.101    21504596.152   -17564713.589 5 -13686783.437 5
        35.800          34.500
  21271076.463    21271075.803    21271074.545   -20790742.336 6 -16200573.234 6
        38.800          39.600
  23374374.532    23374373.006    23374371.066    -8735873.678 4  -6807172.531 4
        27.900          28.400
  24361832.209    24361831.861    24361828.091    -2451957.046    -1910615.134 1
         3.000           9.000
  25044711.971    25044710.212    25044711.182     1983754.917     1545784.822 1
         3.000           9.000
  24989678.654    24989679.187    24989679.221     2475663.029 2   1929090.340 2
        12.600          12.600
  21687242.671    21687241.848    21687240.065   -19212772.809 6 -14970981.851 5
        36.600          34.500
  20298219.727    20298219.222    20298216.002   -25415717.833 7 -19804447.552 8
        44.000          50.600
 09  1  7  1 48  0.0000000  0  9G 9G14G19G11G21G 6G 3G18G22
  21509692.904    21509692.326    21509691.550   -17537937.258 5 -13665918.761 5
        35.600          34.600
  21258877.595    21258876.929    21258875.672   -20854847.554 6 -16250525.337 6
        38.900          39.700
  23384141.927    23384140.878    23384138.839    -8684544.043 4  -6767175.434 4
        28.100          28.400
  24344607.859    24344607.262    24344605.051    -2542467.843 1  -1981143.051 1
         6.500           9.000
  24622991.077    24622990.433    24622990.352           -.32713         -.3801
        19.900           3.000
  25062673.590    25062673.010    25062672.210     2078138.453     1619330.441 1
                        11.000
  25008030.065    25008029.686    25008029.982     2572102.318 1   2004237.830 1
         6.500          11.000
  21700314.230    21700313.387    21700311.432   -19144082.184 6 -14917456.688 5
        36.900          34.500
  20300743.346    20300742.799    20300739.511   -25402456.855 7 -19794114.321 8
        44.000          50.500
 09  1  7  1 48 30.0000000  0  9G 9G14G19G11G21G 6G 3G18G22
  21514924.967    21514924.357    21514923.639   -17510442.566 5 -13644494.321 5
        35.500          34.500
  21246756.064    21246755.333    21246754.146   -20918546.878 6 -16300161.159 6
        38.900          39.800
  23394001.537    23394000.051    23393997.729    -8632734.959 4  -6726804.736 4
        28.100          28.100
  24327442.928    24327442.996    24327439.602    -2632671.818 1  -2051431.872 1
         9.000          11.000
  24645459.940    24645458.904    24645457.667      118073.611 2     92005.306 1
        17.800           6.500
  25080647.241    25080645.368    25080643.641     2172581.720     1692922.578 1
                        11.000
  25026402.031    25026401.004    25026401.942     2668639.287 1   2079461.448 2
        11.000          12.600
  21713444.715    21713443.840    21713441.962   -19075081.803 6 -14863690.160 5
        36.900          34.700
  20303345.744    20303345.178    20303341.806   -25388781.294 7 -19783458.037 8
        44.000          50.300
 09  1  7  1 49  0.0000000  0  9G 9G14G19G11G21G 6G 3G18G22
  21520291.984    21520291.150    21520289.949   -17482241.384 5 -13622519.374 5
        35.600          34.100
  21234709.808    21234709.225    21234707.982   -20981849.952 6 -16349488.218 6
        39.000          40.000
  23403949.055    23403947.341    23403945.325    -8580459.346 4  -6686070.500 4
        27.900          28.100
  24310334.147    24310333.339    24310331.712    -2722577.665    -2121488.365 2
         3.000          12.600
  24667942.012    24667940.384    24667938.880      236213.295 1    184062.146 1
        11.000          11.000
  25098624.354    25098621.835    25098626.340     2267071.020     1766550.630 1
                         9.000
  25044789.975    25044789.106    25044790.207     2765260.283 1   2154750.504 2
        11.000          13.900
  21726631.565    21726630.721    21726628.940   -19005783.402 6 -14809691.413 5
        36.500          34.500
  20306024.933    20306024.363    20306021.000   -25374702.148 7 -19772487.273 8
        44.000          50.300
 09  1  7  1 49 30.0000000  0  9G 9G14G19G11G21G 6G 3G18G22
  21525793.098    21525792.303    21525791.275   -17453331.356 5 -13599992.076 5
        35.300          34.000
  21222739.964    21222739.314    21222738.063   -21044752.289 6 -16398503.019 6
        39.200          40.100
  23413985.630    23413984.131    23413982.359    -8527716.021 4  -6644971.820 4
        27.400          28.600
  24293280.458    24293280.914    24293279.760    -2812179.328    -2191307.824 1
                        11.000
  24690435.919    24690434.915    24690432.181      354419.950 1    276171.150 2
         6.500          13.900
  25116618.963    25116615.330    25116610.705     2361607.066     1840216.754 1
                         6.500
  25063188.630    25063188.505    25063190.432     2861965.506     2230105.265 2
         3.000          12.600
  21739875.888    21739875.057    21739873.040   -18936184.657 6 -14755458.626 5
        36.600          34.100
  20308781.456    20308780.941    20308777.730   -25360215.766 7 -19761199.182 8
        43.900          50.400
 09  1  7  1 50  0.0000000  0  9G 9G14G19G11G21G 6G 3G18G22
  21531430.927    21531430.235    21531429.301   -17423703.970 5 -13576905.798 5
        35.300          34.300
  21210848.430    21210847.662    21210846.454   -21107243.211 6 -16447197.237 6
        39.300          40.200
  23424112.586    23424111.262    23424109.543    -8474497.563 4  -6603502.911 4
        27.100          29.000
  24276289.764    24276289.930    24276288.024    -2901464.361    -2260880.533 1
                         6.500
  24712942.790    24712941.396    24712940.639      472701.075      368338.157 2
                        15.100
  25134613.786    25134615.438    25134617.213     2456196.707     1913927.044 1
                         9.000
  25081612.199    25081611.835    25081608.914     2958762.386     2305531.430 1
                        11.000
  21753178.955    21753178.166    21753176.049   -18866276.511 6 -14700984.744 5
        36.500          34.000
  20311617.522    20311617.029    20311613.759   -25345312.040 7 -19749585.887 8
        43.900          50.300
 09  1  7  1 50 30.0000000  0  9G 9G14G19G11G21G 6G 3G18G22
  21537204.084    21537203.435    21537202.314   -17393366.996 5 -13553266.603 5
        35.600          34.400
  21199034.060    21199033.276    21199032.014   -21169328.268 6 -16495575.200 6
        39.300          40.400
  23434328.934    23434327.368    23434325.329    -8420812.336 4  -6561670.272 4
        27.600          28.600
  24259360.532    24259361.633    24259357.055    -2990436.923    -2330209.858 1
         3.000           6.500
  24735462.886    24735461.495    24735460.761      591047.878      460556.336 2
                        17.000
  25152625.802    25152623.767    25152622.141     2550830.984     1987668.146 1
                        11.000
  25100048.188    25100046.428    25100045.758     3055641.419     2381021.411 1
         3.000           9.000
  21766539.641    21766538.723    21766536.804   -18796065.972 6 -14646275.239 5
        36.300          34.000
  20314531.807    20314531.345    20314528.082   -25329997.458 7 -19737652.446 8
        43.800          50.200
 09  1  7  1 51  0.0000000  0  9G 9G14G19G11G21G 6G 3G18G22
  21543110.276    21543109.568    21543108.646   -17362329.320 5 -13529081.397 5
        35.400          34.100
  21187295.660    21187294.845    21187293.626   -21231014.035 6 -16543642.021 6
        39.300          40.500
  23444632.535    23444630.627    23444628.071    -8366669.911 4  -6519481.369 4
        27.600          28.100
  24242487.903    24242488.330    24242485.542    -3079102.288    -2399299.750 2
         3.000          12.600
  24757992.663    24757993.226    24757991.813      709450.654 1    552818.165 2
         6.500          17.000
  25170636.522    25170638.393    25170637.128     2645499.384     2061435.651 2
                        13.900
  25118496.997    25118495.852    25118494.666     3152591.352 1   2456566.833 1
         6.500          11.000
  21779956.172    21779955.367    21779953.211   -18725561.532 6 -14591336.718 5
        36.200          33.800
  20317522.871    20317522.353    20317519.121   -25314279.383 7 -19725404.596 8
        43.700          50.100
 09  1  7  1 51 30.0000000  0  9G 9G14G19G11G21G 6G 3G18G22
  21549151.693    21549150.846    21549149.867   -17330581.630 5 -13504342.939 5
        35.200          34.000
  21175635.248    21175634.589    21175633.413   -21292288.925 6 -16591388.680 6
        39.500          40.600
  23455023.731    23455021.849    23455019.975    -8312062.123 4  -6476929.845 4
        27.100          28.100
  24225676.562    24225676.520    24225674.874    -3167446.839 1  -2468139.642 2
         6.500          13.900
  24780536.468    24780536.414    24780535.993      827917.610 1    645130.024 2
         9.000          16.100
  25188661.245    25188659.203    25188661.229     2740209.742     2135235.938 2
                        13.900
  25136961.319    25136959.540    25136960.521     3249620.555 1   2532174.068 1
         6.500          11.000
  21793430.636    21793429.708    21793427.602   -18654753.364 6 -14536161.525 5
        36.300          33.800
  20320592.692    20320592.154    20320588.811   -25298147.770 7 -19712834.510 8
        43.700          50.100
 09  1  7  1 52  0.0000000  0  8G 9G14G19G11G21G 3G18G22
  21555327.899    21555327.227    21555326.391   -17298124.237 5 -13479051.468 5
        35.300          34.000
  21164053.747    21164052.976    21164051.719   -21353150.909 6 -16638813.596 6
        39.500          40.700
  23465503.346    23465501.496    23465499.720    -8256990.081 4  -6434016.562 4
        26.800          27.900
  24208927.424    24208927.070    24208925.595    -3255467.332 1  -2536727.023 2
         9.000          13.900
  24803093.387    24803092.560    24803090.841      946447.626 1    737491.017 2
         9.000          15.100
  25155441.792    25155441.052    25155438.583     3346727.461     2607841.792 1
                         9.000
  21806962.699    21806961.904    21806959.961   -18583641.107 6 -14480749.374 5
        36.200          33.900
  20323741.286    20323740.774    20323737.553   -25281601.414 7 -19699941.243 8
        43.600          50.000
 09  1  7  1 52 30.0000000  0  8G 9G14G18G11G21G19G 3G22
  21561638.306    21561637.701    21561636.663   -17264962.885 5 -13453211.450 5
        35.300          33.900
  21152549.951    21152549.154    21152547.993   -21413603.739 6 -16685919.685 6
        39.600          40.900
  21820551.305    21820550.638    21820548.842   -18512230.825 5 -14425105.006 5
        35.900          33.800
  24192240.031    24192239.368    24192237.095    -3343166.097 2  -2605063.745 2
        12.600          16.100
  24825659.854    24825659.226    24825657.498     1065033.721 1    829895.700 2
         9.000          12.600
  23476070.029    23476068.477    23476066.558    -8201461.076 4  -6390747.211 4
        26.800          28.100
  25173927.385    25173928.343    25173925.702     3443903.858     2683564.199 1
                         6.500
  20326968.055    20326967.512    20326964.228   -25264644.845 7 -19686728.332 8
        43.600          50.000
 09  1  7  1 53  0.0000000  0  8G 9G14G18G11G21G19G 3G22
  21568085.766    21568085.057    21568084.104   -17231082.054 5 -13426810.800 5
        34.900          33.900
  21141127.384    21141126.627    21141125.401   -21473629.782 6 -16732693.217 6
        39.700          41.000
  21834200.377    21834199.458    21834197.724   -18440506.215 5 -14369215.700 5
        35.700          33.800
  24175616.645    24175615.936    24175613.812    -3430523.913 2  -2673134.798 2
        16.100          17.800
  24848239.673    24848238.925    24848236.016     1183690.584 1    922355.553 1
        11.000           9.000
  23486726.633    23486724.798    23486722.940    -8145460.323 4  -6347110.269 4
        26.800          27.600
  25192442.947    25192439.694    25192438.702     3541164.072     2759350.775 2
                        12.600
  20330275.964    20330275.465    20330272.178   -25247261.301 7 -19673182.710 8
        43.600          49.900
 09  1  7  1 53 30.0000000  0  7G 9G14G18G11G19G 3G22
  21574664.003    21574663.375    21574662.358   -17196512.495 5 -13399873.484 5
        34.900          33.800
  21129780.526    21129779.812    21129778.604   -21533257.478 6 -16779156.350 6
        39.700          41.000
  21847903.006    21847902.045    21847900.357   -18368497.454 5 -14313104.981 5
        35.300          33.400
  24159052.172    24159051.630    24159050.987    -3517567.539 2  -2740961.005 3
        17.000          19.300
  23497466.856    23497465.349    23497463.444    -8089019.247 4  -6303130.203 4
        26.800          27.900
  25210958.489    25210958.109    25210956.114     3638475.967     2835178.110 2
                        15.100
  20333659.606    20333659.088    20333655.819   -25229480.115 7 -19659327.236 8
        43.500          49.800
 09  1  7  1 54  0.0000000  0  7G 9G14G18G11G19G 3G22
  21581373.823    21581373.163    21581372.249   -17161251.954 5 -13372397.732 5
        34.900          33.500
  21118510.651    21118509.806    21118508.565   -21592481.700 6 -16825305.084 6
        39.700          41.100
  21861660.430    21861659.485    21861657.729   -18296201.629 5 -14256770.580 5
        35.200          33.200
  24142548.498    24142548.903    24142547.639    -3604290.578 3  -2808537.394 3
        18.600          19.900
  23508291.459    23508289.607    23508287.960    -8032136.094 4  -6258805.672 4
        26.200          27.600
  25229484.096    25229484.037    25229484.151     3735840.273     2911046.409 2
                        16.100
  20337119.665    20337119.172    20337115.877   -25211297.376 7 -19645158.868 8
        43.400          49.800
 09  1  7  1 54 30.0000000  0  7G 9G14G18G11G19G 3G22
  21588220.251    21588219.519    21588218.434   -17125275.058 5 -13344363.790 5
        35.100          33.800
  21107322.452    21107321.702    21107320.493   -21651275.319 6 -16871118.282 6
        39.700          41.200
  21875477.441    21875476.610    21875474.814   -18223593.063 5 -14200192.477 5
        35.500          33.100
  24126112.960    24126112.978    24126110.181    -3690664.308 2  -2875841.602 3
        17.800          18.600
  23519205.024    23519203.305    23519201.107    -7974787.119 4  -6214118.164 4
        26.500          27.400
  25248028.636    25248026.947    25248026.972     3833280.681 1   2986974.015 2
         6.500          17.000
  20340661.226    20340660.699    20340657.473   -25192686.622 7 -19630656.981 8
        43.400          49.800
 09  1  7  1 55  0.0000000  0  7G 9G14G18G11G19G 3G22
  21595200.371    21595199.563    21595198.691   -17088594.352 5 -13315781.422 5
        34.800          34.000
  21096214.376    21096213.730    21096212.353   -21709648.539 6 -16916603.901 6
        39.700          41.200
  21889351.542    21889350.743    21889349.060   -18150683.727 5 -14143380.011 5
        35.400          33.000
  24109742.014    24109740.884    24109738.423    -3776696.994 2  -2942880.047 2
        17.000          17.800
  23530204.280    23530202.692    23530200.289    -7916985.639 4  -6169078.045 4
        27.400          26.800
  25266581.027    25266580.549    25266579.770     3930783.670     3062950.347 2
                        15.100
  20344282.151    20344281.586    20344278.303   -25173659.008 7 -19615830.267 8
        43.400          49.700
 09  1  7  1 55 30.0000000  0  7G 9G14G18G11G19G 3G22
  21602312.446    21602311.813    21602310.873   -17051219.374 5 -13286658.064 5
        34.900          33.900
  21085185.131    21085184.337    21085183.059   -21767607.801 6 -16961766.958 6
        39.600          41.200
  21903281.336    21903280.626    21903278.941   -18077481.795 5 -14086339.547 5
        35.300          32.800
  24093432.771    24093432.746    24093430.728    -3862393.929 2  -3009656.899 3
        17.000          18.600
  23541287.506    23541285.807    23541283.885    -7858741.390 4  -6123692.911 4
        26.200          26.800
  25285145.045    25285142.933    25285142.714     4028337.886     3138966.629 1
                        11.000
  20347980.784    20347980.238    20347976.953   -25154222.177 7 -19600684.684 8
        43.300          49.600
 09  1  7  1 56  0.0000000  0  7G 9G14G18G11G19G 3G22
  21609556.958    21609556.276    21609554.979   -17013150.395 5 -13256993.924 5
        35.300          33.600
  21074234.961    21074234.217    21074232.998   -21825151.040 6 -17006605.839 6
        39.700          41.400
  21917267.234    21917266.403    21917264.437   -18003987.106 5 -14029070.963 5
        35.200          32.700
  24077189.577    24077189.527    24077188.200    -3947751.347 2  -3076169.189 3
        15.100          18.600
  23552455.102    23552453.788    23552451.162    -7800055.243 4  -6077963.469 4
        25.300          26.200
  25303718.666    25303718.569    25303718.638     4125942.437     3215022.074 2
         3.000          13.900
  20351757.673    20351757.120    20351753.753   -25134374.883 7 -19585219.255 8
        43.300          49.500
 09  1  7  1 56 30.0000000  0  7G 9G14G18G11G19G 3G22
  21616933.057    21616932.310    21616931.775   -16974386.801 5 -13226788.521 5
        34.500          33.600
  21063364.558    21063363.763    21063362.607   -21882275.404 6 -17051118.320 6
        39.500          41.500
  21931308.711    21931307.854    21931305.895   -17930198.661 5 -13971573.474 5
        35.200          32.600
  24061013.600    24061012.659    24061010.944    -4032764.738 2  -3142413.389 3
        16.100          19.300
  23563706.820    23563704.863    23563703.308    -7740927.988 4  -6031890.289 4
        24.900          27.600
  25322300.834    25322299.538    25322301.424     4223596.746     3291116.295 2
                        12.600
  20355612.779    20355612.313    20355609.048   -25114115.220 7 -19569432.503 8
        43.200          49.500
 09  1  7  1 57  0.0000000  0  7G 9G14G18G11G19G 3G22
  21624441.455    21624440.677    21624439.838   -16934930.683 5 -13196043.493 5
        34.500          33.600
  21052573.883    21052573.165    21052571.916   -21938980.621 6 -17095304.192 6
        39.600          41.600
  21945405.954    21945405.005    21945403.083   -17856117.456 5 -13913847.867 5
        34.900          32.300
  24044901.305    24044901.068    24044898.971    -4117432.106 2  -3208387.952 3
        16.100          18.600
  23575041.325    23575039.989    23575038.260    -7681362.105 4  -5985475.323 4
        24.900          27.600
  25340894.987    25340893.315    25340893.248     4321296.871     3367246.209 2
                        12.600
  20359546.568    20359546.018    20359542.786   -25093443.544 7 -19553324.703 8
        43.100          49.500
 09  1  7  1 57 30.0000000  0  7G 9G14G18G11G19G 3G22
  21632080.362    21632079.750    21632078.587   -16894788.478 5 -13164763.853 5
        34.800          33.400
  21041862.310    21041861.494    21041860.292   -21995270.691 6 -17139166.576 6
        39.500          41.800
  21959557.628    21959556.738    21959554.818   -17781749.360 5 -13855898.703 5
        34.700          32.100
  24028854.486    24028854.314    24028852.391    -4201756.391 2  -3274095.196 3
        17.000          19.300
  23586458.195    23586456.534    23586455.035    -7621365.056 4  -5938724.388 4
        24.600          27.400
  25359491.637    25359489.321    25359489.783     4419035.483     3443406.077 1
                         9.000
  20363557.652    20363557.114    20363553.879   -25072364.822 7 -19536899.723 8
        43.100          49.400
 09  1  7  1 58  0.0000000  0  6G 9G14G18G11G19G22
  21639848.521    21639847.925    21639847.274   -16853965.441 5 -13132953.692 5
        34.400          33.500
  21031229.024    21031228.318    21031227.074   -22051148.621 6 -17182707.813 6
        39.500          41.900
  21973763.322    21973762.348    21973760.267   -17707098.924 5 -13797729.536 5
        34.800          31.800
  24012874.433    24012873.300    24012871.345    -4285738.185 2  -3339535.541 3
        17.000          19.300
  23597956.494    23597954.833    23597953.155    -7560942.809 4  -5891642.125 4
        24.600          27.400
  20367645.680    20367645.090    20367641.764   -25050882.753 7 -19520160.448 8
        43.000          49.300
 09  1  7  1 58 30.0000000  0  6G 9G14G18G11G19G22
  21647747.363    21647746.620    21647745.932   -16812456.767 5 -13100609.268 5
        34.100          33.400
  21020675.632    21020674.927    21020673.665   -22106606.860 6 -17225922.017 6
        39.500          41.900
  21988023.613    21988022.683    21988020.453   -17632160.690 5 -13739336.106 5
        34.500          31.800
  23996960.728    23996959.572    23996957.067    -4369368.946 2  -3404702.375 3
        17.800          19.300
  23609536.032    23609534.325    23609533.103    -7500091.491 4  -5844225.513 4
        24.600          27.100
  20371811.466    20371810.943    20371807.716   -25028991.052 7 -19503101.979 8
        43.000          49.300
 09  1  7  1 59  0.0000000  0  6G 9G14G18G11G19G22
  21655779.822    21655779.172    21655778.311   -16770245.709 5 -13067717.536 5
        34.100          33.200
  21010205.983    21010205.174    21010203.871   -22161626.001 6 -17268794.069 7
        39.500          42.100
  22002341.873    22002340.926    22002338.941   -17556917.088 5 -13680704.731 5
        34.300          31.800
  23981115.885    23981115.172    23981113.433    -4452627.922 2  -3469579.482 3
        17.800          19.300
  23621200.701    23621198.849    23621196.970    -7438795.017 3  -5796462.024 4
        23.800          26.800
  20376058.668    20376058.138    20376054.986   -25006671.653 7 -19485710.239 8
        42.800          49.200
 09  1  7  1 59 30.0000000  0  6G 9G14G18G11G19G22
  21663941.582    21663940.812    21663940.147   -16727355.688 5 -13034296.739 5
        34.100          33.200
  20999815.746    20999814.954    20999813.650   -22216227.169 6 -17311340.430 7
        39.400          42.200
  22016713.945    22016713.142    22016711.154   -17481390.517 5 -13621852.864 5
        34.100          31.600
  23965339.310    23965339.011    23965336.742    -4535533.938 2  -3534181.561 3
        17.800          19.300
  23632945.208    23632943.269    23632941.793    -7377077.508 4  -5748370.474 4
        24.200          27.400
  20380383.150    20380382.638    20380379.489   -24983945.946 7 -19468001.895 8
        42.700          49.100
                            4 15
RINEX FILE SPLICE                                           COMMENT
teqc  2008Oct2      WCDA Operator       20090107 03:18:36UTCCOMMENT
STATION INFORMATION EFFECTIVE FROM: 2001/01/13 18:20:00     COMMENT
                                TO: CURRENT DATE (above)    COMMENT
BIT 2 OF LLI FLAGS (+4) DATA COLLECTED UNDER 'AS' CONDITION COMMENT
L1 PHASE CENTRE 0.110m ABOVE ARP                            COMMENT
L2 PHASE CENTRE 0.128m ABOVE ARP                            COMMENT
where ARP is the Antenna Reference Point for HI measurement COMMENT
CONTACT gps@pgc.nrcan.gc.ca FOR ADDITIONAL INFORMATION      COMMENT
    P1 =    P1  TurboRogue; =    Y1  Benchmark              COMMENT
    L1 = L1(CA)                                             COMMENT
    P2 =    P2  TurboRogue; =    Y2  Benchmark              COMMENT
    L2 = L2(P2) TurboRogue; = L2(Y2) Benchmark              COMMENT
 SNR is mapped to RINEX snr flag value [0-9]                COMMENT
  L1 & L2: min(max(int(snr_dBHz/6), 0), 9)                  COMMENT
 09  1  7  2  0  0.0000000  0  6G 9G18G11G19G14G22
  21672232.666    21672232.117    21672231.194   -16683784.798 5 -13000345.394 5
        34.100          33.000
  22031140.390    22031139.661    22031137.608   -17405578.417 5 -13562778.500 5
        34.000          31.300
  23949629.861    23949629.846    23949628.638    -4618081.433 2  -3598504.287 3
        17.000          19.300
  23644769.399    23644767.556    23644766.598    -7314937.457 4  -5699949.670 4
        24.600          26.500
  20989505.839    20989505.040    20989503.646   -22270406.093 6 -17353557.765 7
        39.400          42.300
  20384785.804    20384785.242    20384782.063   -24960810.408 7 -19449974.200 8
        42.700          49.100
 09  1  7  2  0 30.0000000  0  6G 9G18G11G19G14G22
  21680654.005    21680653.303    21680652.464   -16639531.803 5 -12965862.538 5
        34.000          33.400
  22045621.735    22045620.963    22045619.029   -17329478.239 5 -13503479.663 5
        33.600          31.300
  23933992.472    23933991.595    23933989.506    -4700264.643 2  -3662543.147 3
        17.000          20.500
  23656675.180    23656673.725    23656671.359    -7252374.330 4  -5651199.176 4
        24.900          25.600
  20979276.841    20979276.101    20979274.921   -22324158.702 6 -17395442.905 7
        39.300          42.500
  20389266.852    20389266.369    20389263.145   -24937262.109 7 -19431624.873 8
        42.700          49.100
 09  1  7  2  1  0.0000000  0  6G 9G18G11G19G14G22
  21689203.257    21689202.512    21689202.057   -16594604.406 5 -12930854.183 5
        33.600          33.600
  22060156.769    22060155.850    22060153.933   -17253097.169 5 -13443961.957 5
        33.500          31.300
  23918421.271    23918421.070    23918419.432    -4782087.031 2  -3726300.817 3
        16.100          21.100
  23668659.347    23668657.805    23668655.728    -7189396.597 4  -5602125.640 4
        24.600          24.900
  20969128.264    20969127.448    20969126.287   -22377490.151 6 -17436999.866 7
        39.400          42.500
  20393825.353    20393824.843    20393821.702   -24913306.987 7 -19412958.544 8
        42.600          49.100
 09  1  7  2  1 30.0000000  0  6G 9G18G11G19G14G22
  21697880.502    21697879.852    21697879.180   -16549004.675 5 -12895321.922 5
        33.800          33.200
  22074744.774    22074743.859    22074742.116   -17176436.494 5 -13384226.368 5
        33.500          31.300
  23902919.339    23902918.890    23902918.076    -4863546.767 2  -3789775.944 3
        13.900          21.100
  23680722.724    23680720.742    23680718.645    -7126007.229 4  -5552731.319 4
        25.300          25.300
  20959059.878    20959059.102    20959057.852   -22430399.993 6 -17478228.300 7
        39.300          42.700
  20398461.100    20398460.590    20398457.498   -24888945.559 7 -19393975.612 8
        42.500          49.000
 09  1  7  2  2  0.0000000  0  6G 9G18G11G19G14G22
  21706687.279    21706686.591    21706685.695   -16502726.020 5 -12859260.634 5
        33.900          33.200
  22089387.504    22089386.624    22089384.742   -17099488.554 5 -13324266.941 5
        33.200          31.100
  23887489.925    23887489.151    23887487.995    -4944632.849 2  -3852959.905 3
        12.600          21.100
  23692864.355    23692862.627    23692860.632    -7062200.118 4  -5503011.485 4
        24.900          25.300
  20949073.470    20949072.771    20949071.391   -22482879.053 6 -17519121.062 7
        39.500          42.700
  20403175.888    20403175.335    20403172.234   -24864169.445 7 -19374669.550 8
        42.400          49.000
 09  1  7  2  2 30.0000000  0  6G 9G18G11G19G14G22
  21715621.628    21715620.976    21715619.979   -16455775.754 5 -12822676.014 5
        33.800          33.200
  22104083.870    22104082.987    22104081.006   -17022259.571 5 -13264088.522 5
        33.400          31.500
  23872130.407    23872129.663    23872128.490    -5025348.045 2  -3915854.844 3
        12.600          21.100
  23705084.373    23705082.949    23705080.925    -6997983.321 4  -5452972.434 4
        24.900          26.200
  20939168.036    20939167.318    20939166.013   -22534932.017 6 -17559681.809 7
        39.500          42.800
  20407968.521    20407967.975    20407964.852   -24838984.130 7 -19355044.628 8
        42.400          48.900
 09  1  7  2  3  0.0000000  0  6G 9G18G11G19G14G22
  21724683.441    21724682.496    21724681.535   -16408157.537 5 -12785570.912 5
        33.800          33.200
  22118833.146    22118832.166    22118830.020   -16944752.294 5 -13203693.250 5
        33.100          31.000
  23856841.321    23856840.746    23856838.947    -5105692.056 2  -3978460.553 3
        12.600          19.300
  23717381.691    23717379.854    23717378.215    -6933360.923 4  -5402617.329 4
        24.600          26.200
  20929343.738    20929342.924    20929341.570   -22586559.694 6 -17599911.161 7
        39.500          42.800
  20412838.641    20412838.146    20412834.949   -24813391.540 7 -19335102.350 8
        42.400          48.900
 09  1  7  2  3 30.0000000  0  6G 9G18G11G19G14G22
  21733871.742    21733871.018    21733870.300   -16359871.173 5 -12747945.173 5
        33.400          33.100
  22133635.381    22133634.489    22133632.463   -16866965.145 5 -13143079.894 5
        33.000          31.000
  23841623.960    23841623.576    23841621.611    -5185659.986 2  -4040773.202 3
        15.100          19.300
  23729755.968    23729754.015    23729752.594    -6868333.020 3  -5351946.249 4
        23.400          25.900
  20919600.628    20919599.911    20919598.594   -22637759.250 6 -17639806.912 7
        39.600          43.000
  20417786.541    20417786.053    20417782.887   -24787389.898 7 -19314841.330 8
        42.400          48.800
 09  1  7  2  4  0.0000000  0  6G 9G18G11G19G14G22
  21743186.679    21743185.962    21743185.304   -16310918.955 5 -12709800.596 5
        33.200          32.800
  22148490.772    22148489.931    22148488.006   -16788899.789 5 -13082249.751 5
        33.100          31.000
  23826479.546    23826478.842    23826476.078    -5265250.042 2  -4102791.427 3
        17.000          19.300
  23742206.715    23742204.842    23742203.748    -6802902.654 3  -5300961.574 4
        22.600          26.500
  20909939.234    20909938.518    20909937.090   -22688530.331 6 -17679368.787 7
        39.700          43.000
  20422812.203    20422811.692    20422808.505   -24760979.964 7 -19294262.159 8
        42.400          48.700
 09  1  7  2  4 30.0000000  0  6G 9G18G11G19G14G22
  21752628.017    21752627.358    21752626.427   -16261305.357 5 -12671140.647 5
        33.200          32.400
  22163398.420    22163397.482    22163395.653   -16710559.648 5 -13021205.493 5
        33.000          30.600
  23811406.881    23811406.056    23811402.612    -5344462.689 2  -4164515.550 3
        17.000          18.600
  23754733.531    23754731.733    23754730.103    -6737075.214 3  -5249667.474 4
        23.000          26.500
  20900359.020    20900358.273    20900356.927   -22738875.117 6 -17718598.484 7
        39.700          43.200
  20427915.228    20427914.692    20427911.549   -24734163.483 7 -19273366.197 8
        42.300          48.600
 09  1  7  2  5  0.0000000  0  6G 9G18G11G19G14G22
  21762195.275    21762194.642    21762193.515   -16211029.388 5 -12631964.563 5
        33.200          32.000
  22178358.529    22178357.558    22178355.863   -16631942.788 5 -12959945.605 5
        32.300          30.600
  23796403.835    23796404.090    23796401.704    -5423292.846 2  -4225941.631 2
        16.100          17.000
  23767335.869    23767334.133    23767332.207    -6670850.866 3  -5198064.097 4
        22.600          26.500
  20890860.579    20890859.786    20890858.383   -22788790.162 6 -17757493.317 7
        39.800          43.400
  20433095.992    20433095.420    20433092.249   -24706938.555 7 -19252151.969 8
        42.300          48.600
 09  1  7  2  5 30.0000000  0  6G 9G18G11G19G14G22
  21771888.118    21771887.447    21771886.529   -16160092.943 5 -12592273.828 5
        33.100          32.000
  22193371.266    22193370.465    22193368.506   -16553049.918 5 -12898470.654 5
        32.300          30.400
  23781476.383    23781476.526    23781474.545    -5501737.338 2  -4287067.186 2
        17.000          17.800
  23780013.301    23780011.653    23780009.567    -6604231.144 3  -5146152.640 4
        23.400          27.100
  20881444.136    20881443.305    20881441.860   -22838274.090 6 -17796052.219 7
        39.700          43.400
  20438354.416    20438353.914    20438350.728   -24679305.049 7 -19230619.365 8
        42.300          48.400
 09  1  7  2  6  0.0000000  0  6G 9G18G11G19G14G22
  21781706.238    21781705.488    21781704.735   -16108498.020 5 -12552069.991 5
        32.800          32.100
  22208436.629    22208435.706    22208433.988   -16473881.728 5 -12836781.155 5
        32.300          30.800
  23766623.849    23766622.901    23766620.291    -5579793.684 3  -4347890.308 2
        18.600          17.000
  23792765.046    23792763.243    23792761.290    -6537218.538 3  -5093935.054 4
        23.800          26.200
  20872109.734    20872108.938    20872107.594   -22887326.194 6 -17834274.636 7
        39.700          43.600
  20443690.656    20443690.136    20443686.999   -24651262.839 7 -19208768.289 8
        42.300          48.400
 09  1  7  2  6 30.0000000  0  6G 9G18G11G19G14G22
  21791649.891    21791648.963    21791648.360   -16056244.922 5 -12511353.284 5
        33.100          32.300
  22223554.477    22223553.548    22223551.833   -16394437.347 5 -12774876.456 5
        32.100          30.800
  23751843.395    23751843.293    23751841.263    -5657457.827 3  -4408407.847 2
        18.600          17.000
  23805591.585    23805590.150    23805588.722    -6469813.790 3  -5041411.891 4
        23.400          26.500
  20862858.066    20862857.274    20862855.992   -22935943.889 6 -17872158.547 7
        39.700          43.800
  20449105.173    20449104.619    20449101.386   -24622809.987 7 -19186597.235 8
        42.300          48.300
 09  1  7  2  7  0.0000000  0  6G 9G18G11G19G14G22
  21801717.758    21801717.112    21801716.116   -16003337.632 5 -12470126.827 5
        33.100          32.300
  22238724.251    22238723.329    22238721.389   -16314719.889 5 -12712758.968 5
        31.800          30.100
  23737139.414    23737139.104    23737137.236    -5734729.536 2  -4468619.571 2
        17.000          17.800
  23818492.680    23818490.599    23818488.954    -6402021.733 3  -4988586.915 4
        23.800          25.900
  20853688.808    20853688.084    20853686.684   -22984128.739 6 -17909705.174 7
        39.800          43.800
  20454597.139    20454596.622    20454593.463   -24593948.967 7 -19164108.126 8
        42.200          48.300
 09  1  7  2  7 30.0000000  0  6G 9G18G11G19G14G22
  21811909.437    21811908.884    21811908.133   -15949778.654 5 -12428392.561 5
        32.800          32.300
  22253945.332    22253944.608    22253942.836   -16234730.488 5 -12650429.568 5
        31.800          30.100
  23722509.938    23722509.813    23722507.746    -5811606.888 2  -4528524.010 3
        17.800          18.600
  23831465.023    23831463.599    23831462.423    -6333845.117 3  -4935462.269 4
        23.000          25.600
  20844602.020    20844601.268    20844599.857   -23031880.365 6 -17946914.223 7
        39.700          44.000
  20460166.961    20460166.353    20460163.151   -24564680.341 7 -19141301.402 8
        42.300          48.300
 09  1  7  2  8  0.0000000  0  6G 9G18G11G19G14G22
  21822225.357    21822224.434    21822223.569   -15895569.920 5 -12386151.991 5
        32.600          32.000
  22269218.597    22269217.729    22269215.867   -16154469.713 5 -12587888.710 4
        31.800          29.700
  23707956.487    23707956.228    23707954.163    -5888086.810 3  -4588118.754 3
        19.300          19.300
  23844512.882    23844511.076    23844508.631    -6265286.043 4  -4882039.632 4
        24.200          24.600
  20835597.813    20835597.055    20835595.621   -23079197.597 6 -17983784.785 7
        39.700          44.100
  20465814.157    20465813.649    20465810.476   -24535003.668 7 -19118176.721 8
        42.200          48.200
 09  1  7  2  8 30.0000000  0  6G 9G18G11G19G14G22
  21832665.476    21832664.741    21832663.951   -15840706.305 5 -12343401.119 5
        32.700          32.100
  22284544.665    22284543.826    22284541.855   -16073931.707 5 -12525131.832 4
        31.800          29.700
  23693480.068    23693479.806    23693478.297    -5964160.450 3  -4647396.900 3
        19.300          19.300
  23857631.457    23857629.942    23857628.644    -6196340.321 3  -4828315.687 4
        23.000          24.600
  20826677.761    20826676.944    20826675.509   -23126073.111 6 -18020311.153 7
        39.700          44.200
  20471540.296    20471539.814    20471536.532   -24504912.603 7 -19094729.138 8
        42.200          48.100
 09  1  7  2  9  0.0000000  0  6G 9G18G11G19G14G22
  21843229.099    21843228.326    21843227.467   -15785195.529 5 -12300145.967 5
        32.700          32.300
  22299922.075    22299921.280    22299919.233   -15993122.698 5 -12462163.780 4
        31.600          29.700
  23679080.733    23679080.562    23679078.647    -6039830.987 3  -4706360.947 3
        20.500          19.900
  23870824.033    23870822.556    23870820.402    -6127016.418 3  -4774297.064 4
        23.400          24.600
  20817840.646    20817839.842    20817838.461   -23172511.996 6 -18056497.292 7
        39.700          44.300
  20477344.251    20477343.688    20477340.479   -24474412.623 7 -19070962.920 7
        42.100          47.900
 09  1  7  2  9 30.0000000  0  6G 9G18G11G19G14G22
  21853913.800    21853913.284    21853912.790   -15729043.198 5 -12256390.918 5
        32.100          32.100
  22315350.323    22315349.569    22315347.376   -15912046.994 5 -12398987.914 4
        31.600          29.700
  23664758.302    23664757.747    23664755.119    -6115099.365 3  -4765011.634 3
        20.500          20.500
  23884086.730    23884085.047    23884082.968    -6057320.031 3  -4719988.208 4
        22.600          24.600
  20809086.241    20809085.474    20809084.134   -23218516.494 6 -18092344.944 7
        39.600          44.400
  20483225.205    20483224.753    20483221.460   -24443507.402 7 -19046880.926 7
        42.200          47.700
 09  1  7  2 10  0.0000000  0  6G 9G18G11G19G14G22
  21864719.629    21864718.886    21864718.073   -15672259.132 5 -12212143.591 5
        31.800          31.500
  22330827.735    22330826.844    22330824.742   -15830713.520 5 -12335611.185 4
        31.100          29.700
  23650510.877    23650510.136    23650507.521    -6189971.066 3  -4823353.200 3
        19.900          21.100
  23897418.305    23897416.795    23897414.990    -5987261.623 3  -4665397.252 4
        22.600          25.600
  20800413.042    20800412.233    20800411.092   -23264094.000 6 -18127859.877 7
        39.500          44.600
  20489181.969    20489181.468    20489178.214   -24412204.697 7 -19022489.203 7
        42.000          47.700
 09  1  7  2 10 30.0000000  0  6G 9G18G11G19G14G22
  21875646.597    21875646.004    21875645.316   -15614837.244 5 -12167399.261 5
        32.000          31.500
  22346355.414    22346354.499    22346352.628   -15749114.186 5 -12272027.297 4
        30.600          29.500
  23636339.766    23636339.158    23636337.973    -6264434.791 3  -4881376.872 3
        19.900          22.100
  23910820.027    23910818.254    23910816.885    -5916834.959 3  -4610519.334 4
        22.100          26.500
  20791823.025    20791822.288    20791821.013   -23309234.726 6 -18163034.464 7
        39.400          44.700
  20495215.953    20495215.397    20495212.165   -24380496.072 7 -18997781.185 7
        42.000          47.600
 09  1  7  2 11  0.0000000  0  6G 9G18G11G19G14G22
  21886697.835    21886697.060    21886696.353   -15556764.225 5 -12122147.557 5
        31.800          31.600
  22361936.529    22361935.610    22361933.849   -15667234.823 5 -12208225.207 4
        30.400          29.700
  23622250.818    23622250.751    23622248.716    -6338473.126 3  -4939069.059 3
        20.500          22.100
  23924293.598    23924292.083    23924291.181    -5846027.842 3  -4555344.961 4
        21.600          26.800
  20783319.118    20783318.347    20783317.020   -23353923.493 6 -18197856.875 7
        39.400          44.800
  20501329.976    20501329.445    20501326.189   -24348366.709 7 -18972745.317 7
        42.000          47.500
 09  1  7  2 11 30.0000000  0  7G 9G18G11G 5G14G19G22
  21897872.166    21897871.583    21897870.766   -15498041.470 5 -12076389.572 5
        31.600          31.300
  22377570.611    22377569.776    22377568.274   -15585075.206 5 -12144204.740 4
        30.100          29.200
  23608243.613    23608243.270    23608241.316    -6412082.998 3  -4996427.395 3
        19.900          21.600
  25243485.290    25243484.602    25243485.001          -1.1011          -.8361
                         3.000
  20774901.366    20774900.648    20774899.379   -23398158.647 6 -18232325.826 7
        39.300          44.900
  23937840.359    23937838.573    23937837.263    -5774841.562 3  -4499875.126 4
        21.600          26.800
  20507524.095    20507523.596    20507520.443   -24315815.795 6 -18947380.969 7
        41.900          47.400
 09  1  7  2 12  0.0000000  0  8G 9G18G11G19G 5G12G14G22
  21909164.748    21909163.991    21909163.063   -15438699.804 5 -12030149.310 5
        32.000          31.000
  22393253.025    22393252.142    22393250.358   -15502665.200 5 -12079989.162 4
        30.100          28.800
  23594313.250    23594312.412    23594310.280    -6485290.363 3  -5053472.092 3
        18.600          21.100
  23951454.049    23951451.934    23951450.382    -5703307.426 3  -4444134.253 4
        21.600          27.900
  25225467.205    25225468.445    25225464.977      -94687.166      -73783.939 1
                         6.500
  25274818.581    25274817.994    25274813.751           -.43611         -.20411
        11.000          11.000
  20766564.866    20766564.072    20766562.792   -23441967.856 6 -18266462.865 7
        39.300          45.100
  20513793.224    20513792.724    20513789.409   -24282871.645 6 -18921710.199 7
        41.900          47.200
