     2.11           OBSERVATION DATA    G (GPS)             RINEX VERSION / TYPE
teqc  2008Oct2      WCDA Operator       20090126 00:18:43UTCPGM / RUN BY / DATE
Solaris x86 5.10|AMD64|cc SC5.8 -xarch=amd64|=+|=+          COMMENT
teqc  2008Oct2      WCDA Operator       20090125 01:18:16UTCCOMMENT
flin  WCDA-ACP   965000   CFS Flin Flon SASK Canada         MARKER NAME
40135M001                                                   MARKER NUMBER
PGC-WCDA            GEOL. SURV. CANADA                      OBSERVER / AGENCY
1115                AOA BENCHMARK ACT   3.3.32.4            REC # / TYPE / VERS
231                 AOAD/M_T        SCIS                    ANT # / TYPE
  -766174.4630 -3611375.3160  5184056.2210                  APPROX POSITION XYZ
        0.1500        0.0000        0.0000                  ANTENNA: DELTA H/E/N
     1     1                                                WAVELENGTH FACT L1/2
     7    C1    P1    P2    L1    L2    S1    S2            # / TYPES OF OBSERV
STATION INFORMATION EFFECTIVE FROM: 2001/01/13 18:20:00     COMMENT
                                TO: CURRENT DATE (above)    COMMENT
BIT 2 OF LLI FLAGS (+4) DATA COLLECTED UNDER 'AS' CONDITION COMMENT
L1 PHASE CENTRE 0.110m ABOVE ARP                            COMMENT
L2 PHASE CENTRE 0.128m ABOVE ARP                            COMMENT
where ARP is the Antenna Reference Point for HI measurement COMMENT
CONTACT gps@pgc.nrcan.gc.ca FOR ADDITIONAL INFORMATION      COMMENT
    P1 =    P1  TurboRogue; =    Y1  Benchmark              COMMENT
    L1 = L1(CA)                                             COMMENT
    P2 =    P2  TurboRogue; =    Y2  Benchmark              COMMENT
    L2 = L2(P2) TurboRogue; = L2(Y2) Benchmark              COMMENT
 SNR is mapped to RINEX snr flag value [0-9]                COMMENT
  L1 & L2: min(max(int(snr_dBHz/6), 0), 9)                  COMMENT
  2009     1    25     0     0    0.0000000     GPS         TIME OF FIRST OBS
                                                            END OF HEADER
 09  1 25  0  0  0.0000000  0 10G 9G28G 3G21G15G 6G18G14G22G19
  21482225.490    21482224.987    21482224.185   -17846915.210 6 -13906680.307 5
        37.200          35.300
  25455220.851    25455219.996    25455219.687       20225.858 1     15760.287 1
         6.500           9.000
  23807200.206    23807200.008    23807200.324    -3948551.990 3  -3076790.348 3
        21.100          23.000
  23161455.812    23161454.974    23161453.978   -12573183.906 4  -9797279.659 3
        24.200          21.600
  24851286.870    24851286.609    24851284.247    -1822307.094 2  -1419968.206 3
        16.100          22.600
  23883937.196    23883937.225    23883937.264    -6918833.010 3  -5391305.155 3
        20.500          22.600
  20915353.330    20915352.693    20915350.993   -23543047.943 6 -18345222.372 6
        41.900          41.800
  22198935.586    22198935.198    22198934.393   -14768162.628 5 -11507654.981 5
        34.300          31.800
  20306949.187    20306948.938    20306945.736   -25532999.541 7 -19895833.725 8
        44.500          49.500
  22953662.602    22953661.135    22953659.430   -10764297.219 5  -8387760.347 5
        33.000          31.600
 09  1 25  0  0 30.0000000  0 10G 9G28G 3G21G15G 6G18G14G22G19
  21477968.078    21477967.556    21477966.760   -17869288.238 6 -13924113.822 5
        37.300          35.300
  25456700.703    25456699.805    25456698.413       27999.835       21817.991 1
                        11.000
  23822941.002    23822940.869    23822940.945    -3865833.313 3  -3012334.252 3
        20.500          22.600
  23181945.180    23181944.496    23181943.273   -12465512.193 4  -9713379.645 3
        24.600          21.600
  24871762.458    24871762.033    24871758.925    -1714710.788 2  -1336126.913 3
        15.100          21.600
  23899865.716    23899865.110    23899865.376    -6835132.835 3  -5326084.259 3
        20.500          23.400
  20923910.306    20923909.644    20923908.005   -23498080.749 6 -18310182.996 6
        41.800          41.700
  22182261.409    22182260.975    22182260.081   -14855786.166 5 -11575933.049 5
        34.300          31.800
  20304252.231    20304251.857    20304248.720   -25547172.458 7 -19906877.553 8
        44.400          49.600
  22956239.159    22956237.686    22956235.988   -10750757.224 5  -8377209.705 5
        33.100          31.600
 09  1 25  0  1  0.0000000  0 10G 9G28G 3G21G15G 6G18G14G22G19
  21473846.238    21473845.849    21473845.324   -17890947.890 6 -13940991.460 5
        37.200          35.500
  25458276.920    25458276.052    25458274.861       36279.901       28269.933 1
         3.000           9.000
  23838739.792    23838738.809    23838738.820    -3782817.683 3  -2947646.766 3
        21.100          23.800
  23202476.817    23202476.134    23202475.025   -12357617.326 4  -9629305.742 3
        24.900          19.900
  24892249.202    24892249.666    24892246.599    -1607046.755 2  -1252232.846 3
        13.900          20.500
  23915840.370    23915839.607    23915839.949    -6751185.172 3  -5260670.519 3
        20.500          23.800
  20932534.501    20932533.905    20932532.074   -23452760.546 6 -18274868.549 6
        41.900          41.600
  22165647.995    22165647.429    22165646.483   -14943091.635 5 -11643963.276 5
        34.500          32.100
  20301629.725    20301629.391    20301626.303   -25560953.575 7 -19917616.081 8
        44.400          49.700
  22958925.547    22958924.063    22958922.274   -10736640.193 5  -8366209.428 5
        33.400          31.300
 09  1 25  0  1 30.0000000  0 10G 9G28G 3G21G15G 6G18G14G22G19
  21469860.979    21469860.508    21469859.904   -17911890.927 6 -13957310.706 5
        37.300          35.600
  25459947.578    25459946.483    25459946.455       45067.996       35117.784 1
                         9.000
  23854592.798    23854592.300    23854592.796    -3699505.668 3  -2882728.338 4
        19.900          24.200
  23223051.192    23223050.659    23223049.048   -12249499.180 4  -9545057.847 3
        24.600          20.500
  24912748.329    24912748.922    24912747.793    -1499314.586 2  -1168285.668 3
        12.600          19.900
  23931862.203    23931861.366    23931861.545    -6666990.759 3  -5195064.478 3
        20.500          23.800
  20941226.137    20941225.508    20941223.749   -23407085.735 6 -18239277.784 6
        41.900          41.500
  22149095.396    22149094.994    22149093.963   -15030074.920 5 -11711742.442 5
        34.400          32.100
  20299082.466    20299082.113    20299079.126   -25574339.225 7 -19928046.452 8
        44.400          49.700
  22961722.274    22961720.739    22961718.774   -10721944.724 5  -8354758.415 5
        33.400          31.500
 09  1 25  0  2  0.0000000  0 10G 9G28G 3G21G15G 6G18G14G22G19
  21466012.209    21466011.861    21466011.162   -17932115.316 6 -13973069.960 5
        37.200          35.400
  25461718.528    25461718.188    25461715.405       54364.783       42362.152 1
                         6.500
  23870502.822    23870502.239    23870502.562    -3615899.317 3  -2817580.551 3
        20.500          23.400
  23243667.789    23243667.123    23243665.526   -12141159.137 4  -9460637.044 3
        24.200          20.500
  24933261.373    24933262.741    24933261.279    -1391515.022 2  -1084285.998 3
        12.600          19.300
  23947929.810    23947929.366    23947929.869    -6582551.053 3  -5129267.326 3
        19.900          23.800
  20949985.191    20949984.572    20949982.893   -23361056.103 6 -18203410.538 6
        41.900          41.400
  22132605.047    22132604.456    22132603.337   -15116733.753 5 -11779268.791 5
        34.600          32.300
  20296610.853    20296610.460    20296607.400   -25587328.322 7 -19938167.824 8
        44.600          49.800
  22964628.447    22964626.910    22964625.504   -10706670.724 5  -8342856.593 5
        33.100          32.000
 09  1 25  0  2 30.0000000  0 10G 9G28G 3G21G15G 6G18G14G22G19
  21462302.121    21462301.686    21462301.299   -17951611.865 6 -13988262.071 5
        37.200          35.700
  25463586.349    25463585.897    25463583.382       64178.153 1     50008.976 1
         9.000           9.000
  23886469.233    23886468.520    23886469.186    -3531993.974 3  -2752199.780 3
        19.900          22.600
  23264327.648    23264327.093    23264325.414   -12032591.216 4  -9376038.676 3
        24.600          20.500
  24953789.914    24953790.242    24953788.100    -1283642.195 2  -1000229.285 3
        12.600          18.600
  23964046.151    23964045.263    23964045.415    -6497861.141 3  -5063275.222 3
        19.300          23.000
  20958813.532    20958812.921    20958811.052   -23314663.540 6 -18167260.485 6
        41.900          41.200
  22116177.737    22116177.297    22116176.166   -15203058.704 5 -11846534.975 5
        34.700          32.400
  20294215.928    20294215.629    20294212.525   -25599913.292 7 -19947974.290 8
        44.600          49.800
  22967646.381    22967645.126    22967643.323   -10690811.287 5  -8330498.584 5
        33.400          31.800
 09  1 25  0  3  0.0000000  0 10G 9G28G 3G21G15G 6G18G14G22G19
  21458729.294    21458728.782    21458728.491   -17970386.780 6 -14002891.861 5
        37.100          35.600
  25465549.484    25465547.950    25465548.654       74500.567       58052.398 1
         3.000          11.000
  23902490.843    23902490.017    23902490.458    -3447798.858 3  -2686593.204 3
        19.900          21.600
  23285028.803    23285028.282    23285026.620   -11923804.546 3  -9291269.854 3
        23.400          20.500
  24974331.445    24974330.377    24974328.401    -1175704.513 2   -916121.989 2
        12.600          17.000
  23980208.227    23980207.619    23980207.339    -6412930.792 3  -4997095.756 3
        19.900          22.600
  20967709.272    20967708.626    20967706.849   -23267915.663 6 -18130833.562 6
        41.800          41.200
  22099813.119    22099812.762    22099811.752   -15289055.027 5 -11913545.081 5
        34.900          32.700
  20291896.816    20291896.572    20291893.467   -25612099.919 7 -19957470.360 8
        44.600          49.800
  22970774.667    22970773.145    22970771.225   -10674373.332 5  -8317689.796 5
        33.200          31.300
 09  1 25  0  3 30.0000000  0 10G 9G28G 3G21G15G 6G18G14G22G19
  21455293.838    21455293.444    21455292.955   -17988440.650 6 -14016959.803 5
        37.300          35.500
  25467608.637    25467611.070    25467606.758       85329.991       66490.865
                         3.000
  23918567.150    23918566.427    23918566.355    -3363318.615 3  -2620764.467 3
        20.500          20.500
  23305771.085    23305770.401    23305769.076   -11814803.112 3  -9206333.689 3
        23.400          20.500
  24994884.118    24994883.111    24994879.951    -1067705.536 2   -831966.917 2
        12.600          17.000
  23996413.690    23996414.036    23996414.619    -6327764.313 3  -4930732.285 3
        19.900          22.600
  20976672.203    20976671.556    20976669.848   -23220814.868 6 -18094131.644 6
        41.900          41.100
  22083511.408    22083510.759    22083509.520   -15374722.642 5 -11980299.057 5
        35.200          32.600
  20289653.327    20289653.031    20289650.088   -25623889.258 7 -19966656.853 8
        44.500          49.900
  22974011.781    22974010.367    22974009.005   -10657359.598 5  -8304432.332 5
        32.600          31.000
 09  1 25  0  4  0.0000000  0 10G28G 9G 3G21G15G 6G18G14G22G19
  25469767.475    25469766.881    25469764.809       96670.675       75327.780 1
                         6.500
  21451996.793    21451996.264    21451995.437   -18005767.895 6 -14030461.543 5
        37.500          35.400
  23934697.656    23934696.867    23934697.035    -3278552.228 3  -2554712.749 3
        20.500          19.900
  23326554.477    23326554.012    23326552.602   -11705584.691 3  -9121228.444 3
        23.000          20.500
  25015446.896    25015446.783    25015443.741     -959642.867 2   -747762.219 2
        13.900          17.800
  24012666.643    24012665.951    24012666.235    -6242360.237 3  -4864183.666 3
        20.500          21.600
  20985702.998    20985702.407    20985700.650   -23173357.557 6 -18057151.917 6
        41.900          41.000
  22067272.960    22067272.331    22067271.140   -15460055.661 5 -12046792.309 5
        35.200          32.600
  20287486.473    20287486.109    20287483.021   -25635276.865 7 -19975530.309 8
        44.600          49.900
  22977359.652    22977358.570    22977356.469   -10639766.594 5  -8290723.506 5
        32.400          30.600
 09  1 25  0  4 30.0000000  0 10G28G 9G 3G21G15G 6G18G14G22G19
  25472020.166    25472019.389    25472021.612      108510.703       84553.744 1
         3.000           9.000
  21448835.582    21448835.058    21448834.533   -18022379.387 6 -14043405.559 5
        37.300          35.300
  23950879.977    23950879.541    23950879.449    -3193514.038 3  -2488449.217 3
        20.500          19.300
  23347376.952    23347376.269    23347374.889   -11596163.432 3  -9035965.142 3
        23.000          20.500
  25036018.485    25036018.946    25036017.867     -851529.712 2   -663518.205 2
        13.900          17.800
  24028960.040    24028959.381    24028960.612    -6156733.248 3  -4797461.348 3
        19.300          20.500
  20994799.468    20994798.762    20994796.955   -23125555.994 6 -18019903.945 6
        41.900          40.900
  22051096.166    22051095.701    22051094.627   -15545064.659 5 -12113033.069 5
        35.300          32.700
  20285393.653    20285393.317    20285390.314   -25646274.235 7 -19984099.684 8
        44.600          49.900
  22980815.718    22980814.120    22980812.014   -10621607.278 5  -8276573.390 5
        32.400          30.600
 09  1 25  0  5  0.0000000  0 10G28G 9G 3G21G15G 6G18G14G22G19
  25474371.304    25474370.039    25474369.044      120859.013 1     94175.847 1
         9.000           9.000
  21445812.740    21445812.242    21445811.616   -18038264.647 6 -14055783.678 5
        37.300          35.300
  23967115.596    23967114.670    23967114.672    -3108197.479 3  -2421968.783 3
        19.900          19.900
  23368239.417    23368238.787    23368237.137   -11486531.453 3  -8950537.647 3
        22.600          20.500
  25056604.331    25056603.725    25056602.236     -743357.986 2   -579228.500 2
        13.900          17.800
  24045297.913    24045297.407    24045298.692    -6070876.117 3  -4730559.724 3
        18.600          19.300
  21003963.030    21003962.472    21003960.685   -23077400.635 6 -17982380.281 6
        41.900          40.900
  22034983.299    22034982.844    22034981.632   -15629737.969 5 -12179012.264 5
        35.500          32.700
  20283377.303    20283376.945    20283373.870   -25656870.794 7 -19992356.739 8
        44.600          50.000
  22984380.543    22984379.160    22984377.419   -10602872.530 5  -8261974.881 5
        32.400          30.800
 09  1 25  0  5 30.0000000  0 10G28G 9G 3G21G15G 6G18G14G22G19
  25476820.188    25476819.362    25476816.457      133722.990 1    104199.733 1
        11.000           6.500
  21442929.658    21442929.224    21442928.743   -18053415.254 6 -14067589.336 5
        37.400          35.600
  23983404.043    23983403.523    23983404.007    -3022597.501 3  -2355267.524 3
        19.900          20.500
  23389141.813    23389141.750    23389140.640   -11376683.198 3  -8864941.622 3
        20.500          19.900
  25077201.178    25077200.426    25077198.773     -635122.035 2   -494888.740 2
        12.600          17.000
  24061681.908    24061681.197    24061680.728    -5984784.113 3  -4663475.055 3
        19.900          18.600
  21013195.302    21013194.679    21013193.065   -23028884.418 6 -17944575.435 6
        41.800          40.900
  22018936.313    22018935.618    22018934.417   -15714066.506 5 -12244722.800 5
        35.600          32.800
  20281438.550    20281438.199    20281435.219   -25667058.509 7 -20000295.211 8
        44.600          50.000
  22988056.542    22988055.201    22988053.081   -10583555.367 5  -8246922.554 5
        32.600          30.800
 09  1 25  0  6  0.0000000  0 10G28G 9G 3G21G15G 6G18G14G22G19
  25479364.865    25479363.016    25479362.213      147094.161      114618.651 1
                        11.000
  21440184.840    21440184.428    21440184.147   -18067838.314 6 -14078828.079 5
        37.400          35.700
  23999744.953    23999744.267    23999745.127    -2936725.849 3  -2288354.553 3
        21.100          21.600
  23410084.813    23410084.208    23410083.282   -11266628.916 3  -8779185.070 3
        21.100          19.300
  25097808.111    25097807.227    25097805.297     -526831.531 2   -410506.511 2
        12.600          17.000
  24078106.492    24078106.405    24078106.441    -5898468.136 3  -4596215.846 3
        19.300          18.600
  21022494.540    21022493.993    21022492.358   -22980016.139 6 -17906496.254 6
        41.800          40.700
  22002953.289    22002952.725    22002951.647   -15798056.878 5 -12310169.833 5
        35.600          33.000
  20279576.240    20279575.936    20279572.853   -25676845.142 7 -20007921.155 8
        44.600          50.000
  22991841.229    22991840.022    22991838.374   -10563665.051 5  -8231423.610 5
        32.000          31.100
 09  1 25  0  6 30.0000000  0 10G28G 9G 3G21G15G 6G18G14G22G19
  25482005.279    25482004.109    25482003.880      160968.698      125430.018 2
         3.000          12.600
  21437578.408    21437577.882    21437577.375   -18081536.233 6 -14089501.775 5
        37.400          35.500
  24016135.726    24016135.381    24016136.023    -2850588.239 3  -2221234.346 3
        19.300          21.100
  23431065.855    23431065.237    23431064.023   -11156374.423 3  -8693272.497 3
        21.100          19.300
  25118425.750    25118424.897    25118421.637     -418491.195 1   -326085.460 2
         9.000          16.100
  24094572.279    24094572.490    24094573.664    -5811934.117 3  -4528786.782 3
        19.300          19.300
  21031860.448    21031859.758    21031858.017   -22930799.276 6 -17868145.446 6
        41.800          40.700
  21987034.487    21987033.979    21987032.929   -15881710.847 6 -12375354.730 5
        36.000          33.100
  20277789.795    20277789.445    20277786.365   -25686233.043 7 -20015236.397 8
        44.600          50.000
  22995734.900    22995733.462    22995731.606   -10543205.396 5  -8215481.033 5
        32.000          31.000
 09  1 25  0  7  0.0000000  0 10G28G 9G 3G21G15G 6G18G14G22G19
  25484742.220    25484740.302    25484738.946      175350.846 1    136636.843 1
         6.500           6.500
  21435110.659    21435110.239    21435109.706   -18094503.776 6 -14099606.346 5
        37.400          35.400
  24032579.095    24032578.129    24032578.229    -2764183.461 3  -2153905.950 3
        19.900          21.100
  23452085.106    23452084.356    23452083.486   -11045917.045 3  -8607201.843 3
        21.100          18.600
  25139050.973    25139050.500    25139048.625     -310098.631 1   -241623.702 2
         9.000          16.100
  24111082.008    24111081.749    24111082.355    -5725180.457 3  -4461186.541 3
        19.300          19.300
  21041293.025    21041292.450    21041290.832   -22881230.307 6 -17829520.275 6
        41.700          40.700
  21971180.768    21971180.334    21971179.247   -15965022.511 6 -12440272.900 5
        36.200          33.200
  20276080.073    20276079.748    20276076.594   -25695217.858 7 -20022237.547 8
        44.600          49.900
  22999737.302    22999735.752    22999733.890   -10522173.277 5  -8199092.375 5
        32.100          30.600
 09  1 25  0  7 30.0000000  0 10G28G 9G 3G21G15G 6G18G14G22G19
  25487574.769    25487574.044    25487571.519      190234.551      148234.414
         3.000           3.000
  21432781.104    21432780.656    21432780.046   -18106745.904 6 -14109145.658 5
        37.400          35.300
  24049070.384    24049069.829    24049070.342    -2677519.855 3  -2086375.882 3
        19.900          21.100
  23473141.559    23473140.731    23473139.995   -10935264.868 3  -8520979.381 3
        21.100          18.600
  25159685.917    25159685.307    25159683.727     -201660.952     -157126.822 2
         3.000          15.100
  24127631.558    24127630.383    24127631.291    -5638215.542 3  -4393421.691 3
        18.600          19.300
  21050791.645    21050791.079    21050789.319   -22831315.223 6 -17790625.399 6
        41.800          40.600
  21955391.484    21955390.902    21955389.966   -16047995.834 6 -12504927.429 5
        36.300          33.500
  20274445.876    20274445.554    20274442.529   -25703804.833 7 -20028928.692 8
        44.600          50.000
  23003847.071    23003845.572    23003844.152   -10500575.134 5  -8182262.654 5
        32.100          30.800
 09  1 25  0  8  0.0000000  0 10G28G 9G 3G21G15G 6G18G14G22G19
  25490500.990    25490499.222    25490500.045      205623.747      160226.148 1
         3.000           6.500
  21430590.462    21430590.103    21430589.418   -18118256.995 6 -14118115.330 5
        37.400          35.300
  24065611.494    24065610.526    24065611.178    -2590595.479 3  -2018642.619 3
        19.900          20.500
  23494235.093    23494235.015    23494233.979   -10824415.019 3  -8434602.881 2
        20.500          17.800
  25180329.859    25180329.693    25180328.328      -93174.843      -72592.202 2
                        15.100
  24144220.428    24144220.048    24144220.533    -5551037.765 3  -4325490.969 3
        19.300          19.300
  21060356.660    21060356.053    21060354.470   -22781049.791 6 -17751457.527 6
        41.500          40.400
  21939667.831    21939667.333    21939666.224   -16130624.430 6 -12569313.333 5
        36.300          33.500
  20272888.651    20272888.312    20272885.241   -25711988.497 7 -20035305.570 8
        44.600          50.100
  23008065.797    23008064.579    23008062.525   -10478406.908 5  -8164988.715 5
        33.000          30.400
 09  1 25  0  8 30.0000000  0 10G28G 9G 3G21G15G 6G18G14G22G19
  25493528.812    25493527.456    25493525.671      221517.770 2    172611.180 1
        13.900          11.000
  21428539.518    21428538.891    21428538.333   -18129037.046 6 -14126515.367 5
        37.600          35.500
  24082201.666    24082200.932    24082201.296    -2503413.751 3  -1950708.801 3
        20.500          20.500
  23515366.930    23515366.160    23515364.693   -10713370.219 3  -8348074.467 2
        19.900          17.800
  25200982.379    25200981.806    25200981.755       15357.189       11978.197 2
                        13.900
  24160850.262    24160849.599    24160849.824    -5463649.886 3  -4257396.521 3
        19.900          19.300
  21069988.342    21069987.735    21069986.101   -22730434.958 6 -17712017.395 6
        41.500          40.200
  21924009.825    21924009.367    21924008.351   -16212907.342 6 -12633429.874 5
        36.300          33.800
  20271408.020    20271407.700    20271404.777   -25719768.855 7 -20041368.182 8
        44.500          50.100
  23012392.479    23012391.116    23012388.858   -10455670.390 5  -8147271.949 5
        33.400          30.200
 09  1 25  0  9  0.0000000  0 10G28G 9G 3G21G15G 6G18G14G22G19
  25496646.580    25496645.947    25496644.722      237917.265 1    185389.899 1
         9.000          11.000
  21426627.279    21426626.925    21426626.285   -18139084.262 6 -14134344.359 5
        37.600          35.400
  24098839.849    24098839.189    24098839.885    -2415976.620 3  -1882575.999 3
        20.500          20.500
  23536534.566    23536534.319    23536533.201   -10602131.561 3  -8261395.023 2
        19.300          17.800
  25221643.558    25221643.646    25221642.522      123934.609       96583.974 2
         3.000          13.900
  24177519.019    24177518.658    24177518.941    -5376053.687 3  -4189139.772 3
        19.300          19.900
  21079686.703    21079686.071    21079684.223   -22679470.149 6 -17672304.552 6
        41.500          39.900
  21908418.302    21908417.812    21908416.664   -16294841.804 6 -12697274.893 5
        36.400          33.800
  20270004.591    20270004.229    20270001.186   -25727144.536 7 -20047115.461 8
        44.600          50.100
  23016827.356    23016825.899    23016823.942   -10432365.393 5  -8129112.217 5
        33.100          30.800
 09  1 25  0  9 30.0000000  0 10G28G 9G 3G21G15G 6G18G14G22G19
  25499863.156    25499862.516    25499861.757      254822.229      198562.571 1
         3.000          11.000
  21424855.262    21424854.835    21424854.216   -18148396.566 6 -14141600.682 5
        37.700          35.500
  24115527.635    24115527.107    24115527.287    -2328285.714 3  -1814245.446 3
        20.500          19.900
  23557739.561    23557738.780    23557737.812   -10490700.203 3  -8174565.414 2
        19.900          17.800
  25242312.557    25242314.080    25242312.542      232557.278      181225.001 2
         3.000          12.600
  24194227.239    24194227.117    24194227.438    -5288250.841 2  -4120722.014 3
        17.800          19.300
  21089451.739    21089451.149    21089449.350   -22628154.487 6 -17632318.315 6
        41.500          39.900
  21892893.198    21892892.804    21892891.853   -16376425.439 6 -12760846.544 5
        36.500          34.000
  20268678.324    20268677.970    20268674.817   -25734114.228 7 -20052546.388 8
        44.700          50.100
  23021370.192    23021368.684    23021367.101   -10408491.908 5  -8110509.497 5
        32.800          31.000
 09  1 25  0 10  0.0000000  0 10G28G 9G 3G21G15G 6G18G14G22G19
  25503176.082    25503175.200    25503176.623      272233.480      212129.795 2
         3.000          12.600
  21423223.537    21423222.958    21423222.175   -18156972.529 6 -14148283.244 5
        37.700          35.400
  24132262.966    24132262.192    24132261.657    -2240343.594 3  -1745719.113 3
        20.500          19.300
  23578981.637    23578980.486    23578978.508   -10379077.238 3  -8087586.510 2
        19.900          17.800
  25262992.447    25262993.649    25262990.840      341224.217 1    265900.562 1
         6.500          11.000
  24210974.928    24210974.282    24210974.107    -5200243.700 2  -4052145.036 3
        17.000          19.300
  21099283.423    21099282.816    21099281.147   -22576488.263 6 -17592058.920 6
        41.400          39.800
  21877435.637    21877435.149    21877434.271   -16457655.825 6 -12824142.935 5
        36.500          34.100
  20267429.511    20267429.208    20267426.062   -25740676.641 7 -20057659.951 8
        44.700          50.100
  23026021.613    23026019.996    23026017.930   -10384050.028 5  -8091463.887 5
        32.800          30.600
 09  1 25  0 10 30.0000000  0 10G28G 9G 3G21G15G 6G18G14G22G19
  25506585.721    25506586.274    25506583.525      290144.967      226086.680 1
                         9.000
  21421730.372    21421729.957    21421729.276   -18164817.499 6 -14154396.199 5
        37.600          35.400
  24149044.613    24149043.515    24149042.552    -2152158.064 3  -1677003.122 3
        19.900          19.300
  23600257.868    23600256.946    23600254.746   -10267270.447 3  -8000464.357 3
        21.600          18.600
  25283677.459    25283678.142    25283678.835      449928.226 1    350604.959 2
         9.000          12.600
  24227758.579    24227758.735    24227758.470    -5112040.112 2  -3983414.977 3
        17.000          18.600
  21109180.902    21109180.217    21109178.427   -22524477.425 6 -17551530.988 6
        41.300          39.700
  21862044.627    21862044.121    21862042.957   -16538537.272 6 -12887167.425 5
        37.000          34.400
  20266257.346    20266256.973    20266253.855   -25746836.568 7 -20062459.892 8
        44.700          50.100
  23030779.053    23030777.734    23030775.997   -10359046.483 5  -8071980.611 5
        31.600          30.600
 09  1 25  0 11  0.0000000  0 10G28G 9G 3G21G15G 6G18G14G22G19
  25510087.157    25510086.634    25510086.737      308551.261      240429.265 1
                         6.500
  21420376.030    21420375.561    21420374.888   -18171935.517 6 -14159942.701 5
        37.700          35.500
  24165868.202    24165868.915    24165869.286    -2063737.109 3  -1608103.683 3
        18.600          19.300
  23621567.204    23621566.518    23621564.761   -10155286.864 3  -7913204.432 2
        22.100          17.800
  25304371.298    25304370.599    25304371.353      558663.040 1    435333.377 1
         9.000          11.000
  24244580.384    24244579.636    24244578.655    -5023647.581 2  -3914537.704 2
        17.800          17.800
  21119142.733    21119142.117    21119140.452   -22472127.023 6 -17510738.467 6
        41.200          39.600
  21846719.055    21846718.619    21846717.504   -16619072.866 6 -12949922.420 5
        37.000          34.400
  20265160.916    20265160.552    20265157.378   -25752598.511 7 -20066949.712 8
        44.700          50.100
  23035643.120    23035641.498    23035640.072   -10333486.769 5  -8052063.963 5
        31.500          30.800
 09  1 25  0 11 30.0000000  0 10G28G 9G 3G21G15G 6G18G14G22G19
  25513686.485    25513685.657    25513685.021      327459.116 1    255162.573 1
         6.500           6.500
  21419161.422    21419160.880    21419160.154   -18178319.163 6 -14164916.955 5
        37.700          35.600
  24182739.916    24182740.395    24182740.451    -1975076.881 3  -1539017.789 3
        18.600          18.600
  23642911.764    23642910.615    23642909.041   -10043121.541 3  -7825802.909 2
        20.500          17.000
  25325071.804    25325070.831    25325068.415      667434.087 2    520090.004 1
        12.600           9.000
  24261436.525    24261436.630    24261436.905    -4935061.847 2  -3845509.904 3
        17.800          18.600
  21129170.398    21129169.825    21129168.197   -22419430.777 6 -17469676.454 6
        41.100          39.500
  21831461.211    21831460.688    21831459.674   -16699253.662 6 -13012400.951 5
        37.100          34.600
  20264141.494    20264141.122    20264138.047   -25757955.235 7 -20071123.779 8
        44.700          50.100
  23040613.978    23040612.569    23040610.814   -10307365.102 5  -8031709.419 5
        31.800          30.800
 09  1 25  0 12  0.0000000  0 10G28G 9G 3G21G15G 6G18G14G22G19
  25517378.885    25517378.925    25517378.586      346869.606 1    270287.693 1
         6.500          11.000
  21418086.569    21418086.123    21418085.342   -18183965.645 6 -14169316.803 5
        37.500          35.400
  24199657.057    24199656.878    24199657.800    -1886177.667 2  -1469745.694 2
        17.800          17.800
  23664290.600    23664289.444    23664288.103    -9930774.487 3  -7738259.766 2
        19.900          16.100
  25345775.087    25345775.213    25345772.062      776242.126 2    604875.490 1
        13.900           9.000
  24278330.971    24278330.345    24278331.720    -4846283.911 2  -3776332.330 3
        17.000          18.600
  21139264.368    21139263.749    21139262.081   -22366386.828 6 -17428343.506 6
        41.200          39.300
  21816271.369    21816270.864    21816269.832   -16779076.333 6 -13074600.420 5
        37.200          34.700
  20263199.763    20263199.459    20263196.320   -25762903.941 7 -20074979.911 8
        44.800          50.200
  23045691.569    23045690.223    23045688.387   -10280680.780 5  -8010916.439 5
        32.000          30.100
 09  1 25  0 12 30.0000000  0 10G28G 9G 3G21G15G 6G18G14G22G19
  25521167.180    25521166.656    25521166.608      366776.995 1    285799.857 1
         6.500           9.000
  21417151.779    21417151.245    21417150.295   -18188879.652 6 -14173145.893 5
        37.900          35.300
  24216618.818    24216618.260    24216617.791    -1797047.814 2  -1400293.862 2
        17.800          17.000
  23685701.756    23685701.265    23685700.319    -9818252.959 2  -7650580.663 2
        17.800          16.100
  25366483.990    25366484.708    25366483.423      885080.196 1    689684.356 1
        11.000          11.000
  24295260.071    24295259.797    24295260.197    -4757321.234 2  -3707010.787 2
        16.100          17.800
  21149423.448    21149422.828    21149421.024   -22313001.107 6 -17386744.240 6
        41.200          39.100
  21801149.233    21801148.669    21801147.398   -16858544.597 6 -13136523.731 5
        37.300          34.700
  20262334.931    20262334.552    20262331.472   -25767449.046 7 -20078521.546 8
        44.700          50.200
  23050875.339    23050874.073    23050872.128   -10253439.879 5  -7989689.766 4
        32.300          29.900
 09  1 25  0 13  0.0000000  0 10G28G 9G 3G21G15G 6G18G14G22G19
  25525050.247    25525050.582    25525050.289      387183.720      301701.150 1
         3.000           9.000
  21416356.514    21416356.086    21416355.226   -18193057.781 6 -14176401.571 5
        37.700          35.300
  24233623.642    24233623.214    24233622.497    -1707687.179 2  -1330662.229 2
        17.800          17.000
  23707146.970    23707146.362    23707146.077    -9705556.154 2  -7562764.999 2
        16.100          16.100
  25387198.461    25387200.302    25387201.205      993949.924 1    774517.858 1
         6.500          11.000
  24312224.190    24312223.683    24312223.852    -4668173.639 2  -3637545.132 2
        17.000          17.000
  21159647.679    21159647.138    21159645.518   -22259271.105 6 -17344876.703 6
        41.100          39.100
  21786095.180    21786094.600    21786093.462   -16937653.999 6 -13198167.409 5
        37.400          35.200
  20261547.139    20261546.854    20261543.889   -25771588.035 7 -20081746.729 8
        44.700          50.200
  23056165.722    23056164.271    23056162.320   -10225640.408 5  -7968027.845 4
        32.300          29.900
 09  1 25  0 13 30.0000000  0 10G28G 9G 3G21G15G 6G18G14G22G19
  25529030.128    25529028.623    25529027.223      408088.666      317990.681 1
                         9.000
  21415701.421    21415701.007    21415700.143   -18196500.077 6 -14179083.873 5
        37.700          35.200
  24250671.955    24250671.340    24250670.599    -1618099.147 2  -1260853.378 2
        16.100          17.800
  23728625.115    23728624.831    23728623.694    -9592686.452 2  -7474814.624 2
        15.100          15.100
  25407921.913    25407921.649    25407925.068     1102849.606      859374.744 2
         3.000          12.600
  24329222.378    24329223.346    24329222.842    -4578844.737 3  -3567938.230 2
        18.600          16.100
  21169937.763    21169937.130    21169935.342   -22205197.576 6 -17302741.485 6
        41.100          39.000
  21771109.577    21771108.992    21771108.027   -17016403.269 6 -13259530.461 5
        37.400          35.200
  20260837.043    20260836.688    20260833.591   -25775320.258 7 -20084654.952 8
        44.800          50.200
  23061561.892    23061560.209    23061558.501   -10197284.108 5  -7945932.035 4
        32.100          29.900
 09  1 25  0 14  0.0000000  0  9G28G 9G 3G21G 6G18G14G22G19
  25533101.851    25533100.751    25533099.158      429484.282      334662.573 1
         3.000           9.000
  21415185.093    21415184.654    21415183.914   -18199213.031 6 -14181197.857 5
        37.700          35.400
  24267761.309    24267760.503    24267760.691    -1528293.161 2  -1190874.703 3
        15.100          18.600
  23750134.966    23750134.678    23750133.381    -9479653.109 2  -7386736.713 2
        17.000          16.100
  24346255.731    24346255.043    24346254.170    -4489343.711 3  -3498197.187 2
        18.600          16.100
  21180291.581    21180290.884    21180289.140   -22150788.053 6 -17260344.453 6
        41.100          38.800
  21756191.302    21756190.976    21756190.006   -17094798.050 6 -13320617.288 5
        37.500          35.400
  20260202.876    20260202.557    20260199.440   -25778652.455 7 -20087251.464 8
        44.800          50.200
  23067062.050    23067060.844    23067058.844   -10168378.898 5  -7923408.493 5
        31.800          30.100
 09  1 25  0 14 30.0000000  0  9G28G 9G 3G21G 6G18G14G22G19
  25537268.179    25537267.034    25537266.221      451371.623 1    351717.581 1
         9.000          11.000
  21414808.064    21414807.505    21414807.173   -18201194.821 6 -14182742.101 5
        37.600          35.800
  24284891.150    24284891.031    24284891.554    -1438270.674 2  -1120727.308 3
        13.900          18.600
  23771675.533    23771675.191    23771673.746    -9366456.515 2  -7298531.589 2
        17.000          15.100
  24363318.863    24363317.991    24363318.078    -4399671.754 2  -3428322.954 2
        16.100          16.100
  21190709.365    21190708.790    21190707.044   -22096041.517 6 -17217684.814 6
        41.100          38.600
  21741341.617    21741341.152    21741340.040   -17172835.118 6 -13381425.387 5
        37.800          35.500
  20259645.464    20259645.084    20259641.965   -25781582.088 7 -20089534.291 8
        44.800          50.200
  23072667.021    23072665.425    23072664.100   -10138924.607 5  -7900457.098 5
        31.600          30.200
 09  1 25  0 15  0.0000000  0  9G28G 9G 3G21G 6G18G14G22G19
  25541528.354    25541526.952    25541527.376      473770.419      369171.227 1
         3.000           9.000
  21414573.912    21414573.489    21414573.034   -18202424.591 6 -14183700.355 5
        37.700          35.700
  24302067.321    24302066.157    24302066.584    -1348014.244 2  -1050397.629 3
        17.000          19.300
  23793251.006    23793250.413    23793249.033    -9253078.681 2  -7210185.256 2
        17.800          13.900
  24380417.155    24380417.804    24380418.439    -4309811.254 2  -3358301.819 2
        15.100          17.000
  21201195.283    21201194.672    21201192.846   -22040937.888 6 -17174746.918 6
        41.000          38.600
  21726563.802    21726563.245    21726562.285   -17250492.546 6 -13441937.655 5
        37.600          35.500
  20259168.279    20259168.014    20259164.914   -25784089.110 7 -20091487.812 8
        44.800          50.100
  23078380.110    23078378.715    23078377.075   -10108901.956 5  -7877062.829 5
        31.800          30.200
 09  1 25  0 15 30.0000000  0  9G28G 9G 3G21G 6G18G14G22G19
  25545883.720    25545882.254    25545883.164      496665.551      387011.665 1
                         6.500
  21414480.665    21414480.014    21414479.321   -18202916.550 6 -14184083.691 5
        37.800          35.500
  24319283.497    24319283.026    24319282.915    -1257541.363 2   -979899.293 3
        17.000          19.300
  23814857.367    23814857.159    23814855.230    -9139535.979 3  -7121710.430 2
        18.600          12.600
  24397550.316    24397550.481    24397550.615    -4219779.443 2  -3288147.178 2
        16.100          16.100
  21211745.998    21211745.359    21211743.827   -21985492.667 6 -17131542.848 6
        40.900          38.500
  21711855.827    21711855.296    21711854.349   -17327783.578 6 -13502164.424 5
        37.700          35.700
  20258769.172    20258768.792    20258765.625   -25786187.081 7 -20093122.590 8
        44.800          50.100
  23084198.387    23084197.045    23084195.261   -10078326.701 5  -7853237.954 5
        32.100          30.400
 09  1 25  0 16  0.0000000  0  9G28G 9G 3G21G 6G18G14G22G19
  25550335.193    25550335.106    25550334.578      520053.933      405236.186 2
         3.000          12.600
  21414526.760    21414526.215    21414525.796   -18202672.488 6 -14183893.507 5
        37.500          35.600
  24336539.157    24336538.867    24336539.922    -1166856.895 2   -909236.097 3
        17.000          19.300
  23836494.741    23836493.970    23836492.289    -9025832.474 3  -7033110.287 2
        18.600          13.900
  24414715.544    24414715.325    24414714.587    -4129581.362 3  -3217862.947 2
        19.300          17.000
  21222361.615    21222360.978    21222359.327   -21929708.102 6 -17088074.359 6
        41.000          38.600
  21697217.363    21697216.878    21697215.892   -17404709.030 6 -13562106.321 5
        37.800          35.900
  20258447.560    20258447.168    20258443.956   -25787877.560 7 -20094439.842 8
        44.800          50.100
  23090121.393    23090119.920    23090118.078   -10047201.973 5  -7828984.932 5
        31.600          30.400
 09  1 25  0 16 30.0000000  0  9G28G 9G 3G21G 6G18G14G22G19
  25554877.973    25554879.068    25554878.639      543928.616      423839.716 2
         3.000          13.900
  21414711.908    21414711.637    21414711.009   -18201698.771 6 -14183134.757 5
        37.700          35.500
  24353836.032    24353835.206    24353836.081    -1075970.031 2   -838415.160 3
        17.800          19.900
  23858160.825    23858160.159    23858158.705    -8911976.967 2  -6944391.709 2
        17.800          15.100
  24431908.926    24431908.845    24431908.491    -4039225.618 2  -3147455.913 2
        17.800          17.000
  21233040.228    21233039.673    21233038.005   -21873591.046 6 -17044346.781 6
        41.000          38.200
  21682647.446    21682647.071    21682646.122   -17481273.245 6 -13621766.731 6
        37.800          36.000
  20258202.029    20258201.712    20258198.593   -25789167.007 7 -20095444.603 8
        44.800          50.100
  23096147.422    23096145.905    23096143.821   -10015535.783 5  -7804309.976 5
        32.100          30.400
 09  1 25  0 17  0.0000000  0  9G 9G28G 3G21G 6G18G14G22G19
  21415035.475    21415034.939    21415034.337   -18199999.347 6 -14181810.524 5
        37.700          35.400
  25559512.531    25559511.459    25559512.324      568284.339      442818.152 1
         3.000          11.000
  24371167.545    24371167.042    24371167.576     -984888.059 2   -767442.208 3
        16.100          19.300
  23879854.199    23879853.932    23879852.374    -8797976.031 2  -6855559.819 2
        17.800          16.100
  24449131.614    24449131.136    24449132.017    -3948719.833 2  -3076931.961 2
        16.100          16.100
  21243781.407    21243780.732    21243778.898   -21817146.536 6 -17000364.042 6
        40.900          38.100
  21668146.200    21668145.674    21668144.557   -17557479.408 6 -13681148.143 6
        38.100          36.100
  20258032.308    20258031.956    20258028.854   -25790059.098 7 -20096139.735 8
        44.800          50.100
  23102275.086    23102273.588    23102271.767    -9983333.558 5  -7779217.332 5
        31.600          30.600
 09  1 25  0 17 30.0000000  0  9G 9G28G 3G21G 6G18G14G22G19
  21415500.860    21415500.353    21415499.543   -18197554.697 6 -14179905.590 5
        37.900          35.400
  25564243.592    25564243.620    25564241.730      593139.948      462186.290 1
                         9.000
  24388540.366    24388540.187    24388539.331     -893594.314 2   -696304.254 3
        16.100          18.600
  23901579.133    23901578.852    23901577.009    -8683811.970 2  -6766600.837 2
        17.800          16.100
  24466386.259    24466385.919    24466386.473    -3858046.886 2  -3006277.705 2
        16.100          15.100
  21254588.489    21254587.808    21254586.090   -21760355.180 6 -16956111.034 6
        40.900          38.300
  21653716.685    21653716.224    21653715.095   -17633306.451 6 -13740234.141 6
        38.200          36.200
  20257941.837    20257941.530    20257938.432   -25790534.088 7 -20096509.853 8
        44.800          50.100
  23108508.383    23108506.823    23108505.235    -9950577.083 5  -7753692.822 5
        31.000          30.600
 09  1 25  0 18  0.0000000  0  9G 9G28G 3G21G 6G18G14G22G19
  21416106.396    21416105.861    21416105.234   -18194371.531 6 -14177425.194 5
        37.700          35.300
  25569067.506    25569067.743    25569066.939      618487.822      481937.884 1
         3.000          11.000
  24405952.111    24405951.041    24405950.811     -802098.612 2   -625008.927 2
        17.000          17.800
  23923334.176    23923333.119    23923330.547    -8569493.798 2  -6677521.752 2
        17.800          16.100
  24483671.233    24483671.098    24483670.500    -3767216.401 2  -2935500.709 2
        17.000          16.100
  21265459.746    21265459.261    21265457.596   -21703225.136 6 -16911594.115 6
        40.900          38.200
  21639358.284    21639357.837    21639356.795   -17708760.016 6 -13799029.112 6
        38.100          36.400
  20257929.767    20257929.412    20257926.200   -25790598.283 7 -20096559.871 8
        44.900          50.100
  23114845.733    23114844.424    23114842.598    -9917274.557 5  -7727742.814 5
        31.500          30.400
 09  1 25  0 18 30.0000000  0  8G 9G 3G21G 6G18G14G22G19
  21416852.568    21416852.150    21416851.372   -18190450.119 6 -14174369.542 5
        37.800          35.100
  24423400.401    24423399.936    24423399.474     -710404.001 2   -553558.589 2
        17.000          17.800
  23945116.399    23945115.784    23945113.341    -8455024.017 2  -6588324.542 2
        16.100          13.900
  24500984.917    24500984.915    24500984.527    -3676231.228 2  -2864603.193 2
        17.000          17.800
  21276395.719    21276395.032    21276393.325   -21645756.996 6 -16866813.742 6
        40.600          37.900
  21625071.331    21625070.873    21625069.812   -17783838.899 6 -13857532.122 6
        38.400          36.500
  20257995.582    20257995.271    20257992.121   -25790251.930 7 -20096289.978 8
        44.900          50.100
  23121286.419    23121285.086    23121283.186    -9883427.580 5  -7701368.544 4
        31.600          29.700
 09  1 25  0 19  0.0000000  0  9G 9G 3G11G21G 6G18G14G22G19
  21417736.114    21417735.601    21417734.727   -18185807.848 6 -14170752.179 5
        37.800          34.900
  24440882.625    24440882.109    24440882.541     -618531.405 2   -481969.546 3
        17.800          18.600
  24875291.653    24875290.787    24875287.534            .1241          -.16911
         3.000           9.000
  23966924.182    23966924.093    23966922.080    -8340422.540 2  -6499024.697 2
        15.100          13.900
  24518324.764    24518323.885    24518323.905    -3585112.032 2  -2793601.254 3
        15.100          18.600
  21287392.489    21287391.803    21287389.999   -21587968.841 6 -16821784.009 6
        40.600          37.700
  21610852.298    21610851.832    21610850.972   -17858559.438 6 -13915755.908 6
        38.300          36.700
  20258136.405    20258136.074    20258132.948   -25789511.908 7 -20095713.333 8
        44.900          50.100
  23127827.503    23127825.827    23127823.967    -9849055.397 5  -7674585.030 4
        31.600          29.700
 09  1 25  0 19 30.0000000  0  9G 9G 3G11G21G 6G18G14G22G19
  21418761.454    21418760.947    21418760.037   -18180419.241 6 -14166553.257 5
        37.700          34.800
  24458404.007    24458403.136    24458403.932     -526457.693 2   -410223.820 2
        17.800          17.800
  24856598.470    24856598.743    24856595.789      -98216.019 1    -76532.182 1
         6.500          11.000
  23988761.763    23988761.195    23988759.475    -8225666.274 2  -6409604.251 2
        16.100          13.900
  24535693.369    24535692.104    24535693.700    -3493836.226 2  -2722477.278 3
        13.900          18.600
  21298454.698    21298454.129    21298452.361   -21529835.768 6 -16776485.505 6
        40.600          37.700
  21596706.858    21596706.413    21596705.402   -17932894.726 6 -13973679.496 6
        38.400          36.900
  20258357.021    20258356.654    20258353.419   -25788353.052 7 -20094810.322 8
        44.900          50.000
  23134472.956    23134471.588    23134469.681    -9814133.894 5  -7647373.470 5
        32.300          30.200
 09  1 25  0 20  0.0000000  0  9G 9G 3G11G21G 6G18G14G22G19
  21419927.915    21419927.445    21419926.857   -18174288.964 6 -14161776.413 5
        37.700          35.100
  24475961.964    24475961.804    24475961.795     -434190.215 2   -338327.091 2
        17.800          17.000
  24837953.731    24837953.242    24837952.924     -196192.368     -152877.352 1
         3.000          11.000
  24010626.829    24010626.274    24010624.688    -8110761.402 2  -6320068.000 2
        15.100          15.100
  24553091.652    24553091.140    24553091.951    -3402410.782 2  -2651236.672 3
        12.600          18.600
  21309581.863    21309581.151    21309579.430   -21471362.512 6 -16730921.926 6
        40.500          37.500
  21582634.142    21582633.604    21582632.550   -18006847.936 6 -14031305.362 6
        38.600          36.800
  20258656.482    20258656.129    20258652.978   -25786778.777 7 -20093583.610 8
        44.800          50.000
  23141221.436    23141220.168    23141218.400    -9778668.787 5  -7619738.328 5
        32.000          30.200
 09  1 25  0 20 30.0000000  0  9G 9G 3G11G21G 6G18G14G22G19
  21421233.669    21421233.262    21421232.541   -18167426.995 6 -14156429.414 5
        37.700          35.200
  24493553.811    24493553.040    24493554.163     -341742.580 2   -266289.988 2
        16.100          15.100
  24819354.530    24819354.936    24819354.296     -293936.168 1   -229041.329 2
         9.000          12.600
  24032519.555    24032518.265    24032516.741    -7995720.153 2  -6230425.509 2
        15.100          12.600
  24570513.428    24570513.118    24570514.547    -3310848.412 1  -2579889.372 2
         9.000          16.100
  21320771.789    21320771.105    21320769.172   -21412560.035 6 -16685101.809 6
        40.700          37.500
  21568632.431    21568631.875    21568630.821   -18080427.459 6 -14088640.046 6
        38.700          36.900
  20259033.245    20259032.892    20259029.764   -25784799.065 7 -20092040.969 8
        44.800          50.100
  23148071.209    23148069.936    23148068.115    -9742671.839 5  -7591688.769 4
        31.600          29.900
 09  1 25  0 21  0.0000000  0  9G 9G 3G11G21G 6G18G14G22G19
  21422679.557    21422679.114    21422678.476   -18159828.831 6 -14150508.763 5
        37.900          35.200
  24511180.461    24511180.312    24511181.088     -249112.124 2   -194110.407 2
        16.100          15.100
  24800799.940    24800799.705    24800800.788     -391440.126 1   -305018.419 2
        11.000          12.600
  24054438.135    24054437.113    24054434.994    -7880540.073 2  -6140674.817 1
        15.100          11.000
  24587964.522    24587964.273    24587964.037    -3219146.997 1  -2508433.715 2
         9.000          15.100
  21332024.785    21332024.228    21332022.407   -21353424.281 6 -16639021.996 6
        40.600          37.500
  21554702.987    21554702.411    21554701.384   -18153627.402 6 -14145678.950 6
        38.800          37.100
  20259488.041    20259487.714    20259484.584   -25782408.753 7 -20090178.385 8
        44.700          50.000
  23155023.480    23155022.081    23155020.216    -9706139.512 5  -7563222.029 4
        32.100          29.700
 09  1 25  0 21 30.0000000  0  9G 9G 3G11G21G 6G18G14G22G19
  21424265.225    21424264.656    21424263.742   -18151497.737 6 -14144016.991 5
        37.900          34.900
  24528841.979    24528841.240    24528841.452     -156305.076 2   -121793.246 2
        17.800          15.100
  24782291.917    24782291.012    24782291.918     -488704.785 1   -380809.063 2
        11.000          12.600
  24076380.772    24076380.171    24076378.366    -7765226.154 2  -6050819.822 1
        15.100           9.000
  24605441.758    24605441.229    24605440.351    -3127312.597 1  -2436874.474 2
        11.000          16.100
  21343340.538    21343339.988    21343338.283   -21293958.841 6 -16592685.288 6
        40.300          37.300
  21540845.509    21540844.983    21540843.696   -18226449.307 6 -14202423.284 6
        39.000          37.200
  20260020.467    20260020.164    20260017.128   -25779610.475 7 -20087997.902 8
        44.700          50.000
  23162076.420    23162075.145    23162072.880    -9669076.517 5  -7534341.789 4
        32.100          29.200
 09  1 25  0 22  0.0000000  0  9G 9G 3G11G21G 6G18G14G22G19
  21425990.522    21425989.993    21425989.141   -18142429.723 6 -14136951.004 5
        37.600          34.700
  24546536.338    24546535.521    24546535.685      -63320.579 2    -49337.833 2
        17.000          15.100
  24763830.230    24763829.403    24763830.603     -585723.611 1   -456408.150 2
        11.000          12.600
  24098350.019    24098349.478    24098348.120    -7649777.135 2  -5960859.568 1
        17.000           9.000
  24622942.212    24622941.742    24622940.911    -3035344.020 1  -2365210.712 2
        11.000          17.800
  21354719.878    21354719.300    21354717.590   -21234160.344 6 -16546089.054 6
        40.300          37.200
  21527060.702    21527060.210    21527059.159   -18298887.860 6 -14258868.898 6
        39.000          37.400
  20260631.414    20260631.099    20260627.933   -25776400.468 7 -20085496.593 8
        44.700          50.000
  23169230.655    23169229.085    23169227.400    -9631480.376 5  -7505046.096 4
        31.600          29.200
 09  1 25  0 22 30.0000000  0  9G 9G 3G11G21G 6G18G14G22G19
  21427855.266    21427854.832    21427853.962   -18132630.696 6 -14129315.392 5
        37.700          34.900
  24564262.059    24564261.763    24564261.777       29832.849 2     23249.227 2
        16.100          15.100
  24745414.250    24745413.830    24745411.708     -682499.370 1   -531817.821 1
        11.000          11.000
  24120344.215    24120343.291    24120341.454    -7534200.446 3  -5870799.814 1
        18.600          11.000
  24640464.813    24640464.379    24640466.479    -2943249.585 1  -2293448.837 2
         6.500          17.800
  21366161.373    21366160.723    21366158.998   -21174035.049 6 -16499238.176 6
        40.300          37.200
  21513348.087    21513347.662    21513346.581   -18370947.795 6 -14315019.485 6
        39.100          37.400
  20261319.695    20261319.362    20261316.153   -25772783.707 7 -20082678.332 8
        44.800          50.000
  23176485.043    23176483.576    23176481.444    -9593358.276 5  -7475340.565 4
        31.300          28.800
 09  1 25  0 23  0.0000000  0  9G 9G 3G11G21G 6G18G14G22G19
  21429859.284    21429858.791    21429858.159   -18122099.634 6 -14121109.366 5
        38.000          35.200
  24582021.229    24582020.315    24582020.288      123153.745 2     95966.783 2
        13.900          15.100
  24727045.900    24727045.555    24727042.192     -779028.469 1   -607035.255 1
         9.000          11.000
  24142360.765    24142359.901    24142359.363    -7418496.810 2  -5780641.166 1
        17.800          11.000
  24658013.720    24658014.742    24658016.295    -2851030.664 1  -2221589.925 2
        11.000          17.000
  21377665.282    21377664.674    21377662.760   -21113582.120 6 -16452131.991 6
        40.300          37.000
  21499708.307    21499707.722    21499706.704   -18442625.925 6 -14370872.569 6
        39.100          37.500
  20262085.760    20262085.395    20262082.181   -25768758.190 7 -20079541.561 8
        44.700          50.000
  23183839.759    23183838.014    23183836.236    -9554710.378 5  -7445225.336 4
        31.000          29.000
 09  1 25  0 23 30.0000000  0  9G 9G 3G11G21G 6G18G14G22G19
  21432003.178    21432002.772    21432001.906   -18110833.265 6 -14112330.367 5
        37.700          34.900
  24599810.988    24599810.360    24599811.265      216642.770 2    168815.367 2
        13.900          16.100
  24708725.188    24708724.249    24708721.488     -875304.521 1   -682055.504 1
         9.000          11.000
  24164401.280    24164401.211    24164401.536    -7302665.104 2  -5690382.726 1
        17.800          11.000
  24675589.172    24675589.116    24675588.367    -2758686.399 2  -2149633.345 2
        13.900          16.100
  21389231.855    21389231.190    21389229.468   -21052798.801 6 -16404768.365 6
        40.000          36.800
  21486141.928    21486141.318    21486140.243   -18513917.905 6 -14426424.753 6
        39.100          37.600
  20262930.020    20262929.690    20262926.626   -25764320.675 7 -20076083.754 8
        44.700          50.000
  23191294.356    23191292.810    23191291.170    -9515534.899 5  -7414698.991 4
        31.000          29.700
 09  1 25  0 24  0.0000000  0  9G 9G 3G11G21G 6G18G14G22G19
  21434286.678    21434286.245    21434285.697   -18098832.551 6 -14102979.163 5
        37.600          35.200
  24617633.651    24617632.989    24617632.762      310296.138 2    241792.039 2
        15.100          16.100
  24690452.317    24690451.955    24690449.220     -971326.010 1   -756877.397 1
         9.000          11.000
  24186467.936    24186467.366    24186466.965    -7186708.293 3  -5600026.790 1
        19.300           9.000
  24693183.592    24693183.763    24693183.488    -2666220.377 1  -2077581.963 2
        11.000          13.900
  21400861.169    21400860.638    21400858.697   -20991686.429 6 -16357148.333 6
        40.100          36.800
  21472649.091    21472648.535    21472647.374   -18584822.965 6 -14481675.440 6
        39.200          37.600
  20263852.923    20263852.555    20263849.442   -25759471.416 7 -20072305.107 8
        44.700          50.000
  23198848.818    23198847.550    23198845.673    -9475834.219 5  -7383763.386 4
        30.600          29.200
 09  1 25  0 24 30.0000000  0  9G 9G 3G11G21G 6G18G14G22G19
  21436710.498    21436709.983    21436709.207   -18086096.971 6 -14093055.326 5
        37.800          35.100
  24635486.380    24635485.469    24635485.349      404111.932 2    314895.269 2
        16.100          15.100
  24672229.175    24672228.863    24672226.532    -1067089.387 1   -831498.194 2
        11.000          12.600
  24208557.598    24208557.682    24208556.510    -7070627.564 3  -5509574.271 1
        19.900           6.500
  24710801.068    24710801.774    24710801.073    -2573634.487 1  -2005437.123 2
         9.000          12.600
  21412553.169    21412552.470    21412550.810   -20930244.551 6 -16309271.542 6
        39.800          36.700
  21459230.155    21459229.689    21459228.648   -18655338.896 6 -14536622.908 6
        39.100          37.800
  20264854.221    20264853.898    20264850.741   -25754209.288 7 -20068204.743 8
        44.700          49.900
  23206503.788    23206502.279    23206500.204    -9435608.982 5  -7352419.072 4
        30.800          29.200
 09  1 25  0 25  0.0000000  0  9G 9G 3G11G21G 6G18G14G22G19
  21439272.928    21439272.494    21439271.754   -18072630.602 6 -14082562.047 5
        38.000          35.200
  24653368.039    24653367.132    24653367.778      498084.335 2    388120.491 2
        13.900          15.100
  24654055.047    24654054.263    24654053.417    -1162595.448 2   -905918.460 2
        12.600          13.900
  24230669.876    24230669.173    24230668.650    -6954428.452 3  -5419029.519 1
        19.300           9.000
  24728443.323    24728442.282    24728442.540    -2480934.919 2  -1933203.732 2
        12.600          16.100
  21424307.136    21424306.516    21424304.784   -20868477.243 6 -16261141.172 6
        39.800          36.600
  21445885.125    21445884.680    21445883.705   -18725467.882 6 -14591268.859 6
        39.300          38.100
  20265933.659    20265933.290    20265930.068   -25748537.287 7 -20063784.998 8
        44.700          49.900
  23214257.120    23214255.584    23214254.054    -9394864.030 5  -7320669.778 4
        30.200          29.500
 09  1 25  0 25 30.0000000  0  9G 9G18G 3G11G21G 6G14G22G19
  21441973.611    21441973.235    21441972.512   -18058438.437 6 -14071503.216 5
        38.000          35.300
  21436121.814    21436121.243    21436119.480   -20806390.189 6 -16212761.646 6
        39.800          36.500
  24671278.402    24671278.116    24671278.709      592204.844 2    461461.093 2
        15.100          15.100
  24635930.550    24635930.243    24635927.698    -1257846.507 2   -980140.030 2
        16.100          13.900
  24252803.155    24252802.500    24252801.979    -6838118.072 3  -5328398.089 1
        18.600          11.000
  24746102.073    24746102.620    24746103.382    -2388129.289 2  -1860887.666 2
        13.900          16.100
  21432613.076    21432612.514    21432611.425   -18795213.683 6 -14645616.227 6
        39.300          38.000
  20267090.000    20267089.683    20267086.589   -25742460.273 7 -20059049.658 8
        44.600          50.000
  23222108.444    23222106.915    23222105.138    -9353606.268 5  -7288520.875 4
        30.600          29.000
 09  1 25  0 26  0.0000000  0  9G 9G18G 3G11G21G 6G14G22G19
  21444813.671    21444813.220    21444812.733   -18043512.822 6 -14059872.864 5
        37.700          35.300
  21447998.952    21447998.261    21447996.591   -20743975.932 6 -16164127.159 6
        39.600          36.500
  24689218.701    24689218.236    24689217.778      686479.237 2    534921.645 2
        15.100          15.100
  24617855.278    24617855.158    24617852.118    -1352831.773 2  -1054154.503 2
        16.100          13.900
  24274958.749    24274958.374    24274956.957    -6721690.567 3  -5237675.376 1
        18.600          11.000
  24763786.264    24763784.927    24763785.141    -2295212.219 2  -1788484.783 2
        12.600          16.100
  21419415.524    21419415.012    21419413.829   -18864567.017 6 -14699657.776 6
        39.500          38.100
  20268325.066    20268324.749    20268321.623   -25735969.882 7 -20053992.208 8
        44.600          49.900
  23230058.004    23230056.681    23230054.604    -9311829.057 5  -7255967.211 4
        30.600          28.600
 09  1 25  0 26 30.0000000  0  9G 9G18G 3G11G21G 6G14G22G19
  21447792.865    21447792.464    21447791.842   -18027858.125 6 -14047674.391 5
        37.800          35.300
  21459937.241    21459936.710    21459934.971   -20681239.010 6 -16115241.246 6
        39.500          36.300
  24707186.483    24707185.734    24707185.755      780900.571 2    608496.698 2
        13.900          17.000
  24599829.786    24599829.825    24599826.966    -1447552.506 2  -1127962.829 2
        15.100          13.900
  24297135.075    24297135.062    24297133.423    -6605151.869 3  -5146866.035 2
        19.300          12.600
  24781485.924    24781485.396    24781483.943    -2202190.074 1  -1716000.032 2
         6.500          13.900
  21406292.148    21406291.601    21406290.632   -18933530.092 6 -14753395.226 6
        39.300          38.300
  20269638.169    20269637.801    20269634.743   -25729069.576 7 -20048615.342 8
        44.600          49.900
  23238105.820    23238104.523    23238103.045    -9269538.050 5  -7223013.206 4
        31.000          29.200
 09  1 25  0 27  0.0000000  0  9G 9G18G 3G11G21G 6G14G22G19
  21450909.683    21450909.336    21450908.723   -18011478.181 6 -14034910.794 5
        37.800          35.100
  21471936.635    21471935.931    21471934.007   -20618183.207 6 -16066106.855 6
        39.500          36.100
  24725180.281    24725178.776    24725181.685      875462.248 1    682181.085 3
        11.000          18.600
  24581855.922    24581855.154    24581853.026    -1542009.515 2  -1201565.668 1
        13.900          11.000
  24319331.922    24319331.548    24319330.700    -6488507.383 3  -5055974.266 2
        18.600          13.900
  24799206.303    24799204.165    24799206.898    -2109068.967    -1643438.216 2
                        12.600
  21393242.764    21393242.283    21393241.285   -19002105.015 6 -14806830.218 6
        39.400          38.500
  20271028.748    20271028.407    20271025.224   -25721762.308 7 -20042921.365 8
        44.600          49.900
  23246250.653    23246249.319    23246247.405    -9226738.137 5  -7189662.624 4
        31.300          29.000
 09  1 25  0 27 30.0000000  0  9G 9G18G14G 3G11G21G 6G22G19
  21454166.559    21454166.123    21454165.438   -17994363.531 6 -14021574.697 5
        37.800          35.100
  21483998.010    21483997.364    21483995.686   -20554799.303 6 -16016716.799 6
        39.300          36.100
  21380269.479    21380268.950    21380267.793   -19070280.951 6 -14859954.314 6
        39.600          38.600
  24743203.089    24743202.439    24743202.791      970171.708 1    755980.670 2
        11.000          16.100
  24563933.399    24563932.610    24563929.986    -1636190.376 1  -1274953.304 1
        11.000           9.000
  24341551.268    24341550.537    24341548.931    -6371749.492 3  -4964994.133 2
        19.300          15.100
  24816947.804    24816947.254    24816946.576    -2015841.708    -1570793.643 1
         3.000          11.000
  20272498.608    20272498.264    20272494.963   -25714038.134 7 -20036902.523 8
        44.600          49.800
  23254493.657    23254492.174    23254489.957    -9183421.198 5  -7155909.173 4
        31.100          28.400
 09  1 25  0 28  0.0000000  0  9G 9G18G14G 3G11G21G 6G22G19
  21457561.801    21457561.415    21457560.874   -17976520.673 6 -14007671.172 5
        37.800          34.900
  21496120.719    21496120.163    21496118.415   -20491093.737 6 -15967076.100 5
        39.300          35.900
  21367371.177    21367370.608    21367369.389   -19138062.499 6 -14912771.093 6
        39.700          38.800
  24761253.220    24761252.226    24761251.330     1065019.897 2    829888.324 2
        13.900          15.100
  24546061.883    24546062.191    24546059.975    -1730098.277 1  -1348128.253 1
         9.000           6.500
  24363790.070    24363788.710    24363787.340    -6254886.266 2  -4873931.952 2
        17.800          15.100
  24834704.948    24834705.326    24834705.359    -1922517.225    -1498073.252 1
         3.000           9.000
  20274046.654    20274046.286    20274043.120   -25705903.006 7 -20030563.460 8
        44.600          49.800
  23262833.183    23262831.821    23262829.919    -9139594.915 5  -7121758.839 4
        30.400          28.400
 09  1 25  0 28 30.0000000  0  9G 9G18G14G 3G11G21G 6G22G19
  21461095.492    21461095.001    21461094.186   -17957952.331 6 -13993202.328 5
        37.800          34.800
  21508303.990    21508303.449    21508301.813   -20427069.587 6 -15917187.147 5
        39.100          35.800
  21354547.549    21354546.984    21354545.868   -19205450.504 6 -14965281.216 6
        39.600          38.800
  24779326.950    24779327.013    24779326.685     1160002.238 2    903900.498 2
        13.900          15.100
  24528242.236    24528244.109    24528241.722    -1823732.625 1  -1421090.079 1
         9.000           9.000
  24386047.835    24386046.412    24386044.479    -6137921.914 2  -4782790.950 2
        17.000          12.600
  24852482.929    24852482.441    24852482.513    -1829100.220 1  -1425280.792 1
         6.500           9.000
  20275672.604    20275672.314    20275669.093   -25697358.382 7 -20023905.308 8
        44.600          49.800
  23271269.186    23271267.854    23271266.116    -9095263.580 5  -7087214.941 4
        30.200          28.600
 09  1 25  0 29  0.0000000  0  9G 9G18G14G 3G11G21G 6G22G19
  21464767.113    21464766.663    21464765.814   -17938657.505 6 -13978167.396 5
        38.000          34.700
  21520548.341    21520547.705    21520546.139   -20362725.782 6 -15867049.121 5
        39.100          35.800
  21341799.383    21341798.822    21341797.674   -19272442.149 6 -15017482.487 6
        39.600          38.900
  24797426.199    24797426.561    24797426.557     1255117.274 2    978016.099 2
        12.600          15.100
  24510477.434    24510478.090    24510477.104    -1917089.179    -1493835.409 1
         3.000           9.000
  24408324.831    24408323.446    24408320.728    -6020857.083 2  -4691571.638 1
        16.100          11.000
  24870277.893    24870276.978    24870276.656    -1735591.535 1  -1352416.912 1
         6.500           9.000
  20277376.836    20277376.495    20277373.407   -25688402.407 7 -20016926.622 8
        44.500          49.800
  23279801.823    23279800.396    23279798.597    -9050426.263 5  -7052276.785 4
        30.600          28.600
 09  1 25  0 29 30.0000000  0  9G 9G18G14G 3G11G21G 6G22G19
  21468576.840    21468576.297    21468575.485   -17918638.672 6 -13962568.297 5
        38.100          34.800
  21532853.106    21532852.450    21532850.747   -20298064.782 6 -15816663.924 5
        39.100          35.700
  21329126.404    21329125.900    21329124.945   -19339037.987 6 -15069375.339 6
        39.600          39.000
  24815550.131    24815550.436    24815550.637     1350360.080 1   1052231.277 2
        11.000          15.100
  24492766.838    24492767.009    24492764.661    -2010167.340    -1566363.824 1
         3.000          11.000
  24430618.179    24430617.208    24430616.414    -5903695.720 2  -4600277.074 1
        16.100           9.000
  24888085.831    24888086.706    24888088.583    -1641995.999    -1279485.329 1
                        11.000
  20279159.060    20279158.702    20279155.654   -25679036.855 7 -20009628.786 8
        44.400          49.800
  23288429.496    23288427.839    23288425.886    -9005087.770 5  -7016948.103 4
        30.200          28.400
 09  1 25  0 30  0.0000000  0  9G 9G18G14G19G 3G11G21G 6G22
  21472524.141    21472523.657    21472522.999   -17897894.542 6 -13946404.040 5
        38.000          34.800
  21545218.086    21545217.534    21545215.869   -20233084.888 6 -15766030.240 5
        38.900          35.400
  21316529.638    21316529.184    21316528.100   -19405234.739 6 -15120957.211 6
        39.700          39.100
  23297152.457    23297151.015    23297149.064    -8959247.124 5  -6981228.134 4
        30.100          28.400
  24833698.414    24833697.572    24833698.810     1445730.567 1   1126545.912 2
         9.000          15.100
  24475109.272    24475108.373    24475107.892    -2102962.294    -1638671.589 1
                        11.000
  24452930.439    24452930.605    24452929.853    -5786437.750 2  -4508907.228 1
        15.100           9.000
  24905914.096    24905914.865    24905915.181    -1548313.956    -1206486.289 2
         3.000          12.600
  20281019.663    20281019.360    20281016.210   -25669259.268 7 -20002009.884 8
        44.500          49.800
 09  1 25  0 30 30.0000000  0  9G 9G18G14G19G 3G11G21G 6G22
  21476609.356    21476608.796    21476608.041   -17876426.592 6 -13929675.761 5
        37.700          34.600
  21557643.801    21557643.230    21557641.539   -20167787.355 6 -15715149.044 5
        38.900          35.200
  21304008.945    21304008.411    21304007.339   -19471031.885 6 -15172227.705 6
        39.700          39.300
  23305970.605    23305969.459    23305967.419    -8912906.825 5  -6945118.826 4
        30.400          28.400
  24851871.773    24851871.755    24851871.464     1541224.874 1   1200957.024 2
        11.000          15.100
  24457506.465    24457505.500    24457502.419    -2195472.177    -1710757.206 2
                        12.600
  24475262.113    24475262.588    24475260.490    -5669085.965 2  -4417464.299 1
        15.100          11.000
  24923757.512    24923757.483    24923758.743    -1454548.747 1  -1133422.549 2
         9.000          12.600
  20282958.618    20282958.236    20282955.168   -25659070.184 7 -19994070.334 8
        44.500          49.700
 09  1 25  0 31  0.0000000  0  9G 9G18G14G 3G11G21G 6G22G19
  21480832.765    21480832.238    21480831.612   -17854231.820 6 -13912381.127 5
        37.600          34.700
  21570130.663    21570129.924    21570128.112   -20102169.768 6 -15664018.451 5
        38.900          35.100
  21291565.159    21291564.682    21291563.549   -19536424.558 6 -15223183.024 6
        39.900          39.300
  24870067.837    24870066.959    24870066.171     1636843.789 2   1275465.243 2
        13.900          13.900
  24439959.244    24439958.031    24439954.592    -2287690.822    -1782615.892 2
         3.000          12.600
  24497611.779    24497612.194    24497610.075    -5551639.155 2  -4325947.320 1
        13.900           9.000
  24941615.848    24941615.517    24941615.992    -1360699.754 2  -1060293.453 1
        12.600           9.000
  20284976.623    20284976.278    20284973.106   -25648465.577 7 -19985807.001 8
        44.500          49.700
  23314884.221    23314882.813    23314881.056    -8866065.335 4  -6908618.979 4
        29.900          28.600
 09  1 25  0 31 30.0000000  0  9G 9G18G14G19G 3G11G21G 6G22
  21485193.355    21485192.938    21485192.257   -17831316.828 6 -13894525.282 5
        37.600          34.800
  21582676.888    21582676.281    21582674.428   -20036238.323 6 -15612643.301 5
        38.800          34.800
  21279197.431    21279196.962    21279195.750   -19601417.673 6 -15273827.001 6
        40.000          39.500
  23323892.010    23323890.461    23323888.713    -8818730.461 4  -6871734.678 4
        29.500          28.800
  24888283.948    24888282.793    24888284.414     1732578.304 2   1350063.572 2
        16.100          12.600
  24422464.801    24422463.905    24422460.569    -2379621.373    -1854250.057 2
                        12.600
  24519977.549    24519977.911    24519976.095    -5434105.331 2  -4234362.571 1
        12.600           6.500
  24959490.030    24959488.887    24959487.564    -1266775.320 2   -987105.597 1
        13.900           6.500
  20287072.430    20287072.076    20287069.060   -25637451.442 7 -19977224.555 8
        44.300          49.700
 09  1 25  0 32  0.0000000  0  9G 9G18G14G19G 3G11G21G 6G22
  21489690.078    21489689.519    21489688.858   -17807686.816 6 -13876112.286 5
        37.500          34.500
  21595282.178    21595281.533    21595279.501   -19969998.191 6 -15561027.612 5
        38.900          34.700
  21266904.977    21266904.457    21266903.454   -19666014.404 6 -15324162.104 6
        40.000          39.600
  23332992.067    23332990.621    23332989.152    -8770908.204 4  -6834470.596 4
        29.000          29.500
  24906523.036    24906522.211    24906523.129     1828421.465 2   1424746.571 1
        17.800          11.000
  24405024.523    24405025.394    24405020.472    -2471265.649    -1925661.155 1
                        11.000
  24542359.715    24542359.144    24542357.583    -5316491.073 2  -4142715.150
        12.600           3.000
  24977373.977    24977374.611    24977375.907    -1172782.740 2   -913864.617 1
        12.600           6.500
  20289245.428    20289245.114    20289242.068   -25626032.127 7 -19968326.384 8
        44.300          49.700
 09  1 25  0 32 30.0000000  0  9G 9G18G14G 3G11G21G 6G22G19
  21494323.968    21494323.649    21494322.648   -17783335.327 6 -13857137.095 5
        37.700          34.300
  21607947.219    21607946.559    21607944.800   -19903442.492 6 -15509166.028 5
        38.600          34.900
  21254689.614    21254689.136    21254688.108   -19730206.238 6 -15374181.704 6
        40.000          39.700
  24924783.121    24924782.477    24924782.452     1924377.607 2   1499517.613 1
        16.100           9.000
  24387639.214    24387639.871    24387636.614    -2562613.758    -1996841.418 1
         3.000           9.000
  24564757.702    24564756.317    24564757.145    -5198790.706 2  -4051000.569
        12.600
  24995275.786    24995276.376    24995277.430    -1078716.950 1   -840566.600 1
        11.000           6.500
  20291497.222    20291496.866    20291493.694   -25614199.586 7 -19959106.218 8
        44.300          49.600
  23342185.866    23342184.439    23342183.081    -8722593.369 4  -6796822.689 4
        29.500          29.200
 09  1 25  0 33  0.0000000  0  8G 9G18G14G 3G11G 6G22G19
  21499094.951    21499094.503    21499093.693   -17758263.485 6 -13837600.597 5
        37.700          34.300
  21620672.142    21620671.491    21620669.789   -19836572.410 6 -15457059.468 5
        38.500          34.900
  21242551.431    21242550.983    21242549.872   -19793992.566 6 -15423885.326 6
        40.100          39.800
  24943062.781    24943062.820    24943062.640     2020443.602 2   1574374.284 1
        13.900           9.000
  24370315.015    24370313.955    24370310.746    -2653663.561    -2067789.289 1
         3.000           9.000
  25013188.884    25013188.474    25013190.366     -984581.167 2   -767214.083 1
        12.600           9.000
  20293827.508    20293827.187    20293823.974   -25601953.950 7 -19949564.159 8
        44.400          49.500
  23351473.360    23351472.165    23351470.252    -8673788.272 5  -6758792.758 4
        30.100          28.800
 09  1 25  0 33 30.0000000  0  9G 9G18G14G21G 3G11G 6G22G19
  21504002.712    21504002.328    21504001.414   -17732473.522 6 -13817504.511 5
        37.600          34.300
  21633456.504    21633455.946    21633454.235   -19769389.953 6 -15404709.502 5
        38.600          34.900
  21230490.695    21230490.121    21230488.979   -19857372.996 6 -15473272.665 6
        40.300          39.800
  24609599.947    24609599.268    24609599.365           -.91912         -.6291
        17.000           3.000
  24961362.489    24961363.104    24961364.495     2116616.066 1   1649313.865 1
        11.000          11.000
  24353045.050    24353045.777    24353043.286    -2744413.215 1  -2138503.273 1
         9.000          11.000
  25031116.730    25031116.801    25031115.671     -890379.288 2   -693810.040 1
        12.600           6.500
  20296235.937    20296235.653    20296232.591   -25589296.523 7 -19939701.228 8
        44.300          49.500
  23360853.543    23360852.144    23360850.657    -8624495.770 4  -6720383.026 4
        29.900          29.000
 09  1 25  0 34  0.0000000  0  9G 9G18G14G21G 3G11G 6G22G19
  21509047.542    21509047.089    21509046.569   -17705961.431 6 -13796845.739 5
        37.200          34.300
  21646301.149    21646300.533    21646298.684   -19701890.936 6 -15352112.870 5
        38.500          34.600
  21218508.097    21218507.571    21218506.413   -19920341.903 6 -15522339.337 6
        40.400          39.800
  24632044.735    24632043.860    24632043.630      117945.148 2     91905.387
        15.100           3.000
  24979684.660    24979684.126    24979685.831     2212896.197 2   1724337.350 2
        12.600          12.600
  24335835.215    24335834.858    24335832.988    -2834855.791 2  -2208978.026 2
        13.900          12.600
  25049054.573    25049053.838    25049054.769     -796109.253 1   -620352.940 1
         9.000           6.500
  20298723.956    20298723.622    20298720.465   -25576222.496 7 -19929513.669 8
        44.200          49.400
  23370327.023    23370325.766    23370323.385    -8574713.049 5  -6681591.317 4
        30.600          28.400
 09  1 25  0 34 30.0000000  0  9G 9G18G14G21G 3G11G 6G22G19
  21514228.789    21514228.381    21514227.855   -17678733.447 6 -13775629.126 5
        37.100          34.300
  21659204.982    21659204.328    21659202.513   -19634080.806 6 -15299273.808 5
        38.400          34.300
  21206602.962    21206602.535    21206601.339   -19982903.250 6 -15571088.429 6
        40.500          40.000
  24654502.987    24654501.899    24654501.474      235966.616 1    183870.164 1
        11.000           6.500
  24998028.431    24998027.534    24998026.748     2309276.252 2   1799438.668 2
        16.100          13.900
  24318682.996    24318682.599    24318680.089    -2924993.595 2  -2279215.264 2
        12.600          12.600
  25067003.951    25067004.196    25067005.325     -701778.705     -546848.691 1
         3.000           9.000
  20301290.320    20301289.947    20301286.767   -25562736.383 7 -19919005.008 8
        44.300          49.300
  23379892.467    23379891.014    23379889.242    -8524447.255 5  -6642423.172 4
        30.800          28.800
 09  1 25  0 35  0.0000000  0  9G 9G18G14G21G 3G11G 6G22G19
  21519545.986    21519545.452    21519544.459   -17650793.251 6 -13753857.542 5
        37.200          33.900
  21672167.255    21672166.565    21672164.839   -19565963.489 6 -15246195.380 5
        38.100          34.100
  21194775.192    21194774.747    21194773.553   -20045058.791 6 -15619521.309 6
        40.600          40.300
  24676973.873    24676974.807    24676972.606      354058.182 1    275889.499 1
         6.500           9.000
  25016384.792    25016384.551    25016385.614     2405750.242 2   1874613.195 2
        13.900          13.900
  24301586.085    24301586.330    24301584.450    -3014826.951 1  -2349215.238 2
         9.000          12.600
  25084966.039    25084964.707    25084965.418     -607393.190     -473301.624 1
                         9.000
  20303934.465    20303934.131    20303930.852   -25548841.254 7 -19908177.631 8
        44.300          49.200
  23389548.585    23389547.271    23389545.157    -8473703.195 5  -6602882.357 4
        30.200          28.400
 09  1 25  0 35 30.0000000  0  9G 9G18G14G21G 3G11G 6G22G19
  21524998.574    21524997.975    21524996.877   -17622139.823 6 -13731530.195 5
        37.200          33.600
  21685188.240    21685187.632    21685185.845   -19497537.572 6 -15192876.484 5
        38.100          34.300
  21183025.303    21183024.756    21183023.580   -20106805.392 6 -15667635.536 6
        40.600          40.300
  24699460.906    24699461.404    24699458.009      472220.195      367963.740 2
         3.000          12.600
  25034759.980    25034758.042    25034759.468     2502318.288     1949860.972 2
         3.000          12.600
  24284548.738    24284547.750    24284546.878    -3104350.912    -2418974.129 1
         3.000           9.000
  25102938.037    25102936.233    25102936.217     -512953.322     -399712.101 1
                        11.000
  20306656.814    20306656.500    20306653.393   -25534534.678 7 -19897029.648 8
        44.300          49.200
  23399295.338    23399294.224    23399292.438    -8422480.593 4  -6562968.663 4
        29.000          27.900
 09  1 25  0 36  0.0000000  0  9G 9G18G14G21G 3G11G 6G22G19
  21530586.261    21530585.868    21530584.934   -17592774.994 6 -13708648.505 5
        37.100          33.900
  21698267.850    21698267.265    21698265.403   -19428804.298 6 -15139318.089 5
        38.100          34.300
  21171353.158    21171352.591    21171351.548   -20168142.653 6 -15715430.794 6
        40.600          40.500
  24721959.300    24721959.301    24721955.922      590449.881      460090.701 2
         3.000          13.900
  25053154.148    25053154.125    25053153.649     2598975.979 1   2025178.710 2
         6.500          12.600
  24267572.357    24267572.538    24267570.371    -3193563.937 1  -2488490.784 1
        11.000           9.000
  25120919.402    25120921.410    25120917.236     -418462.440     -326082.868 1
                         9.000
  20309457.406    20309457.124    20309454.041   -25519817.202 7 -19885561.481 8
        44.100          49.200
  23409133.698    23409132.098    23409130.592    -8370782.289 4  -6522684.283 4
        28.600          28.600
 09  1 25  0 36 30.0000000  0  9G 9G18G14G21G 3G11G 6G22G19
  21536309.322    21536308.813    21536308.002   -17562701.488 6 -13685214.605 5
        37.300          34.300
  21711405.380    21711404.683    21711402.936   -19359766.127 6 -15085522.120 5
        38.000          34.100
  21159758.780    21159758.272    21159757.061   -20229071.274 6 -15762907.632 6
        40.600          40.500
  24744469.851    24744469.210    24744467.044      708743.069 1    552267.139 2
         6.500          15.100
  25071566.182    25071565.932    25071566.008     2695719.866 2   2100563.529 2
        12.600          13.900
  24250656.248    24250656.190    24250653.644    -3282465.069 2  -2557764.409 2
        12.600          12.600
  25138909.626    25138908.392    25138908.818     -323924.908     -252416.198 1
                         6.500
  20312336.078    20312335.718    20312332.528   -25504690.472 7 -19873774.418 8
        44.200          49.100
  23419061.185    23419059.844    23419058.281    -8318612.121 4  -6482032.228 4
        28.400          28.800
 09  1 25  0 37  0.0000000  0  9G 9G18G14G21G 3G11G 6G22G19
  21542166.324    21542165.878    21542165.013   -17531921.888 6 -13661230.492 5
        37.200          34.100
  21724600.610    21724599.895    21724597.875   -19290425.135 6 -15031490.180 5
        37.700          33.600
  21148242.171    21148241.679    21148240.494   -20289591.220 6 -15810066.021 6
        40.600          40.500
  24766992.273    24766990.742    24766989.060      827096.328 1    644490.417 2
        11.000          15.100
  25089986.871    25089986.953    25089990.614     2792545.268     2176011.946 2
         3.000          12.600
  24233798.751    24233798.682    24233796.810    -3371052.946 2  -2626793.872 2
        12.600          15.100
  25156906.262    25156906.109    25156908.327     -229344.634     -178717.411 1
                         9.000
  20315292.201    20315291.911    20315288.816   -25489155.396 7 -19861669.161 8
        44.100          49.100
  23429078.252    23429076.463    23429075.050    -8265973.656 4  -6441015.250 4
        28.800          28.800
 09  1 25  0 37 30.0000000  0  9G 9G18G14G21G 3G11G 6G22G19
  21548159.835    21548159.270    21548158.726   -17500424.931 6 -13636687.409 5
        36.800          33.900
  21737855.426    21737854.761    21737853.029   -19220769.635 6 -14977213.173 5
        37.700          33.800
  21136805.779    21136805.342    21136804.158   -20349689.552 6 -15856895.882 6
        40.600          40.600
  24789526.643    24789525.932    24789524.620      945519.758 2    736768.373 2
        12.600          13.900
  25108431.559    25108431.280    25108432.078     2889461.338     2251530.981 1
                         9.000
  24217002.982    24217003.410    24217001.885    -3459312.917 2  -2695567.840 2
        12.600          16.100
  25174913.981    25174915.177    25174915.596     -134712.143     -104977.789 1
                        11.000
  20318328.477    20318328.128    20318324.912   -25473200.029 7 -19849236.407 8
        44.100          49.000
  23439186.536    23439184.899    23439183.130    -8212856.375 4  -6399625.178 4
        29.700          29.200
 09  1 25  0 38  0.0000000  0  9G 9G18G14G21G 3G11G 6G22G19
  21554289.035    21554288.621    21554287.741   -17468216.014 6 -13611589.555 5
        37.000          33.800
  21751169.251    21751168.635    21751166.877   -19150804.629 6 -14922694.990 5
        37.700          33.600
  21125449.273    21125448.710    21125447.517   -20409368.920 6 -15903399.276 6
        40.600          40.600
  24812073.762    24812073.973    24812072.238     1064007.318 2    829096.323 2
        12.600          13.900
  25126890.159    25126890.236    25126890.026     2986461.826     2327115.677 1
         3.000          11.000
  24200270.243    24200270.134    24200268.481    -3547246.175 2  -2764087.254 2
        15.100          16.100
  25192930.667    25192931.367    25192931.844      -40033.916      -31202.573 2
         3.000          12.600
  20321443.895    20321443.572    20321440.449   -25456827.977 7 -19836478.956 8
        44.000          48.900
  23449383.834    23449382.741    23449380.622    -8159266.297 4  -6357866.702 4
        29.900          28.600
 09  1 25  0 38 30.0000000  0  9G 9G18G14G21G 3G11G 6G22G19
  21560552.266    21560551.805    21560550.887   -17435302.849 6 -13585942.929 5
        37.000          33.800
  21764540.997    21764540.274    21764538.335   -19080537.298 6 -14867941.229 5
        37.700          33.500
  21114171.309    21114170.731    21114169.579   -20468635.089 6 -15949580.695 6
        40.600          40.700
  24834632.245    24834632.002    24834629.960     1182550.209 2    921467.372 1
        12.600          11.000
  25145364.361    25145364.034    25145363.585     3083536.927 1   2402758.592 1
         6.500          11.000
  24183599.431    24183599.060    24183597.476    -3634856.919 2  -2832355.359 2
        17.800          17.800
  25210954.532    25210955.124    25210954.648       54680.733 1     42601.053 1
         6.500          11.000
  20324637.574    20324637.212    20324634.031   -25440045.683 7 -19823401.842 8
        44.000          48.900
  23459670.046    23459668.695    23459667.167    -8105212.140 4  -6315746.603 4
        29.200          28.800
 09  1 25  0 39  0.0000000  0  9G 9G18G14G21G 3G11G 6G22G19
  21566948.486    21566948.118    21566947.385   -17401690.208 6 -13559751.248 5
        36.900          33.800
  21777969.104    21777968.439    21777966.601   -19009971.631 6 -14812954.997 5
        37.500          33.500
  21102971.438    21102970.927    21102969.798   -20527490.482 6 -15995442.032 6
        40.600          40.900
  24857199.131    24857198.375    24857198.822     1301142.898 2   1013877.239 1
        12.600           6.500
  25163849.520    25163848.879    25163850.229     3180680.722     2478455.107 2
         3.000          12.600
  24166988.389    24166987.947    24166987.614    -3722145.937 3  -2900372.771 3
        19.300          19.300
  25228983.307    25228983.612    25228984.379      149425.743      116428.349 1
                         9.000
  20327908.553    20327908.167    20327904.957   -25422856.507 7 -19810007.675 8
        43.900          48.800
  23470043.495    23470041.809    23470040.458    -8050699.589 4  -6273269.303 4
        28.600          28.600
 09  1 25  0 39 30.0000000  0  7G 9G18G14G11G19G 3G22
  21573475.704    21573475.094    21573474.096   -17367391.123 6 -13533024.692 5
        36.800          33.600
  21791451.572    21791450.896    21791449.211   -18939120.500 6 -14757746.327 5
        37.200          33.500
  21091847.723    21091847.146    21091845.945   -20585946.415 6 -16040992.099 6
        40.500          41.000
  24150436.539    24150436.797    24150436.329    -3809122.820 3  -2968146.940 3
        20.500          20.500
  23480501.388    23480500.075    23480498.104    -7995743.085 4  -6230446.064 4
        28.600          28.400
  25182348.373    25182348.613    25182344.916     3277878.132     2554193.387 1
                         9.000
  20331254.492    20331254.235    20331251.082   -25405272.657 7 -19796305.972 8
        43.900          48.800
 09  1 25  0 40  0.0000000  0  7G 9G18G14G11G19G 3G22
  21580133.911    21580133.548    21580132.990   -17332399.574 6 -13505758.544 5
        36.700          33.600
  21804989.756    21804989.051    21804987.185   -18867977.514 6 -14702310.241 5
        37.300          33.400
  21080801.386    21080800.905    21080799.838   -20643994.039 6 -16086224.005 6
        40.500          41.100
  24133947.021    24133946.792    24133945.545    -3895777.684 3  -3035670.188 3
        20.500          19.300
  23491044.923    23491043.427    23491041.681    -7940337.033 4  -6187272.538 4
        28.800          28.400
  25200852.551    25200853.078    25200852.495     3375133.613     2629976.297 1
                         6.500
  20334677.237    20334676.950    20334673.751   -25387286.292 7 -19782290.617 8
        43.900          48.700
 09  1 25  0 40 30.0000000  0  7G 9G18G14G11G19G 3G22
  21586931.919    21586931.480    21586930.640   -17296677.086 6 -13477922.838 5
        36.700          33.800
  21818590.681    21818590.012    21818588.296   -18796503.663 6 -14646616.329 5
        37.300          33.400
  21069840.752    21069840.305    21069839.132   -20701592.881 6 -16131106.210 6
        40.400          41.200
  24117527.061    24117526.505    24117524.432    -3982068.062 3  -3102909.419 3
        19.900          18.600
  23501681.176    23501679.444    23501677.748    -7884443.879 4  -6143719.447 4
        28.400          28.400
  25219383.549    25219381.109    25219378.525     3472484.345     2705829.469 1
                         9.000
  20338184.038    20338183.746    20338180.570   -25368858.033 7 -19767930.933 8
        43.900          48.700
 09  1 25  0 41  0.0000000  0  7G 9G18G14G11G19G 3G22
  21593864.043    21593863.615    21593862.723   -17260248.704 6 -13449537.088 5
        36.600          33.900
  21832250.049    21832249.370    21832247.885   -18724722.668 6 -14590683.094 5
        36.900          33.400
  21058961.222    21058960.753    21058959.525   -20758765.056 6 -16175655.949 6
        40.400          41.200
  24101171.097    24101171.269    24101169.271    -4068014.750 3  -3169880.835 3
        19.300          18.600
  23512404.666    23512403.418    23512401.973    -7828088.974 4  -6099806.546 4
        28.400          28.100
  25237916.334    25237916.924    25237915.351     3569904.475     2781741.158 2
                        12.600
  20341770.659    20341770.311    20341767.163   -25350010.583 7 -19753244.604 8
        43.900          48.600
 09  1 25  0 41 30.0000000  0  7G 9G18G14G11G19G 3G22
  21600928.222    21600927.941    21600927.283   -17223124.740 6 -13420609.324 5
        36.700          33.800
  21845966.267    21845965.514    21845963.657   -18652644.520 6 -14534518.308 5
        36.800          33.000
  21048161.256    21048160.777    21048159.703   -20815518.952 6 -16219879.754 6
        40.300          41.300
  24084879.721    24084879.862    24084878.508    -4153624.213 3  -3236589.513 3
        19.300          19.300
  23523214.721    23523213.338    23523211.255    -7771283.611 4  -6055542.646 4
        28.600          27.400
  25256464.511    25256464.809    25256465.335     3667381.584     2857697.313 2
                        13.900
  20345435.085    20345434.798    20345431.625   -25330753.307 7 -19738238.931 8
        43.800          48.500
 09  1 25  0 42  0.0000000  0  7G 9G18G14G11G19G 3G22
  21608124.305    21608123.814    21608122.615   -17185311.718 6 -13391144.629 5
        37.100          33.600
  21859737.547    21859736.884    21859735.051   -18580275.091 6 -14478126.543 5
        36.800          32.800
  21037440.209    21037439.739    21037438.597   -20871858.684 6 -16263780.836 6
        40.300          41.500
  24068653.344    24068652.739    24068651.373    -4238899.360 3  -3303037.655 3
        19.300          19.300
  23534108.550    23534107.154    23534105.193    -7714035.416 4  -6010933.670 4
        28.400          26.800
  25275026.574    25275025.334    25275025.353     3764907.938 1   2933691.910 2
         6.500          16.100
  20349176.749    20349176.385    20349173.161   -25311091.394 7 -19722917.959 8
        43.700          48.400
 09  1 25  0 42 30.0000000  0  7G 9G18G14G11G19G 3G22
  21615451.699    21615451.241    21615450.812   -17146803.376 6 -13361138.132 5
        36.400          33.600
  21873565.734    21873565.117    21873563.373   -18507607.469 6 -14421502.431 5
        36.700          32.800
  21026799.782    21026799.242    21026797.975   -20927775.679 6 -16307352.511 6
        40.500          41.600
  24052491.430    24052490.899    24052489.584    -4323829.538 3  -3369216.999 3
        18.600          19.300
  23545087.891    23545086.646    23545084.902    -7656338.752 4  -5965975.246 4
        28.400          27.100
  25293594.295    25293592.985    25293593.592     3862488.752     3009728.853 2
         3.000          15.100
  20352996.603    20352996.331    20352993.169   -25291017.018 7 -19707275.583 8
        43.700          48.300
 09  1 25  0 43  0.0000000  0  7G 9G18G14G11G19G 3G22
  21622911.390    21622910.948    21622910.336   -17107602.675 6 -13330592.132 5
        36.400          33.500
  21887450.207    21887449.716    21887447.643   -18434644.128 6 -14364647.877 5
        36.800          32.600
  21016239.441    21016238.893    21016237.617   -20983270.536 6 -16350595.248 6
        40.400          41.700
  24036394.931    24036394.760    24036393.358    -4408413.947 3  -3435126.905 3
        19.900          19.300
  23556151.815    23556150.369    23556148.523    -7598197.413 4  -5920670.319 4
        27.600          26.800
  25312169.998    25312167.902    25312169.207     3960119.512     3085804.768 1
                        11.000
  20356894.935    20356894.553    20356891.376   -25270531.853 7 -19691313.113 8
        43.700          48.300
 09  1 25  0 43 30.0000000  0  7G 9G18G14G11G19G 3G22
  21630502.595    21630502.012    21630501.217   -17067712.319 6 -13299508.738 5
        36.600          33.400
  21901390.767    21901390.105    21901388.180   -18361386.807 6 -14307564.251 5
        36.500          32.600
  21005759.267    21005758.775    21005757.697   -21038343.530 6 -16393509.259 6
        40.400          41.900
  24020365.677    24020364.963    24020363.309    -4492651.189 3  -3500766.286 3
        19.900          20.500
  23567299.571    23567298.291    23567296.494    -7539614.807 4  -5875021.554 4
        27.100          26.800
  25330759.895    25330759.416    25330758.896     4057796.315 1   3161916.464 1
         6.500          11.000
  20360871.109    20360870.800    20360867.603   -25249636.756 7 -19675031.217 8
        43.600          48.300
 09  1 25  0 44  0.0000000  0  6G 9G18G14G11G19G22
  21638223.007    21638222.459    21638222.009   -17027140.496 6 -13267894.331 5
        36.400          33.600
  21915385.528    21915384.953    21915383.214   -18287842.700 6 -14250257.161 5
        36.300          32.600
  20995358.430    20995357.905    20995356.774   -21093000.195 6 -16436098.859 6
        40.300          41.900
  24004402.363    24004401.519    24004399.401    -4576545.112 3  -3566138.158 3
        21.100          21.100
  23578529.652    23578528.461    23578526.882    -7480599.823 4  -5829035.870 4
        27.400          27.100
  20364924.099    20364923.700    20364920.482   -25228338.608 7 -19658435.254 8
        43.600          48.200
 09  1 25  0 44 30.0000000  0  6G 9G18G11G19G14G22
  21646073.278    21646072.775    21646072.221   -16985886.942 6 -13235748.701 5
        36.300          33.500
  21929435.256    21929434.739    21929432.883   -18214010.737 6 -14192725.767 5
        36.200          32.400
  23988503.089    23988502.473    23988501.087    -4660091.502 3  -3631239.216 3
        20.500          21.100
  23589843.151    23589841.044    23589839.291    -7421152.576 4  -5782713.359 4
        27.900          26.800
  20985037.337    20985036.843    20985035.731   -21147237.723 6 -16478361.855 7
        40.400          42.000
  20369054.015    20369053.707    20369050.608   -25206634.777 7 -19641523.175 8
        43.500          48.200
 09  1 25  0 45  0.0000000  0  6G 9G18G11G19G14G22
  21654057.513    21654056.998    21654056.467   -16943929.267 6 -13203054.408 5
        36.200          33.400
  21943544.403    21943543.783    21943541.760   -18139867.819 6 -14134952.067 5
        36.400          32.100
  23972675.777    23972675.643    23972673.535    -4743263.903 3  -3696048.842 3
        20.500          20.500
  23601241.402    23601239.914    23601238.057    -7361251.422 4  -5736037.157 4
        28.600          26.800
  20974800.756    20974800.277    20974799.103   -21201031.085 6 -16520278.752 7
        40.400          42.000
  20373265.878    20373265.564    20373262.419   -25184501.579 7 -19624276.524 8
        43.500          48.100
 09  1 25  0 45 30.0000000  0  6G 9G18G11G19G14G22
  21662172.375    21662171.997    21662171.555   -16901284.712 6 -13169824.879 5
        36.100          33.200
  21957709.313    21957708.727    21957706.783   -18065430.407 6 -14076948.890 5
        36.400          32.000
  23956916.074    23956916.223    23956915.119    -4826075.535 3  -3760577.375 3
        19.900          20.500
  23612723.172    23612721.768    23612719.881    -7300914.605 4  -5689021.467 4
        28.100          26.800
  20964645.803    20964645.366    20964644.136   -21254395.470 6 -16561861.381 7
        40.500          42.100
  20377556.360    20377556.055    20377552.863   -25161955.098 7 -19606707.833 8
        43.400          48.000
 09  1 25  0 46  0.0000000  0  6G 9G18G11G19G14G22
  21670416.656    21670416.216    21670415.266   -16857961.754 6 -13136066.726 5
        36.200          33.100
  21971928.571    21971927.930    21971926.304   -17990706.539 5 -14018722.500 5
        35.800          31.800
  23941226.068    23941225.894    23941224.093    -4908530.857 3  -3824828.256 3
        20.500          21.100
  23624285.766    23624284.275    23624282.857    -7240151.308 4  -5641673.468 4
        27.600          26.500
  20954571.378    20954570.925    20954569.754   -21307337.012 6 -16603114.520 7
        40.500          42.300
  20381924.091    20381923.810    20381920.699   -25139001.832 7 -19588822.167 8
        43.300          48.000
 09  1 25  0 46 30.0000000  0  6G 9G18G11G19G14G22
  21678790.404    21678790.023    21678789.466   -16813956.985 6 -13101777.288 5
        36.100          33.200
  21986203.428    21986202.912    21986201.242   -17915691.402 5 -13960269.155 5
        35.800          31.600
  23925604.486    23925604.440    23925602.675    -4990621.966 3  -3888795.310 3
        19.300          22.600
  23635930.726    23635929.035    23635927.351    -7178958.390 4  -5593990.682 4
        27.900          26.800
  20944578.651    20944578.202    20944576.991   -21359849.322 6 -16644033.192 7
        40.600          42.300
  20386370.477    20386370.129    20386366.964   -25115636.577 7 -19570615.473 7
        43.300          47.900
 09  1 25  0 47  0.0000000  0  6G 9G18G11G19G14G22
  21687294.128    21687293.625    21687293.079   -16769270.190 5 -13066956.407 5
        35.900          33.500
  22000534.248    22000533.538    22000531.658   -17840383.913 5 -13901587.997 5
        35.800          31.100
  23910052.354    23910052.397    23910051.679    -5072344.598 3  -3952475.277 3
        18.600          22.600
  23647656.934    23647655.701    23647653.926    -7117336.490 4  -5545973.638 4
        28.100          26.800
  20934668.099    20934667.573    20934666.323   -21411929.934 6 -16684615.478 7
        40.700          42.400
  20390895.415    20390895.043    20390891.846   -25091857.905 7 -19552086.633 7
        43.200          47.800
 09  1 25  0 47 30.0000000  0  6G 9G18G11G19G14G22
  21695925.828    21695925.366    21695924.789   -16723909.691 5 -13031610.559 5
        35.800          33.400
  22014918.949    22014918.204    22014916.407   -17764791.910 5 -13842685.141 5
        35.700          31.300
  23894571.112    23894570.369    23894569.748    -5153703.065 2  -4015871.477 3
        17.000          22.100
  23659463.000    23659461.233    23659459.947    -7055294.844 4  -5497629.506 4
        27.100          26.500
  20924838.464    20924837.979    20924836.843   -21463584.978 6 -16724866.153 7
        40.700          42.700
  20395497.805    20395497.445    20395494.245   -25067672.433 7 -19533240.808 7
        43.200          47.900
 09  1 25  0 48  0.0000000  0  6G 9G18G11G19G14G22
  21704685.527    21704685.092    21704684.319   -16677877.476 5 -12995741.301 5
        35.700          33.100
  22029357.615    22029356.870    22029355.145   -17688916.175 5 -13783561.199 5
        35.500          31.300
  23879158.338    23879158.305    23879157.449    -5234694.988 2  -4078982.051 3
        16.100          22.100
  23671348.915    23671347.236    23671345.545    -6992835.804 4  -5448960.146 4
        26.800          26.500
  20915090.014    20915089.526    20915088.441   -21514813.112 6 -16764784.172 7
        40.700          42.800
  20400177.512    20400177.173    20400174.100   -25043079.813 7 -19514077.726 7
        43.100          47.900
 09  1 25  0 48 30.0000000  0  6G 9G18G11G19G14G22
  21713572.009    21713571.562    21713571.078   -16631177.591 5 -12959351.776 5
        35.500          33.000
  22043849.617    22043849.035    22043847.204   -17612759.832 5 -13724218.599 5
        35.400          31.000
  23863816.186    23863816.158    23863814.966    -5315320.025 2  -4141806.726 3
        17.000          21.600
  23683312.265    23683311.012    23683309.811    -6929963.953 4  -5399969.106 4
        26.800          26.500
  20905422.662    20905422.169    20905420.830   -21565616.140 6 -16804370.938 7
        40.800          42.800
  20404934.334    20404933.996    20404930.836   -25018082.859 7 -19494599.577 7
        43.100          47.800
 09  1 25  0 49  0.0000000  0  6G 9G18G11G19G14G22
  21722586.498    21722585.861    21722585.140   -16583808.277 5 -12922440.622 5
        35.700          33.000
  22058395.826    22058395.151    22058393.242   -17536320.052 5 -13664655.139 5
        35.500          31.000
  23848545.596    23848545.064    23848543.444    -5395572.209 2  -4204340.875 3
        17.000          20.500
  23695355.582    23695353.947    23695352.054    -6866678.364 4  -5350655.676 4
        26.800          25.300
  20895836.845    20895836.294    20895835.034   -21615989.628 6 -16843622.997 7
        40.700          42.900
  20409768.763    20409768.392    20409765.281   -24992677.578 7 -19474803.252 7
        43.000          47.700
 09  1 25  0 49 30.0000000  0  6G 9G18G11G19G14G22
  21731729.073    21731728.453    21731727.866   -16535763.370 5 -12885003.030 5
        35.500          33.000
  22072997.014    22072996.427    22072994.351   -17459589.623 5 -13604865.194 5
        35.200          30.600
  23833346.938    23833346.559    23833344.455    -5475441.131 3  -4266576.362 3
        19.300          19.900
  23707478.369    23707476.648    23707474.784    -6802973.067 4  -5301015.200 4
        27.100          24.900
  20886334.493    20886333.969    20886332.656   -21665924.956 6 -16882533.639 7
        40.800          43.000
  20414682.365    20414682.021    20414678.858   -24966856.677 7 -19454683.068 7
        43.000          47.700
 09  1 25  0 50  0.0000000  0  6G 9G18G11G19G14G22
  21740998.883    21740998.518    21740997.875   -16487048.260 5 -12847043.207 5
        35.400          33.000
  22087652.724    22087652.161    22087650.476   -17382572.726 5 -13544852.041 5
        34.800          31.100
  23818221.928    23818221.432    23818218.611    -5554927.888 3  -4328514.080 3
        19.900          20.500
  23719679.029    23719677.988    23719676.361    -6738854.256 4  -5251052.512 4
        25.900          25.300
  20876915.047    20876914.476    20876913.201   -21715424.683 6 -16921104.845 7
        40.700          43.200
  20419674.295    20419673.979    20419670.824   -24940623.517 7 -19434241.643 7
        43.000          47.600
 09  1 25  0 50 30.0000000  0  6G 9G18G11G19G14G22
  21750395.077    21750394.628    21750393.867   -16437672.054 5 -12808568.233 5
        35.600          32.700
  22102361.584    22102360.943    22102359.273   -17305277.580 5 -13484622.064 5
        34.800          31.000
  23803166.052    23803166.405    23803164.722    -5634037.055 3  -4390157.560 3
        18.600          19.300
  23731957.822    23731956.240    23731955.013    -6674331.730 4  -5200775.234 4
        25.600          25.600
  20867577.098    20867576.599    20867575.251   -21764495.789 6 -16959342.061 7
        40.800          43.300
  20424743.469    20424743.174    20424740.007   -24913984.896 7 -19413484.276 7
        43.000          47.600
 09  1 25  0 51  0.0000000  0  6G 9G18G11G19G14G22
  21759917.819    21759917.368    21759916.256   -16387630.250 5 -12769574.615 5
        35.400          32.300
  22117124.244    22117123.584    22117121.996   -17227698.579 5 -13424170.907 5
        34.500          30.800
  23788185.509    23788185.869    23788184.070    -5712759.861 3  -4451499.969 3
        18.600          18.600
  23744313.403    23744312.302    23744310.765    -6609400.886 4  -5150179.796 4
        25.900          25.600
  20858322.253    20858321.736    20858320.451   -21813130.161 6 -16997238.967 7
        40.800          43.400
  20429890.978    20429890.623    20429887.495   -24886934.924 7 -19392406.374 7
        43.000          47.600
 09  1 25  0 51 30.0000000  0  6G 9G18G11G19G14G22
  21769566.523    21769566.057    21769565.059   -16336926.101 5 -12730064.891 5
        35.300          32.300
  22131940.767    22131940.114    22131938.376   -17149838.163 5 -13363500.464 5
        34.600          30.800
  23773279.456    23773279.463    23773277.879    -5791095.306 3  -4512540.560 3
        21.100          18.600
  23756746.422    23756745.079    23756743.167    -6544066.085 4  -5099269.570 4
        25.300          25.600
  20849150.402    20849149.834    20849148.473   -21861329.222 6 -17034796.668 7
        40.700          43.500
  20435116.274    20435115.968    20435112.855   -24859475.189 7 -19371009.178 7
        42.900          47.500
 09  1 25  0 52  0.0000000  0  6G 9G18G11G19G14G22
  21779339.377    21779339.019    21779338.498   -16285567.535 5 -12690045.234 5
        34.800          32.600
  22146809.436    22146808.721    22146807.076   -17071702.683 5 -13302615.686 5
        34.400          30.600
  23758446.467    23758446.186    23758443.853    -5869046.668 3  -4573281.890 3
        22.100          18.600
  23769254.374    23769253.355    23769251.758    -6478335.425 4  -5048050.894 4
        25.600          25.900
  20840060.274    20840059.701    20840058.342   -21909097.705 6 -17072018.854 7
        40.700          43.500
  20440418.571    20440418.269    20440415.184   -24831611.500 7 -19349297.211 7
        42.900          47.500
 09  1 25  0 52 30.0000000  0  6G 9G18G11G19G14G22
  21789236.908    21789236.375    21789236.029   -16233556.687 5 -12649517.299 5
        35.100          32.600
  22161730.036    22161729.344    22161727.719   -16993293.320 5 -13241517.487 5
        34.100          30.200
  23743685.847    23743685.279    23743683.408    -5946612.064 3  -4633722.456 3
        21.100          19.300
  23781837.758    23781836.289    23781834.774    -6412211.688 4  -4996525.933 4
        25.900          26.200
  20831052.176    20831051.642    20831050.360   -21956435.269 6 -17108905.258 7
        40.700          43.600
  20445797.729    20445797.383    20445794.299   -24803344.145 7 -19327270.702 7
        42.900          47.400
 09  1 25  0 53  0.0000000  0  6G 9G18G11G19G14G22
  21799259.322    21799258.905    21799257.956   -16180889.601 5 -12608478.014 5
        35.400          32.400
  22176703.745    22176703.296    22176701.573   -16914605.159 5 -13180202.045 4
        34.000          29.900
  23729000.239    23729000.029    23728998.795    -6023782.897 3  -4693855.563 3
        21.100          19.900
  23794495.983    23794494.828    23794492.837    -6345691.823 4  -4944692.276 4
        25.300          25.300
  20822127.352    20822126.830    20822125.544   -22003335.282 6 -17145450.715 7
        40.500          43.700
  20451254.764    20451254.448    20451251.230   -24774667.267 7 -19304925.080 7
        42.900          47.300
 09  1 25  0 53 30.0000000  0  6G 9G18G11G19G14G22
  21809405.683    21809405.216    21809404.552   -16127569.049 5 -12566929.525 5
        35.100          32.300
  22191730.613    22191730.049    22191728.275   -16835639.790 5 -13118670.590 5
        34.000          30.100
  23714390.615    23714390.122    23714389.311    -6100557.385 3  -4753679.842 3
        21.100          21.100
  23807229.361    23807227.756    23807226.734    -6278778.523 4  -4892552.061 4
        24.900          25.900
  20813285.817    20813285.288    20813283.994   -22049797.945 6 -17181655.378 7
        40.500          43.800
  20456789.540    20456789.163    20456786.054   -24745581.964 7 -19282261.208 7
        42.900          47.300
 09  1 25  0 54  0.0000000  0  6G 9G18G11G19G14G22
  21819676.614    21819675.973    21819675.290   -16073595.161 5 -12524871.945 5
        34.600          31.800
  22206810.076    22206809.368    22206807.740   -16756396.019 5 -13056922.196 4
        33.600          29.900
  23699857.649    23699857.040    23699855.418    -6176931.572 3  -4813192.171 3
        22.100          21.100
  23820037.105    23820035.713    23820034.356    -6211472.226 4  -4840105.615 4
        25.900          25.300
  20804528.049    20804527.516    20804526.244   -22095820.445 6 -17217517.054 7
        40.500          44.000
  20462402.355    20462402.086    20462398.959   -24716086.199 7 -19259277.493 7
        43.000          47.300
 09  1 25  0 54 30.0000000  0  6G 9G18G11G19G14G22
  21830071.600    21830071.176    21830070.254   -16018969.135 5 -12482306.209 5
        34.700          31.800
  22221942.760    22221942.215    22221940.328   -16676873.916 5 -12994956.928 4
        33.800          29.900
  23685400.814    23685400.545    23685398.860    -6252902.273 3  -4872390.110 3
        22.600          20.500
  23832919.816    23832918.140    23832916.262    -6143774.763 4  -4787354.364 4
        26.200          24.200
  20795854.143    20795853.698    20795852.473   -22141401.370 6 -17253034.651 7
        40.500          44.100
  20468093.540    20468093.231    20468090.094   -24686179.055 7 -19235973.224 7
        43.000          47.300
 09  1 25  0 55  0.0000000  0  6G 9G18G11G19G14G22
  21840590.100    21840589.450    21840588.327   -15963696.633 5 -12439236.724 5
        34.900          31.800
  22237127.387    22237126.916    22237125.203   -16597077.665 5 -12932778.040 4
        33.400          29.700
  23671019.999    23671020.136    23671018.458    -6328469.991 3  -4931274.039 3
        22.600          21.100
  23845875.862    23845874.389    23845872.373    -6075692.392 4  -4734303.191 4
        27.100          24.200
  20787263.895    20787263.362    20787262.294   -22186543.286 6 -17288210.162 7
        40.300          44.300
  20473862.260    20473861.916    20473858.808   -24655864.187 7 -19212351.246 7
        42.900          47.200
 09  1 25  0 55 30.0000000  0  6G 9G18G11G19G14G22
  21851230.044    21851229.756    21851229.220   -15907779.374 5 -12395664.833 5
        34.400          32.100
  22252364.058    22252363.446    22252361.993   -16517008.296 5 -12870386.332 4
        33.400          29.700
  23656718.033    23656717.446    23656715.363    -6403632.501 3  -4989842.214 3
        23.400          21.600
  23858903.978    23858902.479    23858901.009    -6007227.590 4  -4680953.999 4
        26.500          24.200
  20778757.310    20778756.803    20778755.736   -22231245.580 6 -17323043.108 7
        40.200          44.300
  20479708.501    20479708.151    20479705.021   -24625141.890 7 -19188411.795 7
        42.900          47.000
 09  1 25  0 56  0.0000000  0  6G 9G18G11G19G14G22
  21861992.542    21861991.980    21861991.122   -15851223.301 5 -12351595.170 5
        34.000          31.500
  22267652.271    22267651.696    22267649.712   -16436669.515 5 -12807784.687 4
        33.500          29.200
  23642491.534    23642491.266    23642489.490    -6478390.508 3  -5048095.198 3
        23.000          21.600
  23872003.919    23872002.008    23872001.247    -5938385.308 4  -4627310.664 3
        25.300          23.800
  20770333.958    20770333.428    20770332.290   -22275510.707 6 -17357535.403 7
        40.200          44.400
  20485631.574    20485631.340    20485628.201   -24594015.164 7 -19164157.199 7
        42.900          47.000
 09  1 25  0 56 30.0000000  0  6G 9G18G11G19G14G22
  21872874.891    21872874.560    21872873.958   -15794034.238 5 -12307032.262 5
        33.900          31.500
  22282990.450    22282989.787    22282987.834   -16356066.334 5 -12744977.009 4
        33.000          29.000
  23628341.541    23628341.870    23628340.514    -6552745.900 3  -5106034.437 3
        22.600          22.600
  23885174.820    23885173.840    23885171.788    -5869172.830 4  -4573378.878 3
        26.200          23.800
  20761993.226    20761992.648    20761991.416   -22319342.164 6 -17391689.774 7
        40.200          44.500
  20491630.926    20491630.665    20491627.598   -24562488.450 7 -19139590.926 7
        42.900          46.900
 09  1 25  0 57  0.0000000  0  6G 9G18G11G19G14G22
  21883880.225    21883879.754    21883879.146   -15736202.343 5 -12261968.448 5
        34.100          31.800
  22298380.972    22298380.387    22298378.677   -16275187.604 5 -12681954.621 4
        33.000          29.000
  23614272.133    23614271.998    23614270.303    -6626684.343 3  -5163648.792 3
        23.000          22.100
  23898416.607    23898415.288    23898414.208    -5799580.668 4  -4519151.245 3
        24.200          23.400
  20753737.134    20753736.678    20753735.456   -22362727.209 6 -17425496.294 7
        40.200          44.500
  20497708.768    20497708.421    20497705.258   -24530549.927 7 -19114703.761 7
        42.800          46.800
 09  1 25  0 57 30.0000000  0  6G 9G18G11G19G14G22
  21895005.655    21895005.238    21895004.642   -15677738.154 5 -12216411.930 5
        34.000          31.600
  22313822.648    22313821.906    22313820.193   -16194042.606 5 -12618724.747 4
        33.100          29.200
  23600280.942    23600280.373    23600278.289    -6700211.730 3  -5220942.846 3
        22.600          22.100
  23911730.730    23911728.828    23911727.398    -5729619.760 4  -4464636.261 3
        24.200          23.400
  20745564.870    20745564.310    20745563.074   -22405673.592 6 -17458960.999 7
        40.200          44.600
  20503863.217    20503862.870    20503859.745   -24498208.183 7 -19089502.400 7
        42.800          46.800
 09  1 25  0 58  0.0000000  0  6G 9G18G11G19G14G22
  21906254.421    21906253.950    21906253.151   -15618625.336 5 -12170349.988 5
        33.800          31.500
  22329318.280    22329317.571    22329315.494   -16112613.728 5 -12555273.677 4
        33.200          29.000
  23586371.491    23586370.814    23586368.725    -6773307.251 3  -5277900.373 3
        22.600          22.100
  23925117.266    23925115.849    23925114.288    -5659273.934 4  -4409821.368 3
        24.200          23.400
  20737479.489    20737478.855    20737477.583   -22448162.703 6 -17492069.388 7
        40.100          44.600
  20510097.762    20510097.465    20510094.377   -24465444.934 7 -19063972.594 7
        42.800          46.600
 09  1 25  0 58 30.0000000  0  6G 9G18G11G19G14G22
  21917625.576    21917625.033    21917624.163   -15558870.130 5 -12123787.479 5
        33.800          31.300
  22344866.546    22344865.936    22344863.961   -16030906.015 5 -12491605.330 4
        32.700          29.000
  23572543.248    23572542.994    23572540.536    -6845972.589 3  -5334522.691 3
        22.600          22.600
  23938575.249    23938574.130    23938572.427    -5588549.999 3  -4354711.828 3
        23.800          23.800
  20729480.517    20729479.902    20729478.664   -22490197.465 6 -17524823.738 7
        40.200          44.700
  20516411.886    20516411.554    20516408.385   -24432264.233 7 -19038117.500 7
        42.700          46.500
 09  1 25  0 59  0.0000000  0  6G 9G18G11G14G22G19
  21929110.355    21929110.084    21929109.387   -15498514.500 5 -12076757.119 5
        33.500          31.300
  22360460.719    22360459.940    22360458.035   -15948959.533 5 -12427750.940 4
        32.800          28.800
  23558790.291    23558790.101    23558788.109    -6918244.981 3  -5390838.820 3
        22.600          23.000
  20721560.645    20721560.077    20721558.669   -22531817.050 6 -17557254.575 7
        40.300          44.800
  20522797.814    20522797.503    20522794.355   -24398705.960 7 -19011968.194 7
        42.700          46.400
  23952097.637    23952096.211    23952094.942    -5517489.907 3  -4299340.350 4
        23.400          24.600
 09  1 25  0 59 30.0000000  0  8G 9G18G11G12G31G14G22G19
  21940713.193    21940712.768    21940711.672   -15437544.342 5 -12029247.896 5
        34.000          31.100
  22376102.861    22376102.107    22376100.137   -15866759.037 5 -12363698.614 4
        32.600          28.800
  23545115.578    23545115.566    23545113.459    -6990105.412 3  -5446833.939 3
        23.400          23.400
  25253431.346    25253431.010    25253431.905            .12611          .14412
         9.000          15.100
  25064567.484    25064567.406    25064564.157          -1.16311         -.84113
        11.000          21.600
  20713722.767    20713722.261    20713720.942   -22573004.530 6 -17589348.709 7
        40.200          44.800
  20529258.600    20529258.360    20529255.235   -24364753.743 7 -18985511.918 7
        42.700          46.400
  23965687.014    23965685.278    23965683.857    -5446080.029 3  -4243696.327 4
        23.400          25.300
                            4 15
RINEX FILE SPLICE                                           COMMENT
teqc  2008Oct2      WCDA Operator       20090125 02:18:41UTCCOMMENT
STATION INFORMATION EFFECTIVE FROM: 2001/01/13 18:20:00     COMMENT
                                TO: CURRENT DATE (above)    COMMENT
BIT 2 OF LLI FLAGS (+4) DATA COLLECTED UNDER 'AS' CONDITION COMMENT
L1 PHASE CENTRE 0.110m ABOVE ARP                            COMMENT
L2 PHASE CENTRE 0.128m ABOVE ARP                            COMMENT
where ARP is the Antenna Reference Point for HI measurement COMMENT
CONTACT gps@pgc.nrcan.gc.ca FOR ADDITIONAL INFORMATION      COMMENT
    P1 =    P1  TurboRogue; =    Y1  Benchmark              COMMENT
    L1 = L1(CA)                                             COMMENT
    P2 =    P2  TurboRogue; =    Y2  Benchmark              COMMENT
    L2 = L2(P2) TurboRogue; = L2(Y2) Benchmark              COMMENT
 SNR is mapped to RINEX snr flag value [0-9]                COMMENT
  L1 & L2: min(max(int(snr_dBHz/6), 0), 9)                  COMMENT
 09  1 25  1  0  0.0000000  0  8G 9G18G11G12G31G14G22G19
  21952436.687    21952436.130    21952435.226   -15375936.560 5 -11981241.823 5
        33.800          31.300
  22391798.102    22391797.416    22391795.321   -15784280.065 5 -12299429.292 4
        32.600          28.400
  23531524.928    23531524.402    23531522.522    -7061526.692 3  -5502486.866 3
        23.800          23.000
  25237492.991    25237492.578    25237488.786      -83769.136 2    -65274.566 2
        13.900          12.600
  25042405.070    25042404.620    25042402.809     -116465.426 2    -90752.134 3
        13.900          22.100
  20705972.329    20705971.779    20705970.402   -22613733.781 6 -17621085.782 7
        40.200          44.900
  20535799.381    20535799.085    20535795.919   -24330382.133 7 -18958728.844 7
        42.700          46.300
  23979345.612    23979344.020    23979343.462    -5374297.921 3  -4187762.226 4
        23.000          25.600
 09  1 25  1  0 30.0000000  0  8G 9G11G18G12G31G14G22G19
  21964279.640    21964279.183    21964278.811   -15313699.230 5 -11932745.202 5
        32.800          31.500
  23518016.169    23518015.974    23518014.673    -7132512.302 3  -5557800.313 3
        23.800          23.400
  22407544.763    22407544.261    22407542.344   -15701529.051 5 -12234947.976 4
        32.400          28.400
  25221593.042    25221593.522    25221591.841     -167305.991 1   -130368.206 2
        11.000          13.900
  25020246.972    25020246.519    25020244.192     -232910.064 2   -181488.159 3
        17.800          20.500
  20698308.025    20698307.428    20698306.128   -22654010.115 6 -17652469.931 7
        40.200          45.000
  20542418.757    20542418.390    20542415.187   -24295597.784 7 -18931624.157 7
        42.700          46.200
  23993075.739    23993074.062    23993072.797    -5302151.599 3  -4131544.343 4
        22.600          25.900
 09  1 25  1  1  0.0000000  0 10G 9G11G18G32G 5G12G31G14G22G19
  21976240.433    21976239.894    21976239.268   -15250846.392 5 -11883768.966 5
        33.100          31.500
  23504589.662    23504588.917    23504587.433    -7203071.180 3  -5612781.246 3
        23.800          23.000
  22423341.032    22423340.423    22423338.893   -15618518.646 5 -12170264.548 4
        31.800          28.600
  25070781.539    25070781.106    25070780.712           -.12611          .16412
        11.000          12.600
  25145848.073    25145845.104    25145847.062           -.0051          -.3381
         3.000           3.000
  25205741.317    25205741.018    25205740.162     -250618.301 1   -195286.905 2
         9.000          16.100
  24998090.734    24998089.876    24998088.093     -349343.289 3   -272215.310 3
        18.600          19.300
  20690727.651    20690727.195    20690725.924   -22693844.535 6 -17683509.733 7
        40.200          45.100
  20549114.254    20549113.949    20549110.774   -24260411.931 7 -18904206.608 7
        42.500          46.100
  24006870.489    24006868.883    24006867.961    -5229655.010 3  -4075053.513 4
        21.600          24.600
 09  1 25  1  1 30.0000000  0 10G 9G11G32G 5G12G31G18G14G22G19
  21988315.893    21988315.242    21988314.461   -15187390.436 5 -11834322.760 5
        33.500          31.300
  23491241.788    23491241.727    23491240.370    -7273211.441 4  -5667435.985 3
        24.200          23.000
  25052486.328    25052485.452    25052487.510      -96141.157 1    -74914.844 2
         9.000          12.600
  25128056.862    25128055.316    25128056.429      -93486.437 1    -72846.818 1
         6.500           6.500
  25189928.421    25189927.571    25189927.496     -333713.581 1   -260036.445 2
         6.500          12.600
  24975934.136    24975933.648    24975932.758     -465773.345 3   -362939.992 2
        19.900          17.800
  22439185.166    22439184.338    22439182.109   -15535260.254 5 -12105387.892 4
        32.000          28.100
  20683229.738    20683229.259    20683227.886   -22733246.805 6 -17714212.791 7
        40.200          45.200
  20555884.256    20555883.947    20555880.760   -24224835.261 7 -18876484.528 7
        42.400          46.000
  24020730.308    24020729.113    24020727.714    -5156821.523 3  -4018300.137 4
        22.100          24.200
 09  1 25  1  2  0.0000000  0 10G 9G11G32G 5G12G31G18G14G22G19
  22000507.227    22000506.806    22000505.943   -15123323.092 5 -11784400.154 5
        33.200          31.100
  23477975.992    23477976.387    23477975.411    -7342919.952 4  -5721754.292 3
        24.600          23.000
  25034194.375    25034194.669    25034197.150     -192251.520     -149806.063 1
         3.000          11.000
  25110300.456    25110300.088    25110299.613     -186793.683 1   -145553.775 1
         6.500           6.500
  25174163.953    25174162.623    25174158.636     -416577.556     -324605.784
                         3.000
  24953779.967    24953780.413    24953780.424     -582187.010 3   -453651.916 2
        19.300          15.100
  22455077.591    22455076.887    22455074.894   -15451743.801 5 -12040310.136 4
        31.600          27.900
  20675816.157    20675815.639    20675814.310   -22772205.431 6 -17744570.154 7
        40.300          45.300
  20562730.684    20562730.395    20562727.274   -24188857.054 7 -18848449.559 7
        42.400          46.000
  24034656.262    24034655.007    24034653.292    -5083642.504 3  -3961277.561 4
        22.600          24.200
 09  1 25  1  2 30.0000000  0 10G 9G11G32G 5G12G31G18G14G22G19
  22012815.674    22012815.148    22012814.482   -15058641.299 5 -11733998.759 5
        32.700          31.000
  23464795.629    23464795.434    23464793.230    -7412188.926 4  -5775730.109 3
        25.300          22.100
  25015914.101    25015912.421    25015914.582     -288324.943 1   -224668.500 1
         6.500          11.000
  25092581.551    25092580.192    25092579.971     -279913.182     -218114.408 1
         3.000           6.500
  25158433.481    25158434.030    25158436.567     -499201.616     -388988.415 1
                         6.500
  24931631.332    24931631.719    24931631.899     -698576.037 2   -544344.676 2
        17.800          12.600
  22471019.931    22471019.297    22471017.550   -15367964.813 5 -11975027.817 4
        31.500          27.900
  20668488.070    20668487.528    20668486.252   -22810714.660 6 -17774577.336 7
        40.200          45.300
  20569654.566    20569654.172    20569651.040   -24152472.160 7 -18820097.696 7
        42.200          45.800
  24048648.210    24048646.353    24048645.730    -5010115.476 3  -3903983.796 4
        22.100          24.200
 09  1 25  1  3  0.0000000  0 10G 9G11G32G 5G12G31G18G14G22G19
  22025239.967    22025239.494    22025238.673   -14993351.852 5 -11683123.861 5
        32.800          31.100
  23451697.678    23451697.139    23451694.904    -7481020.606 4  -5829365.178 3
        25.900          21.100
  24997638.743    24997637.916    24997640.417     -384364.817 1   -299504.727 1
        11.000          11.000
  25074895.822    25074895.293    25074894.163     -372845.915 1   -290529.473 1
         6.500           6.500
  25142761.843    25142762.413    25142759.437     -581587.322     -453185.703 2
         3.000          12.600
  24909488.847    24909488.657    24909488.246     -814942.106 3   -635019.557 2
        19.300          15.100
  22487011.664    22487010.962    22487009.337   -15283928.356 5 -11909544.873 4
        31.000          27.900
  20661244.878    20661244.343    20661242.884   -22848778.333 6 -17804237.333 7
        40.200          45.300
  20576654.815    20576654.485    20576651.273   -24115685.384 7 -18791432.672 7
        42.200          45.600
  24062704.173    24062702.745    24062701.763    -4936247.510 3  -3846424.381 3
        21.100          23.000
 09  1 25  1  3 30.0000000  0 10G 9G11G32G 5G12G31G18G14G22G19
  22037780.062    22037779.581    22037778.493   -14927453.925 5 -11631774.827 5
        33.000          31.100
  23438683.296    23438682.892    23438681.360    -7549409.406 4  -5882655.147 3
        25.600          21.600
  24979370.722    24979369.868    24979370.022     -480366.623 2   -374311.307 1
        13.900           9.000
  25057246.365    25057245.496    25057246.966     -465585.262     -362793.860 1
         3.000           9.000
  25127128.284    25127128.977    25127127.071     -663727.914     -517191.273 1
                         9.000
  24887350.903    24887350.278    24887350.284     -931279.347 2   -725671.949 2
        16.100          17.000
  22503052.755    22503052.088    22503050.426   -15199631.941 5 -11843859.365 4
        31.000          28.100
  20654087.192    20654086.612    20654085.055   -22886392.481 6 -17833547.051 7
        40.200          45.300
  20583732.209    20583731.877    20583728.760   -24078493.465 7 -18762451.955 7
        42.200          45.600
  24076826.308    24076825.142    24076823.282    -4862037.829 3  -3788598.666 3
        21.600          22.100
 09  1 25  1  4  0.0000000  0 10G 9G32G 5G11G12G31G18G14G22G19
  22050434.522    22050434.068    22050433.137   -14860954.532 5 -11579957.121 5
        32.800          31.300
  24961108.204    24961107.453    24961108.747     -576334.007 2   -449091.083 1
        12.600          11.000
  25039638.524    25039637.337    25039636.945     -558132.335 1   -434908.480 1
         9.000          11.000
  23425753.288    23425752.939    23425750.902    -7617357.721 4  -5935601.875 3
        25.600          21.100
  25111543.789    25111543.797    25111540.104     -745625.066 1   -581007.290 1
         6.500           6.500
  24865217.065    24865216.638    24865216.449    -1047589.859 2   -816303.484 2
        17.000          16.100
  22519141.855    22519141.261    22519139.801   -15115081.608 5 -11777976.005 4
        30.400          27.600
  20647013.938    20647013.480    20647012.004   -22923561.532 6 -17862509.943 7
        40.100          45.300
  20590885.719    20590885.393    20590882.215   -24040901.554 7 -18733159.558 7
        42.200          45.600
  24091010.923    24091009.341    24091008.656    -4787493.756 3  -3730512.396 3
        21.600          21.600
 09  1 25  1  4 30.0000000  0 10G 9G32G 5G11G12G31G18G14G22G19
  22063203.966    22063203.401    22063202.745   -14793850.324 5 -11527668.127 5
        32.700          31.100
  24942854.942    24942854.008    24942855.306     -672259.865 2   -523838.468 2
        13.900          12.600
  25022063.903    25022063.981    25022064.303     -650477.848 1   -506866.005 1
         9.000          11.000
  23412908.249    23412908.164    23412905.742    -7684857.362 4  -5988198.991 3
        25.300          21.100
  25096007.545    25096007.603    25096004.798     -827269.435 2   -644626.236 1
        13.900          11.000
  24843091.410    24843090.920    24843089.562    -1163864.849 2   -906907.371 2
        17.000          15.100
  22535280.890    22535280.185    22535278.372   -15030271.641 5 -11711890.325 4
        30.400          27.100
  20640026.879    20640026.393    20640024.982   -22960279.001 6 -17891120.952 7
        40.100          45.400
  20598116.342    20598116.049    20598112.940   -24002903.630 7 -18703550.786 7
        42.100          45.400
  24105261.510    24105260.222    24105258.391    -4712611.893 4  -3672162.882 3
        24.200          22.100
 09  1 25  1  5  0.0000000  0 10G 9G32G 5G11G12G31G18G14G22G19
  22076086.480    22076086.127    22076085.349   -14726151.078 5 -11474915.457 5
        32.400          30.800
  24924606.962    24924606.792    24924606.307     -768150.493 2   -598558.371 2
        15.100          12.600
  25004527.202    25004526.698    25004527.657     -742625.858 1   -578669.581 1
         9.000          11.000
  23400147.675    23400147.528    23400145.410    -7751913.592 4  -6040450.585 3
        24.600          22.100
  25080519.189    25080519.417    25080516.316     -908665.128 2   -708051.448 2
        13.900          13.900
  24820970.967    24820969.721    24820967.824    -1280109.124 2   -997487.342 2
        16.100          12.600
  22551467.593    22551466.927    22551464.679   -14945210.603 5 -11645608.994 4
        30.200          26.500
  20633124.520    20633123.987    20633122.526   -22996551.637 6 -17919385.339 7
        40.000          45.500
  20605423.036    20605422.657    20605419.592   -23964507.323 7 -18673631.584 7
        42.000          45.400
  24119573.679    24119571.755    24119569.632    -4637402.425 3  -3613558.149 3
        23.000          21.100
 09  1 25  1  5 30.0000000  0 10G 9G32G 5G11G12G31G18G14G22G19
  22089081.612    22089081.211    22089080.312   -14657861.976 5 -11421703.173 5
        32.400          30.800
  24906366.535    24906365.541    24906365.691     -864007.347 2   -673251.949 2
        15.100          13.900
  24987031.710    24987031.166    24987030.379     -834575.516 2   -650318.595 1
        12.600          11.000
  23387471.874    23387471.723    23387469.451    -7818526.283 4  -6092356.569 3
        24.600          22.100
  25065077.064    25065077.205    25065076.041     -989811.547 2   -771282.308 2
        12.600          16.100
  24798856.075    24798855.186    24798852.586    -1396322.599 2  -1088043.306 2
        15.100          15.100
  22567701.189    22567700.472    22567698.541   -14859902.213 5 -11579134.935 4
        30.200          26.500
  20626306.313    20626305.772    20626304.325   -23032381.516 6 -17947304.720 7
        39.900          45.600
  20612804.839    20612804.528    20612801.395   -23925715.586 7 -18643404.257 7
        42.100          45.300
  24133946.015    24133944.360    24133943.415    -4561870.375 3  -3554702.029 3
        21.600          21.600
 09  1 25  1  6  0.0000000  0 10G 9G32G 5G11G12G31G18G14G22G19
  22102189.887    22102189.231    22102188.772   -14588977.382 5 -11368026.865 5
        32.300          30.600
  24888134.562    24888133.165    24888133.795     -959821.541 2   -747912.327 2
        17.000          15.100
  24969574.218    24969573.671    24969573.594     -926315.646 2   -721804.418 2
        15.100          13.900
  23374882.132    23374882.044    23374880.432    -7884685.708 4  -6143909.357 3
        24.900          22.600
  25049682.130    25049681.671    25049682.583    -1070697.905 1   -834310.574 2
         6.500          16.100
  24776750.014    24776748.625    24776745.898    -1512495.172 2  -1178567.354 2
        13.900          17.000
  22583983.462    22583982.678    22583980.742   -14774339.371 5 -11512462.595 4
        30.400          26.500
  20619573.797    20619573.302    20619571.943   -23067760.431 6 -17974872.699 7
        39.800          45.600
  20620263.287    20620262.992    20620259.909   -23886520.773 7 -18612862.844 7
        42.100          45.200
  24148382.164    24148380.902    24148378.917    -4486011.075 3  -3495590.896 3
        22.600          21.600
 09  1 25  1  6 30.0000000  0 10G 9G32G 5G11G12G31G18G14G22G19
  22115410.383    22115409.923    22115409.499   -14519502.342 5 -11313890.464 5
        32.300          30.400
  24869910.229    24869908.721    24869908.970    -1055594.557 2   -822540.630 2
        15.100          16.100
  24952157.165    24952156.035    24952156.725    -1017845.352 2   -793126.277 2
        15.100          13.900
  23362379.262    23362378.752    23362376.838    -7950392.336 4  -6195109.321 3
        25.600          23.000
  25034344.625    25034344.084    25034341.311    -1151323.624 2   -897135.766 2
        12.600          17.000
  24754651.051    24754649.931    24754646.492    -1628626.515 2  -1269059.272 3
        12.600          19.300
  22600313.045    22600312.473    22600310.539   -14688525.578 4 -11445594.713 4
        29.900          26.500
  20612926.830    20612926.246    20612924.838   -23102690.659 6 -18002091.052 7
        39.700          45.700
  20627797.986    20627797.691    20627794.548   -23846925.775 7 -18582009.596 7
        42.100          45.100
  24162878.674    24162876.963    24162875.655    -4409829.778 3  -3436228.861 3
        21.600          21.100
 09  1 25  1  7  0.0000000  0 10G 9G32G 5G11G12G31G18G14G22G19
  22128741.734    22128741.297    22128740.319   -14449446.886 5 -11259301.799 5
        32.000          30.200
  24851689.829    24851688.777    24851690.138    -1151332.639 2   -897141.700 2
        12.600          16.100
  24934777.394    24934776.376    24934778.674    -1109168.687 2   -864287.269 2
        12.600          15.100
  23349960.658    23349960.132    23349958.706    -8015651.379 4  -6245960.503 3
        25.600          23.400
  25019048.405    25019048.312    25019044.969    -1231692.702 2   -959761.026 1
        12.600          11.000
  24732557.949    24732557.629    24732554.872    -1744721.440 1  -1359522.782 3
        11.000          22.600
  22616689.434    22616688.619    22616686.359   -14602469.194 5 -11378537.812 4
        30.200          26.200
  20606363.868    20606363.378    20606361.896   -23137179.290 6 -18028965.302 7
        39.700          45.700
  20635407.384    20635407.049    20635403.914   -23806938.238 7 -18550850.475 7
        42.000          44.900
  24177434.910    24177433.199    24177431.793    -4333335.759 3  -3376623.138 3
        22.100          20.500
 09  1 25  1  7 30.0000000  0 10G 9G32G 5G11G12G31G18G14G22G19
  22142183.569    22142183.087    22142182.261   -14378808.797 5 -11204259.136 5
        31.600          30.100
  24833476.363    24833476.241    24833479.100    -1247029.710 1   -971710.836 2
         9.000          13.900
  24917438.690    24917438.545    24917439.230    -1200277.336 1   -935281.023 2
         6.500          15.100
  23337628.345    23337628.031    23337626.468    -8080455.821 4  -6296457.466 3
        25.300          23.000
  25003805.543    25003805.436    25003802.172    -1311797.241 2  -1022180.232 2
        12.600          12.600
  24710472.881    24710472.787    24710470.508    -1860772.105 1  -1449951.755 3
        11.000          19.900
  22633112.403    22633111.602    22633109.703   -14516165.874 5 -11311288.485 4
        30.100          26.500
  20599886.059    20599885.569    20599884.146   -23171220.349 6 -18055490.798 7
        39.700          45.900
  20643092.306    20643092.069    20643089.007   -23766553.318 7 -18519381.706 7
        42.100          44.900
  24192050.592    24192049.391    24192048.041    -4256527.093 3  -3316772.265 3
        21.100          19.900
 09  1 25  1  8  0.0000000  0 10G 9G32G 5G11G12G31G18G14G22G19
  22155737.067    22155736.792    22155736.087   -14307583.832 5 -11148759.171 5
        31.600          30.100
  24815276.758    24815276.693    24815277.223    -1342677.822 1  -1046241.789 2
        11.000          13.900
  24900145.152    24900143.660    24900144.391    -1291160.981    -1006099.410 2
         3.000          13.900
  23325385.295    23325385.039    23325382.703    -8144796.067 4  -6346592.719 3
        25.600          23.000
  24988613.985    24988613.245    24988613.107    -1391627.077 1  -1084385.251 3
        11.000          20.500
  24688399.681    24688400.048    24688396.225    -1976768.863 2  -1540338.767 3
        13.900          21.600
  22649583.300    22649582.655    22649580.871   -14429609.796 4 -11243842.213 4
        29.700          26.500
  20593494.758    20593494.285    20593492.856   -23204806.773 6 -18081662.033 7
        39.600          46.000
  20650854.254    20650853.942    20650850.764   -23725764.691 7 -18487598.361 7
        42.100          44.800
  24206728.096    24206726.434    24206724.880    -4179399.677 3  -3256673.003 3
        22.100          21.100
 09  1 25  1  8 30.0000000  0 10G 9G32G 5G11G12G31G18G14G22G19
  22169400.906    22169400.650    22169399.854   -14235780.889 5 -11092808.829 5
        31.800          30.200
  24797085.452    24797084.566    24797083.104    -1438282.553 2  -1120738.915 2
        13.900          12.600
  24882892.379    24882890.956    24882892.346    -1381822.929    -1076745.051 2
         3.000          15.100
  23313228.645    23313228.715    23313226.678    -8208677.044 4  -6396370.095 3
        25.900          23.800
  24973472.464    24973472.794    24973472.453    -1471185.947 1  -1146379.087 2
         9.000          17.800
  24666334.733    24666335.914    24666333.555    -2092716.121 2  -1630687.230 3
        12.600          19.900
  22666100.458    22666100.067    22666098.609   -14342808.969 4 -11176205.215 4
        29.200          26.500
  20587188.688    20587188.201    20587186.909   -23237944.882 6 -18107483.930 7
        39.500          46.100
  20658691.593    20658691.289    20658687.992   -23684579.361 7 -18455505.895 7
        42.100          44.700
  24221463.721    24221462.270    24221460.809    -4101963.122 3  -3196332.837 3
        23.000          21.600
 09  1 25  1  9  0.0000000  0 10G 9G32G 5G11G12G31G18G14G22G19
  22183174.477    22183173.860    22183173.140   -14163400.804 5 -11036408.768 5
        31.500          30.100
  24778901.021    24778899.844    24778899.088    -1533840.774 2  -1195199.795 2
        13.900          12.600
  24865683.316    24865683.810    24865683.543    -1472257.858 1  -1147213.778 2
         6.500          16.100
  23301161.116    23301160.828    23301159.007    -8272094.509 4  -6445786.282 4
        26.200          24.200
  24958387.600    24958387.370    24958384.784    -1550468.564 2  -1208157.696 3
        15.100          19.300
  24644280.729    24644279.667    24644276.535    -2208609.026 1  -1720993.312 3
        11.000          18.600
  22682664.768    22682664.316    22682662.926   -14255762.023 4 -11108376.444 4
        29.000          25.900
  20580968.553    20580968.030    20580966.632   -23270632.401 6 -18132954.718 7
        39.600          46.100
  20666604.692    20666604.351    20666601.202   -23642995.474 7 -18423102.866 7
        42.000          44.700
  24236258.378    24236256.899    24236255.346    -4024218.156 3  -3135752.375 3
        23.400          22.100
 09  1 25  1  9 30.0000000  0 10G 9G32G 5G11G12G31G18G14G22G19
  22197057.596    22197056.889    22197056.591   -14090444.050 5 -10979559.342 5
        31.100          30.100
  24760725.428    24760724.537    24760725.894    -1629348.849 1  -1269621.631 2
        11.000          13.900
  24848520.798    24848519.864    24848519.084    -1562459.880 2  -1217500.992 2
        12.600          17.800
  23289181.979    23289181.817    23289180.168    -8335043.976 4  -6494837.809 4
        26.200          24.200
  24943354.807    24943353.749    24943351.701    -1629469.206 2  -1269716.628 2
        16.100          17.800
  24622238.449    24622238.916    24622237.193    -2324442.417 1  -1811253.032 3
        11.000          19.900
  22699276.991    22699276.310    22699274.730   -14168467.349 4 -11040354.630 4
        29.200          25.600
  20574834.548    20574834.026    20574832.670   -23302866.555 6 -18158072.236 7
        39.400          46.300
  20674594.191    20674593.848    20674590.515   -23601010.837 7 -18390387.566 7
        42.000          44.500
  24251111.058    24251109.739    24251108.140    -3946164.872 3  -3074931.641 3
        23.400          20.500
 09  1 25  1 10  0.0000000  0 10G 9G32G 5G11G12G31G18G14G22G19
  22211048.608    22211048.142    22211047.609   -14016920.166 5 -10922268.007 4
        30.600          29.500
  24742559.286    24742557.854    24742559.854    -1724813.115 1  -1344009.325 2
         6.500          16.100
  24831398.575    24831397.276    24831397.576    -1652432.972 2  -1287609.881 2
        12.600          17.800
  23277290.369    23277290.439    23277289.335    -8397530.795 4  -6543528.822 4
        25.900          24.600
  24928372.643    24928373.065    24928370.008    -1708192.285 2  -1331059.327 2
        16.100          16.100
  24600206.909    24600207.161    24600204.667    -2440221.276 2  -1901470.304 3
        12.600          19.300
  22715933.890    22715933.379    22715931.775   -14080933.587 4 -10972146.514 4
        28.800          25.900
  20568785.573    20568785.050    20568783.777   -23334654.011 6 -18182841.674 7
        39.300          46.400
  20682658.329    20682657.982    20682654.747   -23558633.597 7 -18357366.337 7
        42.100          44.500
  24266021.118    24266019.407    24266017.692    -3867813.341 3  -3013878.515 3
        23.000          19.300
 09  1 25  1 10 30.0000000  0 10G 9G32G 5G11G12G31G18G14G22G19
  22225147.481    22225146.780    22225145.712   -13942832.369 5 -10864537.248 4
        31.300          29.500
  24724402.438    24724401.386    24724402.323    -1820232.778 1  -1418362.256 2
         6.500          17.000
  24814321.068    24814319.282    24814319.590    -1742174.211 1  -1357538.099 2
         9.000          15.100
  23265488.581    23265488.329    23265486.611    -8459552.821 4  -6591857.682 4
        25.900          24.200
  24913447.386    24913446.800    24913443.875    -1786634.920 2  -1392183.402 2
        15.100          17.800
  24578185.545    24578185.669    24578184.035    -2555943.215 2  -1991643.219 3
        16.100          18.600
  22732636.355    22732635.708    22732634.074   -13993161.625 4 -10903752.796 4
        28.800          25.900
  20562821.595    20562821.096    20562819.719   -23365994.984 6 -18207263.203 7
        39.300          46.500
  20690797.093    20690796.735    20690793.563   -23515864.028 7 -18324039.400 7
        42.000          44.500
  24280987.080    24280986.015    24280983.910    -3789166.706 3  -2952595.426 3
        23.000          19.900
 09  1 25  1 11  0.0000000  0 10G 9G32G 5G11G12G31G18G14G22G19
  22239353.529    22239352.975    22239352.239   -13868177.913 5 -10806364.951 4
        31.300          29.500
  24706254.111    24706253.190    24706253.278    -1915601.354 1  -1492675.423 2
        11.000          17.800
  24797289.084    24797290.419    24797288.336    -1831674.922    -1427278.932 2
         3.000          15.100
  23253775.575    23253775.646    23253774.036    -8521102.987 4  -6639818.829 4
        25.300          24.200
  24898571.576    24898571.472    24898572.394    -1864788.910 1  -1453082.569 2
         6.500          17.000
  24556177.646    24556177.302    24556174.837    -2671600.249 2  -2081765.561 3
        17.800          18.600
  22749385.087    22749384.481    22749382.692   -13905147.384 4 -10835170.277 4
        29.200          25.600
  20556943.474    20556943.020    20556941.792   -23396884.178 6 -18231332.700 7
        39.300          46.600
  20699011.328    20699011.019    20699007.941   -23472697.394 7 -18290403.063 7
        42.100          44.400
  24296009.088    24296007.929    24296006.758    -3710222.432 3  -2891080.433 3
        21.600          19.300
 09  1 25  1 11 30.0000000  0 10G 9G32G 5G11G12G31G18G14G22G19
  22253666.047    22253665.531    22253665.089   -13792964.137 5 -10747756.823 4
        31.000          29.200
  24688114.969    24688114.137    24688113.650    -2010922.566 2  -1566951.670 2
        13.900          17.800
  24780300.709    24780301.379    24780302.557    -1920936.446    -1496833.341 2
         3.000          13.900
  23242152.439    23242152.125    23242150.865    -8582183.937 4  -6687414.356 4
        25.300          24.200
  24883754.881    24883755.506    24883755.894    -1942655.606 1  -1513757.892 3
        11.000          19.300
  24534181.196    24534180.696    24534178.312    -2787194.602 3  -2171839.055 3
        18.600          18.600
  22766178.518    22766177.970    22766176.277   -13816896.515 4 -10766403.377 4
        28.800          25.900
  20551150.793    20551150.271    20551149.061   -23427325.519 6 -18255053.221 7
        39.200          46.700
  20707300.381    20707300.068    20707296.830   -23429138.687 7 -18256461.211 7
        42.100          44.300
  24311087.560    24311086.001    24311084.223    -3630988.197 3  -2829339.488 3
        20.500          19.300
 09  1 25  1 12  0.0000000  0 10G 9G32G 5G11G12G31G18G14G22G19
  22268085.223    22268084.642    22268083.956   -13717192.261 5 -10688713.795 4
        31.300          29.200
  24669986.335    24669984.944    24669985.165    -2106193.150 2  -1641188.435 3
        13.900          19.300
  24763364.783    24763363.839    24763361.714    -2009953.298 1  -1566197.031 1
         9.000          11.000
  23230619.446    23230619.090    23230617.696    -8642791.433 4  -6734640.968 4
        25.600          24.200
  24868996.376    24868995.782    24868991.704    -2020229.732 2  -1574205.234 3
        17.800          19.900
  24512197.130    24512196.921    24512194.238    -2902721.373 3  -2261859.879 3
        19.900          19.300
  22783017.450    22783016.763    22783015.266   -13728407.864 4 -10697451.199 4
        27.900          25.600
  20545443.693    20545443.183    20545441.841   -23457316.738 6 -18278422.998 7
        39.200          46.900
  20715664.299    20715663.918    20715660.726   -23385186.076 7 -18222212.423 7
        42.000          44.100
  24326220.281    24326219.183    24326217.465    -3551464.442 3  -2767372.921 3
        20.500          19.300
 09  1 25  1 12 30.0000000  0 10G 9G32G 5G11G12G31G18G14G22G19
  22282610.055    22282609.691    22282609.251   -13640861.516 5 -10629235.294 4
        30.600          29.700
  24651865.955    24651865.199    24651866.196    -2201408.713 2  -1715382.337 3
        15.100          19.900
  24746472.845    24746472.648    24746471.485    -2098718.980 1  -1635365.062 1
        11.000          11.000
  23219177.450    23219176.975    23219175.559    -8702920.365 4  -6781494.675 4
        25.600          24.900
  24854287.682    24854288.001    24854288.542    -2097505.358 1  -1634419.985 3
         9.000          18.600
  24490227.172    24490227.038    24490224.569    -3018174.715 3  -2351823.494 2
        19.900          17.800
  22799901.903    22799901.409    22799899.452   -13639679.270 4 -10628312.053 4
        28.100          24.900
  20539822.678    20539822.264    20539821.125   -23486854.474 6 -18301439.408 7
        39.200          46.800
  20724103.535    20724103.235    20724100.028   -23340836.927 7 -18187654.644 7
        42.000          44.000
  24341407.778    24341407.083    24341405.230    -3471651.023 3  -2705180.661 3
        19.300          19.900
 09  1 25  1 13  0.0000000  0 10G 9G32G 5G11G12G31G18G14G22G19
  22297240.758    22297240.313    22297239.789   -13563978.030 5 -10569326.091 4
        30.600          29.200
  24633755.659    24633755.711    24633757.488    -2296571.789 2  -1789535.356 3
        13.900          20.500
  24729629.493    24729627.910    24729628.102    -2187233.635 2  -1704337.521 1
        12.600          11.000
  23207825.801    23207825.625    23207823.851    -8762572.265 4  -6827976.671 4
        24.900          24.200
  24839638.796    24839639.887    24839638.288    -2174482.887 1  -1694402.456 2
         9.000          17.800
  24468270.077    24468270.714    24468268.673    -3133555.622 3  -2441730.695 2
        19.900          16.100
  22816831.309    22816830.741    22816828.863   -13550715.169 4 -10558989.388 4
        28.600          24.900
  20534287.681    20534287.164    20534285.706   -23515941.937 6 -18324104.957 7
        39.200          46.700
  20732617.616    20732617.332    20732614.083   -23296095.126 7 -18152790.902 7
        42.000          43.900
  24356650.539    24356648.333    24356646.515    -3391553.782 3  -2642767.266 3
        19.900          19.900
 09  1 25  1 13 30.0000000  0 10G 9G32G 5G11G12G31G18G14G22G19
  22311975.493    22311975.020    22311974.278   -13486546.933 5 -10508990.169 4
        30.200          28.800
  24615657.658    24615657.747    24615658.565    -2391683.416 2  -1863648.287 3
        17.000          21.100
  24712833.659    24712831.935    24712829.661    -2275496.285 1  -1773113.554 1
         9.000           9.000
  23196564.799    23196564.632    23196563.276    -8821747.275 4  -6874087.064 4
        24.600          24.200
  24825051.198    24825050.819    24825047.658    -2251161.367 2  -1754151.849 3
        16.100          20.500
  24446327.370    24446327.989    24446326.428    -3248863.633 3  -2531581.100 2
        19.300          17.000
  22833805.136    22833804.366    22833802.714   -13461519.010 4 -10489485.908 4
        28.400          25.600
  20528837.735    20528837.270    20528836.328   -23544581.116 6 -18346421.193 7
        39.100          46.500
  20741205.942    20741205.636    20741202.428   -23250963.362 6 -18117623.290 7
        41.900          43.800
  24371946.008    24371944.313    24371942.517    -3311177.917 3  -2580136.733 3
        21.100          21.600
 09  1 25  1 14  0.0000000  0 10G 9G32G 5G11G12G31G18G14G22G19
  22326814.157    22326813.681    22326812.853   -13408569.545 5 -10448228.563 4
        30.200          28.800
  24597569.333    24597568.870    24597569.584    -2486740.744 2  -1937718.914 3
        17.800          20.500
  24696085.639    24696083.963    24696084.469    -2363501.655 1  -1841689.184 2
         6.500          13.900
  23185396.032    23185395.787    23185394.327    -8880441.628 4  -6919822.909 4
        25.600          24.600
  24810515.540    24810514.823    24810513.153    -2327536.036 2  -1813664.528 3
        13.900          19.900
  24424399.256    24424400.152    24424398.514    -3364094.292 2  -2621371.199 3
        17.800          20.500
  22850822.594    22850822.018    22850820.475   -13372089.817 4 -10419800.846 4
        27.600          25.300
  20523473.618    20523473.049    20523471.575   -23572769.942 6 -18368386.507 7
        39.100          46.500
  20749868.690    20749868.408    20749865.226   -23205440.093 6 -18082150.613 7
        41.900          43.800
  24387292.251    24387291.249    24387290.828    -3230524.665 3  -2517290.062 3
        19.900          22.100
 09  1 25  1 14 30.0000000  0 10G 9G32G 5G11G12G31G18G14G22G19
  22341756.025    22341755.555    22341754.771   -13330047.990 5 -10387042.941 4
        30.100          28.600
  24579491.109    24579490.538    24579491.395    -2581742.587 3  -2011746.277 3
        18.600          19.900
  24679388.703    24679387.695    24679388.759    -2451246.433 2  -1910061.684 2
        12.600          16.100
  23174318.913    23174318.621    23174316.895    -8938653.408 4  -6965182.721 4
        26.500          24.900
  24796039.709    24796040.115    24796040.472    -2403603.666 2  -1872938.017 3
        16.100          22.100
  24402486.497    24402486.901    24402486.162    -3479244.892 2  -2711098.909 3
        17.800          21.600
  22867884.448    22867883.686    22867882.197   -13282428.816 4 -10349935.147 4
        27.600          24.900
  20518195.300    20518194.773    20518193.746   -23600508.067 6 -18390000.625 7
        39.100          46.500
  20758605.988    20758605.623    20758602.380   -23159525.944 6 -18046373.351 7
        41.900          43.600
  24402692.231    24402691.669    24402690.066    -3149596.988 3  -2454229.547 3
        20.500          22.100
 09  1 25  1 15  0.0000000  0 10G 9G32G 5G11G12G31G18G14G22G19
  22356803.229    22356802.640    22356801.514   -13250977.192 4 -10325429.334 4
        29.700          28.400
  24561426.280    24561425.365    24561424.222    -2676679.661 3  -2085723.167 3
        18.600          19.300
  24662744.411    24662743.833    24662742.681    -2538719.232 2  -1978222.237 2
        13.900          17.000
  23163335.495    23163335.213    23163333.292    -8996372.485 4  -7010158.631 4
        26.800          24.600
  24781627.286    24781627.219    24781624.926    -2479353.092 3  -1931963.520 3
        21.100          21.100
  24380591.632    24380591.176    24380590.564    -3594304.858 2  -2800756.008 3
        17.800          21.600
  22884991.497    22884990.970    22884989.515   -13192528.540 4 -10279882.997 4
        27.100          24.600
  20513004.132    20513003.623    20513002.040   -23627787.409 6 -18411257.248 7
        39.100          46.300
  20767418.870    20767418.570    20767415.365   -23113213.277 6 -18010285.557 7
        41.800          43.600
  24418147.292    24418146.041    24418143.952    -3068389.012 3  -2390950.634 3
        21.600          23.800
 09  1 25  1 15 30.0000000  0 10G32G 9G 5G11G12G31G18G14G22G19
  24543369.809    24543369.103    24543369.093    -2771559.914 2  -2159655.795 3
        16.100          19.300
  22371951.709    22371951.233    22371950.656   -13171369.114 4 -10263397.074 4
        29.700          28.600
  24646147.590    24646147.686    24646147.635    -2625925.746 2  -2046175.396 2
        15.100          13.900
  23152443.891    23152443.475    23152441.823    -9053606.053 4  -7054756.214 4
        26.500          24.200
  24767270.272    24767270.077    24767267.233    -2554790.505 3  -1990745.870 2
        18.600          17.800
  24358712.031    24358712.025    24358711.873    -3709280.548 2  -2890347.430 3
        17.000          23.000
  22902142.648    22902142.286    22902140.720   -13102399.302 4 -10209652.440 4
        26.500          24.600
  20507898.763    20507898.254    20507897.284   -23654616.734 6 -18432163.209 7
        39.200          46.500
  20776306.171    20776305.823    20776302.549   -23066511.043 6 -17973894.205 7
        41.800          43.500
  24433650.672    24433648.723    24433648.624    -2986912.860 3  -2327462.752 3
        19.900          23.800
 09  1 25  1 16  0.0000000  0 10G32G 9G 5G11G12G31G18G14G22G19
  24525322.973    24525322.048    24525323.701    -2866392.184 2  -2233551.021 3
        16.100          19.900
  22387200.391    22387200.024    22387199.304   -13091236.798 5 -10200956.312 4
        30.100          28.800
  24629602.019    24629601.804    24629602.555    -2712872.724 2  -2113926.249 2
        12.600          12.600
  23141643.373    23141643.217    23141641.472    -9110362.060 4  -7098981.670 4
        27.100          24.200
  24752973.030    24752973.358    24752971.674    -2629922.811 2  -2049290.514 3
        15.100          19.300
  24336846.098    24336846.944    24336847.220    -3824179.436 2  -2979879.005 3
        16.100          22.600
  22919335.703    22919334.932    22919333.204   -13012052.074 4 -10139252.032 4
        26.500          24.600
  20502877.170    20502876.607    20502874.893   -23681005.573 6 -18452725.934 7
        39.200          46.400
  20785265.192    20785264.897    20785261.675   -23019430.518 6 -17937208.080 7
        41.700          43.400
  24449204.149    24449202.643    24449201.208    -2905181.362 3  -2263775.893 3
        22.100          23.400
 09  1 25  1 16 30.0000000  0 10G32G 9G 5G11G12G31G18G14G22G19
  24507289.260    24507289.042    24507290.235    -2961159.254 2  -2307395.466 3
        17.000          21.100
  22402551.122    22402550.806    22402550.630   -13010566.599 4 -10138096.416 4
        29.500          28.600
  24613110.760    24613109.538    24613109.060    -2799540.588 2  -2181459.662 2
        12.600          12.600
  23130937.391    23130937.100    23130935.422    -9166622.709 4  -7142821.127 4
        27.100          24.200
  24738737.405    24738737.003    24738737.132    -2704730.898 2  -2107582.563 3
        15.100          20.500
  24315000.656    24315000.820    24315000.296    -3938982.521 2  -3069335.924 3
        17.800          23.000
  22936572.625    22936571.911    22936570.063   -12921471.660 4 -10068669.911 4
        26.500          24.900
  20497942.264    20497941.776    20497940.897   -23706937.838 6 -18472932.886 7
        39.100          46.100
  20794299.300    20794298.932    20794295.877   -22971955.710 6 -17900214.725 7
        41.500          43.400
  24464808.518    24464806.640    24464805.195    -2823181.506 3  -2199879.891 3
        22.100          23.400
 09  1 25  1 17  0.0000000  0 10G32G 9G 5G11G12G31G18G14G22G19
  24489267.598    24489267.116    24489267.471    -3055867.539 3  -2381194.121 3
        18.600          21.600
  22418002.271    22418002.244    22418001.687   -12929369.284 4 -10074825.784 4
        29.900          27.900
  24596670.049    24596668.956    24596668.664    -2885933.651 2  -2248778.905 2
        13.900          12.600
  23120325.254    23120324.855    23120322.503    -9222393.384 4  -7186278.793 4
        28.100          24.600
  24724563.175    24724563.375    24724561.273    -2779219.679 2  -2165625.712 3
        17.800          18.600
  24293172.127    24293172.542    24293171.605    -4053694.737 3  -3158722.049 4
        19.300          24.200
  22953852.333    22953851.524    22953849.631   -12830666.865 4  -9997912.943 4
        27.400          24.600
  20493093.038    20493092.516    20493090.805   -23732420.859 6 -18492789.782 7
        39.100          46.000
  20803406.966    20803406.725    20803403.568   -22924094.183 6 -17862920.029 7
        41.600          43.200
  24480460.460    24480459.878    24480458.311    -2740923.558 3  -2135782.831 3
        21.100          22.600
 09  1 25  1 17 30.0000000  0 10G32G 9G 5G11G12G31G18G14G22G19
  24471259.426    24471258.713    24471259.068    -3150503.091 3  -2454936.105 3
        18.600          22.100
  22433556.739    22433556.252    22433554.861   -12847634.769 5 -10011136.537 4
        30.200          27.600
  24580286.128    24580284.841    24580284.351    -2972035.829 2  -2315871.496 2
        13.900          13.900
  23109808.427    23109807.961    23109805.810    -9277659.610 4  -7229343.380 4
        28.100          24.200
  24710452.923    24710452.183    24710450.413    -2853372.405 2  -2223407.034 2
        17.000          17.000
  24271364.320    24271363.936    24271363.348    -4168300.800 3  -3248025.439 4
        19.300          24.900
  22971176.456    22971175.936    22971174.227   -12739625.833 4  -9926971.891 4
        26.200          24.200
  20488331.760    20488331.252    20488330.308   -23757441.927 6 -18512286.713 7
        39.100          46.200
  20812590.733    20812590.394    20812587.117   -22875834.000 6 -17825314.689 7
        41.500          43.100
  24496165.407    24496163.779    24496163.354    -2658397.261 3  -2071476.622 3
        21.100          23.000
 09  1 25  1 18  0.0000000  0 10G32G 9G 5G11G12G31G18G14G22G19
  24453261.620    24453260.886    24453262.526    -3245079.846 3  -2528632.256 3
        18.600          23.000
  22449209.008    22449208.382    22449207.378   -12765380.922 4  -9947042.619 4
        29.900          27.600
  24563953.429    24563952.377    24563953.875    -3057858.774 1  -2382746.491 2
        11.000          15.100
  23099384.719    23099384.614    23099382.616    -9332434.498 4  -7272025.110 4
        28.400          24.600
  24696402.059    24696402.100    24696401.209    -2927201.688 2  -2280936.352 2
        16.100          17.000
  24249573.022    24249573.061    24249571.934    -4282813.085 3  -3337255.757 3
        18.600          23.400
  22988542.756    22988542.086    22988540.567   -12648364.656 4  -9855859.313 3
        25.300          23.800
  20483655.381    20483654.967    20483653.195   -23782015.571 6 -18531435.003 7
        39.100          45.900
  20821847.149    20821846.810    20821843.560   -22827190.922 6 -17787410.993 7
        41.500          43.000
  24511917.258    24511915.946    24511914.637    -2575620.723 3  -2006975.408 3
        19.300          22.600
 09  1 25  1 18 30.0000000  0 10G32G 9G 5G11G12G31G18G14G22G19
  24435277.422    24435276.506    24435277.193    -3339591.562 3  -2602277.721 3
        18.600          23.000
  22464959.934    22464959.824    22464959.459   -12682605.713 4  -9882542.455 4
        29.700          28.100
  24547677.460    24547676.515    24547676.031    -3143394.202 1  -2449397.414 2
        11.000          13.900
  23089056.197    23089055.960    23089054.114    -9386711.071 4  -7314318.530 4
        28.400          24.900
  24682418.556    24682418.128    24682414.436    -3000699.326 3  -2338207.265 2
        20.500          17.000
  24227801.386    24227801.988    24227799.982    -4397223.775 3  -3426406.907 3
        18.600          22.600
  23005951.741    23005951.200    23005949.758   -12556879.326 4  -9784572.066 3
        24.900          23.400
  20479065.326    20479064.863    20479063.946   -23806136.901 6 -18550230.838 7
        39.100          46.000
  20831177.282    20831176.964    20831173.908   -22778160.115 6 -17749205.171 7
        41.300          43.000
  24527716.667    24527715.363    24527713.642    -2492591.626 2  -1942277.403 3
        17.800          20.500
 09  1 25  1 19  0.0000000  0 10G32G 9G 5G11G12G31G18G14G22G19
  24417304.510    24417303.281    24417304.118    -3434040.175 3  -2675874.030 3
        19.300          23.000
  22480810.251    22480809.879    22480808.797   -12599315.284 4  -9817640.823 4
        29.500          27.600
  24531454.502    24531454.065    24531454.291    -3228641.975 1  -2515824.234 2
         9.000          15.100
  23078822.057    23078821.917    23078820.021    -9440490.750 4  -7356224.769 4
        28.600          24.200
  24668493.665    24668493.411    24668492.987    -3073865.653 3  -2395219.943 3
        18.600          20.500
  24206049.630    24206049.454    24206047.383    -4511533.679 3  -3515479.530 3
        19.900          22.100
  23023402.967    23023402.526    23023400.942   -12465173.727 4  -9713113.178 3
        25.600          23.400
  20474560.840    20474560.299    20474558.395   -23829808.624 6 -18568676.333 7
        39.100          46.000
  20840580.720    20840580.402    20840577.255   -22728745.225 6 -17710700.064 7
        41.400          42.900
  24543565.362    24543563.468    24543561.460    -2409316.128 3  -1877387.413 3
        19.300          21.100
 09  1 25  1 19 30.0000000  0 10G32G 9G 5G11G12G31G18G14G22G19
  24399343.160    24399342.064    24399343.328    -3528425.427 3  -2749420.950 3
        18.600          23.000
  22496756.746    22496756.331    22496755.998   -12515513.300 4  -9752340.582 4
        29.000          27.900
  24515287.282    24515286.215    24515287.435    -3313599.695 1  -2582025.023 2
         9.000          16.100
  23068683.254    23068683.061    23068680.694    -9493772.654 4  -7397743.147 4
        28.800          24.900
  24654634.374    24654634.064    24654632.847    -3146698.644 2  -2451972.870 3
        17.800          21.100
  24184316.887    24184316.677    24184314.594    -4625740.688 3  -3604471.976 3
        20.500          23.000
  23040895.386    23040894.783    23040893.381   -12373250.102 4  -9641484.390 3
        25.600          23.400
  20470141.765    20470141.159    20470140.231   -23853031.532 6 -18586772.098 7
        39.200          46.100
  20850056.878    20850056.568    20850053.331   -22678947.526 6 -17671896.661 7
        41.400          42.700
  24559456.497    24559455.933    24559454.779    -2325797.908 3  -1812308.287 3
        19.900          20.500
 09  1 25  1 20  0.0000000  0 10G32G 9G 5G11G12G31G18G14G22G19
  24381395.402    24381394.450    24381395.188    -3622742.923 3  -2822915.049 3
        19.300          23.000
  22512801.373    22512800.703    22512800.217   -12431199.712 4  -9686641.678 4
        28.800          27.900
  24499178.721    24499177.579    24499177.296    -3398260.678 2  -2647994.617 2
        15.100          16.100
  23058639.644    23058639.414    23058637.440    -9546551.740 4  -7438869.699 4
        28.400          24.900
  24640839.762    24640839.495    24640836.855    -3219191.833 3  -2508461.108 3
        19.300          18.600
  24162604.754    24162604.682    24162602.675    -4739839.049 3  -3693379.765 3
        19.900          23.400
  23058429.917    23058429.161    23058427.707   -12281106.397 4  -9569684.124 3
        25.600          23.400
  20465808.448    20465807.988    20465806.083   -23875802.398 6 -18604515.628 7
        39.100          46.000
  20859606.232    20859605.951    20859602.954   -22628764.680 6 -17632793.145 7
        41.200          42.800
  24575395.589    24575394.455    24575393.054    -2242036.540 3  -1747039.727 3
        18.600          19.300
 09  1 25  1 20 30.0000000  0 10G32G 9G 5G11G12G31G18G14G22G19
  24363460.899    24363460.342    24363460.403    -3716988.540 3  -2896353.154 3
        19.900          21.100
  22528943.094    22528942.576    22528942.014   -12346374.528 4  -9620544.134 4
        28.600          27.900
  24483125.184    24483124.204    24483123.715    -3482618.827 2  -2713728.241 2
        15.100          15.100
  23048692.559    23048692.235    23048691.082    -9598823.044 4  -7479600.577 4
        27.400          25.300
  24627110.917    24627110.680    24627106.952    -3291339.506 3  -2564680.075 3
        19.900          18.600
  24140914.933    24140914.551    24140912.209    -4853823.297 3  -3782198.615 4
        21.600          24.200
  23076006.964    23076006.068    23076004.430   -12188740.584 4  -9497710.777 3
        26.200          23.400
  20461561.939    20461561.470    20461560.503   -23898118.135 6 -18621904.507 7
        39.100          45.800
  20869229.551    20869229.332    20869226.184   -22578194.110 6 -17593387.509 7
        41.300          42.700
  24591382.810    24591380.918    24591378.971    -2158032.054 3  -1681581.704 3
        20.500          19.900
 09  1 25  1 21  0.0000000  0 10G32G 9G 5G11G12G31G18G14G22G19
  24345539.973    24345539.475    24345539.187    -3811161.088 3  -2969734.314 3
        19.300          19.900
  22545181.423    22545180.957    22545180.497   -12261040.293 4  -9554049.928 4
        28.800          27.400
  24467130.024    24467128.423    24467129.242    -3566670.825 2  -2779223.304 2
        13.900          16.100
  23038842.776    23038842.362    23038841.106    -9650584.913 4  -7519934.488 4
        27.600          25.600
  24613445.719    24613444.604    24613444.968    -3363138.628 1  -2620627.411 3
        11.000          19.300
  24119246.017    24119246.122    24119243.490    -4967690.682 3  -3870926.419 3
        22.600          23.000
  23093625.759    23093625.094    23093623.526   -12096153.691 4  -9425565.162 3
        25.600          23.800
  20457402.042    20457401.548    20457399.547   -23919978.653 6 -18638938.676 7
        39.100          45.900
  20878926.529    20878926.244    20878923.179   -22527236.294 6 -17553680.120 7
        41.200          42.700
  24607413.652    24607411.948    24607410.627    -2073787.106 3  -1615936.271 3
        19.300          21.100
 09  1 25  1 21 30.0000000  0 10G32G 9G 5G11G12G31G18G14G22G19
  24327633.828    24327632.381    24327632.268    -3905260.231 2  -3043058.291 3
        16.100          18.600
  22561516.151    22561515.701    22561514.929   -12175200.928 4  -9487162.115 4
        28.800          27.100
  24451193.892    24451193.640    24451194.362    -3650414.159 1  -2844477.790 2
        11.000          17.800
  23029089.404    23029089.108    23029087.901    -9701836.571 4  -7559870.837 4
        27.400          25.300
  24599851.472    24599850.755    24599849.043    -3434587.056 2  -2676301.486 3
        16.100          19.300
  24097600.556    24097600.591    24097598.104    -5081439.369 3  -3959561.747 3
        22.600          23.800
  23111285.605    23111285.094    23111284.035   -12003347.636 4  -9353248.779 3
        24.900          23.800
  20453328.608    20453328.104    20453327.243   -23941384.671 6 -18655618.685 7
        39.100          45.900
  20888697.047    20888696.760    20888693.573   -22475892.271 6 -17513671.790 7
        41.300          42.500
  24623488.944    24623488.182    24623487.242    -1989305.395 3  -1550106.379 3
        19.300          21.600
 09  1 25  1 22  0.0000000  0 10G32G 9G 5G11G12G31G18G14G22G19
  24309740.473    24309739.355    24309740.672    -3999286.411 2  -3116325.403 2
        15.100          17.800
  22577946.234    22577945.885    22577944.956   -12088860.967 4  -9419884.214 4
        28.600          27.100
  24435317.849    24435317.081    24435317.759    -3733847.179 1  -2909490.490 2
        11.000          17.000
  23019433.691    23019433.582    23019432.034    -9752577.811 4  -7599409.459 4
        27.600          25.300
  24586322.367    24586322.174    24586319.237    -3505683.519 3  -2731701.329 3
        18.600          20.500
  24075977.998    24075977.632    24075975.032    -5195068.445 3  -4048103.845 3
        21.600          23.400
  23128987.160    23128986.476    23128985.130   -11910325.174 4  -9280763.766 3
        24.200          22.100
  20449341.402    20449340.836    20449338.882   -23962337.896 6 -18671945.867 7
        39.100          46.100
  20898540.305    20898540.054    20898537.013   -22424164.820 6 -17473364.686 7
        41.200          42.500
  24639610.577    24639609.047    24639607.733    -1904591.723 3  -1484095.738 3
        18.600          22.600
 09  1 25  1 22 30.0000000  0 10G32G 9G 5G11G12G31G18G14G22G19
  24291861.461    24291860.756    24291860.560    -4093245.488 2  -3189540.272 2
        16.100          17.800
  22594469.424    22594469.067    22594468.387   -12002030.574 4  -9352224.170 4
        27.900          27.100
  24419499.866    24419499.062    24419498.049    -3816973.769 1  -2974264.454 2
        11.000          15.100
  23009873.987    23009873.725    23009872.347    -9802814.030 4  -7638554.556 4
        27.600          24.900
  24572857.634    24572857.318    24572857.525    -3576432.019 2  -2786829.985 3
        17.000          21.600
  24054375.831    24054376.132    24054373.971    -5308582.114 3  -4136556.014 3
        22.600          23.400
  23146728.666    23146727.736    23146726.037   -11817094.319 3  -9208116.358 3
        23.400          21.600
  20445438.969    20445438.526    20445437.451   -23982845.246 6 -18687925.615 7
        39.100          45.800
  20908455.346    20908455.055    20908451.854   -22372061.366 6 -17432764.592 7
        41.200          42.200
  24655773.017    24655771.891    24655770.394    -1819655.721 2  -1417911.856 3
        17.000          22.100
 09  1 25  1 23  0.0000000  0 10G32G 9G 5G11G12G31G18G14G22G19
  24273995.975    24273995.048    24273994.453    -4187129.701 2  -3262696.777 2
        15.100          17.800
  22611086.801    22611086.163    22611085.322   -11914706.372 4  -9284179.334 4
        27.600          27.100
  24403740.598    24403739.391    24403740.156    -3899784.042 1  -3038791.934 2
         9.000          13.900
  23000412.371    23000412.029    23000410.146    -9852536.831 4  -7677299.590 4
        28.400          24.900
  24559464.532    24559464.357    24559462.156    -3646823.155 3  -2841680.200 3
        19.300          20.500
  24032798.345    24032798.572    24032796.623    -5421971.470 3  -4224911.334 4
        23.000          24.200
  23164510.785    23164509.907    23164508.100   -11723649.442 3  -9135302.195 3
        23.800          21.100
  20441622.635    20441622.151    20441620.127   -24002899.983 6 -18703552.682 7
        39.000          45.800
  20918442.995    20918442.740    20918439.561   -22319575.745 6 -17391866.706 7
        41.100          42.300
  24671979.628    24671977.267    24671976.070    -1734493.556 2  -1351551.705 3
        17.800          21.600
 09  1 25  1 23 30.0000000  0 10G32G 9G 5G11G12G31G18G14G22G19
  24256144.506    24256143.842    24256143.436    -4280936.963 3  -3335793.281 3
        18.600          18.600
  22627797.322    22627797.004    22627796.617   -11826890.122 4  -9215751.089 4
        27.600          27.100
  24388042.767    24388041.859    24388043.817    -3982273.712 1  -3103069.579 2
         9.000          16.100
  22991049.021    22991048.779    22991046.382    -9901743.543 4  -7715642.484 4
        29.000          24.900
  24546136.900    24546137.031    24546133.624    -3716853.046 2  -2896248.937 3
        17.000          18.600
  24011245.514    24011245.829    24011243.873    -5535232.508 3  -4313166.659 4
        23.000          24.200
  23182333.549    23182332.778    23182330.867   -11629990.927 4  -9062321.554 3
        24.200          21.600
  20437892.655    20437892.117    20437891.244   -24022501.147 6 -18718826.309 7
        38.900          45.700
  20928503.533    20928503.218    20928500.089   -22266707.437 6 -17350670.623 7
        41.100          42.200
  24688227.169    24688225.553    24688224.893    -1649107.563 2  -1285017.185 3
        17.000          21.100
 09  1 25  1 24  0.0000000  0 10G32G 9G 5G11G12G31G18G14G22G19
  24238308.183    24238307.434    24238307.451    -4374668.185 3  -3408830.560 3
        19.900          19.300
  22644601.230    22644600.798    22644600.106   -11738587.165 4  -9146943.597 4
        27.600          27.100
  24372407.500    24372407.052    24372406.547    -4064441.816 2  -3167096.627 2
        13.900          16.100
  22981783.349    22981783.040    22981781.159    -9950434.691 4  -7753583.626 4
        29.000          25.600
  24532879.184    24532879.488    24532877.135    -3786521.343 2  -2950535.911 3
        16.100          19.300
  23989717.605    23989717.289    23989715.059    -5648365.221 3  -4401321.996 3
        22.600          23.400
  23200195.974    23200195.220    23200193.312   -11536121.911 3  -8989176.875 3
        23.800          21.600
  20434248.575    20434248.034    20434245.896   -24041651.109 6 -18733748.355 7
        38.900          45.700
  20938636.362    20938636.052    20938632.922   -22213459.314 6 -17309178.585 7
        41.200          42.200
  24704516.962    24704516.257    24704514.762    -1563502.897 2  -1218312.289 3
        17.800          20.500
 09  1 25  1 24 30.0000000  0 10G32G 9G 5G11G12G31G18G14G22G19
  24220485.225    24220484.444    24220484.720    -4468328.333 3  -3481812.450 3
        21.100          19.900
  22661495.321    22661494.972    22661494.575   -11649806.792 4  -9077764.101 4
        27.600          26.800
  24356833.133    24356831.762    24356831.233    -4146291.210 2  -3230875.365 2
        15.100          17.000
  22972614.673    22972614.469    22972612.601    -9998614.823 4  -7791126.586 4
        29.000          25.600
  24519691.407    24519690.957    24519690.103    -3855830.648 2  -3004543.154 3
        16.100          22.100
  23968211.953    23968212.226    23968211.063    -5761372.786 3  -4489379.828 4
        22.600          25.300
  23218096.995    23218096.340    23218094.875   -11442049.753 3  -8915873.924 3
        23.000          21.600
  20430689.174    20430688.669    20430687.629   -24060355.867 6 -18748323.486 7
        38.900          45.600
  20948840.052    20948839.796    20948836.674   -22159838.207 6 -17267395.907 7
        41.200          42.100
  24720845.544    24720844.427    24720844.936    -1477687.899 2  -1151443.495 3
        16.100          18.600
 09  1 25  1 25  0.0000000  0 10G32G 9G 5G11G12G31G18G14G22G19
  24202678.390    24202677.184    24202677.668    -4561905.040 3  -3554729.345 3
        22.600          21.100
  22678482.085    22678481.761    22678481.056   -11560540.702 4  -9008206.106 4
        27.900          26.200
  24341319.825    24341318.803    24341319.710    -4227807.530 2  -3294394.546 2
        13.900          17.800
  22963546.035    22963545.735    22963543.909   -10046271.532 4  -7828261.670 4
        29.500          26.200
  24506571.379    24506571.902    24506570.600    -3924767.203 2  -3058259.914 3
        13.900          21.600
  23946733.242    23946734.006    23946732.671    -5874241.585 3  -4577329.499 4
        23.000          24.600
  23236039.371    23236038.279    23236036.742   -11347764.364 3  -8842404.817 3
        23.400          21.600
  20427216.760    20427216.217    20427213.990   -24078604.144 6 -18762542.918 7
        39.000          45.900
  20959116.834    20959116.558    20959113.326   -22105833.624 6 -17225314.416 6
        41.200          41.900
  24737218.177    24737217.154    24737215.933    -1391654.868 2  -1084404.769 2
        13.900          17.000
 09  1 25  1 25 30.0000000  0 10G32G 9G 5G11G12G31G18G14G22G19
  24184887.366    24184886.796    24184887.218    -4655395.253 3  -3627578.829 3
        23.000          22.100
  22695561.736    22695561.253    22695559.827   -11470790.020 4  -8938270.494 4
        28.600          25.900
  24325872.808    24325871.758    24325871.609    -4308985.529 2  -3357650.082 2
        15.100          17.000
  22954577.763    22954577.421    22954575.535   -10093400.805 4  -7864985.775 4
        29.500          25.900
  24493526.410    24493526.381    24493524.016    -3993326.385 2  -3111682.582 3
        17.000          20.500
  23925282.332    23925282.949    23925281.890    -5986966.934 3  -4665167.431 4
        22.600          24.200
  23254022.160    23254021.584    23254019.575   -11253264.674 4  -8768768.718 3
        24.200          21.600
  20423831.301    20423830.758    20423829.827   -24096394.180 6 -18776405.281 7
        38.900          45.600
  20969466.740    20969466.536    20969463.366   -22051443.953 6 -17182932.856 6
        41.200          41.900
  24753633.221    24753630.866    24753628.679    -1305404.464 2  -1017196.707 2
        15.100          17.000
 09  1 25  1 26  0.0000000  0 10G32G 9G 5G11G12G31G18G14G22G19
  24167112.055    24167111.224    24167111.316    -4748808.606 3  -3700368.441 3
        22.600          22.100
  22712729.866    22712729.328    22712728.248   -11380569.149 4  -8867968.521 4
        27.900          25.900
  24310488.077    24310486.691    24310486.779    -4389833.059 2  -3420648.150 2
        16.100          16.100
  22945707.464    22945707.168    22945705.586   -10140012.054 4  -7901306.237 4
        29.200          25.900
  24480550.545    24480550.614    24480547.646    -4061516.338 2  -3164817.622 3
        17.800          19.900
  23903857.161    23903857.589    23903856.861    -6099557.520 3  -4752900.324 4
        22.600          24.900
  23272043.416    23272042.672    23272040.631   -11158562.829 4  -8694975.098 3
        24.200          21.600
  20420531.078    20420530.510    20420528.343   -24113736.883 6 -18789919.073 7
        38.900          45.600
  20979888.007    20979887.713    20979884.451   -21996680.865 6 -17140260.322 6
        41.200          41.900
  24770083.633    24770082.100    24770080.085    -1218950.737 2   -949830.232 3
        15.100          18.600
 09  1 25  1 26 30.0000000  0 10G22G32G 9G 5G11G12G31G18G14G19
  20990380.253    20990380.002    20990376.830   -21941543.300 6 -17097295.986 6
        41.100          41.900
  24149350.691    24149349.776    24149350.813    -4842142.040 3  -3773095.755 3
        20.500          21.100
  22729987.693    22729987.266    22729986.214   -11289878.803 4  -8797300.715 4
        27.900          25.900
  24295166.384    24295165.274    24295165.665    -4470344.907 2  -3483384.646 2
        15.100          16.100
  22936937.383    22936936.891    22936934.853   -10186102.071 4  -7937220.523 4
        29.500          25.900
  24467644.582    24467644.556    24467643.396    -4129331.927 2  -3217660.953 3
        16.100          19.900
  23882458.766    23882459.080    23882458.318    -6212008.388 3  -4840524.359 4
        23.400          24.900
  23290102.760    23290102.453    23290100.652   -11063658.178 3  -8621023.453 3
        23.000          21.100
  20417316.371    20417315.848    20417314.885   -24130630.526 6 -18803082.946 7
        38.900          45.500
  24786572.724    24786570.613    24786571.832    -1132294.595 2   -882305.971 3
        12.600          20.500
 09  1 25  1 27  0.0000000  0 10G22G32G 9G 5G11G12G31G18G14G19
  21000944.418    21000944.166    21000940.993   -21886027.814 6 -17054037.168 6
        41.100          41.800
  24131605.778    24131604.995    24131605.990    -4935390.388 3  -3845756.775 3
        20.500          19.900
  22747334.821    22747334.225    22747333.866   -11198718.056 4  -8726266.369 4
        27.400          26.200
  24279911.662    24279910.930    24279910.419    -4550513.984 2  -3545854.039 2
        17.800          17.000
  22928266.903    22928266.508    22928264.610   -10231664.954 4  -7972724.065 4
        29.500          25.900
  24454812.739    24454812.600    24454810.461    -4196766.660 3  -3270207.481 3
        18.600          20.500
  23861087.421    23861088.226    23861086.956    -6324313.076 3  -4928034.492 4
        23.000          24.600
  23308201.855    23308201.413    23308199.487   -10968547.953 3  -8546911.625 3
        22.600          21.100
  20414187.817    20414187.296    20414185.135   -24147071.033 6 -18815893.729 7
        38.900          45.600
  24803101.898    24803101.209    24803099.270    -1045435.068 1   -814623.191 3
        11.000          20.500
 09  1 25  1 27 30.0000000  0 10G22G32G 9G 5G11G12G31G18G14G19
  21011579.895    21011579.624    21011576.484   -21830138.269 6 -17010486.874 6
        41.100          41.600
  24113876.770    24113876.091    24113876.644    -5028555.646 3  -3918353.063 3
        21.100          19.300
  22764770.244    22764769.964    22764769.718   -11107093.315 4  -8654870.473 4
        26.800          26.500
  24264720.223    24264719.766    24264719.397    -4630340.143 2  -3608056.231 2
        17.800          17.000
  22919696.499    22919696.141    22919694.166   -10276702.485 4  -8007818.241 4
        29.700          25.900
  24442052.565    24442051.992    24442050.516    -4263820.672 2  -3322457.345 3
        17.800          21.100
  23839744.769    23839745.122    23839743.463    -6436472.090 3  -5015431.096 4
        23.000          25.300
  23326339.210    23326338.493    23326336.607   -10873236.522 3  -8472643.010 3
        23.000          21.600
  20411144.867    20411144.390    20411143.409   -24163061.442 6 -18828353.783 7
        38.800          45.300
  24819667.659    24819666.711    24819666.652     -958377.990 1   -746786.496 2
         9.000          17.800
 09  1 25  1 28  0.0000000  0 10G22G32G 9G 5G11G12G31G18G14G19
  21022286.594    21022286.267    21022283.208   -21773873.919 6 -16966644.525 6
        40.900          41.500
  24096164.903    24096164.244    24096163.999    -5121635.034 3  -3990882.451 3
        21.600          18.600
  22782293.368    22782293.287    22782293.083   -11015006.303 4  -8583114.365 4
        25.900          26.800
  24249596.392    24249595.790    24249594.888    -4709818.883 2  -3669987.668 2
        17.800          16.100
  22911226.443    22911226.339    22911224.353   -10321211.726 5  -8042500.763 4
        30.100          26.500
  24429365.492    24429365.513    24429364.528    -4330489.817 2  -3374407.311 3
        17.800          22.600
  23818430.332    23818430.720    23818429.035    -6548481.295 4  -5102710.968 4
        24.200          25.300
  23344514.474    23344513.910    23344512.057   -10777723.242 3  -8398217.106 3
        22.600          21.100
  20408187.966    20408187.399    20408185.266   -24178600.607 6 -18840462.222 7
        38.800          45.500
  24836272.567    24836271.694    24836269.776     -871125.087 1   -678797.252 3
         9.000          18.600
 09  1 25  1 28 30.0000000  0 10G22G32G 9G 5G11G12G31G18G14G19
  21033064.748    21033064.410    21033061.252   -21717234.624 6 -16922510.012 6
        40.800          41.300
  24078468.709    24078467.874    24078468.722    -5214626.861 3  -4063343.589 3
        21.100          20.500
  22799904.947    22799904.337    22799904.002   -10922459.335 4  -8510999.858 4
        26.500          26.200
  24234539.722    24234538.246    24234537.618    -4788946.277 3  -3731645.366 2
        19.300          17.000
  22902857.484    22902857.312    22902855.857   -10365190.518 4  -8076769.951 4
        29.700          27.100
  24416753.354    24416753.620    24416751.571    -4396770.770 3  -3426054.763 3
        19.300          22.600
  23797144.926    23797144.773    23797143.439    -6660337.623 4  -5189871.728 4
        24.600          25.300
  23362728.379    23362727.719    23362726.383   -10682008.743 3  -8323634.400 3
        22.600          21.100
  20405317.008    20405316.400    20405315.390   -24193688.026 6 -18852218.647 7
        38.700          45.500
  24852913.081    24852911.557    24852910.489     -783678.720 2   -610657.277 3
        12.600          19.300
 09  1 25  1 29  0.0000000  0 10G22G32G 9G 5G11G12G31G18G14G19
  21043913.438    21043913.125    21043909.999   -21660224.549 6 -16878086.576 6
        40.800          41.300
  24060789.739    24060789.172    24060789.456    -5307533.137 3  -4135738.062 3
        21.100          20.500
  22817602.460    22817602.085    22817601.451   -10829458.673 4  -8438531.808 4
        26.800          25.900
  24219547.679    24219546.969    24219547.720    -4867722.444 2  -3793029.371 2
        16.100          17.800
  22894589.649    22894589.245    22894587.528   -10408640.779 4  -8110627.289 4
        29.700          27.400
  24404214.426    24404214.039    24404212.070    -4462663.990 3  -3477400.120 3
        19.900          22.600
  23775887.848    23775887.924    23775886.772    -6772041.733 3  -5276913.875 4
        23.400          25.600
  23380979.845    23380979.190    23380977.954   -10586097.420 3  -8248898.326 3
        22.100          21.100
  20402531.163    20402530.618    20402528.391   -24208327.007 6 -18863625.641 7
        38.600          45.200
  24869588.650    24869586.800    24869586.582     -696044.838 2   -542371.141 2
        17.000          17.000
 09  1 25  1 29 30.0000000  0 10G22G32G 9G 5G11G12G31G18G14G19
  21054832.819    21054832.523    21054829.427   -21602842.932 6 -16833373.630 6
        40.900          41.400
  24043127.229    24043126.317    24043126.702    -5400351.291 3  -4208063.853 3
        19.900          19.900
  22835385.850    22835385.491    22835384.868   -10736006.381 4  -8365711.842 4
        26.800          25.900
  24204624.739    24204624.140    24204624.294    -4946143.037 2  -3854136.290 3
        15.100          18.600
  22886422.051    22886421.700    22886420.543   -10451559.634 4  -8144070.550 4
        29.200          27.600
  24391749.409    24391749.482    24391747.407    -4528165.393 3  -3528440.169 3
        19.900          21.600
  23754660.684    23754660.708    23754659.764    -6883589.754 3  -5363834.369 4
        22.600          25.600
  23399268.314    23399267.906    23399266.475   -10489989.267 3  -8174008.888 3
        22.600          21.100
  20399831.019    20399830.490    20399829.578   -24222516.396 6 -18874682.303 7
        38.600          45.200
  24886301.564    24886299.743    24886297.201     -608225.024 3   -473940.109 2
        19.900          15.100
 09  1 25  1 30  0.0000000  0 10G22G32G 9G 5G11G12G31G18G14G19
  21065824.872    21065824.595    21065821.633   -21545078.695 6 -16788362.537 6
        40.600          41.300
  24025483.106    24025482.598    24025483.341    -5493068.338 3  -4280310.864 3
        19.900          20.500
  22853256.685    22853256.257    22853255.840   -10642093.695 4  -8292533.134 4
        25.600          25.300
  24189772.711    24189771.698    24189771.534    -5024192.994 2  -3914954.406 3
        16.100          18.600
  22878358.763    22878358.349    22878356.650   -10493933.985 4  -8177089.511 4
        29.700          27.400
  24379362.611    24379361.805    24379359.946    -4593260.382 3  -3579163.515 3
        18.600          21.100
  23733467.079    23733467.149    23733465.302    -6994967.278 4  -5450622.016 4
        24.200          25.600
  23417596.546    23417595.932    23417594.747   -10393673.395 3  -8098957.571 3
        22.100          19.900
  20397218.560    20397218.028    20397215.740   -24236244.590 6 -18885379.596 7
        38.500          45.100
  24903049.468    24903047.835    24903046.408     -520210.900 3   -405357.645 2
        21.600          13.900
 09  1 25  1 30 30.0000000  0 10G22G32G 9G 5G11G12G31G18G14G19
  21076885.651    21076885.272    21076882.243   -21486954.618 6 -16743071.053 6
        40.600          41.200
  24007854.496    24007854.055    24007855.188    -5585705.273 3  -4352495.454 3
        18.600          20.500
  22871210.819    22871210.423    22871209.554   -10547746.071 4  -8219015.517 4
        25.900          24.900
  24174987.420    24174986.626    24174985.595    -5101891.381 2  -3975498.587 2
        17.800          17.000
  22870394.953    22870394.490    22870392.674   -10535784.627 4  -8209700.410 4
        29.900          26.800
  24367049.603    24367049.427    24367046.723    -4657968.391 3  -3629585.367 3
        21.600          21.600
  23712301.770    23712301.628    23712299.700    -7106193.796 4  -5537292.012 4
        25.300          25.600
  23435960.254    23435959.674    23435957.935   -10297173.337 3  -8023762.743 3
        21.100          19.300
  20394689.608    20394689.136    20394688.212   -24249533.878 6 -18895734.878 7
        38.500          44.900
  24919829.997    24919828.588    24919827.811     -432027.017 3   -336643.000 1
        22.100          11.000
 09  1 25  1 31  0.0000000  0 10G22G32G 9G 5G11G12G31G18G14G19
  21088016.783    21088016.506    21088013.531   -21428459.766 6 -16697490.653 6
        40.700          41.200
  23990244.332    23990243.678    23990244.231    -5678248.965 3  -4424607.372 3
        19.900          20.500
  22889248.612    22889248.582    22889247.476   -10452954.750 4  -8145152.156 4
        25.300          24.600
  24160271.189    24160270.642    24160270.095    -5179223.238 3  -4035757.182 2
        18.600          17.800
  22862533.035    22862532.815    22862530.964   -10577098.083 4  -8241892.715 4
        29.700          26.800
  24354811.101    24354811.272    24354809.933    -4722275.077 3  -3679694.458 3
        20.500          21.600
  23691167.043    23691167.176    23691165.525    -7217254.857 4  -5623833.073 4
        24.900          25.600
  23454360.567    23454359.946    23454358.900   -10200478.308 3  -7948415.997 3
        19.900          20.500
  20392246.591    20392246.084    20392243.745   -24262372.501 6 -18905738.999 7
        38.400          45.000
  24936645.408    24936643.880    24936642.435     -343664.445 3   -267789.109 1
        22.600           9.000
 09  1 25  1 31 30.0000000  0 10G22G32G 9G 5G11G12G31G18G14G19
  21099218.514    21099218.201    21099215.025   -21369594.652 6 -16651621.734 6
        40.600          40.900
  23972652.367    23972651.494    23972651.509    -5770698.117 3  -4496645.660 3
        19.900          19.900
  22907370.397    22907369.919    22907369.642   -10357722.894 4  -8070945.529 4
        25.600          24.600
  24145626.016    24145625.172    24145626.133    -5256185.404 3  -4095727.686 3
        19.300          20.500
  22854773.894    22854773.676    22854771.650   -10617873.066 4  -8273665.415 4
        29.700          27.100
  24342650.731    24342651.079    24342649.047    -4786177.508 3  -3729488.558 3
        19.300          20.500
  23670064.947    23670065.240    23670063.334    -7328147.824 4  -5710243.162 4
        25.900          25.900
  23472797.654    23472797.024    23472796.011   -10103589.417 3  -7872918.200 3
        20.500          21.100
  20389889.184    20389888.616    20389887.699   -24274760.497 6 -18915391.977 7
        38.400          44.700
  24953493.815    24953492.592    24953490.921     -255126.248 3   -198798.316 1
        22.100          11.000
 09  1 25  1 32  0.0000000  0 10G22G32G 9G 5G11G12G31G18G14G19
  21110489.966    21110489.669    21110486.460   -21310362.952 6 -16605467.164 6
        40.700          40.900
  23955077.366    23955076.642    23955076.827    -5863054.439 3  -4568611.604 3
        19.900          21.100
  22925575.081    22925575.144    22925574.790   -10262056.617 4  -7996400.371 4
        26.800          25.300
  24131050.728    24131050.359    24131049.736    -5332777.652 3  -4155409.921 3
        19.900          18.600
  22847116.936    22847116.457    22847114.584   -10658111.158 4  -8305019.773 4
        29.700          26.200
  24330568.186    24330568.174    24330565.220    -4849675.868 3  -3778967.780 3
        21.600          19.300
  23648994.722    23648994.783    23648993.030    -7438873.080 4  -5796522.567 4
        25.600          25.900
  23491271.387    23491270.610    23491269.560   -10006510.679 3  -7797272.476 3
        19.900          20.500
  20387617.087    20387616.500    20387614.147   -24286701.079 6 -18924696.323 7
        38.500          45.100
  24970372.881    24970371.623    24970371.906     -166418.261 3   -129675.162 2
        18.600          12.600
 09  1 25  1 32 30.0000000  0 10G22G32G 9G 5G11G12G31G18G14G19
  21121831.758    21121831.453    21121828.226   -21250761.391 6 -16559024.391 6
        40.600          40.800
  23937520.384    23937519.854    23937520.488    -5955312.850 3  -4640501.250 3
        20.500          22.100
  22943862.986    22943862.557    22943862.358   -10165955.106 4  -7921516.075 4
        25.900          25.300
  24116547.308    24116546.711    24116545.403    -5408992.919 3  -4214798.449 2
        18.600          17.000
  22839562.940    22839562.635    22839560.494   -10697807.086 4  -8335951.665 4
        29.500          26.200
  24318563.258    24318563.088    24318561.585    -4912763.599 3  -3828127.037 3
        21.600          22.600
  23627957.522    23627957.568    23627955.815    -7549424.164 4  -5882666.241 4
        25.300          26.500
  23509782.305    23509781.481    23509779.539    -9909239.368 3  -7721476.694 3
        21.100          19.900
  20385430.722    20385430.178    20385429.205   -24298190.455 6 -18933649.078 7
        38.500          45.100
  24987287.433    24987286.011    24987284.317      -77539.648 2    -60419.081 2
        17.000          15.100
 09  1 25  1 33  0.0000000  0 10G22G32G 9G 5G11G12G31G18G14G19
  21133243.546    21133243.336    21133240.213   -21190790.684 6 -16512293.974 6
        40.400          40.600
  23919983.750    23919982.594    23919983.306    -6047471.848 3  -4712313.441 3
        19.900          22.100
  22962232.613    22962232.509    22962231.979   -10069421.114 4  -7846294.792 4
        25.300          25.300
  24102116.812    24102115.857    24102115.165    -5484827.967 3  -4273890.690 2
        19.300          17.000
  22832112.113    22832111.925    22832110.273   -10736959.381 4  -8366459.944 4
        29.000          26.500
  24306635.416    24306635.508    24306634.557    -4975437.564 3  -3876963.868 3
        20.500          22.100
  23606953.762    23606953.993    23606952.663    -7659798.086 4  -5968671.880 4
        25.600          27.400
  23528328.514    23528328.061    23528326.182    -9811776.522 3  -7645531.637 3
        21.600          19.300
  20383330.205    20383329.695    20383327.235   -24309228.632 6 -18942250.254 7
        38.600          45.100
  25004231.487    25004230.428    25004229.651       11507.173 2      8968.025 2
        17.000          17.800
 09  1 25  1 33 30.0000000  0 10G22G32G 9G 5G11G12G31G18G14G19
  21144723.798    21144723.621    21144720.424   -21130461.856 6 -16465284.502 6
        40.500          40.500
  23902463.473    23902462.693    23902463.310    -6139540.541 3  -4784055.260 3
        20.500          22.600
  22980682.883    22980682.095    22980681.682    -9972468.303 4  -7770747.157 4
        25.300          24.900
  24087756.577    24087755.556    24087755.669    -5560290.069 2  -4332692.320 3
        17.000          18.600
  22824763.552    22824763.241    22824761.564   -10775576.962 4  -8396551.556 4
        28.600          26.500
  24294787.253    24294786.609    24294785.000    -5037705.879 3  -3925484.620 3
        20.500          22.100
  23585982.425    23585982.703    23585981.093    -7770002.706 4  -6054545.583 4
        25.300          27.100
  23546908.288    23546908.137    23546906.914    -9714133.929 3  -7569446.529 3
        19.300          19.300
  20381313.632    20381313.127    20381312.061   -24319825.941 6 -18950507.892 7
        38.600          45.100
  25021207.176    25021205.621    25021202.953      100708.745 2     78475.749 2
        15.100          17.800
 09  1 25  1 34  0.0000000  0 10G22G32G 9G 5G11G12G31G18G14G19
  21156274.448    21156274.168    21156271.066   -21069763.487 6 -16417987.075 6
        40.500          40.500
  23884963.310    23884962.651    23884962.962    -6231505.528 3  -4855716.271 3
        21.100          23.000
  22999213.111    22999212.688    22999212.130    -9875087.565 4  -7694866.073 4
        24.900          24.600
  24073470.420    24073469.465    24073469.980    -5635363.946 2  -4391191.424 3
        17.000          19.300
  22817518.704    22817518.717    22817517.230   -10813646.422 4  -8426216.063 4
        28.600          26.500
  24283018.122    24283018.207    24283015.532    -5099553.476 3  -3973677.569 3
        22.100          22.100
  23565046.387    23565046.637    23565044.504    -7880023.214 4  -6140275.830 4
        25.600          26.800
  23565525.549    23565525.046    23565524.083    -9616300.410 3  -7493212.653 3
        19.300          19.300
  20379383.027    20379382.480    20379380.094   -24329970.648 6 -18958412.857 7
        38.400          44.800
  25038211.870    25038210.534    25038209.099      190074.367 2    148111.252 3
        15.100          18.600
 09  1 25  1 34 30.0000000  0 10G22G32G 9G 5G11G12G31G18G14G19
  21167896.962    21167896.695    21167893.608   -21008686.424 6 -16370394.561 6
        40.500          40.300
  23867485.526    23867484.662    23867484.506    -6323355.465 3  -4927287.625 3
        21.100          23.000
  23017826.347    23017826.169    23017825.562    -9777272.212 4  -7618646.316 3
        24.600          23.800
  24059260.990    24059259.996    24059259.999    -5710036.459 2  -4449377.768 3
        17.800          18.600
  22810381.304    22810381.070    22810379.104   -10851156.652 4  -8455444.811 4
        29.500          26.800
  24271331.320    24271331.912    24271329.075    -5160967.575 3  -4021532.725 3
        20.500          22.600
  23544147.893    23544147.691    23544146.059    -7989846.800 4  -6225852.629 4
        25.600          26.800
  23584181.438    23584180.591    23584178.917    -9518267.193 3  -7416823.156 3
        19.300          18.600
  20377540.591    20377540.065    20377539.002   -24339652.914 6 -18965957.475 7
        38.400          44.800
  25055250.456    25055248.119    25055248.010      279610.994 2    217880.092 3
        13.900          19.900
 09  1 25  1 35  0.0000000  0 11G22G32G 9G 5G11G12G31G30G18G14G19
  21179587.661    21179587.429    21179584.232   -20947251.587 6 -16322523.261 6
        40.500          40.200
  23850024.430    23850023.612    23850024.409    -6415109.363 3  -4998784.143 3
        21.100          23.000
  23036518.101    23036517.895    23036517.870    -9679045.447 3  -7542105.985 4
        23.800          24.200
  24045124.331    24045123.670    24045123.593    -5784324.845 3  -4507264.773 3
        18.600          18.600
  22803346.320    22803345.987    22803344.119   -10888126.480 4  -8484252.474 4
        29.900          26.800
  24259722.700    24259722.587    24259721.678    -5221966.034 3  -4069063.954 3
        19.300          23.000
  23523282.593    23523282.774    23523281.356    -8099491.614 4  -6311290.128 4
        25.300          26.800
  24924152.191    24924153.061    24924152.731           -.26111         -.35211
         9.000           6.500
  23602871.081    23602870.028    23602868.203    -9420055.486 3  -7340294.558 3
        19.300          18.600
  20375782.289    20375781.801    20375779.257   -24348893.257 6 -18973157.741 7
        38.400          45.100
  25072317.629    25072316.129    25072313.345      369295.556 2    287764.114 3
        16.100          19.900
 09  1 25  1 35 30.0000000  0 11G22G32G 9G 5G11G12G31G30G18G14G19
  21191345.821    21191345.524    21191342.423   -20885462.147 6 -16274375.647 6
        40.400          40.100
  23832582.354    23832581.286    23832582.011    -6506768.222 3  -5070206.587 3
        22.100          23.000
  23055288.426    23055287.917    23055286.649    -9580412.853 4  -7465249.434 3
        24.200          23.800
  24031060.739    24031059.878    24031060.028    -5858228.108 2  -4564851.739 3
        17.000          18.600
  22796413.966    22796413.481    22796411.846   -10924556.837 4  -8512639.751 4
        29.700          27.400
  24248195.089    24248194.716    24248193.408    -5282548.527 3  -4116271.061 3
        20.500          23.000
  23502451.883    23502451.935    23502450.705    -8208957.052 4  -6396587.855 4
        24.900          27.100
  24904884.523    24904883.135    24904882.777     -101259.671 1    -78903.778
         6.500           3.000
  23621592.796    23621591.898    23621590.742    -9321668.624 2  -7263629.494 3
        17.800          19.300
  20374107.512    20374107.008    20374105.964   -24357694.011 6 -18980015.467 7
        38.400          44.900
  25089411.119    25089409.270    25089408.687      459123.001 2    357759.490 3
        13.900          21.100
 09  1 25  1 36  0.0000000  0 11G22G32G 9G 5G11G12G31G30G18G14G19
  21203172.015    21203171.671    21203168.555   -20823315.454 6 -16225949.652 6
        40.200          40.000
  23815159.521    23815158.747    23815158.545    -6598327.649 3  -5141551.574 3
        23.400          23.000
  23074134.767    23074134.129    23074133.137    -9481374.657 4  -7388076.812 4
        24.900          24.200
  24017071.770    24017070.920    24017070.978    -5931740.340 2  -4622133.986 3
        17.000          19.300
  22789584.679    22789584.454    22789582.602   -10960443.653 4  -8540603.504 4
        29.700          27.100
  24236747.408    24236747.376    24236743.759    -5342709.261 3  -4163149.560 3
        22.600          21.600
  23481656.958    23481656.717    23481655.444    -8318237.603 4  -6481741.507 4
        26.200          27.400
  24885636.653    24885636.738    24885637.857     -202403.163     -157716.989 1
         3.000           6.500
  23640347.925    23640347.681    23640346.860    -9223105.025 2  -7186826.738 3
        17.000          19.900
  20372517.011    20372516.524    20372514.028   -24366052.323 6 -18986528.437 7
        38.400          45.100
  25106531.055    25106529.154    25106529.189      549093.357 1    427866.256 3
        11.000          19.300
 09  1 25  1 36 30.0000000  0 11G22G32G 9G 5G11G12G31G30G18G14G19
  21215068.094    21215067.729    21215064.752   -20760800.913 6 -16177237.028 6
        40.200          40.100
  23797757.366    23797756.692    23797756.689    -6689774.729 3  -5212809.023 3
        23.800          23.000
  23093059.467    23093059.337    23093058.278    -9381922.074 4  -7310581.300 3
        25.300          23.800
  24003160.712    24003160.060    24003159.378    -6004846.780 2  -4679100.033 3
        17.800          19.900
  22782861.204    22782860.993    22782859.350   -10995773.991 4  -8568133.633 4
        29.900          26.500
  24225382.121    24225381.835    24225379.830    -5402433.836 3  -4209688.178 3
        21.600          22.100
  23460899.228    23460899.094    23460898.064    -8427318.724 4  -6566739.771 4
        26.200          27.900
  24866413.418    24866414.421    24866413.655     -303416.197     -236428.306 1
                         9.000
  23659140.000    23659139.898    23659138.456    -9124354.191 3  -7109878.094 3
        18.600          19.900
  20371012.790    20371012.267    20371011.111   -24373956.792 6 -18992687.761 7
        38.400          44.700
  25123680.861    25123679.576    25123677.059      639215.345 1    498091.180 2
        11.000          15.100
 09  1 25  1 37  0.0000000  0 11G22G32G 9G 5G11G12G31G30G18G14G19
  21227033.049    21227032.784    21227029.688   -20697924.471 6 -16128242.404 6
        40.200          39.900
  23780376.043    23780375.574    23780375.682    -6781113.352 3  -5283981.968 3
        23.400          23.000
  23112062.203    23112061.812    23112060.603    -9282063.653 4  -7232769.560 3
        24.900          23.400
  23989324.379    23989324.031    23989324.621    -6077549.534 2  -4735751.518 3
        17.000          20.500
  22776243.502    22776243.271    22776241.312   -11030551.846 5  -8595233.263 4
        30.400          26.500
  24214099.178    24214098.813    24214097.226    -5461724.983 3  -4255889.065 3
        21.100          22.600
  23440179.404    23440179.156    23440177.824    -8536203.276 4  -6651584.850 4
        26.800          27.600
  24847217.397    24847217.514    24847217.292     -404300.186 1   -315039.146 1
         9.000           9.000
  23677967.695    23677966.562    23677964.710    -9025422.432 3  -7032788.445 3
        20.500          19.900
  20369593.982    20369593.403    20369591.019   -24381413.214 6 -18998497.959 7
        38.400          45.100
  25140859.459    25140857.869    25140855.227      729481.010 1    568428.058 2
        11.000          13.900
 09  1 25  1 37 30.0000000  0 11G22G32G 9G 5G11G12G31G30G18G14G19
  21239066.260    21239065.842    21239062.702   -20634690.186 6 -16078968.943 6
        39.900          39.700
  23763015.041    23763014.336    23763014.898    -6872345.662 3  -5355072.052 3
        23.000          23.400
  23131140.700    23131140.204    23131138.936    -9181805.988 4  -7154646.723 3
        24.200          23.000
  23975567.010    23975566.207    23975566.691    -6149849.001 3  -4792088.748 3
        18.600          21.100
  22769730.274    22769729.961    22769727.979   -11064779.408 5  -8621904.093 4
        30.600          26.800
  24202898.394    24202898.208    24202896.812    -5520583.503 3  -4301752.814 3
        19.900          23.400
  23419496.024    23419496.372    23419494.755    -8644891.808 4  -6736277.205 4
        26.500          27.400
  24828045.817    24828045.275    24828043.782     -505055.320 2   -393549.648 1
        13.900          11.000
  23696826.931    23696826.053    23696824.489    -8926314.189 3  -6955561.271 3
        21.100          18.600
  20368259.692    20368259.212    20368258.146   -24388424.736 6 -19003961.476 7
        38.400          45.100
  25158060.678    25158057.916    25158057.512      819884.015 1    638871.922 2
         6.500          12.600
 09  1 25  1 38  0.0000000  0 11G22G32G 9G 5G11G12G31G30G18G14G19
  21251168.022    21251167.677    21251164.639   -20571094.578 6 -16029413.929 6
        40.000          39.700
  23745675.516    23745674.950    23745675.372    -6963465.999 3  -5426074.881 4
        23.800          24.200
  23150294.420    23150294.414    23150294.028    -9081147.851 3  -7076211.817 3
        23.800          23.400
  23961887.602    23961886.648    23961886.515    -6221737.800 2  -4848105.989 3
        17.800          21.600
  22763322.948    22763322.643    22763320.392   -11098451.195 5  -8648141.833 4
        31.500          26.500
  24191782.063    24191781.162    24191779.313    -5579002.535 3  -4347274.138 3
        18.600          22.600
  23398852.240    23398852.272    23398850.674    -8753377.535 4  -6820811.529 4
        26.800          27.600
  24808895.650    24808896.750    24808897.242     -605674.072 2   -471953.829 2
        12.600          12.600
  23715720.351    23715719.514    23715718.460    -8827026.479 3  -6878194.251 3
        19.900          18.600
  20367010.816    20367010.251    20367007.785   -24394987.418 6 -19009075.253 7
        38.400          44.900
  25175287.298    25175289.306    25175288.664      910425.715      709423.894 1
                        11.000
 09  1 25  1 38 30.0000000  0 11G22G32G 9G 5G11G12G31G30G18G14G19
  21263337.448    21263337.133    21263334.017   -20507143.747 6 -15979582.115 6
        39.800          39.500
  23728356.583    23728355.740    23728355.843    -7054478.550 3  -5496993.731 3
        23.800          23.800
  23169524.556    23169524.110    23169523.942    -8980097.914 4  -6997471.607 3
        24.200          23.800
  23948285.150    23948284.064    23948284.039    -6293218.400 3  -4903805.132 3
        18.600          21.600
  22757020.476    22757020.077    22757017.796   -11131571.625 5  -8673949.966 4
        31.800          26.500
  24180748.808    24180749.139    24180746.447    -5636985.225 3  -4392455.457 3
        22.100          23.800
  23378246.090    23378246.161    23378244.714    -8861663.436 4  -6905190.126 4
        26.800          28.100
  24789775.913    24789775.639    24789773.718     -706158.527 2   -550253.408 2
        13.900          12.600
  23734646.297    23734646.405    23734645.280    -8727566.001 3  -6800692.618 2
        18.600          17.800
  20365846.197    20365845.704    20365844.602   -24401107.212 6 -19013843.920 7
        38.400          44.800
  25192546.487    25192544.366    25192542.740     1001097.820 1    780077.466 2
         9.000          13.900
 09  1 25  1 39  0.0000000  0 11G22G32G 9G 5G11G12G31G30G18G14G19
  21275575.875    21275575.485    21275572.470   -20442830.579 6 -15929467.965 6
        39.700          39.600
  23711059.503    23711058.835    23711059.062    -7145373.717 3  -5567821.109 3
        23.400          23.800
  23188828.696    23188828.408    23188828.331    -8878650.907 3  -6918421.995 3
        23.800          23.400
  23934762.616    23934762.105    23934761.643    -6364279.468 3  -4959177.386 3
        19.300          21.100
  22750824.495    22750824.262    22750821.953   -11164131.384 5  -8699321.207 4
        32.000          26.800
  24169799.224    24169799.014    24169797.374    -5694520.209 3  -4437287.910 3
        20.500          23.400
  23357679.875    23357680.028    23357678.913    -8969738.545 4  -6989404.465 4
        27.100          28.800
  24770682.921    24770682.848    24770680.983     -806497.009 2   -628439.219 2
        15.100          15.100
  23753607.688    23753607.016    23753605.314    -8627925.786 3  -6723050.913 2
        18.600          16.100
  20364767.584    20364767.067    20364764.505   -24406775.925 6 -19018261.100 7
        38.500          44.900
  25209826.613    25209824.783    25209820.616     1091905.359 2    850836.584 2
        12.600          12.600
 09  1 25  1 39 30.0000000  0 11G22G32G 9G 5G11G12G31G30G18G14G19
  21287881.885    21287881.567    21287878.337   -20378162.365 6 -15879077.155 6
        39.800          39.400
  23693783.964    23693783.430    23693783.833    -7236156.728 3  -5638561.104 3
        23.000          23.400
  23208207.715    23208207.284    23208206.516    -8776816.621 4  -6839070.616 3
        24.600          23.000
  23921319.086    23921317.919    23921318.723    -6434924.792 3  -5014225.698 3
        18.600          21.100
  22744734.340    22744734.045    22744731.834   -11196135.954 5  -8724259.833 4
        32.100          26.800
  24158934.804    24158934.948    24158933.134    -5751611.893 3  -4481774.912 3
        21.100          23.000
  23337153.445    23337153.394    23337152.001    -9077607.007 4  -7073457.784 4
        27.400          28.800
  24751613.588    24751614.264    24751615.420     -906692.940 1   -706513.915 2
        11.000          17.800
  23772602.139    23772601.436    23772598.981    -8528113.433 2  -6645275.070 2
        17.800          16.100
  20363773.353    20363772.812    20363771.649   -24412000.582 6 -19022332.257 7
        38.400          44.900
  25227129.230    25227127.563    25227126.176     1182839.287 2    921694.210 2
        12.600          13.900
 09  1 25  1 40  0.0000000  0 11G22G32G 9G 5G11G12G31G30G18G14G19
  21300255.201    21300254.771    21300251.658   -20313140.715 6 -15828410.939 6
        39.800          39.400
  23676529.835    23676529.097    23676530.177    -7326827.202 3  -5709213.410 3
        22.600          23.800
  23227659.753    23227658.929    23227657.486    -8674599.258 4  -6759420.730 3
        24.200          22.600
  23907956.013    23907954.901    23907954.259    -6505152.051 3  -5068948.239 3
        20.500          20.500
  22738749.595    22738749.323    22738747.205   -11227585.016 5  -8748765.602 4
        31.800          26.800
  24148155.337    24148155.591    24148153.719    -5808258.653 3  -4525915.222 3
        21.600          23.000
  23316666.455    23316666.658    23316664.679    -9185266.811 4  -7157348.521 4
        27.600          28.100
  24732576.389    24732575.661    24732576.650    -1006743.573 1   -784475.403 3
         6.500          19.300
  23791627.951    23791627.382    23791625.192    -8428131.109 2  -6567366.787 2
        17.800          17.800
  20362863.455    20362862.991    20362860.305   -24416781.893 6 -19026057.953 7
        38.400          44.800
  25244457.281    25244455.300    25244454.981     1273895.758 2    992647.316 2
        13.900          15.100
 09  1 25  1 40 30.0000000  0 11G22G32G 9G 5G11G12G31G30G18G14G19
  21312695.654    21312695.428    21312692.284   -20247764.120 6 -15777468.142 6
        39.700          39.300
  23659297.278    23659296.817    23659297.859    -7417381.420 3  -5779775.103 3
        22.100          23.800
  23247183.378    23247182.596    23247181.555    -8571999.876 4  -6679473.166 3
        24.200          22.100
  23894673.021    23894672.068    23894670.998    -6574956.025 3  -5123340.926 3
        21.600          21.600
  22732871.211    22732870.846    22732868.986   -11258475.259 5  -8772835.912 4
        31.500          26.800
  24137462.304    24137461.903    24137459.025    -5864455.491 3  -4569704.970 3
        21.100          23.000
  23296219.924    23296220.216    23296218.014    -9292713.218 4  -7241072.969 4
        28.100          28.100
  24713566.471    24713565.845    24713565.531    -1106643.534 1   -862319.487 3
         9.000          18.600
  23810686.251    23810685.399    23810684.797    -8327977.349 2  -6489324.918 2
        17.000          17.800
  20362038.241    20362037.704    20362036.552   -24421118.680 6 -19029437.261 7
        38.400          44.900
  25261807.298    25261806.073    25261804.174     1365074.054 2   1063695.311 2
        13.900          15.100
 09  1 25  1 41  0.0000000  0 11G22G32G 9G 5G11G12G31G30G18G14G19
  21325204.721    21325204.342    21325201.276   -20182029.488 6 -15726246.356 6
        39.600          39.300
  23642089.410    23642088.748    23642088.944    -7507813.932 3  -5850241.971 3
        23.800          23.800
  23266779.346    23266779.023    23266777.983    -8469017.276 3  -6599226.997 3
        23.000          21.600
  23881470.323    23881469.472    23881470.558    -6644329.636 3  -5177398.263 3
        19.900          21.600
  22727100.299    22727100.086    22727097.852   -11288801.719 5  -8796466.922 4
        31.800          26.800
  24126853.590    24126854.069    24126852.881    -5920196.157 3  -4613139.272 3
        20.500          23.400
  23275815.027    23275815.469    23275813.481    -9399939.558 4  -7324625.948 4
        27.400          28.400
  24694585.263    24694585.974    24694584.828    -1206385.373 1   -940040.351 2
         9.000          17.000
  23829778.064    23829776.747    23829776.309    -8227649.460 2  -6411147.396 2
        16.100          17.800
  20361298.355    20361297.778    20361295.291   -24425006.688 6 -19032466.875 7
        38.400          45.000
  25279181.334    25279181.652    25279178.735     1456375.467 1   1134839.272 2
         9.000          13.900
 09  1 25  1 41 30.0000000  0 11G22G32G 9G 5G11G12G31G30G18G14G19
  21337782.445    21337782.057    21337778.849   -20115933.654 6 -15674743.114 6
        39.700          39.100
  23624905.193    23624904.303    23624903.922    -7598119.526 4  -5920609.952 3
        24.900          23.400
  23286449.737    23286449.567    23286448.274    -8365650.908 3  -6518681.777 3
        23.000          21.600
  23868353.253    23868352.737    23868351.735    -6713265.911 3  -5231114.828 3
        20.500          20.500
  22721437.615    22721437.350    22721435.390   -11318559.349 5  -8819654.687 4
        31.300          27.400
  24116335.823    24116335.751    24116333.854    -5975474.091 3  -4656212.952 3
        22.100          23.000
  23255453.728    23255453.794    23255452.290    -9506939.474 4  -7408002.479 4
        27.400          28.800
  24675636.170    24675635.654    24675635.812    -1305961.929    -1017632.473 2
                        15.100
  23848904.045    23848903.479    23848901.254    -8127145.148 3  -6332832.376 2
        18.600          17.000
  20360644.590    20360644.105    20360642.974   -24428442.113 6 -19035143.826 7
        38.400          44.900
  25296579.287    25296577.587    25296576.054     1547801.294 1   1206080.078 2
         6.500          15.100
 09  1 25  1 42  0.0000000  0 12G22G32G 9G 5G11G12G31G30G18G17G14G19
  21350427.699    21350427.380    21350424.139   -20049482.243 6 -15622962.795 6
        39.700          39.100
  23607743.357    23607743.041    23607742.870    -7688301.808 4  -5990881.846 4
        25.600          24.200
  23306191.283    23306190.819    23306190.187    -8261908.564 3  -6437843.597 3
        23.000          21.600
  23855317.276    23855315.773    23855316.019    -6781766.932 3  -5284492.251 3
        18.600          19.900
  22715882.460    22715882.316    22715880.127   -11347752.166 5  -8842402.329 4
        31.800          27.600
  24105905.130    24105904.486    24105901.577    -6030291.484 3  -4698927.806 3
        22.600          22.100
  23235135.014    23235135.292    23235133.765    -9613714.893 4  -7491204.083 4
        28.100          29.200
  24656718.300    24656718.386    24656718.256    -1405374.775    -1095096.958 2
         3.000          16.100
  23868061.755    23868061.382    23868058.988    -8026470.050 3  -6254384.259 2
        18.600          17.000
  25290498.850    25290498.076    25290496.222           -.61311         -.10612
         6.500          13.900
  20360075.930    20360075.394    20360072.826   -24431430.351 6 -19037472.322 7
        38.400          44.900
  25313999.634    25313998.265    25313998.212     1639343.465     1277411.731 2
         3.000          12.600
 09  1 25  1 42 30.0000000  0 12G22G32G 9G 5G11G12G31G30G18G17G14G19
  21363136.122    21363135.884    21363132.772   -19982697.955 6 -15570923.096 6
        39.500          38.900
  23590602.415    23590601.572    23590601.289    -7778381.293 4  -6061073.638 4
        26.200          24.200
  23325999.708    23325999.551    23325998.230    -8157815.643 3  -6356732.253 3
        23.000          21.600
  23842361.476    23842360.605    23842360.615    -6849851.636 3  -5337545.240 3
        21.100          21.100
  22710430.970    22710430.605    22710428.463   -11376400.778 5  -8864725.927 4
        32.000          27.600
  24095556.775    24095556.226    24095554.663    -6084668.094 3  -4741299.183 3
        21.600          23.400
  23214855.282    23214855.823    23214854.145    -9720285.500 4  -7574246.099 4
        28.600          29.200
  24637828.714    24637829.679    24637827.602    -1504641.969 1  -1172448.001 2
         6.500          13.900
  23887246.621    23887246.437    23887244.993    -7925647.177 2  -6175821.023 2
        17.000          17.800
  25281703.981    25281703.043    25281699.507      -46232.697 1    -36024.994 2
         6.500          17.800
  20359588.102    20359587.584    20359586.449   -24433993.606 6 -19039469.659 7
        38.400          44.800
  25331437.003    25331434.706    25331430.659     1730977.141     1348814.527
                         3.000
 09  1 25  1 43  0.0000000  0 12G22G32G 9G 5G11G12G31G30G18G17G14G19
  21375912.404    21375912.084    21375908.897   -19915559.534 6 -15518607.447 6
        39.600          39.000
  23573484.927    23573483.789    23573483.830    -7868334.368 4  -6131166.928 4
        25.600          24.200
  23345878.121    23345877.605    23345877.196    -8053353.083 3  -6275332.874 3
        22.100          21.600
  23829488.958    23829488.096    23829488.067    -6917494.899 3  -5390254.253 3
        21.100          20.500
  22705086.997    22705086.621    22705085.086   -11404482.056 5  -8886607.448 4
        31.800          27.900
  24085298.097    24085297.861    24085295.708    -6138579.225 3  -4783307.834 3
        22.100          23.400
  23194620.116    23194619.912    23194618.095    -9826626.292 4  -7657109.027 4
        29.200          29.500
  24618973.189    24618971.984    24618970.382    -1603738.128    -1249665.751 2
         3.000          15.100
  23906465.553    23906464.839    23906463.280    -7824655.804 2  -6097126.473 2
        17.800          17.800
  25272998.228    25272999.134    25272998.850      -91963.722      -71659.684 2
         3.000          16.100
  20359185.302    20359184.774    20359182.203   -24436110.183 6 -19041118.940 7
        38.500          44.800
  25348890.932    25348889.502    25348897.730     1822721.799     1420303.700 1
                         9.000
 09  1 25  1 43 30.0000000  0 12G22G32G 9G 5G11G12G31G30G18G17G14G19
  21388755.442    21388755.083    21388751.934   -19848068.386 6 -15466016.947 6
        39.300          38.700
  23556391.754    23556390.639    23556390.487    -7958159.991 4  -6201160.901 4
        25.600          24.600
  23365825.888    23365825.495    23365825.795    -7948524.175 3  -6193648.018 3
        21.600          21.100
  23816701.632    23816700.720    23816699.874    -6984694.115 3  -5442617.267 3
        20.500          19.900
  22699851.603    22699851.296    22699849.392   -11431995.765 5  -8908046.703 4
        32.000          28.400
  24075127.665    24075127.622    24075125.450    -6192022.479 3  -4824951.922 3
        22.600          22.600
  23174428.080    23174428.247    23174426.167    -9932735.099 4  -7739791.200 4
        29.700          29.500
  24600145.270    24600146.412    24600146.675    -1702660.506    -1326748.108 1
                        11.000
  23925716.206    23925715.124    23925713.168    -7723497.410 2  -6018301.776 2
        17.000          17.000
  25264388.136    25264389.517    25264386.057     -137192.546     -106902.933 1
         3.000           6.500
  20358867.479    20358867.008    20358865.889   -24437780.491 6 -19042420.474 7
        38.600          44.900
  25366372.621    25366371.846    25366374.651     1914574.201 1   1491877.074 1
         9.000          11.000
 09  1 25  1 44  0.0000000  0 12G22G32G 9G 5G11G12G31G30G18G17G14G19
  21401663.301    21401662.933    21401659.874   -19780236.844 6 -15413161.200 6
        39.100          38.700
  23539320.606    23539319.847    23539319.675    -8047868.608 4  -6271063.705 4
        25.600          24.900
  23385841.580    23385840.863    23385840.817    -7843343.861 3  -6111689.358 3
        21.100          21.100
  23803996.620    23803995.820    23803995.505    -7051458.190 3  -5494641.218 3
        21.100          19.900
  22694721.402    22694721.218    22694719.595   -11458952.688 5  -8929052.097 4
        31.600          28.600
  24065044.615    24065044.432    24065042.349    -6245007.876 3  -4866239.222 3
        21.600          22.100
  23154278.586    23154278.473    23154276.580   -10038621.422 4  -7822300.005 4
        29.700          29.200
  24581354.836    24581354.391    24581354.518    -1801417.386 1  -1403701.402 2
         6.500          17.000
  23944994.282    23944993.722    23944992.413    -7622184.975 2  -5939357.046 2
        15.100          17.800
  25255879.487    25255879.400    25255879.519     -181929.052 2   -141762.394 1
        12.600          11.000
  20358632.322    20358631.734    20358629.245   -24439016.924 6 -19043383.930 7
        38.600          45.100
  25383871.698    25383870.387    25383869.355     2006519.556 1   1563522.893 1
        11.000           9.000
 09  1 25  1 44 30.0000000  0 11G22G32G 9G 5G11G12G31G30G18G17G14
  21414635.518    21414635.148    21414632.092   -19712067.916 6 -15360042.561 6
        39.300          38.800
  23522271.135    23522270.533    23522270.804    -8137460.868 4  -6340875.839 4
        24.900          24.600
  23405922.641    23405921.690    23405921.290    -7737817.599 3  -6029461.107 3
        19.900          21.100
  23791375.011    23791374.231    23791373.666    -7117786.265 3  -5546325.409 3
        22.600          19.300
  22689697.496    22689697.276    22689695.555   -11485353.740 5  -8949624.342 4
        31.500          28.800
  24055050.464    24055049.957    24055047.712    -6297534.526 3  -4907169.077 3
        22.600          23.400
  23134171.358    23134171.427    23134169.735   -10144284.374 4  -7904634.764 4
        29.500          29.700
  24562594.789    24562594.424    24562594.212    -1900007.377 2  -1480524.738 2
        13.900          16.100
  23964301.512    23964301.013    23964300.452    -7520721.708 2  -5860294.792 2
        15.100          17.000
  25247458.514    25247458.335    25247455.854     -226173.993 1   -176239.000 2
         9.000          12.600
  20358479.132    20358478.635    20358477.545   -24439821.553 6 -19044010.907 7
        38.600          45.100
 09  1 25  1 45  0.0000000  0 11G22G32G 9G 5G11G12G31G30G18G17G14
  21427673.056    21427672.705    21427669.606   -19643554.702 6 -15306655.644 6
        39.100          38.600
  23505246.697    23505245.739    23505245.940    -8226927.611 4  -6410590.159 4
        25.600          25.300
  23426070.224    23426069.589    23426068.899    -7631940.711 3  -5946959.673 3
        21.600          20.500
  23778838.173    23778837.487    23778836.479    -7183667.562 3  -5597661.513 3
        22.100          19.900
  22684781.159    22684780.921    22684778.908   -11511190.394 5  -8969756.793 4
        31.800          28.100
  24045143.519    24045143.185    24045141.198    -6349592.328 3  -4947733.586 3
        22.600          23.000
  23114108.191    23114108.891    23114107.225   -10249713.520 4  -7986787.323 5
        29.000          30.100
  24543866.566    24543866.669    24543865.042    -1998419.315 2  -1557209.365 1
        13.900          11.000
  23983639.165    23983638.692    23983638.475    -7419101.121 2  -5781109.956 2
        15.100          17.800
  25239133.668    25239133.125    25239134.497     -269917.459     -210324.808 2
         3.000          15.100
  20358409.508    20358409.015    20358406.582   -24440187.157 6 -19044295.793 7
        38.600          45.200
 09  1 25  1 45 30.0000000  0 11G22G32G 9G 5G11G12G31G30G18G17G14
  21440778.299    21440778.014    21440774.830   -19574686.520 6 -15252992.132 6
        39.100          38.500
  23488248.359    23488247.325    23488247.494    -8316255.788 4  -6480196.516 4
        26.500          25.300
  23446287.338    23446286.640    23446285.058    -7525704.280 3  -5864178.079 3
        21.100          21.100
  23766388.414    23766387.579    23766387.975    -7249087.671 3  -5648638.195 3
        21.100          21.100
  22679974.716    22679974.333    22679972.001   -11536450.288 5  -8989439.828 4
        32.300          27.900
  24035328.426    24035328.673    24035326.604    -6401167.285 3  -4987921.846 3
        23.000          22.600
  23094093.103    23094093.322    23094091.832   -10354894.743 4  -8068746.708 5
        28.800          30.100
  24525173.002    24525174.018    24525173.177    -2096638.288 1  -1633743.623 1
         6.500           9.000
  24003010.016    24003009.281    24003007.935    -7317312.775 2  -5701794.375 2
        15.100          17.000
  25230908.924    25230909.569    25230906.501     -313146.331     -244009.623 2
         3.000          13.900
  20358425.547    20358425.065    20358423.966   -24440102.731 6 -19044230.003 7
        38.600          44.900
 09  1 25  1 46  0.0000000  0 11G22G32G 9G 5G11G12G31G30G18G17G14
  21453950.306    21453950.139    21453947.074   -19505466.446 6 -15199054.423 6
        39.100          38.600
  23471275.590    23471274.748    23471275.311    -8405446.264 4  -6549695.578 4
        26.500          25.600
  23466570.312    23466569.881    23466568.298    -7419114.169 3  -5781120.874 3
        19.300          20.500
  23754028.356    23754027.675    23754026.844    -7314046.080 3  -5699255.120 3
        23.000          21.100
  22675277.135    22675276.946    22675274.862   -11561134.856 5  -9008674.557 4
        32.300          28.100
  24025605.894    24025605.953    24025604.342    -6452259.582 3  -5027734.012 3
        23.400          23.400
  23074125.261    23074125.159    23074123.563   -10459827.813 4  -8150512.715 5
        29.000          30.400
  24506521.827    24506521.771    24506522.520    -2194663.112 1  -1710126.608 2
        11.000          12.600
  24022411.566    24022410.484    24022407.454    -7215360.123 2  -5622350.773 2
        13.900          15.100
  25222780.894    25222780.433    25222778.240     -355861.208     -277293.789 2
                        12.600
  20358526.865    20358526.373    20358523.861   -24439570.520 6 -19043815.292 7
        38.600          45.100
 09  1 25  1 46 30.0000000  0 11G22G32G 9G 5G11G12G31G30G18G17G14
  21467188.893    21467188.567    21467185.324   -19435898.316 6 -15144845.496 6
        39.200          38.300
  23454328.857    23454328.441    23454329.065    -8494500.590 4  -6619088.542 4
        25.900          26.500
  23486918.847    23486918.639    23486918.303    -7312176.457 3  -5697792.807 3
        18.600          20.500
  23741753.897    23741753.148    23741753.370    -7378542.641 3  -5749512.185 3
        21.100          21.100
  22670688.767    22670688.603    22670686.663   -11585246.014 5  -9027462.471 4
        32.100          28.600
  24015975.588    24015975.801    24015973.483    -6502869.860 4  -5067170.586 3
        24.600          23.400
  23054204.390    23054204.577    23054202.590   -10564513.002 4  -8232085.569 5
        29.700          30.400
  24487906.789    24487906.708    24487905.446    -2292493.494 2  -1786358.082 2
        17.000          13.900
  24041842.654    24041842.167    24041839.414    -7113247.403 2  -5542782.447 2
        13.900          13.900
  25214751.693    25214750.440    25214747.690     -398063.341     -310178.655 1
                        11.000
  20358712.703    20358712.260    20358711.054   -24438593.860 6 -19043054.254 7
        38.600          45.100
 09  1 25  1 47  0.0000000  0 11G22G32G 9G 5G11G12G31G30G18G17G14
  21480491.210    21480490.893    21480487.758   -19365993.982 6 -15090374.592 6
        39.000          38.400
  23437406.628    23437405.867    23437406.475    -8583428.284 4  -6688382.829 4
        26.200          26.800
  23507331.905    23507331.784    23507331.747    -7204905.380 2  -5614205.007 3
        17.800          20.500
  23729567.094    23729566.445    23729566.393    -7442585.667 3  -5799415.820 3
        21.600          21.600
  22666207.598    22666207.382    22666205.737   -11608793.702 5  -9045811.315 4
        31.600          28.800
  24006434.826    24006434.562    24006432.698    -6553006.322 4  -5106237.945 3
        24.200          23.000
  23034329.304    23034329.350    23034327.383   -10668958.784 5  -8313471.886 5
        30.100          30.600
  24469324.068    24469324.336    24469324.839    -2390137.045 2  -1862443.929 2
        17.000          16.100
  24061302.063    24061301.075    24061299.060    -7010986.339 2  -5463098.523 2
        13.900          13.900
  25206815.322    25206815.474    25206812.387     -439761.927 1   -342671.079 2
         9.000          13.900
  20358981.139    20358980.538    20358978.120   -24437184.299 6 -19041955.896 7
        38.700          45.500
 09  1 25  1 47 30.0000000  0 11G22G32G 9G 5G11G12G31G30G18G17G14
  21493857.138    21493856.882    21493853.878   -19295754.832 6 -15035642.793 6
        38.700          38.400
  23420508.695    23420507.956    23420508.190    -8672228.490 4  -6757577.773 4
        27.400          26.500
  23527808.637    23527808.310    23527807.139    -7097304.417 2  -5530360.125 3
        17.800          20.500
  23717467.959    23717466.905    23717466.306    -7506172.722 3  -5848964.177 3
        23.000          21.100
  22661834.227    22661833.862    22661831.985   -11631778.036 5  -9063721.196 4
        31.500          28.800
  23996984.525    23996984.401    23996982.178    -6602667.362 3  -5144934.856 3
        23.000          23.800
  23014499.714    23014499.807    23014498.049   -10773163.281 5  -8394670.178 5
        30.200          30.800
  24450781.464    24450781.175    24450779.490    -2487590.689 2  -1938381.806 2
        16.100          15.100
  24080788.923    24080788.501    24080787.008    -6908579.058 2  -5383300.669 2
        12.600          13.900
  25198972.646    25198975.231    25198975.268     -480956.427     -374770.647 2
                        12.600
  20359331.542    20359330.985    20359329.811   -24435342.632 6 -19040520.828 7
        38.700          45.300
 09  1 25  1 48  0.0000000  0 11G22G32G 9G 5G11G12G31G30G18G17G14
  21507289.173    21507288.769    21507285.716   -19225169.427 6 -14980641.189 6
        38.600          38.100
  23403637.569    23403636.775    23403636.551    -8760887.469 4  -6826662.676 4
        27.600          26.500
  23548349.160    23548348.251    23548347.036    -6989364.095 3  -5446250.759 3
        18.600          19.900
  23705456.789    23705455.922    23705455.259    -7569288.762 3  -5898145.491 3
        22.100          21.100
  22657569.850    22657569.575    22657567.955   -11654186.034 5  -9081181.959 4
        31.000          29.000
  23987627.225    23987627.274    23987625.578    -6651838.770 3  -5183250.236 4
        22.600          24.200
  22994719.028    22994719.010    22994717.052   -10877111.441 5  -8475668.730 5
        30.100          30.600
  24432274.517    24432274.511    24432273.288    -2584838.434 2  -2014159.259 2
        12.600          12.600
  24100306.302    24100306.291    24100304.754    -6806014.406 2  -5303380.208 2
        13.900          15.100
  25191232.907    25191232.616    25191231.947     -521632.628 1   -406466.418 2
         6.500          13.900
  20359766.587    20359765.971    20359763.496   -24433057.002 6 -19038739.817 7
        38.800          45.500
 09  1 25  1 48 30.0000000  0 11G22G32G 9G 5G11G12G31G30G18G17G14
  21520785.280    21520785.009    21520781.928   -19154246.615 6 -14925376.667 6
        38.800          38.100
  23386791.589    23386791.132    23386790.738    -8849411.920 4  -6895642.750 4
        27.400          26.200
  23568951.416    23568950.616    23568949.896    -6881096.223 2  -5361886.188 3
        17.800          19.300
  23693534.759    23693534.102    23693533.621    -7631939.109 3  -5946963.944 3
        23.400          20.500
  22653413.993    22653413.803    22653412.060   -11676024.980 5  -9098199.321 4
        31.100          28.800
  23978362.911    23978362.571    23978360.677    -6700525.688 3  -5221188.055 3
        23.400          23.000
  22974985.952    22974985.974    22974984.228   -10980808.908 5  -8556471.936 5
        30.400          31.000
  24413805.321    24413804.964    24413806.350    -2681885.401 1  -2089780.243 1
         6.500          11.000
  24119851.682    24119851.314    24119850.510    -6703301.718 2  -5223344.380 2
        12.600          13.900
  25183593.103    25183592.808    25183590.978     -561797.099 2   -437763.359 2
        13.900          17.000
  20360284.196    20360283.722    20360282.513   -24430335.951 6 -19036619.514 7
        38.700          45.300
 09  1 25  1 49  0.0000000  0 11G22G32G 9G 5G11G12G31G30G18G17G14
  21534345.765    21534345.518    21534342.497   -19082985.612 6 -14869848.621 6
        38.600          38.100
  23369972.029    23369971.733    23369971.425    -8937798.357 4  -6964515.282 4
        27.400          25.900
  23589616.428    23589615.609    23589615.432    -6772501.584 2  -5277266.990 3
        16.100          19.300
  23681702.773    23681701.750    23681701.263    -7694118.859 3  -5995415.687 3
        23.800          21.600
  22649367.160    22649366.777    22649364.976   -11697292.030 5  -9114771.047 4
        31.000          28.800
  23969191.263    23969190.987    23969188.211    -6748724.112 3  -5258745.291 3
        23.800          22.100
  22955301.838    22955301.828    22955299.706   -11084251.106 5  -8637076.236 5
        30.800          31.300
  24395378.712    24395379.402    24395378.025    -2778726.169 1  -2165240.546 2
        11.000          12.600
  24139425.221    24139424.784    24139423.960    -6600440.201 2  -5143192.537 2
        12.600          12.600
  25176047.639    25176047.683    25176044.653     -601446.457 2   -468659.019 2
        16.100          15.100
  20360885.330    20360884.730    20360882.153   -24427177.781 6 -19034158.603 7
        38.700          45.500
 09  1 25  1 49 30.0000000  0 11G22G32G 9G 5G11G12G31G30G18G17G14
  21547970.608    21547970.383    21547967.277   -19011386.867 6 -14814057.398 6
        38.500          37.800
  23353180.025    23353179.101    23353178.546    -9026045.343 4  -7033279.164 4
        28.600          25.600
  23610343.895    23610343.418    23610341.284    -6663583.568 2  -5192395.806 3
        17.000          19.300
  23669959.977    23669959.077    23669958.491    -7755825.394 3  -6043498.701 3
        23.000          22.100
  22645429.114    22645428.842    22645427.121   -11717986.538 5  -9130896.643 4
        31.500          28.800
  23960112.749    23960112.045    23960109.871    -6796432.020 3  -5295920.266 3
        23.000          23.000
  22935666.346    22935666.473    22935664.552   -11187435.259 5  -8717479.470 5
        31.100          31.800
  24376990.781    24376990.920    24376990.058    -2875357.439 2  -2240537.597 2
        13.900          13.900
  24159027.821    24159026.983    24159025.564    -6497431.152 2  -5062925.741 2
        13.900          12.600
  25168600.623    25168599.683    25168596.152     -640579.063 1   -499151.929 2
         9.000          12.600
  20361569.415    20361568.797    20361567.613   -24423582.909 6 -19031357.399 7
        38.800          45.500
 09  1 25  1 50  0.0000000  0 11G22G32G 9G 5G11G12G31G30G18G17G14
  21561659.635    21561659.323    21561656.054   -18939451.197 6 -14758003.635 6
        38.600          37.600
  23336413.669    23336412.865    23336412.781    -9114151.082 4  -7101932.985 4
        27.600          26.500
  23631131.189    23631130.648    23631128.811    -6554344.935 2  -5107274.800 3
        17.800          19.300
  23658308.762    23658307.689    23658307.671    -7817055.385 3  -6091210.380 3
        23.800          23.400
  22641600.254    22641599.938    22641598.293   -11738107.376 5  -9146575.216 4
        31.300          28.600
  23951127.627    23951127.509    23951125.984    -6843646.558 3  -5332710.816 3
        23.400          23.800
  22916080.749    22916080.688    22916079.044   -11290358.554 5  -8797679.423 5
        31.000          32.300
  24358640.890    24358641.326    24358642.641    -2971775.290 1  -2315668.378 2
        11.000          13.900
  24178658.752    24178657.649    24178656.083    -6394275.116 2  -4982544.389 2
        16.100          12.600
  25161249.748    25161250.102    25161250.635     -679193.096     -529240.840 2
         3.000          15.100
  20362336.486    20362335.974    20362333.414   -24419551.335 6 -19028215.913 7
        38.800          45.400
 09  1 25  1 50 30.0000000  0 11G22G32G 9G 5G11G12G31G30G18G17G14
  21575412.310    21575411.984    21575408.810   -18867180.625 6 -14701688.912 6
        38.600          37.700
  23319674.596    23319674.128    23319674.162    -9202115.033 4  -7170476.297 4
        27.400          27.900
  23651977.383    23651976.958    23651975.993    -6444789.665 2  -5021907.063 2
        16.100          17.800
  23646747.896    23646746.719    23646746.586    -7877807.101 3  -6138549.362 3
        23.000          22.600
  22637880.252    22637880.028    22637878.350   -11757654.886 5  -9161807.036 4
        31.100          28.600
  23942237.449    23942237.111    23942235.518    -6890366.728 3  -5369116.137 3
        23.000          23.800
  22896545.198    22896544.998    22896543.335   -11393019.311 5  -8877674.804 5
        31.100          32.100
  24340336.750    24340337.177    24340335.366    -3067976.832 2  -2390630.625 2
        12.600          15.100
  24198316.066    24198315.756    24198313.879    -6290974.585 2  -4902050.451 2
        15.100          13.900
  25154005.088    25154003.770    25154002.409     -717287.623 1   -558924.823 2
         9.000          16.100
  20363186.358    20363185.955    20363184.702   -24415084.378 6 -19024735.163 7
        38.700          45.100
 09  1 25  1 51  0.0000000  0 11G22G32G 9G 5G11G12G31G30G18G17G14
  21589228.032    21589227.701    21589224.399   -18794578.750 6 -14645116.031 6
        38.400          37.400
  23302962.075    23302961.626    23302961.736    -9289938.418 4  -7238910.088 4
        27.400          28.100
  23672884.319    23672883.648    23672882.838    -6334923.409 2  -4936296.998 2
        15.100          17.800
  23635278.122    23635277.155    23635276.515    -7938080.506 3  -6185515.640 3
        23.800          22.600
  22634269.719    22634269.291    22634267.097   -11776631.347 5  -9176593.888 4
        31.500          28.400
  23933440.726    23933440.838    23933438.175    -6936592.618 3  -5405136.299 3
        23.400          23.800
  22877059.162    22877059.259    22877057.517   -11495417.872 5  -8957465.879 5
        31.500          31.800
  24322068.475    24322069.512    24322069.788    -3163961.637 1  -2465423.949 2
         9.000          13.900
  24217999.777    24217999.406    24217998.577    -6187533.365 2  -4821446.901 2
        12.600          16.100
  25146852.044    25146852.024    25146849.119     -754864.203 1   -588205.301 1
        11.000           9.000
  20364118.747    20364118.202    20364115.561   -24410185.522 6 -19020917.873 7
        38.800          45.400
 09  1 25  1 51 30.0000000  0 11G22G32G 9G 5G11G12G31G30G18G17G14
  21603106.872    21603106.577    21603103.472   -18721644.013 6 -14588283.776 6
        38.200          37.300
  23286277.327    23286276.695    23286276.858    -9377617.333 4  -7307231.297 4
        27.400          27.600
  23693850.973    23693850.492    23693849.104    -6224746.814 2  -4850445.106 3
        15.100          18.600
  23623900.355    23623899.554    23623898.988    -7997870.415 3  -6232105.168 3
        23.800          23.400
  22630767.336    22630767.215    22630765.318   -11795033.504 5  -9190933.241 4
        31.600          28.600
  23924739.501    23924739.271    23924736.715    -6982319.599 4  -5440767.718 3
        24.600          23.400
  22857624.072    22857624.225    22857622.326   -11597549.138 5  -9037048.676 5
        31.500          31.300
  24303847.293    24303847.820    24303846.754    -3259724.109 2  -2540044.022 2
        12.600          15.100
  24237708.751    24237708.069    24237708.848    -6083950.071 1  -4740732.723 2
         6.500          17.000
  25139802.181    25139801.556    25139799.592     -791918.708 1   -617078.866 2
         9.000          13.900
  20365133.576    20365132.996    20365131.856   -24404852.510 6 -19016762.276 7
        38.800          45.400
 09  1 25  1 52  0.0000000  0 11G22G32G 9G 5G11G12G31G30G18G17G14
  21617049.004    21617048.703    21617045.645   -18648377.685 6 -14531193.136 6
        38.100          37.300
  23269620.039    23269619.415    23269619.991    -9465150.878 4  -7375439.239 4
        27.600          27.600
  23714875.564    23714874.852    23714873.596    -6114263.846 2  -4764354.477 3
        15.100          18.600
  23612615.065    23612614.250    23612614.056    -8057174.644 4  -6278316.237 3
        24.600          23.800
  22627374.726    22627374.686    22627373.115   -11812861.169 5  -9204824.925 4
        31.500          29.000
  23916132.263    23916132.094    23916130.444    -7027546.536 3  -5476009.483 3
        23.000          23.800
  22838240.111    22838240.317    22838238.879   -11699410.904 5  -9116421.470 5
        31.300          31.600
  24285667.004    24285667.439    24285667.268    -3355261.273 2  -2614488.561 2
        12.600          17.800
  24257447.786    24257447.919    24257447.755    -5980226.804 1  -4659909.463 2
         9.000          17.800
  25132849.697    25132848.783    25132848.671     -828450.418     -645545.190 2
         3.000          13.900
  20366230.732    20366230.256    20366227.738   -24399086.475 6 -19012269.260 7
        38.800          45.400
 09  1 25  1 52 30.0000000  0 11G22G32G 9G 5G11G12G31G30G18G17G14
  21631054.932    21631054.658    21631051.514   -18574775.919 6 -14473841.116 6
        38.000          37.200
  23252992.465    23252991.676    23252991.924    -9552532.440 4  -7443528.759 4
        28.100          27.900
  23735958.924    23735957.411    23735956.819    -6003472.240 2  -4678023.389 3
        15.100          18.600
  23601424.213    23601423.156    23601422.427    -8115985.421 4  -6324142.815 3
        24.200          23.400
  22624092.911    22624092.688    22624091.111   -11830108.863 5  -9218264.683 4
        32.100          28.800
  23907622.645    23907622.435    23907620.743    -7072266.317 3  -5510856.057 4
        22.600          24.900
  22818909.227    22818909.245    22818907.566   -11800996.018 5  -9195578.688 5
        31.600          31.300
  24267531.293    24267531.359    24267531.412    -3450564.540 1  -2688750.777 3
        11.000          19.300
  24277215.519    24277215.087    24277212.061    -5876359.238 2  -4578973.749 2
        12.600          16.100
  25125999.034    25125998.264    25125994.687     -864453.171     -673599.191
                         3.000
  20367411.302    20367410.776    20367409.600   -24392882.719 6 -19007435.161 7
        38.900          45.300
 09  1 25  1 53  0.0000000  0 11G22G32G 9G 5G11G12G31G30G18G17G14
  21645123.418    21645122.991    21645119.929   -18500845.978 6 -14416233.378 6
        37.700          37.100
  23236392.451    23236391.644    23236391.564    -9639767.045 4  -7511503.769 4
        28.600          27.600
  23757098.413    23757097.579    23757096.511    -5892381.939 2  -4591459.530 3
        17.000          18.600
  23590325.495    23590324.310    23590324.556    -8174306.544 3  -6369587.839 3
        22.600          23.800
  22620920.101    22620919.847    22620917.738   -11846782.434 5  -9231257.087 4
        32.600          28.400
  23899208.449    23899208.122    23899206.930    -7116482.452 3  -5545310.163 4
        22.100          25.300
  22799630.245    22799630.403    22799628.789   -11902307.950 5  -9274523.031 5
        32.000          32.000
  24249440.410    24249440.675    24249439.314    -3545636.994 2  -2762833.098 3
        16.100          20.500
  24297007.471    24297006.578    24297003.348    -5772355.331 2  -4497931.756 2
        15.100          16.100
  25119246.972    25119246.575    25119248.203     -899931.501 1   -701244.444 1
         6.500          11.000
  20368673.802    20368673.268    20368670.901   -24386248.019 6 -19002265.265 7
        38.800          45.300
 09  1 25  1 53 30.0000000  0 11G22G32G 9G 5G11G12G31G30G18G17G14
  21659252.227    21659251.825    21659248.667   -18426599.225 6 -14358378.774 6
        37.800          37.100
  23219818.596    23219817.481    23219817.659    -9726863.674 4  -7579371.261 4
        28.800          28.400
  23778292.065    23778291.293    23778290.086    -5781006.280 2  -4504673.323 3
        17.000          18.600
  23579319.441    23579318.717    23579318.358    -8232145.897 3  -6414657.443 3
        23.800          23.800
  22617854.619    22617854.402    22617852.434   -11862892.075 5  -9243810.049 4
        32.700          28.400
  23890889.479    23890889.113    23890886.622    -7160203.935 3  -5579378.858 4
        23.800          24.600
  22780401.691    22780401.861    22780400.063   -12003354.790 5  -9353260.819 5
        32.300          32.000
  24231391.222    24231391.059    24231390.978    -3640485.586 3  -2836741.080 3
        18.600          21.100
  24316821.574    24316820.920    24316818.175    -5668226.866 2  -4416792.710 2
        13.900          15.100
  25112595.636    25112595.469    25112593.720     -934894.835 2   -728488.711 1
        17.000          11.000
  20370016.259    20370015.776    20370014.620   -24379193.553 6 -18996768.279 7
        38.700          45.200
 09  1 25  1 54  0.0000000  0 11G22G32G 9G 5G11G12G31G30G18G17G14
  21673443.299    21673442.898    21673439.845   -18352024.282 6 -14300268.437 6
        37.700          37.000
  23203273.265    23203272.405    23203272.583    -9813808.631 4  -7647120.558 4
        29.000          29.000
  23799541.720    23799541.216    23799540.159    -5669336.121 2  -4417657.662 3
        16.100          18.600
  23568407.344    23568406.677    23568405.887    -8289488.464 4  -6459339.959 3
        24.900          23.000
  22614899.002    22614898.746    22614896.517   -11878424.542 5  -9255913.269 4
        32.800          28.400
  23882665.983    23882665.803    23882663.346    -7203416.237 4  -5613050.775 4
        24.200          24.600
  22761226.784    22761226.716    22761225.042   -12104121.731 5  -9431780.500 5
        32.400          32.600
  24213387.409    24213387.379    24213386.688    -3735094.880 2  -2910462.584 3
        17.000          19.300
  24336662.214    24336660.991    24336659.338    -5563962.746 1  -4335547.982 2
        11.000          16.100
  25106039.488    25106039.198    25106037.786     -969329.784 1   -755321.186 1
         9.000          11.000
  20371440.790    20371440.300    20371437.912   -24371707.382 6 -18990934.897 7
        38.800          45.300
 09  1 25  1 54 30.0000000  0 11G22G32G 9G 5G11G12G31G30G18G17G14
  21687698.048    21687697.829    21687694.778   -18277113.826 6 -14241896.658 6
        37.500          36.700
  23186758.923    23186758.236    23186758.053    -9900591.641 4  -7714743.663 4
        29.900          28.800
  23820848.628    23820848.198    23820847.476    -5557365.697 2  -4330407.992 2
        13.900          17.800
  23557591.815    23557590.962    23557590.930    -8346322.934 4  -6503626.554 3
        24.200          23.800
  22612054.534    22612054.293    22612052.548   -11893370.964 5  -9267559.834 4
        32.400          28.800
  23874541.722    23874541.512    23874539.920    -7246108.705 3  -5646317.612 4
        23.000          25.300
  22742106.970    22742106.960    22742105.147   -12204597.850 5  -9510073.562 5
        33.000          32.700
  24195430.552    24195430.371    24195430.029    -3829452.751 2  -2983988.168 2
        15.100          16.100
  24356529.340    24356527.779    24356528.166    -5459555.408    -4254191.659 2
         3.000          13.900
  25099591.355    25099591.448    25099588.331    -1003225.969 1   -781733.646 2
         9.000          12.600
  20372949.167    20372948.610    20372947.461   -24363781.454 6 -18984758.847 7
        38.900          45.500
 09  1 25  1 55  0.0000000  0 11G22G32G 9G 5G11G12G31G30G18G17G14
  21702015.333    21702015.024    21702012.076   -18201876.385 6 -14183270.093 6
        37.500          36.700
  23170274.635    23170273.689    23170273.411    -9987218.854 5  -7782245.390 4
        30.200          28.600
  23842210.430    23842209.738    23842210.191    -5445105.946 2  -4242932.868 2
        12.600          17.000
  23546872.561    23546871.772    23546871.376    -8402654.300 4  -6547521.110 3
        24.200          23.400
  22609320.763    22609320.400    22609318.482   -11907738.428 5  -9278755.263 4
        32.700          28.800
  23866516.025    23866516.031    23866513.473    -7288286.329 4  -5679183.291 4
        24.600          25.600
  22723041.322    22723041.373    22723039.624   -12304788.006 5  -9588143.809 5
        33.200          32.800
  24177522.758    24177523.266    24177522.396    -3923563.102 2  -3057320.899 2
        16.100          17.000
  24376422.290    24376420.720    24376420.798    -5355013.863    -4172730.767 2
                        12.600
  25093240.553    25093241.416    25093240.759    -1036589.664 1   -807731.356 2
         6.500          13.900
  20374539.528    20374538.985    20374536.700   -24355423.683 6 -18978246.297 7
        38.800          45.500
 09  1 25  1 55 30.0000000  0 11G22G32G 9G 5G11G12G31G30G18G17G14
  21716393.786    21716393.485    21716390.397   -18126317.949 6 -14124393.402 6
        37.600          36.600
  23153818.847    23153817.947    23153817.781   -10073694.057 4  -7849628.649 4
        29.900          28.600
  23863626.113    23863625.819    23863626.183    -5332565.381 1  -4155238.940 2
         9.000          17.000
  23536248.047    23536247.315    23536247.423    -8458485.332 4  -6591025.791 3
        24.200          23.800
  22606695.991    22606695.669    22606693.622   -11921531.857 5  -9289503.396 4
        32.700          29.000
  23858586.682    23858586.629    23858584.644    -7329953.025 4  -5711650.843 4
        24.600          25.300
  22704029.947    22704029.771    22704027.985   -12404695.145 5  -9665993.516 5
        33.200          33.200
  24159661.208    24159661.212    24159660.431    -4017428.032 2  -3130462.355 3
        16.100          18.600
  24396342.150    24396341.935    24396338.566    -5250344.274    -4091170.123 1
                        11.000
  25086993.039    25086992.588    25086989.329    -1069425.157 1   -833317.523 1
         9.000           9.000
  20376211.064    20376210.528    20376209.522   -24346639.912 6 -18971401.797 7
        38.800          45.600
 09  1 25  1 56  0.0000000  0 11G22G32G 9G 5G11G12G31G30G18G17G14
  21730833.540    21730833.178    21730830.172   -18050436.236 6 -14065264.801 6
        37.200          36.400
  23137392.299    23137391.639    23137391.984   -10160012.563 4  -7916889.814 4
        28.600          28.400
  23885096.281    23885095.631    23885095.214    -5219743.713 1  -4067325.966 2
        11.000          16.100
  23525719.837    23525719.173    23525719.227    -8513810.198 3  -6634136.080 3
        23.800          23.400
  22604180.756    22604180.527    22604178.764   -11934747.497 5  -9299801.295 4
        32.100          29.500
  23850756.361    23850756.003    23850753.623    -7371103.435 4  -5743716.096 4
        25.300          24.600
  22685072.999    22685072.831    22685071.366   -12504313.417 5  -9743618.136 5
        33.000          33.600
  24141847.329    24141847.614    24141847.060    -4111040.832 2  -3203407.351 3
        16.100          19.900
  24416285.205    24416284.651    24416280.543    -5145545.131 1  -4009508.491 2
         6.500          12.600
  25080847.536    25080847.319    25080845.381    -1101727.939 1   -858488.415 2
        11.000          13.900
  20377964.023    20377963.485    20377961.151   -24337427.506 6 -18964223.299 7
        38.800          45.400
 09  1 25  1 56 30.0000000  0 11G22G32G 9G 5G11G12G31G30G18G17G14
  21745335.451    21745335.134    21745331.937   -17974228.655 6 -14005882.278 6
        37.200          36.400
  23120997.634    23120996.750    23120996.975   -10246168.682 4  -7984024.430 4
        28.400          28.400
  23906620.589    23906619.537    23906618.598    -5106639.839 2  -3979193.095 2
        12.600          16.100
  23515289.445    23515288.551    23515288.739    -8568622.203 3  -6676846.712 3
        23.400          23.800
  22601776.987    22601776.693    22601774.776   -11947380.957 5  -9309645.550 4
        32.300          29.500
  23843024.854    23843024.866    23843022.469    -7411731.390 4  -5775374.238 4
        24.600          24.600
  22666172.175    22666172.247    22666170.675   -12603636.077 5  -9821012.406 5
        33.200          33.600
  24124082.355    24124082.571    24124081.792    -4204393.937 2  -3276149.981 3
        16.100          19.300
  24436251.189    24436251.676    24436248.547    -5040613.334    -3927743.508 1
         3.000          11.000
  25074800.270    25074799.807    25074800.786    -1133492.364 1   -883239.810 2
         9.000          12.600
  20379799.438    20379798.875    20379797.731   -24327782.914 6 -18956708.029 7
        38.900          45.600
 09  1 25  1 57  0.0000000  0 11G22G32G 9G 5G11G12G31G30G18G17G14
  21759899.199    21759898.853    21759895.715   -17897695.673 6 -13946246.194 6
        37.200          36.500
  23104634.045    23104633.149    23104633.063   -10332161.137 4  -8051031.527 4
        29.000          28.100
  23928196.929    23928195.695    23928194.431    -4993257.048 2  -3890842.849 2
        12.600          15.100
  23504957.138    23504956.546    23504956.368    -8622918.893 4  -6719155.807 3
        24.200          23.800
  22599483.244    22599483.053    22599481.532   -11959431.941 5  -9319035.933 4
        32.000          29.500
  23835393.003    23835392.996    23835391.082    -7451835.167 4  -5806623.921 4
        24.600          24.900
  22647328.269    22647328.316    22647326.770   -12702660.890 5  -9898174.587 5
        33.200          33.400
  24106367.183    24106367.598    24106367.048    -4297483.954 2  -3348687.618 3
        16.100          18.600
  24456243.618    24456241.648    24456241.668    -4935550.435    -3845876.366 1
                         9.000
  25068860.154    25068859.633    25068857.574    -1164717.330 1   -907570.971 1
         9.000          11.000
  20381716.842    20381716.356    20381713.961   -24317706.518 6 -18948856.291 7
        38.900          45.600
 09  1 25  1 57 30.0000000  0 11G22G32G 9G 5G11G12G31G30G18G17G14
  21774522.842    21774522.606    21774519.733   -17820846.694 6 -13886363.887 6
        36.700          36.500
  23088300.006    23088299.275    23088298.960   -10417996.619 4  -8117916.310 4
        29.000          28.400
  23949822.708    23949822.180    23949821.174    -4879606.523 2  -3802284.021 2
        12.600          15.100
  23494721.844    23494720.921    23494720.942    -8676706.100 3  -6761067.910 3
        23.800          23.800
  22597299.387    22597299.113    22597297.556   -11970908.650 5  -9327978.820 4
        31.600          29.200
  23827860.457    23827860.118    23827858.209    -7491420.888 4  -5837469.934 4
        24.600          25.600
  22628539.991    22628540.159    22628538.248   -12801393.679 5  -9975109.222 5
        33.400          33.400
  24088702.139    24088702.404    24088701.607    -4390316.170 2  -3421024.372 2
        17.000          17.800
  24476259.867    24476258.637    24476257.779    -4830365.686 1  -3763914.267 1
         6.500           9.000
  25063017.137    25063016.380    25063020.214    -1195410.311 1   -931487.658 2
         6.500          12.600
  20383714.900    20383714.383    20383713.277   -24307207.326 6 -18940675.100 7
        38.900          45.800
 09  1 25  1 58  0.0000000  0 11G22G32G 9G 5G11G12G31G30G18G17G14
  21789207.332    21789206.987    21789203.821   -17743680.378 6 -13826234.305 6
        36.800          36.200
  23071996.545    23071995.653    23071995.713   -10503671.039 4  -8184675.582 4
        28.800          28.600
  23971499.717    23971499.782    23971499.044    -4765688.638 2  -3713516.835 2
        12.600          15.100
  23484584.698    23484583.840    23484584.147    -8729978.643 3  -6802578.970 4
        23.800          24.200
  22595225.525    22595225.269    22595223.212   -11981807.863 5  -9336471.710 4
        32.000          28.800
  23820426.908    23820426.560    23820424.964    -7530484.256 3  -5867908.928 4
        23.400          25.600
  22609808.482    22609808.555    22609806.593   -12899829.510 5 -10051812.455 5
        33.600          33.500
  24071087.965    24071087.489    24071086.794    -4482884.625 3  -3493155.630 3
        19.300          19.300
  24496300.430    24496299.822    24496298.112    -4725057.846 1  -3681856.226 1
        11.000          11.000
  25057280.590    25057281.020    25057278.746    -1225567.270 2   -954986.414 1
        16.100           6.500
  20385793.493    20385792.994    20385790.519   -24296283.459 6 -18932162.998 7
        38.900          45.500
 09  1 25  1 58 30.0000000  0 11G22G32G 9G 5G11G12G31G30G18G17G14
  21803952.058    21803951.788    21803948.408   -17666196.047 6 -13765856.909 5
        36.700          35.700
  23055724.008    23055723.512    23055723.842   -10589181.084 4  -8251306.773 4
        29.500          28.800
  23993227.694    23993228.814    23993227.873    -4651505.016 2  -3624542.610 2
        12.600          17.000
  23474545.962    23474545.256    23474544.866    -8782732.200 3  -6843685.626 4
        23.800          24.200
  22593261.882    22593261.524    22593259.424   -11992127.700 5  -9344513.141 4
        32.400          28.800
  23813093.321    23813093.059    23813091.239    -7569021.339 3  -5897937.818 4
        23.400          24.900
  22591134.174    22591134.176    22591132.145   -12997963.988 5 -10128280.879 5
        34.000          33.600
  24053524.384    24053524.366    24053522.677    -4575183.885 3  -3565077.086 3
        21.600          19.300
  24516365.071    24516364.287    24516361.594    -4619626.400 2  -3599701.879 2
        15.100          12.600
  25051644.270    25051643.612    25051643.537    -1255185.231 2   -978065.398 1
        12.600           9.000
  20387953.372    20387952.787    20387951.674   -24284933.473 6 -18923318.849 7
        38.900          45.400
 09  1 25  1 59  0.0000000  0 11G22G32G 9G 5G11G12G31G30G18G17G14
  21818757.275    21818756.979    21818753.686   -17588394.513 6 -13705232.340 5
        36.700          35.700
  23039484.141    23039483.289    23039483.261   -10674525.218 5  -8317808.679 4
        30.200          29.000
  24015005.518    24015005.808    24015006.674    -4537058.541 2  -3535363.552 2
        12.600          17.800
  23464606.436    23464605.869    23464605.687    -8834964.443 4  -6884386.057 4
        24.200          24.200
  22591408.566    22591408.216    22591406.217   -12001867.690 5  -9352102.742 4
        32.400          29.200
  23805860.650    23805860.555    23805858.244    -7607030.360 4  -5927555.222 4
        24.200          24.600
  22572517.157    22572517.367    22572515.654   -13095794.925 5 -10204512.758 5
        33.900          33.900
  24036011.315    24036011.456    24036010.393    -4667210.651 3  -3636786.236 3
        20.500          19.300
  24536449.731    24536449.418    24536447.268    -4514072.704 2  -3517452.273 2
        12.600          12.600
  25046110.100    25046109.096    25046110.893    -1284263.330 1  -1000723.658 2
         6.500          17.000
  20390193.990    20390193.545    20390191.219   -24273157.941 6 -18914143.110 7
        38.900          45.300
 09  1 25  1 59 30.0000000  0 11G22G32G 9G 5G11G12G31G30G18G17G14
  21833622.675    21833622.470    21833619.535   -17510275.004 6 -13644360.006 6
        36.500          36.000
  23023276.236    23023275.337    23023275.315   -10759700.003 5  -8384178.638 4
        31.100          29.500
  24036834.658    24036834.403    24036834.534    -4422350.363 1  -3445980.561 2
        11.000          17.000
  23454767.316    23454766.540    23454766.035    -8886670.974 4  -6924676.851 4
        24.200          24.200
  22589665.781    22589665.528    22589663.580   -12011025.606 5  -9359238.776 4
        32.600          29.000
  23798728.716    23798728.847    23798726.704    -7644507.231 4  -5956757.983 4
        24.600          24.900
  22553959.197    22553959.410    22553957.848   -13193317.570 5 -10280504.417 5
        34.100          34.100
  24018551.750    24018551.663    24018551.753    -4758959.550 2  -3708278.854 3
        17.800          19.300
  24556558.301    24556557.435    24556556.869    -4408395.995 1  -3435106.809 2
         9.000          12.600
  25040682.393    25040681.658    25040679.365    -1312798.055 1  -1022958.519 2
         9.000          13.900
  20392516.206    20392515.662    20392514.565   -24260955.566 6 -18904634.763 7
        39.000          45.600
                            4 15
RINEX FILE SPLICE                                           COMMENT
teqc  2008Oct2      WCDA Operator       20090125 03:18:38UTCCOMMENT
STATION INFORMATION EFFECTIVE FROM: 2001/01/13 18:20:00     COMMENT
                                TO: CURRENT DATE (above)    COMMENT
BIT 2 OF LLI FLAGS (+4) DATA COLLECTED UNDER 'AS' CONDITION COMMENT
L1 PHASE CENTRE 0.110m ABOVE ARP                            COMMENT
L2 PHASE CENTRE 0.128m ABOVE ARP                            COMMENT
where ARP is the Antenna Reference Point for HI measurement COMMENT
CONTACT gps@pgc.nrcan.gc.ca FOR ADDITIONAL INFORMATION      COMMENT
    P1 =    P1  TurboRogue; =    Y1  Benchmark              COMMENT
    L1 = L1(CA)                                             COMMENT
    P2 =    P2  TurboRogue; =    Y2  Benchmark              COMMENT
    L2 = L2(P2) TurboRogue; = L2(Y2) Benchmark              COMMENT
 SNR is mapped to RINEX snr flag value [0-9]                COMMENT
  L1 & L2: min(max(int(snr_dBHz/6), 0), 9)                  COMMENT
 09  1 25  2  0  0.0000000  0 11G32G 9G 5G11G12G31G30G18G17G14G22
  23007099.158    23007098.463    23007098.661   -10844709.918 5  -8450420.118 4
        31.100          29.700
  24058712.353    24058711.786    24058710.589    -4307390.009 2  -3356401.058 2
        12.600          15.100
  23445026.859    23445026.122    23445026.051    -8937855.270 3  -6964560.714 4
        23.800          24.200
  22588032.795    22588032.488    22588030.214   -12019607.513 5  -9365925.975 4
        32.600          28.600
  23791698.168    23791697.962    23791695.031    -7681456.424 4  -5985549.549 4
        25.300          24.200
  22535459.275    22535459.415    22535457.941   -13290535.570 5 -10356258.682 5
        34.000          34.300
  24001145.723    24001145.628    24001145.022    -4850433.000 3  -3779556.844 3
        19.900          18.600
  24576691.408    24576690.190    24576688.150    -4302603.737 1  -3352671.344 1
         9.000          11.000
  25035352.946    25035353.409    25035349.801    -1340794.742 1  -1044774.083 1
         6.500           6.500
  20394918.136    20394917.736    20394915.473   -24248332.595 6 -18894798.681 7
        39.000          45.600
  21848547.518    21848547.305    21848544.265   -17431844.514 6 -13583245.353 5
        36.400          35.600
 09  1 25  2  0 30.0000000  0 11G32G 9G 5G11G12G31G30G18G17G14G22
  22990953.383    22990952.638    22990952.581   -10929555.732 5  -8516533.721 4
        30.400          29.200
  24080635.546    24080634.377    24080634.167    -4192182.703 2  -3266629.142 2
        12.600          13.900
  23435386.385    23435385.557    23435385.334    -8988517.278 4  -7004037.585 4
        24.200          24.600
  22586508.476    22586508.108    22586506.525   -12027615.213 5  -9372165.752 4
        31.800          28.800
  23784767.215    23784766.981    23784764.642    -7717878.324 4  -6013930.255 4
        24.200          24.900
  22517017.258    22517017.423    22517015.672   -13387448.510 5 -10431775.234 5
        34.100          34.100
  23983792.000    23983792.029    23983790.221    -4941629.899 3  -3850619.365 3
        21.100          18.600
  24596843.863    24596841.945    24596841.542    -4196699.015 1  -3270148.232 1
         9.000          11.000
  25030127.459    25030127.725    25030126.937    -1368254.387 1  -1066171.144 2
         6.500          12.600
  20397399.789    20397399.193    20397398.176   -24235292.297 6 -18884637.407 7
        39.100          45.700
  21863531.117    21863530.835    21863527.626   -17353106.435 6 -13521891.015 5
        36.600          35.500
 09  1 25  2  1  0.0000000  0 11G32G 9G 5G11G12G31G30G18G17G14G22
  22974842.614    22974842.020    22974841.883   -11014217.856 5  -8582504.197 4
        30.800          29.000
  24102608.617    24102607.776    24102607.224    -4076713.294 1  -3176653.007 2
        11.000          12.600
  23425849.389    23425848.395    23425847.645    -9038636.533 4  -7043091.541 4
        25.300          24.200
  22585097.880    22585097.588    22585095.481   -12035030.584 5  -9377943.962 4
        32.300          28.800
  23777939.684    23777939.285    23777937.633    -7753753.610 3  -6041884.998 4
        23.400          24.600
  22498637.279    22498637.332    22498635.623   -13484036.502 5 -10507038.581 5
        34.500          34.100
  23966492.618    23966492.832    23966492.678    -5032529.227 3  -3921449.977 3
        19.300          19.300
  24617019.272    24617019.052    24617018.642    -4090665.593 1  -3187524.834 1
         9.000           9.000
  25025006.836    25025007.062    25025006.890    -1395158.046 1  -1087135.126 2
        11.000          13.900
  20399963.934    20399963.374    20399961.154   -24221817.344 6 -18874137.445 7
        39.100          45.800
  21878576.088    21878575.872    21878572.958   -17274043.759 6 -13460283.748 5
        36.300          35.700
 09  1 25  2  1 30.0000000  0 11G32G 9G 5G11G12G31G30G18G17G14G22
  22958764.747    22958764.011    22958763.757   -11098707.932 5  -8648340.611 4
        30.600          29.000
  24124628.384    24124627.949    24124626.498    -3960997.875 1  -3086485.118 1
        11.000          11.000
  23416412.215    23416411.567    23416411.812    -9088223.952 4  -7081731.081 4
        24.200          24.600
  22583796.792    22583796.587    22583794.521   -12041866.619 5  -9383270.735 4
        32.600          28.800
  23771216.442    23771215.813    23771212.874    -7789092.720 4  -6069421.980 4
        24.900          24.600
  22480317.363    22480317.320    22480315.389   -13580309.873 5 -10582056.774 5
        35.100          34.100
  23949251.129    23949251.370    23949250.190    -5123140.543 3  -3992056.166 3
        20.500          18.600
  24637220.431    24637219.812    24637217.420    -3984517.885 1  -3104812.335 1
         9.000          11.000
  25019991.562    25019991.486    25019988.786    -1421517.743 1  -1107675.093 2
         9.000          12.600
  20402608.231    20402607.762    20402606.759   -24207921.175 6 -18863309.257 7
        39.100          45.700
  21893680.463    21893680.095    21893676.968   -17194670.833 6 -13398434.730 5
        36.500          35.600
 09  1 25  2  2  0.0000000  0 11G32G 9G 5G11G12G31G30G18G17G14G22
  22942717.712    22942717.086    22942717.030   -11183035.479 5  -8714050.382 4
        31.000          29.900
  24146691.813    24146691.504    24146689.491    -3845050.606 1  -2996136.614 1
         6.500          11.000
  23407076.853    23407075.761    23407075.084    -9137288.242 4  -7119962.987 4
        25.300          24.900
  22582604.025    22582603.874    22582601.849   -12048134.347 5  -9388154.684 4
        32.600          28.800
  23764590.834    23764590.399    23764588.508    -7823905.587 4  -6096548.871 4
        24.600          24.900
  22462055.386    22462055.337    22462053.406   -13676277.434 5 -10656836.669 5
        35.300          34.400
  23932062.198    23932062.048    23932060.625    -5213471.575 3  -4062443.971 3
        20.500          18.600
  24657439.258    24657438.936    24657436.479    -3878268.038 1  -3022020.304 1
        11.000           9.000
  25015076.201    25015075.982    25015075.467    -1447343.736    -1127799.187 2
         3.000          13.900
  20405330.519    20405330.001    20405327.893   -24193615.512 6 -18852161.988 7
        39.100          45.700
  21908841.344    21908841.078    21908838.057   -17114999.592 6 -13336353.255 5
        36.200          35.600
 09  1 25  2  2 30.0000000  0 11G32G 9G 5G11G12G31G30G18G17G14G22
  22926706.766    22926705.864    22926705.718   -11267174.179 5  -8779612.987 4
        31.100          29.900
  24168803.720    24168802.681    24168801.302    -3728849.645 1  -2905590.450 2
         9.000          12.600
  23397844.130    23397843.201    23397843.163    -9185802.174 4  -7157766.052 4
        24.600          24.900
  22581523.971    22581523.825    22581522.112   -12053809.283 5  -9392576.717 4
        32.400          29.200
  23758071.650    23758071.371    23758068.596    -7858165.618 4  -6123245.006 4
        24.600          25.300
  22443856.264    22443856.405    22443854.609   -13771912.125 5 -10731357.191 5
        35.100          34.400
  23914930.394    23914930.443    23914929.742    -5303494.225 3  -4132591.473 3
        18.600          19.300
  24677681.339    24677681.335    24677678.979    -3771892.660 1  -2939130.410 1
        11.000           9.000
  25010270.680    25010269.882    25010266.766    -1472610.428 2  -1147487.542 2
        16.100          12.600
  20408135.225    20408134.739    20408133.844   -24178876.490 6 -18840677.032 7
        39.100          45.700
  21924063.276    21924063.156    21924060.127   -17035007.044 6 -13274021.420 5
        36.100          35.400
 09  1 25  2  3  0.0000000  0 11G32G 9G 5G11G12G31G30G18G17G14G22
  22910728.855    22910727.830    22910727.875   -11351138.952 5  -8845040.074 5
        31.000          30.100
  24190960.682    24190960.772    24190958.944    -3612414.658 1  -2814861.937 1
         9.000          11.000
  23388714.471    23388713.401    23388713.382    -9233779.907 4  -7195151.275 4
        24.600          24.600
  22580554.280    22580553.956    22580552.087   -12058907.198 5  -9396549.122 4
        32.700          29.200
  23751653.312    23751653.418    23751652.460    -7891887.493 3  -6149521.770 4
        23.800          26.200
  22425718.642    22425718.562    22425716.626   -13867227.812 5 -10805629.128 5
        35.300          34.400
  23897855.824    23897855.744    23897855.685    -5393221.722 3  -4202508.957 3
        18.600          19.300
  24697946.050    24697945.393    24697942.628    -3665409.399 1  -2856156.428 1
         6.500           9.000
  25005564.463    25005564.484    25005565.040    -1497333.027 2  -1166751.941 2
        12.600          16.100
  20411019.344    20411018.861    20411016.641   -24163720.790 6 -18828867.396 7
        39.200          45.900
  21939343.380    21939343.195    21939340.037   -16954709.700 6 -13211452.066 5
        36.100          34.900
 09  1 25  2  3 30.0000000  0 11G32G 9G 5G11G12G31G30G18G17G14G22
  22894783.406    22894782.602    22894782.806   -11434930.344 5  -8910332.051 5
        30.600          30.100
  24213160.886    24213160.506    24213158.937    -3495750.709 1  -2723955.064 1
         9.000          11.000
  23379686.563    23379685.818    23379685.321    -9281221.290 4  -7232118.582 4
        25.600          24.600
  22579693.050    22579692.808    22579690.991   -12063430.393 5  -9400073.689 4
        32.300          28.800
  23745339.468    23745339.093    23745337.663    -7925071.508 4  -6175379.449 4
        24.600          26.800
  22407641.380    22407641.416    22407639.192   -13962224.187 5 -10879652.268 5
        35.700          34.300
  23880837.890    23880838.121    23880836.071    -5482652.200 3  -4272195.042 3
        19.300          18.600
  24718226.260    24718229.411    24718227.474    -3558821.450    -2773100.938 1
         3.000          11.000
  25000962.980    25000962.248    25000962.451    -1521512.633 1  -1185593.096 2
         6.500          12.600
  20413982.167    20413981.595    20413980.629   -24148151.022 6 -18816735.104 7
        39.200          45.900
  21954680.864    21954680.606    21954677.509   -16874111.065 5 -13148647.948 5
        35.900          35.100
 09  1 25  2  4  0.0000000  0 11G32G 9G 5G11G12G31G30G18G17G14G22
  22878873.540    22878872.790    22878872.903   -11518538.022 5  -8975480.880 5
        30.600          30.200
  24235406.252    24235406.100    24235404.220    -3378851.930 1  -2632865.160 1
        11.000          11.000
  23370762.814    23370761.821    23370761.890    -9328115.233 4  -7268659.300 4
        24.900          24.600
  22578943.727    22578943.497    22578941.483   -12067370.167 5  -9403143.648 4
        33.000          29.000
  23739128.627    23739128.450    23739126.912    -7957707.125 4  -6200809.798 4
        24.200          25.900
  22389627.028    22389627.077    22389624.849   -14056890.315 5 -10953418.067 5
        35.800          34.400
  23863879.061    23863879.055    23863877.527    -5571773.739 3  -4341640.386 3
        19.900          19.900
  24738528.892    24738529.292    24738530.870    -3452121.498    -2689958.131 1
                         9.000
  24996467.420    24996467.185    24996464.081    -1545139.643 1  -1204003.725 1
        11.000           9.000
  20417025.220    20417024.721    20417022.448   -24132159.601 6 -18804274.256 7
        39.300          45.900
  21970077.309    21970076.919    21970073.594   -16793203.537 5 -13085603.135 5
        35.800          34.700
 09  1 25  2  4 30.0000000  0 11G32G 9G 5G11G12G31G30G18G17G14G22
  22863000.055    22862999.291    22862999.342   -11601955.566 5  -9040481.550 5
        31.500          30.800
  24257696.943    24257696.326    24257694.397    -3261716.743 1  -2541590.994 1
        11.000          11.000
  23361944.684    23361943.996    23361943.760    -9374454.602 4  -7304767.889 4
        25.300          24.600
  22578305.869    22578305.560    22578303.877   -12070721.042 5  -9405754.720 4
        32.600          29.200
  23733023.809    23733023.604    23733022.066    -7989788.025 3  -6225807.903 4
        23.800          25.900
  22371677.157    22371677.125    22371675.007   -14151218.431 6 -11026920.488 5
        36.100          34.800
  23846979.428    23846979.794    23846979.237    -5660578.246 3  -4410838.666 3
        19.300          21.100
  24758858.812    24758855.689    24758856.606    -3345305.991    -2606725.379 1
                        11.000
  24992078.350    24992078.291    24992075.893    -1568208.329 2  -1221979.374 2
        13.900          17.000
  20420149.486    20420148.940    20420147.847   -24115741.674 6 -18791481.063 7
        39.300          46.100
  21985532.746    21985532.429    21985529.337   -16711983.534 5 -13022314.839 5
        35.600          34.800
 09  1 25  2  5  0.0000000  0 11G32G 9G 5G11G12G31G30G18G17G14G22
  22847160.753    22847159.978    22847159.953   -11685192.690 5  -9105341.631 5
        32.400          30.600
  24280028.734    24280028.882    24280027.078    -3144359.354 1  -2450143.674 1
        11.000           9.000
  23353230.968    23353229.897    23353229.580    -9420248.487 4  -7340451.424 4
        25.600          24.900
  22577778.185    22577777.958    22577775.977   -12073494.865 5  -9407916.136 4
        32.700          29.500
  23727023.061    23727022.989    23727021.076    -8021323.901 4  -6250381.299 4
        24.200          26.200
  22353789.960    22353789.689    22353787.382   -14245218.214 6 -11100167.048 5
        36.200          35.100
  23830139.778    23830139.348    23830138.393    -5749073.651 3  -4479796.089 3
        18.600          20.500
  24779201.163    24779202.975    24779202.349    -3238387.720    -2523411.451 1
                         6.500
  24987791.373    24987791.960    24987792.321    -1590729.423 2  -1239528.229 3
        13.900          20.500
  20423352.562    20423352.019    20423349.848   -24098909.533 6 -18778365.110 7
        39.300          46.100
  22001045.654    22001045.394    22001042.119   -16630463.571 5 -12958792.808 5
        35.900          34.900
 09  1 25  2  5 30.0000000  0 11G32G 9G 5G11G12G31G30G18G17G14G22
  22831356.729    22831356.030    22831355.813   -11768242.324 5  -9170055.631 5
        32.600          30.100
  24302405.567    24302405.146    24302403.333    -3026777.007 1  -2358521.087 1
        11.000           6.500
  23344621.736    23344620.799    23344620.570    -9465489.204 4  -7375703.923 4
        25.600          25.600
  22577361.358    22577361.076    22577359.198   -12075686.117 5  -9409623.605 4
        33.000          29.200
  23721127.101    23721127.218    23721124.821    -8052307.794 4  -6274524.586 4
        25.300          26.200
  22335966.048    22335966.007    22335963.986   -14338881.234 6 -11173151.195 5
        36.200          35.400
  23813360.017    23813359.913    23813358.518    -5837251.215 3  -4548505.880 3
        18.600          19.900
  24799570.552    24799570.270    24799568.569    -3131362.255    -2440014.978 1
                         6.500
  24983612.191    24983611.852    24983608.164    -1612696.273 2  -1256645.198 2
        13.900          15.100
  20426635.360    20426634.861    20426633.718   -24081658.136 6 -18764922.458 7
        39.300          46.100
  22016616.362    22016616.100    22016612.825   -16548638.743 5 -12895033.216 5
        35.700          34.600
 09  1 25  2  6  0.0000000  0 11G32G 9G 5G11G12G31G30G18G17G14G22
  22815587.265    22815586.328    22815586.315   -11851110.905 5  -9234628.546 5
        32.300          30.100
  24324820.741    24324820.628    24324819.321    -2908981.039 1  -2266732.011
         6.500           3.000
  23336116.418    23336115.703    23336115.361    -9510182.516 4  -7410529.870 4
        25.300          24.900
  22577053.554    22577053.273    22577051.151   -12077302.961 5  -9410883.483 4
        33.000          28.800
  23715334.962    23715334.750    23715332.979    -8082745.640 4  -6298242.379 4
        25.600          26.800
  22318205.255    22318205.260    22318203.358   -14432213.440 6 -11245877.571 5
        36.100          35.500
  23796639.789    23796639.409    23796639.308    -5925115.511 3  -4616971.541 3
        18.600          20.500
  24819954.780    24819953.444    24819953.789    -3024238.720    -2356542.119
                         3.000
  24979536.674    24979536.610    24979534.170    -1634115.963 2  -1273335.883 2
        13.900          13.900
  20429996.251    20429995.729    20429993.661   -24063996.462 6 -18751160.115 7
        39.300          46.300
  22032243.379    22032243.000    22032239.945   -16466518.115 5 -12831043.133 5
        35.100          34.500
 09  1 25  2  6 30.0000000  0 12G32G 9G 5G11G12G31G30G18G17G14G22G20
  22799852.644    22799851.917    22799851.852   -11933795.036 5  -9299057.725 5
        31.500          30.600
  24347277.616    24347276.583    24347276.068    -2790972.454 1  -2174777.283 1
         6.500           6.500
  23327717.027    23327716.123    23327715.642    -9554324.485 4  -7444926.210 4
        25.600          25.300
  22576855.578    22576855.419    22576853.427   -12078343.365 5  -9411694.186 4
        32.800          29.000
  23709647.506    23709647.284    23709644.947    -8112634.116 4  -6321532.102 4
        25.600          26.200
  22300508.608    22300508.432    22300506.467   -14525210.501 6 -11318342.794 5
        36.100          35.300
  23779980.630    23779980.303    23779979.364    -6012661.345 3  -4685189.031 3
        20.500          20.500
  24840356.755    24840358.993    24840357.676    -2917016.680    -2272992.577
                         3.000
  24975564.029    24975563.699    24975562.725    -1654985.627 1  -1289597.946 2
        11.000          15.100
  20433435.463    20433434.953    20433433.978   -24045923.209 6 -18737077.058 7
        39.400          46.200
  22047926.711    22047926.364    22047923.249   -16384101.663 5 -12766822.542 5
        35.100          34.500
  24893155.958    24893156.454    24893156.496            .0911           .31011
         3.000           9.000
 09  1 25  2  7  0.0000000  0 12G32G 9G 5G11G12G31G30G18G17G14G22G20
  22784154.768    22784154.021    22784153.634   -12016290.605 5  -9363339.972 5
        32.300          30.800
  24369774.271    24369774.008    24369773.125    -2672751.832    -2082657.337 1
         3.000           6.500
  23319422.861    23319421.892    23319421.408    -9597910.408 4  -7478889.254 4
        25.900          25.600
  22576767.649    22576767.390    22576765.632   -12078805.195 5  -9412054.055 4
        32.700          29.200
  23704064.983    23704064.783    23704062.661    -8141969.618 4  -6344390.937 4
        24.600          26.500
  22282876.202    22282876.302    22282874.379   -14617867.553 6 -11390543.077 5
        36.100          35.200
  23763383.130    23763383.227    23763381.542    -6099882.790 3  -4753153.790 3
        21.100          20.500
  24860780.658    24860780.987    24860779.915    -2809695.144    -2189365.392
                         3.000
  24971697.638    24971696.712    24971697.368    -1675302.738 1  -1305429.368 2
         6.500          17.000
  20436953.315    20436952.738    20436950.734   -24027436.586 6 -18722671.897 7
        39.400          46.200
  22063666.686    22063666.411    22063663.212   -16301387.504 5 -12702369.960 5
        35.300          34.300
  24872312.690    24872311.170    24872309.870     -109543.365      -85358.181 1
         3.000          11.000
 09  1 25  2  7 30.0000000  0 12G32G 9G 5G11G12G31G30G18G17G14G22G20
  22768492.957    22768491.975    22768491.766   -12098594.944 5  -9427473.221 5
        32.600          31.100
  24392310.268    24392309.565    24392310.091    -2554320.964    -1990373.511 1
         3.000           9.000
  23311235.122    23311233.978    23311233.716    -9640937.033 4  -7512416.482 4
        25.600          25.600
  22576789.983    22576789.702    22576787.769   -12078687.407 5  -9411962.272 4
        32.600          28.800
  23698587.962    23698587.906    23698586.470    -8170749.382 4  -6366816.717 4
        25.300          26.800
  22265309.685    22265309.727    22265307.574   -14710181.252 6 -11462475.815 5
        36.300          35.100
  23746846.377    23746847.359    23746846.409    -6186775.416 3  -4820862.326 3
        19.900          21.100
  24881222.668    24881223.458    24881220.731    -2702274.324    -2105660.929 1
                         6.500
  24967938.262    24967937.846    24967935.978    -1695065.037 2  -1320828.618 3
        13.900          19.900
  20440550.013    20440549.471    20440548.516   -24008535.753 6 -18707943.974 7
        39.400          46.200
  22079463.312    22079463.029    22079459.945   -16218375.880 5 -12637685.583 5
        35.400          34.100
  24851474.895    24851473.869    24851475.723     -219034.013     -170675.516 1
         3.000          11.000
 09  1 25  2  8  0.0000000  0 12G32G 9G 5G11G12G31G30G18G17G14G22G20
  22752867.810    22752866.908    22752866.898   -12180704.800 5  -9491454.914 5
        33.000          31.100
  24414886.342    24414885.768    24414885.763    -2435681.003    -1897926.790 1
         3.000           9.000
  23303154.465    23303153.553    23303152.956    -9683400.568 4  -7545504.938 4
        25.300          24.900
  22576922.868    22576922.665    22576921.004   -12077988.376 5  -9411417.576 4
        32.700          29.200
  23693218.132    23693218.170    23693215.645    -8198970.141 4  -6388806.922 4
        25.600          26.200
  22247808.951    22247809.075    22247806.993   -14802147.546 6 -11534137.848 5
        36.500          35.400
  23730375.857    23730375.791    23730374.716    -6273334.506 3  -4888310.947 3
        19.900          21.100
  24901684.527    24901684.023    24901683.663    -2594754.083    -2021878.954 1
                         9.000
  24964284.033    24964283.244    24964279.789    -1714270.151 2  -1335793.587 2
        12.600          16.100
  20444225.699    20444225.147    20444223.150   -23989219.959 6 -18692892.704 7
        39.500          46.200
  22095316.510    22095316.230    22095313.147   -16135066.175 5 -12572768.936 5
        34.600          33.900
  24830649.692    24830649.878    24830652.062     -328468.864 1   -255949.424 1
         6.500           6.500
 09  1 25  2  8 30.0000000  0 12G32G 9G 5G11G12G31G30G18G17G14G22G20
  22737279.719    22737278.704    22737278.966   -12262619.404 5  -9555284.469 5
        32.700          31.500
  24437501.577    24437501.450    24437501.884    -2316835.963 1  -1805320.280 1
         9.000           9.000
  23295181.136    23295180.492    23295179.948    -9725299.912 4  -7578153.774 4
        26.200          25.600
  22577166.386    22577166.287    22577164.414   -12076709.150 5  -9410420.774 4
        33.000          29.200
  23687953.905    23687954.160    23687952.345    -8226630.905 4  -6410360.764 4
        24.600          25.900
  22230374.613    22230374.710    22230372.977   -14893764.856 6 -11605527.948 5
        36.400          35.800
  23713968.794    23713968.789    23713967.433    -6359557.305 3  -4955497.535 3
        21.600          22.600
  24922164.313    24922162.085    24922163.392    -2487135.734    -1938020.567 2
                        12.600
  24960732.729    24960733.547    24960730.493    -1732918.121 1  -1350324.479 2
         9.000          12.600
  20447979.936    20447979.433    20447978.508   -23969490.977 6 -18677519.468 7
        39.500          46.200
  22111226.434    22111226.082    22111222.959   -16051460.386 5 -12507621.575 5
        34.500          34.000
  24809836.857    24809837.291    24809837.299     -437846.686 1   -341178.886 1
         6.500           9.000
 09  1 25  2  9  0.0000000  0 12G32G 9G 5G11G12G31G30G18G17G14G22G20
  22721728.478    22721727.599    22721727.715   -12344341.873 5  -9618964.299 5
        32.600          31.500
  24460156.339    24460155.542    24460153.881    -2197793.536 1  -1712559.971 1
         6.500          11.000
  23287314.877    23287314.012    23287314.090    -9766637.616 4  -7610364.963 4
        25.900          26.200
  22577519.417    22577519.242    22577517.262   -12074854.622 5  -9408975.689 4
        33.000          29.200
  23682797.085    23682796.573    23682794.178    -8253735.421 4  -6431481.155 4
        24.600          26.200
  22213006.572    22213006.609    22213004.730   -14985035.632 6 -11676648.011 5
        36.700          35.900
  23697623.993    23697623.967    23697623.804    -6445445.242 3  -5022423.187 3
        21.100          23.400
  24942658.006    24942661.075    24942659.484    -2379425.770    -1854090.726 1
                         9.000
  24957290.939    24957291.450    24957291.006    -1751013.285 2  -1364424.630 3
        17.800          20.500
  20451811.927    20451811.424    20451809.420   -23949353.926 6 -18661828.261 7
        39.500          46.300
  22127191.086    22127190.817    22127187.914   -15967564.343 5 -12442248.047 5
        34.500          34.300
  24789034.155    24789033.400    24789031.764     -547170.632 1   -426366.322 1
         6.500           9.000
 09  1 25  2  9 30.0000000  0 12G32G 9G 5G11G12G31G30G18G17G14G22G20
  22706214.801    22706214.041    22706213.885   -12425867.379 5  -9682490.660 5
        33.200          31.600
  24482847.019    24482846.014    24482845.611    -2078553.477    -1619645.693 1
         3.000          11.000
  23279556.334    23279555.286    23279555.078    -9807408.509 4  -7642134.468 4
        25.300          25.300
  22577982.507    22577982.117    22577980.181   -12072421.837 5  -9407080.014 4
        32.700          29.200
  23677745.754    23677745.289    23677743.725    -8280278.870 4  -6452164.365 4
        25.300          26.500
  22195705.366    22195705.297    22195703.403   -15075954.526 6 -11747493.894 6
        37.000          36.100
  23681345.196    23681345.512    23681344.702    -6530991.682 3  -5089082.697 3
        21.600          23.400
  24963175.161    24963172.686    24963172.679    -2271622.284    -1770088.054 1
                         6.500
  24953952.990    24953952.807    24953952.497    -1768551.541 2  -1378090.782 2
        17.800          17.800
  20455722.154    20455721.577    20455720.482   -23928806.253 6 -18645817.085 7
        39.500          46.600
  22143211.549    22143211.270    22143208.399   -15883376.100 5 -12376646.838 5
        34.100          34.100
  24768242.517    24768241.738    24768238.938     -656435.508 1   -511507.741 1
         9.000           6.500
 09  1 25  2 10  0.0000000  0 12G32G 9G 5G11G12G31G30G18G17G14G22G20
  22690739.528    22690738.597    22690738.488   -12507189.731 5  -9745858.718 5
        32.600          31.500
  24505575.043    24505573.366    24505573.459    -1959113.943    -1526575.973 1
                        11.000
  23271906.790    23271906.013    23271905.685    -9847605.771 4  -7673457.016 4
        25.600          24.900
  22578555.997    22578555.839    22578553.804   -12069406.505 5  -9404730.403 4
        32.400          28.800
  23672802.732    23672802.564    23672800.228    -8306255.085 4  -6472405.572 4
        25.900          26.200
  22178472.403    22178472.359    22178470.401   -15166514.464 6 -11818060.061 6
        37.200          36.200
  23665132.951    23665133.182    23665132.012    -6616188.590 3  -5155469.902 3
        21.600          23.000
  24983706.959    24983706.779    24983703.630    -2163722.054    -1686010.106
                         3.000
  24950720.470    24950723.022    24950720.189    -1785527.631 2  -1391318.823 1
        12.600           9.000
  20459710.958    20459710.426    20459708.462   -23907844.267 6 -18629483.070 7
        39.500          46.400
  22159288.105    22159287.939    22159284.983   -15798892.217 5 -12310815.252 5
        34.100          33.600
  24747461.478    24747460.810    24747458.784     -765634.914 1   -596598.161 1
         9.000           6.500
 09  1 25  2 10 30.0000000  0 12G32G 9G 5G11G12G31G30G18G17G14G22G20
  22675302.064    22675301.386    22675301.438   -12588313.347 5  -9809071.911 5
        33.200          31.800
  24528338.026    24528339.172    24528338.412    -1839484.069    -1433357.901 1
         3.000          11.000
  23264366.285    23264365.416    23264364.740    -9887233.458 4  -7704335.717 4
        26.200          25.300
  22579239.605    22579239.438    22579237.316   -12065814.622 5  -9401931.539 4
        32.700          28.800
  23667965.944    23667965.871    23667963.984    -8331668.875 4  -6492208.519 4
        24.900          25.900
  22161306.947    22161307.070    22161304.976   -15256719.253 6 -11888349.490 6
        37.400          36.400
  23648985.667    23648985.691    23648985.456    -6701039.038 3  -5221587.110 3
        20.500          22.600
  25004256.671    25004255.988    25004254.701    -2055732.128    -1601861.989

  24947597.309    24947596.279    24947595.486    -1801946.927    -1404113.103 1
         3.000          11.000
  20463777.449    20463776.955    20463775.899   -23886474.580 6 -18612831.364 7
        39.600          46.500
  22175419.868    22175419.655    22175416.568   -15714119.816 5 -12244758.851 5
        34.000          33.500
  24726692.084    24726692.529    24726691.387     -874773.207 1   -681640.921 1
        11.000           6.500
