     2.11           OBSERVATION DATA    G (GPS)             RINEX VERSION / TYPE
teqc  2008Oct2      WCDA Operator       20090128 00:18:42UTCPGM / RUN BY / DATE
Solaris x86 5.10|AMD64|cc SC5.8 -xarch=amd64|=+|=+          COMMENT
teqc  2008Oct2      WCDA Operator       20090127 01:18:16UTCCOMMENT
flin  WCDA-ACP   965000   CFS Flin Flon SASK Canada         MARKER NAME
40135M001                                                   MARKER NUMBER
PGC-WCDA            GEOL. SURV. CANADA                      OBSERVER / AGENCY
1115                AOA BENCHMARK ACT   3.3.32.4            REC # / TYPE / VERS
231                 AOAD/M_T        SCIS                    ANT # / TYPE
  -766174.4630 -3611375.3160  5184056.2210                  APPROX POSITION XYZ
        0.1500        0.0000        0.0000                  ANTENNA: DELTA H/E/N
     1     1                                                WAVELENGTH FACT L1/2
     7    C1    P1    P2    L1    L2    S1    S2            # / TYPES OF OBSERV
STATION INFORMATION EFFECTIVE FROM: 2001/01/13 18:20:00     COMMENT
                                TO: CURRENT DATE (above)    COMMENT
BIT 2 OF LLI FLAGS (+4) DATA COLLECTED UNDER 'AS' CONDITION COMMENT
L1 PHASE CENTRE 0.110m ABOVE ARP                            COMMENT
L2 PHASE CENTRE 0.128m ABOVE ARP                            COMMENT
where ARP is the Antenna Reference Point for HI measurement COMMENT
CONTACT gps@pgc.nrcan.gc.ca FOR ADDITIONAL INFORMATION      COMMENT
    P1 =    P1  TurboRogue; =    Y1  Benchmark              COMMENT
    L1 = L1(CA)                                             COMMENT
    P2 =    P2  TurboRogue; =    Y2  Benchmark              COMMENT
    L2 = L2(P2) TurboRogue; = L2(Y2) Benchmark              COMMENT
 SNR is mapped to RINEX snr flag value [0-9]                COMMENT
  L1 & L2: min(max(int(snr_dBHz/6), 0), 9)                  COMMENT
  2009     1    27     0     0    0.0000000     GPS         TIME OF FIRST OBS
                                                            END OF HEADER
 09  1 27  0  0  0.0000000  0 10G28G19G15G21G 6G 3G 9G14G18G22
  25492266.161    25492264.861    25492263.607     -386849.815 2   -301441.669 1
        12.600           9.000
  23010331.303    23010330.032    23010328.099   -10279516.625 5  -8010009.939 5
        33.100          30.600
  25197156.251    25197157.451    25197156.987     -155075.990     -120826.052 2
                        12.600
  23505579.082    23505578.876    23505578.027   -10709778.639 3  -8345277.725 2
        21.100          17.000
  24150086.676    24150086.381    24150087.200    -2890544.321 3  -2252373.931 3
        19.900          19.300
  24069782.847    24069782.003    24069782.841    -2450803.279 3  -1909718.194 3
        20.500          20.500
  21430007.756    21430007.225    21430006.563   -18072426.183 6 -14082402.227 5
        37.400          35.300
  21927494.674    21927494.246    21927493.242   -15992756.564 6 -12461880.341 5
        36.400          33.500
  21060068.100    21060067.484    21060065.938   -22778122.823 6 -17749173.871 6
        41.700          40.300
  20272177.169    20272176.778    20272173.682   -25674746.852 7 -20006286.380 8
        44.600          49.900
 09  1 27  0  0 30.0000000  0 10G28G19G15G21G 6G 3G 9G14G18G22
  25495330.865    25495328.870    25495328.154     -370738.837 2   -288887.714 1
        12.600           9.000
  23014666.068    23014664.738    23014662.443   -10256737.797 5  -7992260.204 5
        33.400          30.400
  25217818.840    25217818.644    25217819.093      -46493.896      -36216.687 1
                        11.000
  23526730.366    23526729.792    23526729.334   -10598628.289 3  -8258667.091 2
        19.300          17.800
  24166728.216    24166727.780    24166728.799    -2803093.511 3  -2184230.472 3
        19.300          19.900
  24086385.676    24086384.959    24086385.370    -2363556.025 3  -1841733.336 3
        21.100          21.100
  21428017.079    21428016.585    21428015.908   -18082887.706 6 -14090554.062 5
        37.600          35.400
  21911885.765    21911885.353    21911884.143   -16074782.188 6 -12525796.399 5
        36.400          33.600
  21069701.063    21069700.462    21069698.785   -22727501.681 6 -17709728.826 6
        41.800          40.100
  20270728.400    20270728.112    20270725.180   -25682358.954 7 -20012217.881 8
        44.600          50.000
 09  1 27  0  1  0.0000000  0 10G28G19G15G21G 6G 3G 9G14G18G22
  25498488.965    25498488.417    25498487.552     -354131.707     -275947.057 1
         3.000          11.000
  23019107.177    23019105.634    23019103.885   -10233399.281 5  -7974074.349 5
        33.100          31.000
  25238489.361    25238490.169    25238487.521       62124.078       48420.648 1
                        11.000
  23547917.264    23547916.565    23547915.490   -10487293.805 3  -8171912.988 2
        19.900          17.800
  24183407.429    24183407.235    24183408.032    -2715443.771 3  -2115932.017 3
        18.600          20.500
  24103034.270    24103033.672    24103034.670    -2276062.629 3  -1773556.715 3
        20.500          20.500
  21426164.137    21426163.565    21426163.037   -18092624.660 6 -14098141.287 5
        37.500          35.400
  21896341.863    21896341.205    21896340.111   -16156466.949 6 -12589446.851 5
        36.500          33.900
  21079398.946    21079398.274    21079396.511   -22676539.298 6 -17670017.873 6
        41.700          39.900
  20269355.451    20269355.087    20269351.931   -25689574.868 7 -20017840.665 8
        44.700          50.000
 09  1 27  0  1 30.0000000  0 10G28G19G15G21G 6G 3G 9G14G18G22
  25501743.510    25501743.713    25501741.948     -337027.725 1   -262619.198 1
         6.500          11.000
  23023655.240    23023653.385    23023651.816   -10209500.791 5  -7955452.153 5
        33.000          31.000
  25259164.687    25259164.974    25259163.348      170777.108      133085.327 1
         3.000           9.000
  23569138.403    23569137.587    23569136.598   -10375776.415 3  -8085016.373 2
        19.900          17.800
  24200123.798    24200123.529    24200124.713    -2627596.910 2  -2047479.961 3
        17.800          19.900
  24119730.830    24119730.333    24119730.875    -2188324.815 3  -1705189.633 3
        20.500          19.900
  21424449.467    21424449.042    21424448.203   -18101635.284 6 -14105162.545 5
        37.700          35.400
  21880862.848    21880862.367    21880861.453   -16237808.174 6 -12652829.603 5
        36.600          34.000
  21089161.839    21089161.196    21089159.510   -22625234.764 6 -17630040.314 6
        41.600          39.900
  20268057.865    20268057.604    20268054.463   -25696393.099 7 -20023153.566 8
        44.700          50.000
 09  1 27  0  2  0.0000000  0 10G28G19G15G21G 6G 3G 9G14G18G22
  25505094.676    25505093.993    25505094.646     -319418.959     -248898.078 2
                        12.600
  23028310.811    23028309.144    23028307.107   -10185035.453 5  -7936388.265 5
        32.700          30.400
  25279849.411    25279850.059    25279848.561      279471.721      217782.413 1
         3.000           9.000
  23590395.365    23590394.879    23590393.419   -10264070.209 3  -7997972.630 2
        21.100          17.800
  24216880.145    24216879.333    24216879.549    -2539547.513 2  -1978870.069 3
        17.800          19.300
  24136474.664    24136474.042    24136473.702    -2100337.263 3  -1636627.927 3
        20.500          19.300
  21422874.666    21422874.133    21422873.367   -18109911.018 6 -14111611.160 5
        37.600          35.400
  21865451.616    21865451.102    21865449.898   -16318796.291 6 -12715937.215 5
        37.100          34.100
  21098991.277    21098990.636    21098988.896   -22573580.784 6 -17589790.460 6
        41.600          39.700
  20266837.820    20266837.495    20266834.347   -25702805.002 7 -20028149.849 8
        44.800          50.000
 09  1 27  0  2 30.0000000  0 10G28G19G15G21G 6G 3G 9G14G18G22
  25508539.802    25508541.505    25508539.720     -301306.475     -234784.474
                         3.000
  23033073.393    23033071.951    23033070.425   -10160004.399 5  -7916883.554 5
        31.800          30.400
  25300539.223    25300541.031    25300542.169      388206.141      302510.541 1
         3.000           9.000
  23611688.064    23611687.433    23611686.074   -10152177.260 3  -7910783.363 3
        22.100          18.600
  24233673.065    24233672.831    24233672.035    -2451298.499 3  -1910104.629 2
        18.600          17.800
  24153265.550    24153264.103    24153264.721    -2012103.391 3  -1567874.292 3
        19.300          19.900
  21421439.689    21421439.267    21421438.481   -18117451.357 6 -14117486.747 5
        37.700          35.300
  21850107.590    21850106.990    21850105.718   -16399429.916 6 -12778768.592 5
        37.100          34.300
  21108886.990    21108886.411    21108884.603   -22521578.179 6 -17549268.948 6
        41.500          39.600
  20265694.980    20265694.619    20265691.468   -25708810.647 7 -20032829.566 8
        44.700          50.000
 09  1 27  0  3  0.0000000  0 10G28G19G15G21G 6G 3G 9G14G18G22
  25512084.105    25512084.191    25512082.940     -282690.809 1   -220278.786 1
         6.500           6.500
  23037944.406    23037942.683    23037941.315   -10134408.757 5  -7896938.908 5
        31.500          30.600
  25321240.596    25321240.236    25321241.914      496979.116 1    387268.664 1
         6.500           9.000
  23633015.508    23633015.056    23633013.669   -10040099.743 3  -7823450.275 2
        21.100          17.800
  24250504.233    24250503.605    24250502.397    -2362852.604 3  -1841185.789 2
        18.600          17.800
  24170100.432    24170100.741    24170101.472    -1923625.926 3  -1498930.837 3
        19.900          18.600
  21420144.916    21420144.379    21420143.749   -18124256.029 6 -14122789.079 5
        37.600          35.500
  21834831.016    21834830.531    21834829.303   -16479707.635 6 -12841322.637 5
        37.100          34.400
  21118849.053    21118848.378    21118846.773   -22469227.167 6 -17508475.949 6
        41.400          39.600
  20264629.625    20264629.267    20264626.133   -25714409.154 7 -20037192.032 8
        44.700          50.000
 09  1 27  0  3 30.0000000  0 10G28G19G15G21G 6G 3G 9G14G18G22
  25515721.867    25515722.661    25515720.929     -263572.948 1   -205381.720 1
         6.500           9.000
  23042922.076    23042920.765    23042919.218   -10108250.008 5  -7876555.471 5
        32.000          30.600
  25341948.035    25341947.389    25341945.090      605788.353 1    472055.027 1
         9.000           9.000
  23654378.020    23654377.017    23654376.056    -9927840.596 3  -7735975.663 2
        20.500          17.000
  24267370.723    24267370.782    24267371.303    -2274213.179 2  -1772116.136 3
        17.800          19.300
  24186983.429    24186983.023    24186983.771    -1834908.464 3  -1429800.378 2
        19.900          17.800
  21418990.219    21418989.674    21418988.803   -18130324.821 6 -14127517.998 5
        37.700          35.400
  21819622.419    21819621.930    21819620.877   -16559628.608 6 -12903598.705 5
        37.100          34.600
  21128877.202    21128876.584    21128874.919   -22416528.828 6 -17467412.309 6
        41.300          39.400
  20263641.577    20263641.248    20263638.174   -25719600.974 7 -20041237.600 8
        44.700          50.000
 09  1 27  0  4  0.0000000  0 10G28G19G15G21G 6G 3G 9G14G18G22
  25519453.839    25519454.276    25519452.517     -243954.826 1   -190094.803 1
         6.500           6.500
  23048006.442    23048005.163    23048003.130   -10081531.023 5  -7855735.485 4
        32.000          29.900
  25362658.111    25362658.596    25362655.071      714630.972 1    556867.459 1
         9.000           9.000
  23675773.887    23675773.247    23675772.368    -9815403.019 3  -7648362.007 2
        19.300          15.100
  24284274.409    24284273.612    24284275.970    -2185384.258 2  -1702898.841 3
        17.000          19.300
  24203910.940    24203909.956    24203911.221    -1745954.969 3  -1360486.000 2
        18.600          17.800
  21417974.861    21417974.460    21417973.623   -18135658.605 6 -14131674.186 5
        37.600          35.300
  21804482.100    21804481.440    21804480.353   -16639192.463 6 -12965596.499 5
        37.200          34.600
  21138971.152    21138970.559    21138968.820   -22363484.647 6 -17426079.179 6
        41.400          39.200
  20262730.909    20262730.577    20262727.421   -25724386.886 7 -20044966.878 8
        44.800          50.100
 09  1 27  0  4 30.0000000  0  9G28G19G21G 6G 3G 9G14G18G22
  25523281.273    25523280.546    25523281.523     -223851.041 1   -174429.543 1
         6.500           9.000
  23053194.838    23053193.507    23053191.637   -10054266.372 5  -7834490.305 4
        32.100          29.900
  23697200.556    23697200.023    23697199.053    -9702803.082 2  -7560621.825 2
        17.800          16.100
  24301211.119    24301210.585    24301211.605    -2096382.424 2  -1633546.779 2
        17.000          17.800
  24220880.901    24220880.000    24220880.334    -1656782.161 2  -1291000.732 2
        17.800          17.000
  21417097.557    21417097.083    21417095.995   -18140270.809 6 -14135268.105 5
        38.000          35.200
  21789407.041    21789406.616    21789405.461   -16718411.704 6 -13027325.760 5
        37.400          34.800
  21149128.171    21149127.564    21149125.739   -22310109.640 6 -17384488.258 6
        41.400          39.100
  20261894.854    20261894.540    20261891.471   -25728780.169 7 -20048390.209 8
        44.800          50.100
 09  1 27  0  5  0.0000000  0  9G28G19G21G 6G 3G 9G14G18G22
  25527199.455    25527198.590    25527199.107     -203253.342     -158379.349 1
                         6.500
  23058488.462    23058487.151    23058485.253   -10026448.246 5  -7812813.847 4
        32.300          29.900
  23718659.170    23718658.884    23718658.451    -9590034.132 2  -7472750.000 2
        16.100          16.100
  24318181.761    24318181.249    24318182.420    -2007201.755 2  -1564055.372 2
        17.800          16.100
  24237891.950    24237891.525    24237891.529    -1567384.362 2  -1221340.139 2
        17.800          17.800
  21416358.717    21416358.191    21416357.462   -18144152.037 6 -14138292.435 5
        37.700          35.300
  21774399.738    21774399.184    21774398.140   -16797276.050 6 -13088778.481 5
        37.500          35.100
  21159349.507    21159348.862    21159347.165   -22256395.766 6 -17342633.289 6
        41.200          39.100
  20261135.180    20261134.922    20261131.862   -25732771.803 7 -20051500.571 8
        44.800          50.100
 09  1 27  0  5 30.0000000  0  9G28G19G21G 6G 3G 9G14G18G22
  25531220.364    25531219.187    25531215.776     -182136.364     -141924.453 1
         3.000           9.000
  23063892.283    23063890.822    23063889.015    -9998051.647 5  -7790686.643 4
        32.000          29.900
  23740155.587    23740154.850    23740154.052    -9477071.850 2  -7384727.505 2
        16.100          15.100
  24335190.125    24335190.399    24335190.926    -1917818.552 3  -1494406.167 2
        18.600          16.100
  24254951.332    24254950.379    24254951.232    -1477738.028 2  -1151485.881 2
        16.100          17.800
  21415764.363    21415763.852    21415762.972   -18147275.625 6 -14140726.399 5
        37.700          35.200
  21759465.143    21759464.608    21759463.631   -16875757.481 6 -13149932.823 5
        37.500          35.200
  21169640.490    21169639.903    21169638.099   -22202316.510 6 -17300493.606 6
        41.200          39.000
  20260457.183    20260456.853    20260453.718   -25736335.209 7 -20054277.245 8
        44.800          50.100
 09  1 27  0  6  0.0000000  0  9G28G19G21G 6G 3G 9G14G18G22
  25535335.253    25535333.778    25535331.982     -160515.011 1   -125076.712 1
         6.500           9.000
  23069402.931    23069401.615    23069399.725    -9969092.522 5  -7768121.092 4
        31.800          29.700
  23761685.398    23761685.213    23761684.425    -9363933.111 2  -7296567.478 2
        17.800          15.100
  24352236.356    24352235.735    24352235.687    -1828250.064 2  -1424612.581 2
        17.800          16.100
  24272053.823    24272053.618    24272054.826    -1387860.341 2  -1081451.325 3
        15.100          18.600
  21415311.129    21415310.839    21415310.201   -18149656.057 6 -14142581.280 5
        37.600          35.600
  21744601.106    21744600.594    21744599.512   -16953869.128 6 -13210799.029 5
        37.900          35.200
  21179998.047    21179997.447    21179995.661   -22147887.175 6 -17258081.138 6
        41.300          38.800
  20259857.883    20259857.597    20259854.471   -25739484.236 7 -20056731.029 8
        44.800          50.100
 09  1 27  0  6 30.0000000  0  9G28G19G21G 6G 3G 9G14G18G22
  25539542.149    25539540.056    25539539.069     -138411.371 1   -107853.171 1
         9.000          11.000
  23075016.538    23075014.955    23075013.702    -9939593.050 5  -7745134.490 5
        31.600          30.400
  23783243.305    23783242.895    23783242.942    -9250641.253 2  -7208288.157 2
        17.000          13.900
  24369310.135    24369309.779    24369310.942    -1738520.420 2  -1354693.392 2
        15.100          16.100
  24289196.267    24289196.128    24289196.876    -1297775.812 2  -1011255.617 3
        15.100          18.600
  21414995.715    21414995.282    21414994.896   -18151313.965 6 -14143873.151 5
        37.600          35.800
  21729803.398    21729802.850    21729801.939   -17031630.799 6 -13271392.528 5
        37.700          35.400
  21190417.927    21190417.390    21190415.571   -22093129.676 6 -17215412.952 6
        41.300          38.600
  20259333.503    20259333.232    20259330.133   -25742239.665 7 -20058878.112 8
        44.800          50.000
 09  1 27  0  7  0.0000000  0  9G28G19G21G 6G 3G 9G14G18G22
  25543836.828    25543837.100    25543837.826     -115811.982      -90243.127 1
                         6.500
  23080735.170    23080733.739    23080732.322    -9909540.604 5  -7721717.003 5
        32.100          30.400
  23804833.881    23804833.991    23804832.656    -9137184.822 2  -7119880.595 2
        17.800          13.900
  24386416.987    24386417.412    24386418.708    -1648618.341 2  -1284639.860 2
        15.100          17.000
  24306381.079    24306380.765    24306380.570    -1207473.292 2   -940890.049 3
        17.000          19.300
  21414820.616    21414820.060    21414819.504   -18152235.202 6 -14144590.991 5
        37.700          35.600
  21715075.356    21715074.814    21715073.847   -17109027.004 6 -13331701.245 5
        37.700          35.500
  21200903.070    21200902.451    21200900.600   -22038030.413 6 -17172478.456 6
        41.200          38.500
  20258886.839    20258886.515    20258883.319   -25744587.479 7 -20060707.575 8
        44.800          50.000
 09  1 27  0  7 30.0000000  0  9G28G19G21G 6G 3G 9G14G18G22
  25548233.406    25548233.467    25548232.890      -92716.150      -72246.398 1
         3.000           9.000
  23086559.414    23086558.122    23086556.199    -9878935.046 5  -7697868.521 5
        32.400          30.400
  23826455.465    23826455.078    23826453.929    -9023564.271 3  -7031345.116 2
        18.600          12.600
  24403557.416    24403558.085    24403558.468    -1558545.332 3  -1214453.115 2
        18.600          16.100
  24323606.153    24323605.365    24323605.705    -1116954.523 2   -870355.990 3
        17.800          18.600
  21414785.726    21414785.207    21414784.581   -18152418.171 6 -14144733.564 5
        37.700          35.600
  21700417.563    21700416.933    21700415.891   -17186055.021 6 -13391723.062 5
        37.800          35.600
  21211453.151    21211452.569    21211450.983   -21982588.447 6 -17129276.922 6
        41.100          38.500
  20258517.946    20258517.640    20258514.430   -25746525.729 7 -20062217.894 8
        44.900          50.000
 09  1 27  0  8  0.0000000  0  9G28G19G21G 6G 3G 9G14G18G22
  25552722.933    25552723.363    25552721.560      -69132.197      -53869.290 2
         3.000          15.100
  23092487.053    23092485.521    23092483.796    -9847785.152 5  -7673595.895 5
        31.800          30.400
  23848106.606    23848106.054    23848104.468    -8909788.938 3  -6942689.043 2
        18.600          13.900
  24420729.775    24420729.438    24420728.817    -1468311.212 3  -1144140.818 2
        19.300          16.100
  24340870.176    24340869.773    24340871.078    -1026229.720 2   -799661.361 3
        17.800          19.900
  21414889.936    21414889.450    21414888.999   -18151869.821 6 -14144306.272 5
        37.600          35.600
  21685828.270    21685827.817    21685826.711   -17262720.943 6 -13451462.730 5
        37.700          35.700
  21222067.233    21222066.589    21222064.893   -21926812.082 6 -17085814.817 6
        41.200          38.400
  20258225.932    20258225.545    20258222.316   -25748061.173 7 -20063414.340 8
        44.800          50.000
 09  1 27  0  8 30.0000000  0  9G28G19G21G 6G 3G 9G14G18G22
  25557303.763    25557304.313    25557302.482      -45057.738      -35110.005 2
         3.000          12.600
  23098518.872    23098517.532    23098515.406    -9816088.942 5  -7648897.545 5
        32.000          30.200
  23869786.910    23869786.279    23869785.167    -8795858.152 3  -6853911.851 2
        18.600          15.100
  24437930.556    24437929.994    24437930.859    -1377915.723 2  -1073702.807 2
        16.100          16.100
  24358174.734    24358174.262    24358174.932     -935298.320 2   -728805.737 3
        17.800          19.900
  21415134.089    21415133.625    21415133.103   -18150586.969 6 -14143306.646 5
        37.600          35.600
  21671309.067    21671308.600    21671307.423   -17339020.144 6 -13510916.640 5
        38.100          35.800
  21232745.169    21232744.600    21232742.847   -21870698.641 6 -17042090.052 6
        41.100          38.200
  20258010.791    20258010.464    20258007.363   -25749190.911 7 -20064294.651 8
        44.800          50.000
 09  1 27  0  9  0.0000000  0  9G28G19G21G 6G 3G 9G14G18G22
  25561978.577    25561976.380    25561974.841      -20491.793      -15967.788 1
                         6.500
  23104654.503    23104652.971    23104650.939    -9783845.907 5  -7623773.108 5
        31.600          30.200
  23891497.022    23891496.581    23891495.477    -8681771.749 3  -6765013.391 2
        18.600          16.100
  24455162.701    24455162.492    24455164.105    -1287359.704 2  -1003139.678 2
        16.100          15.100
  24375517.137    24375516.178    24375517.163     -844161.154 2   -657789.799 3
        15.100          18.600
  21415518.608    21415518.056    21415517.249   -18148567.409 6 -14141732.960 5
        37.700          35.400
  21656860.527    21656859.927    21656858.660   -17414949.108 6 -13570082.057 6
        38.100          36.000
  21243487.664    21243487.045    21243485.270   -21814246.656 6 -16998101.488 6
        41.000          38.100
  20257873.560    20257873.189    20257870.038   -25749912.360 7 -20064856.815 8
        44.800          50.000
 09  1 27  0  9 30.0000000  0  9G28G19G21G 6G 3G 9G14G18G22
  25566748.348    25566748.148    25566746.729        4569.793        3560.852 1
                         9.000
  23110894.593    23110893.057    23110891.521    -9751052.523 5  -7598219.841 5
        31.000          30.400
  23913237.546    23913236.752    23913234.555    -8567527.236 3  -6675991.778 2
        19.300          15.100
  24472427.022    24472426.238    24472426.761    -1196641.291 2   -932450.007 2
        16.100          15.100
  24392899.680    24392898.630    24392899.356     -752817.046 2   -586612.625 3
        17.000          18.600
  21416043.951    21416043.392    21416042.663   -18145806.541 6 -14139581.632 5
        37.800          35.500
  21642483.057    21642482.538    21642481.439   -17490501.864 6 -13628954.326 6
        38.100          36.100
  21254295.519    21254294.796    21254293.102   -21757452.010 6 -16953845.916 6
        41.100          38.300
  20257814.914    20257814.585    20257811.432   -25750220.214 7 -20065096.699 8
        44.800          49.900
 09  1 27  0 10  0.0000000  0 10G19G28G11G21G 6G 3G 9G14G18G22
  23117238.374    23117236.891    23117235.090    -9717717.374 5  -7572244.418 5
        31.500          30.200
  25571608.576    25571608.592    25571611.581       30118.997       23469.261 1
         3.000           9.000
  24903249.087    24903249.756    24903246.040           -.3541          -.66611
                         6.500
  23935005.192    23935005.308    23935003.016    -8453134.358 2  -6586854.530 2
        17.000          15.100
  24489718.550    24489718.152    24489718.556    -1105770.377 2   -861641.529 2
        17.800          16.100
  24410319.696    24410318.566    24410318.552     -661276.103 2   -515282.063 2
        17.000          17.800
  21416708.794    21416708.480    21416707.616   -18142311.345 6 -14136858.100 5
        37.600          35.300
  21628176.613    21628175.954    21628174.823   -17565684.138 6 -13687537.906 6
        38.200          36.400
  21265166.827    21265166.221    21265164.430   -21700322.290 6 -16909329.248 6
        41.100          38.100
  20257833.738    20257833.416    20257830.192   -25750121.472 7 -20065019.753 8
        44.900          49.900
 09  1 27  0 10 30.0000000  0  9G19G11G21G 6G 3G 9G14G18G22
  23123681.273    23123680.019    23123678.046    -9683857.886 5  -7545860.408 4
        31.500          29.700
  24884487.811    24884485.029    24884485.149      -98588.100      -76822.239 1
         3.000           9.000
  23956798.052    23956797.773    23956795.871    -8338611.056 2  -6497615.637 2
        17.000          12.600
  24507037.041    24507036.390    24507036.546    -1014765.678 2   -790728.810 2
        17.000          17.800
  24427772.656    24427772.459    24427772.166     -569556.597 3   -443812.346 2
        18.600          17.800
  21417510.761    21417510.273    21417509.532   -18138097.665 6 -14133574.709 5
        37.700          35.100
  21613937.319    21613936.766    21613935.701   -17640510.549 6 -13745844.194 6
        38.300          36.500
  21276098.632    21276098.079    21276096.431   -21642874.277 6 -16864564.558 6
        40.900          37.800
  20257926.956    20257926.649    20257923.528   -25749631.302 7 -20064637.799 8
        44.900          49.900
 09  1 27  0 11  0.0000000  0  9G19G11G21G 6G 3G 9G14G18G22
  23130226.864    23130225.401    23130223.343    -9649461.368 5  -7519057.940 4
        31.600          29.700
  24865768.835    24865769.756    24865768.531     -196948.705     -153466.822 1
         3.000           9.000
  23978618.904    23978618.139    23978617.066    -8223945.095 2  -6408265.591 2
        17.000          13.900
  24524381.381    24524381.230    24524382.001     -923615.583 2   -719702.789 3
        15.100          18.600
  24445262.386    24445261.929    24445262.125     -477647.257 3   -372194.694 3
        18.600          18.600
  21418452.075    21418451.564    21418450.713   -18133151.412 6 -14129720.486 5
        37.700          34.900
  21599768.882    21599768.468    21599767.513   -17714965.510 6 -13803861.037 6
        38.400          36.600
  21287093.955    21287093.265    21287091.502   -21585094.373 6 -16819541.254 6
        40.700          37.700
  20258097.516    20258097.163    20258093.924   -25748735.755 7 -20063939.968 8
        44.900          49.900
 09  1 27  0 11 30.0000000  0  9G19G11G21G 6G 3G 9G14G18G22
  23136878.829    23136877.529    23136875.519    -9614505.705 5  -7491819.764 5
        32.300          30.200
  24847099.431    24847099.851    24847097.204     -295056.757 1   -229914.618 1
         6.500          11.000
  24000470.591    24000469.797    24000469.058    -8109115.596 2  -6318788.114 2
        17.800          13.900
  24541758.449    24541758.248    24541759.402     -832299.971 2   -648547.787 3
        13.900          19.300
  24462791.928    24462791.309    24462792.390     -385527.786 2   -300413.321 2
        17.800          17.800
  21419536.930    21419536.490    21419535.759   -18127449.402 6 -14125277.358 5
        37.600          34.900
  21585676.189    21585675.612    21585674.572   -17789024.227 6 -13861569.121 6
        38.500          36.500
  21298156.507    21298155.916    21298154.204   -21526959.730 6 -16774241.529 6
        40.800          37.700
  20258349.523    20258349.155    20258345.939   -25747411.176 7 -20062907.824 8
        44.900          49.900
 09  1 27  0 12  0.0000000  0  9G19G11G21G 6G 3G 9G14G18G22
  23143632.818    23143631.586    23143629.826    -9579012.367 5  -7464162.624 5
        32.000          30.200
  24828477.015    24828475.713    24828475.878     -392929.281 1   -306178.863 2
         6.500          12.600
  24022348.285    24022347.696    24022347.218    -7994144.282 2  -6229200.136 2
        17.000          13.900
  24559162.424    24559161.884    24559163.497     -740840.889 2   -577280.995 2
        12.600          17.800
  24480356.852    24480356.786    24480357.745     -293220.701 2   -228485.741 2
        17.000          16.100
  21420762.166    21420761.663    21420760.968   -18121011.394 6 -14120260.724 5
        37.700          35.200
  21571655.182    21571654.664    21571653.576   -17862705.207 6 -13918982.863 6
        38.700          36.600
  21309282.848    21309282.212    21309280.464   -21468490.652 6 -16728681.206 6
        40.700          37.400
  20258679.440    20258679.119    20258675.979   -25745676.870 7 -20061556.413 8
        44.800          49.900
 09  1 27  0 12 30.0000000  0  9G19G11G21G 6G 3G 9G14G18G22
  23150489.295    23150487.847    23150486.112    -9542980.793 5  -7436086.086 4
        31.600          29.700
  24809897.255    24809896.728    24809897.694     -490561.737 1   -382256.086 2
        11.000          12.600
  24044254.032    24044253.231    24044252.479    -7879031.586 2  -6139502.009 1
        17.800          11.000
  24576591.809    24576591.840    24576593.501     -649239.233 1   -505903.068 2
         9.000          15.100
  24497958.540    24497957.953    24497958.690     -200727.569 2   -156413.204 2
        16.100          15.100
  21422127.532    21422127.215    21422126.533   -18113835.318 6 -14114668.972 5
        37.700          35.200
  21557706.630    21557706.085    21557705.040   -17936005.277 6 -13976099.793 6
        38.900          36.900
  21320473.178    21320472.530    21320470.661   -21409685.704 6 -16682859.162 6
        40.900          37.400
  20259087.872    20259087.597    20259084.381   -25743530.536 7 -20059883.939 8
        44.800          49.900
 09  1 27  0 13  0.0000000  0  9G19G11G21G 6G 3G 9G14G18G22
  23157448.016    23157446.704    23157444.787    -9506413.456 5  -7407592.063 4
        32.300          29.500
  24791364.594    24791363.580    24791363.895     -587952.599 1   -458145.085 1
        11.000          11.000
  24066185.161    24066184.440    24066183.743    -7763780.768 2  -6049696.180 1
        17.000           6.500
  24594050.313    24594051.321    24594050.600     -557499.009 1   -434417.240 2
        11.000          15.100
  24515593.882    24515593.240    24515594.481     -108051.889 2    -84198.421 2
        17.000          15.100
  21423633.366    21423632.976    21423632.215   -18105922.879 6 -14108503.432 5
        37.800          34.900
  21543830.719    21543830.298    21543829.010   -18008924.030 6 -14032919.589 6
        39.100          36.900
  21331726.853    21331726.294    21331724.475   -21350546.682 6 -16636776.803 6
        40.700          37.400
  20259574.587    20259574.220    20259571.114   -25740973.037 7 -20057891.080 8
        44.800          49.900
 09  1 27  0 13 30.0000000  0  9G19G11G21G 6G 3G 9G14G18G22
  23164505.743    23164504.377    23164502.378    -9469325.193 5  -7378692.128 4
        32.100          29.200
  24772875.325    24772874.607    24772874.976     -685112.650 1   -533854.210 1
        11.000           9.000
  24088139.990    24088139.085    24088139.011    -7648407.173 2  -5959794.719 1
        17.000           9.000
  24611533.447    24611532.242    24611531.820     -465636.331 1   -362835.960 2
        11.000          17.000
  24533261.663    24533261.408    24533261.923      -15210.438 2    -11854.456 2
        17.800          15.100
  21425276.932    21425276.432    21425275.423   -18097287.345 6 -14101774.437 5
        37.800          34.800
  21530025.012    21530024.530    21530023.303   -18081473.635 6 -14089451.741 6
        39.100          37.200
  21343041.431    21343040.864    21343039.062   -21291087.647 6 -16590445.084 6
        40.500          37.200
  20260136.943    20260136.653    20260133.563   -25738017.383 7 -20055587.967 8
        44.800          49.900
 09  1 27  0 14  0.0000000  0  9G19G11G21G 6G 3G 9G14G18G22
  23171664.076    23171662.513    23171660.883    -9431707.405 5  -7349379.564 4
        31.600          29.000
  24754433.786    24754433.195    24754430.863     -782029.073 1   -609373.483 1
         9.000           9.000
  24110120.185    24110119.149    24110118.453    -7532902.850 3  -5869791.398 1
        18.600           9.000
  24629037.311    24629037.715    24629038.070     -373643.513 1   -291153.272 3
         9.000          18.600
  24550960.977    24550960.811    24550961.737       77804.666 2     60624.804 2
        16.100          16.100
  21427059.294    21427058.791    21427058.224   -18087918.522 6 -14094474.051 5
        37.500          34.800
  21516291.787    21516291.284    21516290.005   -18153642.189 6 -14145686.967 6
        39.100          37.200
  21354418.895    21354418.240    21354416.555   -21231299.144 6 -16543856.636 6
        40.500          37.200
  20260777.246    20260776.947    20260773.742   -25734653.101 7 -20052966.446 8
        44.800          49.900
 09  1 27  0 14 30.0000000  0  9G19G11G21G 6G 3G 9G14G18G22
  23178924.361    23178923.135    23178920.757    -9393555.118 5  -7319650.511 4
        31.500          28.800
  24736039.644    24736038.649    24736036.082     -878692.755 1   -684695.836 1
         9.000           9.000
  24132125.294    24132124.039    24132123.925    -7417263.267 3  -5779682.669 1
        18.600          11.000
  24646566.869    24646567.523    24646569.703     -281516.846 1   -219366.238 2
         9.000          17.800
  24568695.515    24568694.934    24568694.592      170996.817 2    133242.040 2
        16.100          15.100
  21428983.284    21428982.763    21428981.878   -18077809.985 6 -14086597.266 5
        37.900          34.900
  21502632.393    21502631.871    21502630.738   -18225422.102 6 -14201619.358 6
        39.100          37.300
  21365860.098    21365859.515    21365857.899   -21171174.870 6 -16497006.553 6
        40.400          37.200
  20261496.639    20261496.268    20261492.987   -25730873.162 7 -20050021.032 8
        44.800          49.800
 09  1 27  0 15  0.0000000  0  9G19G11G21G 6G 3G 9G14G18G22
  23186285.235    23186283.689    23186281.902    -9354873.647 5  -7289509.125 4
        31.000          29.200
  24717692.784    24717691.781    24717689.125     -975104.930 1   -759822.126 1
         6.500           9.000
  24154153.912    24154154.205    24154154.806    -7301494.489 2  -5689473.261 1
        17.800          11.000
  24664124.601    24664124.590    24664124.845     -189263.023 2   -147480.136 2
        12.600          17.800
  24586461.655    24586460.790    24586461.450      264359.467 2    205992.108 2
        15.100          16.100
  21431046.623    21431046.266    21431045.501   -18066966.027 6 -14078147.420 5
        38.000          35.100
  21489046.566    21489046.010    21489044.943   -18296816.034 6 -14257250.981 6
        39.100          37.300
  21377364.409    21377363.847    21377362.018   -21110719.508 6 -16449898.470 6
        40.400          36.800
  20262294.139    20262293.820    20262290.658   -25726681.432 7 -20046754.746 8
        44.700          49.800
 09  1 27  0 15 30.0000000  0  9G19G11G21G 6G 3G 9G14G18G22
  23193745.093    23193743.779    23193742.131    -9315670.946 5  -7258961.563 4
        31.000          29.900
  24699393.569    24699392.771    24699390.087    -1071269.197 1   -834755.285 1
        11.000          11.000
  24176207.005    24176207.269    24176207.567    -7185605.230 3  -5599170.012 2
        19.300          12.600
  24681703.600    24681702.657    24681702.854      -96890.878 1    -75501.871 2
        11.000          15.100
  24604258.108    24604257.787    24604259.377      357883.524 2    278868.007 2
        15.100          17.000
  21433248.756    21433248.364    21433247.697   -18055393.129 6 -14069129.575 5
        37.600          34.900
  21475533.290    21475532.729    21475531.555   -18367828.768 6 -14312585.570 6
        39.200          37.400
  21388930.447    21388929.770    21388927.993   -21049939.507 6 -16402537.428 6
        40.200          36.700
  20263169.087    20263168.728    20263165.612   -25722083.751 7 -20043172.133 8
        44.700          49.800
 09  1 27  0 16  0.0000000  0  9G19G11G21G 6G 3G 9G14G18G22
  23201303.431    23201302.056    23201300.344    -9275949.957 5  -7228010.134 4
        30.400          29.200
  24681141.178    24681140.460    24681137.563    -1167184.666 2   -909494.579 1
        12.600          11.000
  24198283.956    24198283.064    24198282.559    -7069598.764 3  -5508775.409 1
        19.900           9.000
  24699300.496    24699300.594    24699301.463       -4404.742 1     -3434.815 2
         9.000          12.600
  24622085.966    24622085.348    24622085.436      451564.347 2    351866.057 2
        16.100          16.100
  21435589.272    21435589.003    21435588.364   -18043093.240 6 -14059545.239 5
        37.600          35.100
  21462092.582    21462092.026    21462090.767   -18438460.475 6 -14367623.253 6
        39.300          37.500
  21400557.788    21400557.203    21400555.328   -20988837.692 6 -16354925.616 6
        40.300          36.800
  20264121.017    20264120.688    20264117.579   -25717081.172 7 -20039274.014 8
        44.700          49.800
 09  1 27  0 16 30.0000000  0  9G11G19G21G 6G 3G 9G14G18G22
  24662939.351    24662938.925    24662935.219    -1262838.042 2   -984029.656 2
        12.600          12.600
  23208962.678    23208961.248    23208959.347    -9235701.891 5  -7196648.025 4
        30.600          29.200
  24220382.586    24220382.232    24220381.270    -6953467.048 3  -5418283.200 1
        19.900           9.000
  24716923.775    24716923.461    24716924.274       88203.088 1     68727.106 2
        11.000          13.900
  24639944.470    24639943.686    24639942.863      545409.940 2    424992.496 2
        16.100          13.900
  21438070.704    21438070.182    21438069.261   -18030055.850 6 -14049386.231 5
        38.000          34.900
  21448726.377    21448725.865    21448724.773   -18508699.672 6 -14422355.082 6
        39.300          37.700
  21412248.048    21412247.481    21412245.907   -20927403.932 6 -16307055.153 6
        40.000          36.700
  20265152.130    20265151.802    20265148.564   -25711662.965 7 -20035052.029 8
        44.700          49.800
 09  1 27  0 17  0.0000000  0  9G19G11G21G 6G 3G 9G14G18G22
  23216718.265    23216716.797    23216715.488    -9194945.231 5  -7164889.598 4
        30.400          29.500
  24644784.137    24644783.254    24644779.978    -1358243.845 2  -1058371.792 2
        13.900          12.600
  24242501.517    24242501.643    24242501.559    -6837229.217 3  -5327708.339 1
        18.600           9.000
  24734566.937    24734566.966    24734568.222      180913.049 2    140968.595 2
        13.900          17.000
  24657829.211    24657828.354    24657829.714      639399.964 2    498231.437 2
        12.600          13.900
  21440688.311    21440687.973    21440687.274   -18016298.691 6 -14038666.360 5
        38.100          35.200
  21435432.167    21435431.629    21435430.304   -18578561.804 6 -14476793.097 6
        39.400          37.700
  21423998.624    21423997.961    21423996.166   -20865655.464 6 -16258939.458 6
        40.000          36.500
  20266259.061    20266258.717    20266255.544   -25705845.868 7 -20030519.221 8
        44.700          49.800
 09  1 27  0 17 30.0000000  0  9G19G 9G11G21G 6G 3G14G18G22
  23224575.606    23224574.156    23224572.214    -9153656.715 5  -7132716.732 4
        31.000          29.000
  21443447.815    21443447.431    21443446.781   -18001796.953 6 -14027366.302 5
        37.900          35.200
  24626681.302    24626680.824    24626677.750    -1453374.397 2  -1132499.448 1
        16.100          11.000
  24264645.878    24264645.969    24264645.536    -6720862.134 3  -5237032.756 1
        18.600          11.000
  24752232.408    24752231.927    24752233.648      273747.419 2    213307.053 2
        12.600          17.000
  24675747.494    24675746.758    24675746.598      733556.398 2    571600.052 2
        15.100          15.100
  21422214.760    21422214.174    21422212.824   -18648020.261 6 -14530916.561 6
        39.500          37.700
  21435813.260    21435812.669    21435810.938   -20803568.109 6 -16210559.697 6
        39.800          36.500
  20267446.738    20267446.385    20267443.324   -25699604.486 7 -20025655.803 8
        44.700          49.800
 09  1 27  0 18  0.0000000  0  9G19G11G21G 6G 3G 9G14G18G22
  23232530.344    23232529.054    23232527.034    -9111851.843 5  -7100141.505 4
        30.400          28.600
  24608627.939    24608627.926    24608625.716    -1548240.811 2  -1206421.287 1
        15.100          11.000
  24286811.726    24286811.076    24286810.930    -6604381.887 3  -5146269.005 2
        18.600          12.600
  24769920.348    24769919.845    24769918.974      366689.778 1    285729.604 2
        11.000          15.100
  24693693.337    24693693.344    24693693.571      827863.117 2    645085.792 2
        16.100          16.100
  21446346.309    21446345.918    21446345.416   -17986565.070 6 -14015497.296 5
        37.700          35.200
  21409071.488    21409071.016    21409069.752   -18717088.021 6 -14584735.585 6
        39.500          38.100
  21447690.020    21447689.387    21447687.700   -20741156.236 6 -16161927.068 6
        39.800          36.500
  20268712.590    20268712.280    20268709.122   -25692952.388 7 -20020472.347 8
        44.700          49.800
 09  1 27  0 18 30.0000000  0  9G19G 9G11G21G 6G 3G14G18G22
  23240583.275    23240582.090    23240580.566    -9069533.905 5  -7067166.510 4
        30.800          29.000
  21449383.575    21449383.192    21449382.556   -17970604.910 6 -14003060.804 5
        37.900          35.100
  24590626.013    24590625.555    24590624.215    -1642842.032 2  -1280136.465 1
        13.900          11.000
  24308998.319    24308997.731    24308997.322    -6487792.344 3  -5055420.089 2
        18.600          13.900
  24787625.340    24787625.784    24787625.018      459735.758      358232.914 2
         3.000          13.900
  24711666.350    24711666.053    24711667.479      922315.663 2    718685.157 2
        12.600          17.800
  21396002.529    21396001.990    21396000.938   -18785765.249 6 -14638250.296 6
        39.500          38.300
  21459627.931    21459627.313    21459625.541   -20678421.991 6 -16113043.238 6
        39.700          36.300
  20270056.305    20270055.942    20270052.866   -25685891.101 7 -20014970.040 8
        44.600          49.800
 09  1 27  0 19  0.0000000  0  9G19G 9G14G11G21G 6G 3G18G22
  23248734.093    23248732.970    23248730.904    -9026702.344 5  -7033791.270 4
        31.300          28.800
  21452559.347    21452558.955    21452558.447   -17953915.180 6 -13990055.809 5
        37.800          35.100
  21383008.706    21383008.131    21383006.966   -18854048.720 6 -14691458.188 6
        39.600          38.400
  24572676.402    24572675.081    24572674.906    -1737173.555 2  -1353641.507 1
        12.600           6.500
  24331206.107    24331205.489    24331204.259    -6371093.402 3  -4964485.943 2
        18.600          16.100
  24805349.385    24805351.130    24805352.062      552884.655      430816.398 1
                        11.000
  24729667.260    24729666.343    24729668.391     1016912.890 1    792397.269 2
        11.000          17.800
  21471627.444    21471626.815    21471624.910   -20615364.087 6 -16063907.207 5
        39.600          35.900
  20271478.365    20271478.087    20271474.839   -25678418.044 7 -20009146.875 8
        44.700          49.600
 09  1 27  0 19 30.0000000  0  9G19G 9G14G11G21G 6G 3G18G22
  23256981.477    23256979.890    23256977.700    -8983363.230 5  -7000020.547 4
        31.000          28.400
  21455873.216    21455872.850    21455872.162   -17936500.698 6 -13976486.082 5
        37.700          34.700
  21370089.212    21370088.699    21370087.416   -18921941.521 6 -14744361.661 6
        39.700          38.600
  24554774.996    24554775.981    24554772.700    -1831236.940 1  -1426937.605 1
        11.000           9.000
  24353433.248    24353432.639    24353431.202    -6254291.699 2  -4873471.719 2
        17.800          16.100
  24823095.183    24823094.678    24823094.471      646129.395      503474.602 1
                        11.000
  24747695.328    24747694.840    24747695.128     1111648.126 2    866216.927 2
        12.600          16.100
  21483687.696    21483686.987    21483685.261   -20551987.274 6 -16014522.677 6
        39.500          36.000
  20272978.095    20272977.755    20272974.472   -25670537.180 7 -20003005.937 8
        44.700          49.600
 09  1 27  0 20  0.0000000  0  9G19G 9G14G11G21G 6G 3G18G22
  23265326.032    23265324.606    23265322.965    -8939509.825 5  -6965849.082 4
        30.200          28.600
  21459326.708    21459326.213    21459325.529   -17918353.344 6 -13962345.284 5
        37.800          34.800
  21357245.837    21357245.272    21357244.104   -18989433.633 6 -14796952.910 6
        39.600          38.600
  24536927.648    24536928.044    24536926.021    -1925020.945 1  -1500016.017 1
         6.500           6.500
  24375680.840    24375679.639    24375678.557    -6137380.471 2  -4782372.151 2
        16.100          15.100
  24840858.213    24840859.574    24840857.264      739476.072 1    576212.243 1
         6.500           9.000
  24765750.870    24765750.446    24765750.277     1206527.121 2    940148.599 2
        12.600          16.100
  21495810.059    21495809.452    21495807.577   -20488283.442 6 -15964883.326 5
        39.500          35.800
  20274556.976    20274556.649    20274553.490   -25662240.006 7 -19996540.604 8
        44.600          49.700
 09  1 27  0 20 30.0000000  0  9G19G 9G14G11G21G 6G 3G18G22
  23273767.387    23273765.964    23273764.156    -8895151.348 5  -6931284.031 4
        30.100          28.600
  21462917.854    21462917.411    21462916.703   -17899481.214 6 -13947639.725 5
        37.800          34.700
  21344477.533    21344476.970    21344475.687   -19056531.644 6 -14849237.068 6
        39.600          38.600
  24519132.494    24519134.173    24519133.309    -2018530.788    -1572880.829 1
                         9.000
  24397946.502    24397945.829    24397944.742    -6020369.906 2  -4691195.173 2
        16.100          12.600
  24858638.866    24858639.500    24858638.599      832914.046 1    649021.042 1
         6.500          11.000
  24783830.790    24783830.298    24783831.177     1301538.767 2   1014183.638 2
        12.600          16.100
  21507992.932    21507992.316    21507990.619   -20424261.366 6 -15914995.991 5
        39.300          35.700
  20276213.715    20276213.378    20276210.152   -25653533.790 7 -19989756.535 8
        44.600          49.600
 09  1 27  0 21  0.0000000  0  9G19G 9G14G18G11G21G 6G 3G22
  23282304.251    23282302.873    23282300.963    -8850290.673 5  -6896327.669 4
        30.800          28.400
  21466646.961    21466646.441    21466645.580   -17879885.722 6 -13932370.502 5
        38.100          34.600
  21331784.158    21331783.609    21331782.482   -19123234.960 6 -14901213.673 6
        39.700          38.800
  21520236.281    21520235.692    21520234.034   -20359922.418 6 -15864861.747 5
        39.300          35.800
  24501391.389    24501390.976    24501390.857    -2111764.618    -1645530.531 1
                        11.000
  24420230.932    24420230.321    24420229.393    -5903262.743 2  -4599942.920 1
        15.100          11.000
  24876435.407    24876436.313    24876436.608      926439.995      721898.365 1
                        11.000
  24801934.962    24801934.320    24801935.136     1396679.574 2   1088319.350 2
        12.600          13.900
  20277948.101    20277947.788    20277944.749   -25644418.859 7 -19982653.987 8
        44.500          49.700
 09  1 27  0 21 30.0000000  0  9G19G 9G14G18G11G21G 6G 3G22
  23290937.357    23290935.769    23290933.691    -8804923.902 5  -6860976.960 4
        30.400          28.400
  21470514.550    21470514.046    21470513.261   -17859562.019 6 -13916533.844 5
        38.100          34.900
  21319167.174    21319166.679    21319165.704   -19189537.061 6 -14952877.636 6
        39.600          38.900
  21532540.941    21532540.334    21532538.684   -20295261.470 6 -15814476.595 5
        39.200          35.600
  24483706.407    24483704.943    24483703.447    -2204714.199    -1717958.793 2
                        12.600
  24442533.531    24442533.483    24442533.613    -5786055.906 2  -4508612.971 1
        12.600           9.000
  24894249.157    24894249.849    24894251.463     1020056.690      794846.489 1
         3.000          11.000
  24820064.838    24820064.102    24820064.841     1491952.073 2   1162557.652 2
        12.600          15.100
  20279761.503    20279761.192    20279758.061   -25634889.870 7 -19975228.795 8
        44.600          49.700
 09  1 27  0 22  0.0000000  0  9G 9G19G14G18G11G21G 6G 3G22
  21474520.506    21474519.957    21474519.199   -17838510.216 6 -13900129.838 5
        37.800          34.700
  23299666.193    23299664.791    23299662.789    -8759052.304 5  -6825232.868 4
        30.400          28.100
  21306627.186    21306626.647    21306625.469   -19255436.015 6 -15004227.465 6
        39.800          39.000
  21544906.593    21544905.965    21544904.277   -20230279.087 6 -15763840.969 5
        39.100          35.300
  24466073.731    24466072.457    24466069.933    -2297376.303    -1790163.002 2
                        12.600
  24464856.066    24464856.320    24464855.729    -5668750.696 2  -4417206.420 1
        13.900          11.000
  24912082.098    24912082.702    24912083.809     1113762.185 1    867863.721 2
         6.500          12.600
  24838218.436    24838217.763    24838220.566     1587354.300 1   1236896.998 2
        11.000          16.100
  20281653.802    20281653.492    20281650.349   -25624945.645 7 -19967480.045 8
        44.500          49.600
 09  1 27  0 22 30.0000000  0  9G19G 9G14G18G11G21G 6G 3G22
  23308490.796    23308489.546    23308487.425    -8712679.304 5  -6789098.075 4
        30.600          28.100
  21478664.441    21478663.941    21478663.204   -17816732.496 6 -13883160.180 5
        37.700          34.600
  21294163.585    21294163.086    21294161.863   -19320932.184 6 -15055263.434 6
        39.800          39.100
  21557333.218    21557332.631    21557330.843   -20164976.819 6 -15712956.085 5
        39.100          35.200
  24448496.274    24448494.905    24448491.281    -2389749.589    -1862142.167 2
                        12.600
  24487197.864    24487197.049    24487196.862    -5551350.427 2  -4325725.788 1
        13.900          11.000
  24929930.304    24929929.577    24929930.608     1207552.358 2    940946.909 2
        12.600          12.600
  24856398.597    24856397.312    24856398.894     1682882.284 2   1311334.329 2
        12.600          16.100
  20283624.959    20283624.601    20283621.474   -25614587.530 7 -19959408.783 8
        44.600          49.600
 09  1 27  0 23  0.0000000  0  9G 9G19G14G18G11G21G 6G 3G22
  21482946.306    21482945.758    21482945.138   -17794231.536 6 -13865626.961 5
        37.600          34.700
  23317410.034    23317408.535    23317406.598    -8665808.174 5  -6752575.134 4
        30.100          28.100
  21281776.740    21281776.208    21281774.908   -19386026.268 6 -15105986.091 6
        40.000          39.200
  21569820.260    21569819.658    21569817.837   -20099357.227 6 -15661823.937 5
        39.100          35.100
  24430972.110    24430971.124    24430968.789    -2481833.660    -1933895.970 2
                        12.600
  24509555.541    24509555.962    24509554.018    -5433859.579 2  -4234174.567 1
        12.600           9.000
  24947793.630    24947792.881    24947792.452     1301422.411 2   1014092.401 1
        13.900           9.000
  24874600.334    24874599.174    24874598.589     1778530.851 2   1385865.634 2
        15.100          13.900
  20285674.423    20285674.091    20285670.912   -25603817.218 7 -19951016.327 8
        44.400          49.600
 09  1 27  0 23 30.0000000  0  9G 9G19G14G18G11G21G 6G 3G22
  21487364.485    21487364.026    21487363.351   -17771013.769 6 -13847535.186 5
        37.700          34.800
  23326422.386    23326420.969    23326419.365    -8618446.498 4  -6715669.958 4
        29.500          28.600
  21269465.430    21269464.858    21269463.560   -19450722.822 6 -15156398.988 6
        40.000          39.300
  21582366.587    21582365.903    21582363.807   -20033426.664 6 -15610449.472 5
        39.100          34.600
  24413503.045    24413504.584    24413499.446    -2573631.537    -2005426.744 1
                        11.000
  24531929.165    24531929.039    24531927.556    -5316285.642 2  -4142558.595 1
        12.600           6.500
  24965668.434    24965668.121    24965668.726     1395364.329 2   1087293.851 1
        12.600           6.500
  24892821.805    24892821.167    24892821.741     1874291.539 2   1460484.323 1
        16.100          11.000
  20287801.206    20287800.938    20287797.922   -25592640.159 7 -19942306.928 8
        44.400          49.500
 09  1 27  0 24  0.0000000  0  9G 9G19G14G18G11G21G 6G 3G22
  21491920.312    21491919.856    21491919.097   -17747072.415 6 -13828879.586 5
        37.500          34.400
  23335529.522    23335528.035    23335526.610    -8570588.818 4  -6678378.285 4
        29.200          29.000
  21257231.428    21257230.777    21257229.546   -19515013.064 6 -15206495.272 6
        40.100          39.500
  21594973.140    21594972.594    21594970.565   -19967178.282 6 -15558827.355 5
        39.100          34.800
  24396088.183    24396091.189    24396086.823    -2665132.934    -2076726.494 1
                        11.000
  24554319.928    24554319.388    24554318.599    -5198623.095 1  -4050873.557
        11.000
  24983560.751    24983560.621    24983561.218     1489382.594 2   1160554.833 1
        13.900           9.000
  24911067.063    24911066.615    24911067.619     1970169.445 2   1535194.373 1
        16.100           9.000
  20290007.044    20290006.713    20290003.646   -25581048.688 7 -19933274.608 8
        44.300          49.500
 09  1 27  0 24 30.0000000  0  8G 9G19G14G11G 6G 3G18G22
  21496612.242    21496611.957    21496611.099   -17722415.904 6 -13809666.714 5
        37.700          34.400
  23344729.187    23344727.757    23344726.397    -8522244.195 4  -6640707.178 4
        29.500          29.000
  21245073.287    21245072.818    21245071.650   -19578903.119 6 -15256279.724 6
        40.000          39.500
  24378735.007    24378734.607    24378732.162    -2756342.747 1  -2147799.011 1
         6.500          11.000
  25001462.085    25001463.382    25001464.673     1583467.498 2   1233867.715 1
        12.600           6.500
  24929332.334    24929331.757    24929332.423     2066153.747 2   1609987.373 1
        16.100           9.000
  21607638.632    21607638.093    21607636.357   -19900620.091 6 -15506963.836 5
        38.900          34.700
  20292290.535    20292290.168    20292286.891   -25569049.870 7 -19923924.876 8
        44.400          49.400
 09  1 27  0 25  0.0000000  0  9G 9G19G14G21G11G 6G 3G18G22
  21501440.861    21501440.402    21501439.534   -17697042.309 6 -13789895.078 5
        37.700          34.300
  23354021.750    23354020.327    23354018.554    -8473411.960 4  -6602656.099 4
        29.900          28.600
  21232992.353    21232991.878    21232990.623   -19642389.256 6 -15305749.436 6
        40.300          39.600
  24599146.393    24599145.551    24599145.482           -.64012         -.2321
        16.100           3.000
  24361434.358    24361433.777    24361431.905    -2847255.575 1  -2218640.157 1
         9.000          11.000
  25019380.246    25019380.572    25019381.227     1677618.743 1   1307232.328 1
        11.000           6.500
  24947617.654    24947616.728    24947617.856     2162244.825 2   1684863.578 1
        13.900          11.000
  21620363.573    21620362.926    21620361.175   -19833750.502 6 -15454857.662 5
        38.700          34.700
  20294651.694    20294651.400    20294648.243   -25556641.173 7 -19914255.755 8
        44.400          49.400
 09  1 27  0 25 30.0000000  0  9G 9G19G14G21G11G 6G 3G18G22
  21506406.226    21506405.799    21506405.000   -17670948.470 6 -13769562.213 5
        37.400          34.300
  23363407.363    23363406.056    23363404.413    -8424090.376 4  -6564223.720 4
        29.900          28.800
  21220989.150    21220988.707    21220987.411   -19705466.621 6 -15354900.623 6
        40.400          39.700
  24621582.141    24621581.126    24621581.360      117900.647 2     91870.870
        17.000           3.000
  24344192.042    24344191.878    24344189.873    -2937865.045 2  -2289244.960 1
        12.600          11.000
  25037311.523    25037311.657    25037310.085     1771837.734 2   1380649.646 1
        12.600           6.500
  24965921.871    24965921.722    24965924.222     2258443.464 2   1759823.526 1
        12.600          11.000
  21633148.480    21633147.884    21633146.172   -19766565.414 6 -15402505.644 5
        38.700          34.800
  20297091.770    20297091.485    20297088.382   -25543817.953 7 -19904263.633 8
        44.300          49.300
 09  1 27  0 26  0.0000000  0  9G 9G19G14G21G11G 6G 3G18G22
  21511508.801    21511508.389    21511507.670   -17644133.744 6 -13748667.617 5
        37.200          34.300
  23372886.175    23372884.823    23372882.531    -8374279.380 5  -6525409.985 4
        30.400          28.100
  21209064.281    21209063.745    21209062.516   -19768132.199 6 -15403730.938 6
        40.500          39.800
  24644033.158    24644032.683    24644031.961      235882.740 2    183804.924
        12.600           3.000
  24327007.958    24327007.689    24327005.110    -3028166.880 1  -2359610.011 2
        11.000          12.600
  25055252.983    25055251.968    25055253.859     1866123.436 1   1454118.946 1
         6.500           9.000
  24984249.135    24984248.989    24984249.956     2354748.620 2   1834866.483 2
        13.900          13.900
  21645993.364    21645992.717    21645991.020   -19699064.634 6 -15349907.637 5
        38.600          34.500
  20299611.168    20299610.879    20299607.739   -25530578.745 7 -19893947.364 8
        44.300          49.200
 09  1 27  0 26 30.0000000  0  9G 9G14G19G21G11G 6G 3G18G22
  21516747.812    21516747.457    21516746.850   -17616602.068 6 -13727214.363 5
        37.100          34.100
  21197217.392    21197216.929    21197215.718   -19830387.756 6 -15452241.755 6
        40.500          40.000
  23382457.273    23382455.919    23382454.152    -8323983.943 5  -6486218.746 4
        31.100          28.600
  24666499.122    24666499.655    24666497.373      353940.722 1    275798.093 1
         9.000           6.500
  24309879.989    24309880.005    24309880.254    -3118161.162 1  -2429735.403 1
         6.500          11.000
  25073204.412    25073203.824    25073207.545     1960470.381     1527635.947 1
                         9.000
  25002596.379    25002595.739    25002596.313     2451154.689 2   1909988.042 2
        16.100          13.900
  21658897.973    21658897.231    21658895.432   -19631251.335 6 -15297066.108 5
        38.400          34.100
  20302209.318    20302208.955    20302205.690   -25516925.849 7 -19883308.739 8
        44.400          49.100
 09  1 27  0 27  0.0000000  0  9G 9G14G19G21G11G 6G 3G18G22
  21522121.938    21522121.427    21522120.235   -17588363.107 6 -13705209.971 5
        37.300          33.800
  21185447.232    21185446.683    21185445.482   -19892240.715 6 -15500438.860 6
        40.600          40.000
  23392118.605    23392117.091    23392114.826    -8273214.604 5  -6446658.251 4
        30.400          28.400
  24688977.961    24688976.502    24688975.038      472063.641 1    367841.803 1
         6.500          11.000
  24292811.908    24292811.763    24292810.383    -3207854.093    -2499625.961 1
         3.000          11.000
  25091168.705    25091167.186    25091169.864     2054867.275     1601191.905 1
                        11.000
  25020957.508    25020956.533    25020958.482     2547650.172 1   1985179.300 2
         9.000          13.900
  21671860.084    21671859.352    21671857.521   -19563134.991 6 -15243988.436 5
        38.400          34.100
  20304884.335    20304884.041    20304880.769   -25502868.189 7 -19872354.713 8
        44.300          49.100
 09  1 27  0 27 30.0000000  0  9G 9G19G14G21G11G 6G 3G18G22
  21527632.042    21527631.390    21527630.346   -17559407.185 6 -13682646.913 5
        37.000          33.800
  23401870.797    23401869.587    23401867.610    -8221962.712 4  -6406721.728 4
        29.000          27.900
  21173755.851    21173755.280    21173754.076   -19953679.748 6 -15548313.422 6
        40.600          40.200
  24711471.430    24711469.982    24711467.245      590259.936      459942.687 2
         3.000          12.600
  24275804.049    24275803.512    24275801.915    -3297232.277 1  -2569271.272 1
         9.000           9.000
  25109146.061    25109143.483    25109143.011     2149322.029     1674792.901 1
                        11.000
  25039337.878    25039336.089    25039337.591     2644242.894     2060446.313 2
         3.000          12.600
  21684881.614    21684881.004    21684879.177   -19494705.849 6 -15190667.028 5
        38.200          34.100
  20307638.448    20307638.148    20307635.052   -25488394.885 7 -19861076.810 8
        44.300          49.100
 09  1 27  0 28  0.0000000  0  8G 9G14G19G21G11G 3G18G22
  21533278.048    21533277.616    21533276.860   -17529735.575 6 -13659526.173 5
        37.000          34.000
  21162143.419    21162142.816    21162141.569   -20014703.513 6 -15595864.400 6
        40.600          40.200
  23411715.381    23411714.034    23411712.348    -8170230.779 4  -6366411.166 4
        29.000          28.400
  24733975.098    24733973.878    24733972.903      708527.227 1    552098.931 2
         6.500          15.100
  24258858.554    24258858.521    24258855.083    -3386293.346 2  -2638669.553 1
        13.900          11.000
  25057739.428    25057738.609    25057738.378     2740930.282 1   2135787.084 2
         9.000          13.900
  21697962.593    21697962.049    21697960.338   -19425964.243 6 -15137102.141 5
        38.100          34.000
  20310471.839    20310471.522    20310468.322   -25473505.660 7 -19849474.814 8
        44.300          49.000
 09  1 27  0 28 30.0000000  0  8G 9G19G21G11G 3G14G18G22
  21539058.316    21539057.830    21539057.030   -17499361.201 6 -13635857.827 5
        37.300          34.300
  23421648.130    23421647.013    23421645.402    -8118032.007 4  -6325736.833 4
        28.800          28.800
  24756490.997    24756490.620    24756489.224      826851.739 1    644299.741 2
         6.500          15.100
  24241968.460    24241968.499    24241966.127    -3475046.457 2  -2707827.782 2
        12.600          13.900
  25076152.363    25076152.485    25076154.201     2837697.264 1   2211189.894 2
        11.000          13.900
  21150607.897    21150607.359    21150606.049   -20075322.808 6 -15643100.208 6
        40.600          40.300
  21711100.776    21711100.171    21711098.303   -19356922.915 6 -15083303.708 5
        38.100          33.800
  20313382.085    20313381.784    20313378.577   -25458212.282 7 -19837557.891 8
        44.300          49.000
 09  1 27  0 29  0.0000000  0  8G 9G14G19G21G11G 3G18G22
  21544972.666    21544972.228    21544971.599   -17468279.926 6 -13611638.641 5
        37.000          34.300
  21139150.411    21139149.916    21139148.665   -20135531.658 6 -15690016.187 6
        40.600          40.400
  23431670.904    23431669.379    23431668.028    -8065363.560 4  -6284696.502 4
        29.000          28.800
  24779018.671    24779018.188    24779017.371      945236.577 1    736547.607 2
         9.000          15.100
  24225139.588    24225139.258    24225137.937    -3563483.907 2  -2776740.050 2
        12.600          17.000
  25094580.400    25094580.533    25094582.872     2934546.492     2286656.847 1
         3.000          11.000
  21724296.974    21724296.232    21724294.299   -19287577.335 6 -15029268.191 5
        37.900          33.600
  20316370.211    20316369.839    20316366.701   -25442509.617 7 -19825322.046 8
        44.200          48.900
 09  1 27  0 29 30.0000000  0  8G 9G14G19G21G11G 3G18G22
  21551024.783    21551024.232    21551023.545   -17436475.533 6 -13586856.001 5
        36.700          33.900
  21127774.627    21127774.159    21127772.836   -20195311.848 6 -15736598.145 6
        40.700          40.500
  23441786.222    23441784.533    23441782.902    -8012210.254 4  -6243278.374 4
        29.900          29.000
  24801560.939    24801560.107    24801559.977     1063696.658 1    828854.107 2
         9.000          12.600
  24208372.649    24208373.267    24208372.914    -3651585.969 2  -2845390.994 2
        13.900          17.800
  25113029.300    25113028.619    25113028.341     3031492.382     2362199.053 1
                         9.000
  21737553.844    21737553.235    21737551.518   -19217911.136 6 -14974982.841 5
        37.900          33.800
  20319439.609    20319439.234    20319435.940   -25426380.129 7 -19812753.612 8
        44.100          48.800
 09  1 27  0 30  0.0000000  0  8G 9G14G18G21G11G19G 3G22
  21557213.060    21557212.744    21557211.789   -17403956.585 6 -13561516.562 5
        37.100          33.600
  21116479.383    21116478.775    21116477.553   -20254668.914 6 -15782850.395 6
        40.400          40.500
  21750870.381    21750869.822    21750868.016   -19147931.883 6 -14920453.557 5
        37.700          33.500
  24824116.166    24824114.815    24824114.844     1182222.960 1    921212.201 1
        11.000          11.000
  24191671.654    24191671.297    24191670.369    -3739357.065 2  -2913784.045 2
        17.000          17.800
  23451991.125    23451989.809    23451987.827    -7958581.452 4  -6201489.732 4
        29.900          28.600
  25131494.579    25131494.906    25131494.873     3128525.013     2437808.801 1
         3.000          11.000
  20322588.840    20322588.445    20322585.251   -25409830.736 7 -19799857.976 8
        44.000          48.700
 09  1 27  0 30 30.0000000  0  9G 9G14G21G11G19G 6G 3G18G22
  21563533.979    21563533.526    21563532.800   -17370739.619 6 -13535633.204 5
        36.900          33.800
  21105261.677    21105261.191    21105260.048   -20313617.574 6 -15828784.407 6
        40.500          40.600
  24846680.044    24846679.797    24846679.993     1300797.782 1   1013608.134 1
        11.000           9.000
  24175030.400    24175030.282    24175028.877    -3826810.103 3  -2981929.253 3
        19.900          18.600
  23462283.464    23462281.926    23462280.457    -7904494.462 4  -6159344.055 4
        29.200          28.600
  25217179.822    25217179.611    25217179.879          -1.0481          -.63611
                         9.000
  25149973.237    25149972.250    25149973.700     3225625.751 1   2513471.682 2
         6.500          12.600
  21764243.666    21764243.013    21764241.088   -19077655.838 6 -14865693.003 5
        37.700          33.500
  20325815.072    20325814.679    20325811.459   -25392876.864 7 -19786647.165 8
        44.000          48.700
 09  1 27  0 31  0.0000000  0  9G 9G14G18G21G11G19G 6G 3G22
  21569988.554    21569988.119    21569987.388   -17336820.972 6 -13509203.086 5
        36.700          33.800
  21094123.015    21094122.506    21094121.246   -20372151.996 6 -15874395.636 6
        40.500          40.700
  21777674.076    21777673.375    21777671.487   -19007078.937 6 -14810698.013 5
        37.700          33.400
  24869252.912    24869252.918    24869252.937     1419423.786 1   1106043.926 1
        11.000           6.500
  24158449.904    24158450.349    24158449.126    -3913937.395 3  -3049820.633 3
        20.500          19.300
  23472663.612    23472661.992    23472660.498    -7849946.444 4  -6116839.124 4
        28.800          28.400
  25235209.651    25235209.044    25235216.812       94760.487       73840.227 1
                         9.000
  25168464.568    25168463.510    25168465.760     3322797.041     2589189.577 2
         3.000          12.600
  20329119.062    20329118.748    20329115.543   -25375513.706 7 -19773117.429 8
        44.000          48.600
 09  1 27  0 31 30.0000000  0  7G 9G14G18G11G19G 3G22
  21576573.076    21576572.667    21576571.915   -17302218.502 6 -13482240.125 5
        36.800          33.600
  21083060.220    21083059.749    21083058.475   -20430287.315 6 -15919695.876 6
        40.500          40.800
  21791158.266    21791157.593    21791155.927   -18936218.275 6 -14755481.914 5
        37.400          33.500
  24141929.983    24141930.149    24141928.409    -4000753.081 3  -3117469.197 3
        20.500          19.300
  23483127.769    23483126.622    23483124.812    -7794956.028 4  -6073989.472 4
        28.800          28.100
  25186964.807    25186964.027    25186963.262     3420019.773     2664947.555 1
                         9.000
  20332497.983    20332497.729    20332494.564   -25357756.859 7 -19759280.920 8
        44.000          48.600
 09  1 27  0 32  0.0000000  0  7G 9G14G18G11G19G 3G22
  21583289.835    21583289.305    21583288.686   -17266922.160 6 -13454736.472 5
        36.600          33.800
  21072075.638    21072075.119    21072073.883   -20488011.724 6 -15964675.928 6
        40.400          40.900
  21804698.519    21804697.917    21804696.165   -18865063.525 6 -14700036.660 5
        37.300          33.400
  24125471.310    24125471.147    24125469.371    -4087243.290 3  -3184864.147 3
        19.300          18.600
  23493678.241    23493676.906    23493675.231    -7739514.034 4  -6030787.940 4
        28.800          28.100
  25205479.764    25205478.890    25205476.912     3517301.967     2740751.846 1
                         9.000
  20335953.962    20335953.678    20335950.436   -25339595.995 7 -19745129.595 8
        44.000          48.500
 09  1 27  0 32 30.0000000  0  7G 9G14G18G11G19G 3G22
  21590144.911    21590144.444    21590143.595   -17230898.944 6 -13426666.437 5
        36.700          33.800
  21061175.723    21061175.393    21061174.050   -20545290.000 6 -16009308.342 6
        40.300          40.900
  21818301.157    21818300.574    21818298.957   -18793580.980 6 -14644335.975 5
        37.300          33.400
  24109081.274    24109081.089    24109079.245    -4173371.200 3  -3251976.791 2
        18.600          17.800
  23504320.719    23504319.182    23504317.431    -7683588.529 4  -5987209.660 4
        28.600          27.900
  25224009.405    25224009.626    25224008.983     3614675.738     2816627.472 1
                        11.000
  20339493.322    20339493.043    20339489.822   -25320996.632 7 -19730636.581 8
        44.000          48.500
 09  1 27  0 33  0.0000000  0  7G 9G14G18G11G19G 3G22
  21597132.570    21597132.212    21597131.487   -17194177.551 6 -13398052.363 5
        36.500          33.800
  21050355.999    21050355.527    21050354.338   -20602148.423 6 -16053613.599 6
        40.300          41.000
  21831961.005    21831960.403    21831958.721   -18721798.484 6 -14588401.570 5
        37.200          33.400
  24092755.617    24092755.780    24092754.100    -4259161.601 3  -3318826.443 2
        19.300          17.800
  23515049.153    23515047.732    23515046.308    -7627209.079 4  -5943277.637 4
        28.400          28.100
  25242547.570    25242547.244    25242547.011     3712110.818     2892550.624 2
                        13.900
  20343111.019    20343110.688    20343107.522   -25301985.578 7 -19715822.769 8
        44.000          48.400
 09  1 27  0 33 30.0000000  0  7G 9G14G18G11G19G 3G22
  21604253.461    21604252.998    21604252.072   -17156758.221 6 -13368894.439 5
        36.900          33.600
  21039616.728    21039616.160    21039614.970   -20658584.430 6 -16097589.702 6
        40.200          41.200
  21845678.068    21845677.371    21845675.487   -18649715.639 6 -14532233.121 5
        37.000          33.000
  24076495.858    24076495.423    24076493.677    -4344610.548 3  -3385410.018 3
        19.300          19.300
  23525864.131    23525862.884    23525860.985    -7570376.248 4  -5898992.341 4
        28.600          27.400
  25261098.722    25261098.696    25261101.357     3809605.467     2968520.493 2
                        13.900
  20346807.226    20346806.928    20346803.747   -25282561.482 7 -19700687.107 8
        43.900          48.300
 09  1 27  0 34  0.0000000  0  7G 9G14G18G11G19G 3G22
  21611506.566    21611506.204    21611505.155   -17118642.665 6 -13339194.005 5
        36.800          33.500
  21028957.826    21028957.321    21028956.093   -20714597.481 6 -16141236.226 6
        40.300          41.400
  21859451.828    21859451.194    21859449.237   -18577333.673 6 -14475831.590 5
        36.900          32.600
  24060300.726    24060300.092    24060298.803    -4429715.928 3  -3451725.881 3
        18.600          19.300
  23536764.825    23536763.114    23536761.568    -7513092.779 4  -5854355.884 4
        27.900          27.100
  25279666.572    25279665.061    25279665.092     3907157.027 1   3044534.684 2
         6.500          16.100
  20350582.105    20350581.774    20350578.567   -25262724.751 7 -19685229.911 8
        43.800          48.300
 09  1 27  0 34 30.0000000  0  7G 9G14G18G11G19G 3G22
  21618891.556    21618890.941    21618890.692   -17079833.186 6 -13308952.851 5
        36.200          33.600
  21018379.529    21018378.904    21018377.572   -20770187.635 6 -16184553.222 6
        40.300          41.400
  21873282.200    21873281.613    21873279.686   -18504654.412 6 -14419198.407 5
        37.100          32.700
  24044171.163    24044170.798    24044169.529    -4514475.899 3  -3517772.591 3
        19.300          19.300
  23547750.930    23547749.390    23547747.845    -7455361.591 4  -5809370.573 4
        28.100          27.400
  25298237.497    25298236.039    25298238.600     4004761.855     3120590.364 2
         3.000          13.900
  20354435.164    20354434.869    20354431.730   -25242476.106 7 -19669451.742 8
        43.800          48.200
 09  1 27  0 35  0.0000000  0  7G 9G14G18G11G19G 3G22
  21626408.077    21626407.642    21626406.913   -17040333.853 6 -13278174.147 5
        36.400          33.500
  21007881.088    21007880.541    21007879.309   -20825356.709 6 -16227542.102 6
        40.300          41.600
  21887168.675    21887168.068    21887165.972   -18431681.025 6 -14362336.022 5
        36.900          32.600
  24028107.811    24028107.310    24028105.934    -4598890.631 3  -3583550.297 3
        19.300          19.300
  23558820.747    23558819.458    23558817.374    -7397187.775 4  -5764040.342 4
        27.600          26.800
  25316820.997    25316820.136    25316817.934     4102413.851     3196682.804 1
         3.000          11.000
  20358366.332    20358365.982    20358362.777   -25221818.346 7 -19653354.783 8
        43.800          48.200
 09  1 27  0 35 30.0000000  0  7G 9G14G18G11G19G 3G22
  21634056.261    21634055.834    21634055.013   -17000143.374 6 -13246856.889 5
        36.600          33.400
  20997463.535    20997462.997    20997461.816   -20880100.769 6 -16270199.805 6
        40.300          41.800
  21901111.572    21901110.853    21901108.939   -18358410.956 6 -14305242.464 5
        36.600          32.700
  24012111.618    24012111.081    24012108.837    -4682954.767 3  -3649054.804 3
        21.100          20.500
  23569975.346    23569973.852    23569972.455    -7338570.288 4  -5718364.422 4
        26.800          27.400
  25335412.099    25335412.103    25335412.657     4200113.926 1   3272812.652 2
         6.500          12.600
  20362375.824    20362375.522    20362372.336   -25200748.022 7 -19636936.345 8
        43.800          48.100
 09  1 27  0 36  0.0000000  0  6G 9G18G11G19G14G22
  21641832.652    21641832.123    21641831.620   -16959277.937 6 -13215013.696 5
        36.400          33.500
  21915107.685    21915107.092    21915105.218   -18284859.911 6 -14247929.970 5
        36.500          32.300
  23996179.250    23996178.671    23996176.569    -4766680.253 3  -3714295.432 3
        20.500          21.100
  23581210.881    23581209.737    23581208.281    -7279526.092 4  -5672356.003 4
        27.400          27.100
  20987124.402    20987123.832    20987122.633   -20934433.468 6 -16312536.963 6
        40.300          41.800
  20366460.999    20366460.640    20366457.415   -25179280.580 7 -19620208.465 8
        43.600          48.000
 09  1 27  0 36 30.0000000  0  6G 9G18G11G19G14G22
  21649738.171    21649737.698    21649737.319   -16917732.842 6 -13182640.887 5
        36.100          33.500
  21929158.351    21929157.745    21929155.868   -18211022.809 6 -14190394.567 5
        36.300          32.300
  23980312.316    23980312.015    23980310.125    -4850058.691 3  -3779265.603 3
        20.500          20.500
  23592529.102    23592527.237    23592525.797    -7220052.006 4  -5626012.607 4
        27.600          26.800
  20976864.652    20976864.214    20976862.893   -20988348.137 6 -16354548.386 6
        40.400          41.800
  20370622.777    20370622.525    20370619.387   -25157409.542 7 -19603166.094 8
        43.600          48.000
 09  1 27  0 37  0.0000000  0  6G 9G18G11G19G14G22
  21657778.356    21657777.940    21657777.242   -16875482.548 6 -13149718.583 5
        36.200          33.400
  21943268.601    21943268.028    21943266.108   -18136873.002 6 -14132615.503 5
        36.500          32.100
  23964516.941    23964516.964    23964515.503    -4933060.235 3  -3843942.112 3
        19.900          21.100
  23603933.032    23603931.754    23603930.089    -7160122.329 4  -5579314.206 4
        28.600          26.800
  20966690.057    20966689.602    20966688.245   -21041816.076 6 -16396211.709 6
        40.500          41.800
  20374866.922    20374866.587    20374863.372   -25135107.088 7 -19585787.554 7
        43.600          47.900
 09  1 27  0 37 30.0000000  0  6G 9G18G11G19G14G22
  21665949.041    21665948.561    21665947.904   -16832544.594 6 -13116260.430 5
        36.200          33.100
  21957435.339    21957434.630    21957432.857   -18062427.014 6 -14074605.643 5
        36.400          32.000
  23948791.708    23948791.197    23948790.086    -5015698.200 3  -3908335.325 3
        19.900          21.100
  23615420.604    23615419.346    23615417.492    -7099755.570 4  -5532275.194 4
        27.900          26.800
  20956597.467    20956597.018    20956595.823   -21094852.701 6 -16437538.942 6
        40.500          41.900
  20379189.790    20379189.451    20379186.323   -25112389.810 7 -19568085.775 7
        43.500          47.800
 09  1 27  0 38  0.0000000  0  6G 9G18G11G19G14G22
  21674249.472    21674249.199    21674248.462   -16788925.122 6 -13082271.232 5
        36.200          33.100
  21971657.029    21971656.298    21971654.678   -17987690.321 5 -14016369.263 5
        35.800          31.500
  23933134.879    23933135.045    23933133.348    -5097975.152 3  -3972447.205 3
        19.900          22.100
  23626989.689    23626987.977    23626986.610    -7038958.668 4  -5484901.028 4
        27.400          26.500
  20946586.315    20946585.884    20946584.609   -21147461.853 6 -16478533.077 7
        40.600          42.100
  20383590.795    20383590.493    20383587.341   -25089262.352 7 -19550064.376 7
        43.400          47.800
 09  1 27  0 38 30.0000000  0  6G 9G18G11G19G14G22
  21682678.668    21682678.114    21682677.403   -16744631.459 6 -13047756.683 5
        36.100          33.400
  21985932.936    21985932.456    21985930.760   -17912669.324 5 -13957911.351 5
        35.800          31.500
  23917545.972    23917545.847    23917544.754    -5179893.232 3  -4036279.456 3
        19.300          23.000
  23638639.489    23638638.037    23638636.641    -6977739.012 4  -5437197.415 4
        27.900          27.100
  20936655.709    20936655.236    20936653.910   -21199647.877 6 -16519197.506 7
        40.600          42.100
  20388068.975    20388068.652    20388065.389   -25065729.772 7 -19531727.299 7
        43.400          47.700
 09  1 27  0 39  0.0000000  0  6G 9G18G11G19G14G22
  21691236.026    21691235.586    21691235.163   -16699660.345 5 -13012714.258 5
        35.800          33.400
  22000264.204    22000263.583    22000261.581   -17837359.622 5 -13899228.469 5
        35.900          31.100
  23902027.465    23902026.716    23902025.814    -5261445.397 2  -4099826.576 3
        17.800          22.600
  23650370.200    23650368.897    23650367.223    -6916094.318 4  -5389162.625 4
        28.100          27.100
  20926806.752    20926806.206    20926804.937   -21251404.975 6 -16559527.706 7
        40.700          42.400
  20392625.089    20392624.760    20392621.579   -25041787.065 7 -19513070.641 7
        43.400          47.700
 09  1 27  0 39 30.0000000  0  6G 9G18G11G19G14G22
  21699922.310    21699921.912    21699921.200   -16654014.851 5 -12977146.334 5
        35.800          33.200
  22014649.763    22014649.091    22014647.123   -17761763.628 5 -13840322.504 5
        35.800          31.300
  23886577.549    23886577.934    23886576.719    -5342630.459 2  -4163087.661 3
        17.800          22.100
  23662180.940    23662179.406    23662178.028    -6854028.259 4  -5340799.484 4
        27.400          26.500
  20917039.217    20917038.633    20917037.392   -21302733.912 6 -16599524.273 7
        40.700          42.500
  20397258.964    20397258.613    20397255.468   -25017435.959 7 -19494095.749 7
        43.300          47.700
 09  1 27  0 40  0.0000000  0  6G 9G18G11G19G14G22
  21708735.929    21708735.490    21708734.766   -16607698.219 5 -12941055.454 5
        35.600          33.000
  22029089.351    22029088.524    22029086.592   -17685883.488 5 -13781195.134 5
        35.600          31.100
  23871199.529    23871199.164    23871197.990    -5423447.362 2  -4226061.845 3
        17.000          21.600
  23674071.463    23674069.932    23674068.345    -6791544.684 4  -5292111.025 4
        26.800          26.800
  20907352.825    20907352.353    20907351.010   -21353635.757 6 -16639188.042 7
        40.700          42.600
  20401970.152    20401969.881    20401966.803   -24992677.915 7 -19474803.766 7
        43.200          47.700
 09  1 27  0 40 30.0000000  0  6G 9G18G11G19G14G22
  21717677.509    21717677.065    21717676.401   -16560709.896 5 -12904441.176 5
        35.600          33.000
  22043582.792    22043582.270    22043580.546   -17609717.933 5 -13721845.358 5
        35.500          31.000
  23855892.221    23855891.596    23855889.163    -5503892.144 2  -4288746.071 3
        17.800          20.500
  23686040.683    23686039.239    23686037.981    -6728644.011 4  -5243097.547 4
        27.100          26.500
  20897748.398    20897747.980    20897746.644   -21404107.073 6 -16678516.333 7
        40.700          42.600
  20406759.387    20406759.052    20406755.934   -24967510.744 7 -19455192.980 7
        43.100          47.600
 09  1 27  0 41  0.0000000  0  6G 9G18G11G19G14G22
  21726748.222    21726747.583    21726747.138   -16513043.421 5 -12867298.466 5
        35.500          33.000
  22058132.741    22058132.143    22058130.175   -17533259.099 5 -13662267.049 5
        35.800          31.000
  23840656.616    23840656.596    23840654.311    -5583953.051 3  -4351131.152 3
        18.600          19.900
  23698091.527    23698089.642    23698087.792    -6665319.985 4  -5193754.184 4
        27.100          25.300
  20888227.835    20888227.374    20888225.938   -21454138.477 6 -16717501.839 7
        40.900          42.700
  20411627.986    20411627.671    20411624.546   -24941925.905 7 -19435256.744 7
        43.100          47.500
 09  1 27  0 41 30.0000000  0  6G 9G18G11G19G14G22
  21735945.523    21735944.944    21735944.321   -16464711.752 5 -12829637.422 5
        35.500          33.000
  22072736.113    22072735.347    22072733.398   -17456518.873 5 -13602469.474 5
        35.200          30.800
  23825493.306    23825493.327    23825490.606    -5663638.596 3  -4413223.766 3
        19.900          20.500
  23710219.270    23710217.700    23710215.757    -6601585.846 4  -5144091.247 4
        27.100          24.900
  20878788.965    20878788.418    20878787.162   -21503739.948 6 -16756152.326 7
        40.700          42.900
  20416574.007    20416573.684    20416570.553   -24915934.644 7 -19415003.810 7
        43.100          47.500
 09  1 27  0 42  0.0000000  0  6G 9G18G11G19G14G22
  21745269.146    21745268.791    21745268.088   -16415714.081 5 -12791457.420 5
        35.500          32.700
  22087392.785    22087392.162    22087390.418   -17379495.806 5 -13542451.515 5
        34.900          31.000
  23810401.584    23810401.630    23810399.363    -5742944.192 3  -4475020.315 3
        19.300          19.900
  23722425.157    23722423.797    23722422.569    -6537441.629 4  -5094108.765 4
        26.200          25.600
  20869432.509    20869431.996    20869430.658   -21552908.731 6 -16794465.656 7
        40.700          43.100
  20421597.816    20421597.488    20421594.277   -24889534.343 7 -19394432.145 7
        43.100          47.400
 09  1 27  0 42 30.0000000  0  6G 9G18G11G19G14G22
  21754719.267    21754718.813    21754717.746   -16366055.296 5 -12752762.259 5
        35.500          32.300
  22102102.828    22102102.221    22102100.558   -17302193.723 5 -13482216.132 5
        35.100          31.000
  23795380.993    23795381.454    23795380.088    -5821870.380 2  -4536521.207 3
        17.800          19.300
  23734708.866    23734707.407    23734705.860    -6472892.729 4  -5043810.955 4
        25.900          25.600
  20860157.841    20860157.337    20860155.972   -21601647.102 6 -16832443.600 7
        40.700          43.100
  20426698.852    20426698.521    20426695.341   -24862728.347 7 -19373544.354 7
        43.100          47.400
 09  1 27  0 43  0.0000000  0  6G 9G18G11G19G14G22
  21764295.022    21764294.628    21764293.467   -16315734.097 5 -12713550.937 5
        35.300          32.000
  22116866.692    22116865.914    22116864.134   -17224610.223 5 -13421761.463 5
        34.700          30.800
  23780436.126    23780435.801    23780433.910    -5900411.590 3  -4597722.127 3
        19.900          18.600
  23747068.812    23747067.984    23747066.261    -6407938.508 4  -4993197.310 4
        25.900          25.300
  20850966.008    20850965.490    20850964.050   -21649951.082 6 -16870083.060 7
        40.700          43.200
  20431877.641    20431877.309    20431874.112   -24835513.607 7 -19352338.060 7
        43.100          47.400
 09  1 27  0 43 30.0000000  0  6G 9G18G11G19G14G22
  21773996.910    21773996.457    21773995.611   -16264750.187 5 -12673823.214 5
        35.200          32.300
  22131684.176    22131683.565    22131681.664   -17146743.883 5 -13361086.399 5
        34.800          30.800
  23765565.179    23765564.858    23765562.508    -5978562.934 3  -4658619.287 3
        22.100          18.600
  23759506.712    23759505.086    23759503.483    -6342579.539 4  -4942268.272 4
        25.600          25.300
  20841857.238    20841856.710    20841855.248   -21697817.653 6 -16907381.679 7
        40.600          43.200
  20437134.487    20437134.240    20437131.149   -24807887.726 7 -19330811.396 7
        43.000          47.300
 09  1 27  0 44  0.0000000  0  6G 9G18G11G19G14G22
  21783822.484    21783822.061    21783821.669   -16213114.662 5 -12633587.741 5
        34.700          32.400
  22146553.483    22146552.880    22146551.153   -17068604.060 5 -13300198.234 5
        34.500          30.400
  23750766.195    23750765.864    23750763.744    -6056330.844 3  -4719217.673 3
        21.600          18.600
  23772018.823    23772017.439    23772016.167    -6276826.128 4  -4891031.878 4
        25.900          25.600
  20832830.275    20832829.757    20832828.405   -21745254.481 6 -16944345.436 7
        40.600          43.400
  20442468.215    20442467.907    20442464.806   -24779859.490 7 -19308971.211 7
        43.100          47.300
 09  1 27  0 44 30.0000000  0  6G 9G18G11G19G14G22
  21793773.345    21793772.907    21793772.370   -16160823.830 5 -12592841.635 5
        35.200          32.400
  22161475.758    22161475.166    22161473.555   -16990186.179 5 -13239093.395 5
        34.300          30.200
  23736041.429    23736040.877    23736039.417    -6133707.880 3  -4779511.462 3
        20.500          19.300
  23784606.896    23784605.656    23784603.942    -6210676.240 4  -4839486.548 4
        25.900          25.600
  20823886.105    20823885.616    20823884.244   -21792256.134 6 -16980970.094 7
        40.500          43.500
  20447879.416    20447879.058    20447875.798   -24751424.125 7 -19286813.782 7
        43.100          47.200
 09  1 27  0 45  0.0000000  0  6G 9G18G11G19G14G22
  21803848.190    21803847.747    21803846.864   -16107880.560 5 -12551587.139 5
        35.200          32.300
  22176450.590    22176450.045    22176448.470   -16911492.423 5 -13177773.590 5
        34.100          30.100
  23721391.672    23721391.428    23721389.883    -6210692.155 3  -4839499.210 3
        21.600          20.500
  23797270.034    23797268.558    23797266.720    -6144132.929 4  -4787634.625 4
        25.600          25.300
  20815024.793    20815024.267    20815022.916   -21838822.571 6 -17017255.624 7
        40.500          43.500
  20453367.696    20453367.357    20453364.193   -24722582.418 7 -19264339.720 7
        43.000          47.100
 09  1 27  0 45 30.0000000  0  6G 9G18G11G19G14G22
  21814047.859    21814047.350    21814046.604   -16054281.005 5 -12509821.248 5
        34.800          31.800
  22191479.043    22191478.429    22191476.782   -16832517.654 5 -13116234.813 4
        33.900          29.900
  23706818.841    23706818.396    23706816.787    -6287275.335 3  -4899174.409 3
        23.000          21.100
  23810008.587    23810007.069    23810005.595    -6077192.917 4  -4735473.621 4
        25.900          25.900
  20806247.559    20806247.044    20806245.746   -21884947.260 6 -17053196.932 7
        40.400          43.700
  20458934.681    20458934.320    20458931.196   -24693328.064 7 -19241544.118 7
        43.100          47.100
 09  1 27  0 46  0.0000000  0  6G 9G18G11G19G14G22
  21824370.742    21824370.238    21824369.341   -16000033.600 5 -12467550.542 5
        34.500          31.600
  22206559.582    22206559.033    22206557.341   -16753268.734 5 -13054482.410 5
        33.900          30.100
  23692321.297    23692320.872    23692318.821    -6363461.487 3  -4958540.221 3
        23.000          20.500
  23822820.081    23822818.873    23822817.471    -6009864.875 4  -4683010.237 4
        26.200          25.300
  20797553.355    20797552.835    20797551.515   -21930635.613 6 -17088798.238 7
        40.400          43.800
  20464578.862    20464578.515    20464575.351   -24663667.848 7 -19218432.260 7
        43.100          47.100
 09  1 27  0 46 30.0000000  0  6G 9G18G11G19G14G22
  21834817.007    21834816.492    21834815.610   -15945138.330 5 -12424774.999 5
        34.700          31.800
  22221692.959    22221692.313    22221690.484   -16673744.598 5 -12992515.560 4
        33.900          29.900
  23677899.309    23677899.142    23677897.318    -6439245.495 3  -5017592.698 3
        23.000          20.500
  23835706.329    23835704.906    23835702.899    -5942148.575 4  -4630244.312 4
        26.500          24.600
  20788942.632    20788942.246    20788941.101   -21975884.133 6 -17124056.820 7
        40.300          44.000
  20470300.516    20470300.268    20470297.131   -24633599.630 7 -19195002.478 7
        43.100          47.000
 09  1 27  0 47  0.0000000  0  6G 9G18G11G19G14G22
  21845385.495    21845385.070    21845384.060   -15889601.773 5 -12381499.755 5
        34.700          32.000
  22236876.960    22236876.403    22236874.645   -16593950.805 5 -12930338.584 4
        33.500          29.900
  23663554.030    23663553.954    23663552.032    -6514630.565 3  -5076334.298 3
        23.400          21.100
  23848665.147    23848663.451    23848661.855    -5874052.130 4  -4577182.184 4
        26.800          24.200
  20780414.808    20780414.304    20780413.187   -22020698.474 6 -17158977.079 7
        40.100          44.100
  20476098.965    20476098.623    20476095.511   -24603128.845 7 -19171259.007 7
        43.000          47.000
 09  1 27  0 47 30.0000000  0  6G 9G18G11G19G14G22
  21856076.701    21856076.324    21856075.831   -15833416.046 5 -12337718.676 5
        34.100          31.600
  22252114.324    22252113.730    22252111.984   -16513877.887 5 -12867944.113 4
        33.500          29.700
  23649287.664    23649287.244    23649285.222    -6589603.369 3  -5134754.650 3
        22.600          21.600
  23861697.226    23861695.459    23861694.149    -5805567.363 4  -4523817.429 3
        25.900          23.800
  20771971.770    20771971.298    20771970.122   -22065066.808 6 -17193549.798 7
        40.200          44.200
  20481976.007    20481975.726    20481972.552   -24572244.610 7 -19147193.366 7
        43.100          46.900
 09  1 27  0 48  0.0000000  0  6G 9G18G11G19G14G22
  21866890.482    21866890.244    21866889.328   -15776589.062 5 -12293437.898 5
        34.000          31.300
  22267403.673    22267403.007    22267401.180   -16433532.533 5 -12805337.345 4
        33.400          29.200
  23635097.930    23635097.985    23635097.059    -6664167.481 3  -5192856.544 3
        22.100          23.000
  23874801.356    23874799.724    23874798.626    -5736702.753 4  -4470156.718 3
        25.300          23.400
  20763612.826    20763612.316    20763611.036   -22108994.199 6 -17227778.927 7
        40.100          44.200
  20487930.527    20487930.292    20487927.117   -24540953.084 7 -19122810.355 7
        43.000          46.800
 09  1 27  0 48 30.0000000  0  6G 9G18G11G19G14G22
  21877826.514    21877826.165    21877825.490   -15719120.262 5 -12248657.012 5
        33.900          31.500
  22282744.874    22282744.219    22282742.524   -16352912.876 5 -12742516.844 4
        33.000          29.000
  23620987.752    23620987.808    23620986.146    -6738318.150 3  -5250636.261 3
        22.600          22.600
  23887978.408    23887977.037    23887975.362    -5667458.088 4  -4416199.864 3
        26.500          23.400
  20755338.155    20755337.711    20755336.370   -22152477.443 6 -17261661.967 7
        40.100          44.300
  20493963.102    20493962.849    20493959.674   -24509251.878 7 -19098108.114 7
        43.000          46.700
 09  1 27  0 49  0.0000000  0  6G 9G18G11G19G14G22
  21888883.372    21888882.976    21888882.325   -15661016.695 5 -12203381.501 5
        33.900          31.600
  22298137.338    22298136.880    22298135.187   -16272024.742 5 -12679487.139 4
        33.200          29.000
  23606955.844    23606955.843    23606953.652    -6812057.772 3  -5308095.687 3
        21.600          22.100
  23901225.043    23901223.885    23901222.655    -5597840.864 4  -4361952.703 3
        24.900          23.000
  20747147.094    20747146.685    20747145.464   -22195521.044 6 -17295202.429 7
        40.000          44.400
  20500072.720    20500072.409    20500069.244   -24477145.873 7 -19073090.445 7
        43.000          46.600
 09  1 27  0 49 30.0000000  0  6G 9G18G11G19G14G22
  21900060.482    21900060.101    21900059.391   -15602280.449 5 -12157613.000 5
        33.800          31.500
  22313580.939    22313580.399    22313578.574   -16190869.237 5 -12616249.086 4
        33.200          29.000
  23593002.606    23593001.932    23593000.325    -6885383.828 3  -5365232.852 3
        21.100          22.600
  23914544.010    23914542.383    23914540.492    -5527853.857 4  -4307417.394 3
        24.200          23.000
  20739040.076    20739039.574    20739038.229   -22238124.332 6 -17328399.789 7
        40.000          44.400
  20506259.244    20506258.921    20506255.841   -24444635.511 7 -19047757.695 7
        42.900          46.600
 09  1 27  0 50  0.0000000  0  7G 9G18G11G19G32G14G22
  21911358.509    21911357.891    21911357.021   -15542910.288 5 -12111350.535 5
        33.800          31.300
  22329076.043    22329075.412    22329073.390   -16109443.126 5 -12552800.176 4
        33.100          29.000
  23579128.403    23579128.535    23579126.286    -6958290.469 3  -5422043.207 3
        22.100          22.600
  23927932.787    23927930.970    23927930.037    -5457495.877 4  -4252593.041 3
        24.200          23.400
  25172285.961    25172286.879    25172285.894           -.3791          -.5851
                         3.000
  20731017.624    20731017.143    20731015.810   -22280282.657 6 -17361250.425 7
        40.000          44.400
  20512523.420    20512523.110    20512519.912   -24411717.150 7 -19022107.021 7
        43.000          46.400
 09  1 27  0 50 30.0000000  0  7G 9G11G19G32G18G14G22
  21922777.597    21922777.185    21922776.466   -15482900.605 5 -12064589.742 5
        33.600          31.300
  23565337.079    23565336.502    23565334.720    -7030767.687 3  -5478518.945 3
        22.600          22.600
  23941392.891    23941391.479    23941390.197    -5386761.462 4  -4197475.333 3
        24.200          23.800
  25153958.231    25153964.873    25153962.112      -96293.828      -75035.925
                         3.000
  22344623.585    22344622.982    22344621.151   -16027739.884 5 -12489135.329 4
        32.800          29.000
  20723081.531    20723080.916    20723079.538   -22321988.049 6 -17393748.127 7
        40.200          44.600
  20518866.593    20518866.316    20518863.149   -24378383.210 7 -18996132.520 7
        42.900          46.300
 09  1 27  0 51  0.0000000  0  7G 9G18G11G19G32G14G22
  21934314.437    21934314.074    21934313.194   -15422274.059 5 -12017348.280 5
        33.600          31.000
  22360219.852    22360219.341    22360217.358   -15945780.711 5 -12425271.051 4
        33.000          28.800
  23551623.329    23551623.018    23551621.154    -7102833.410 3  -5534674.027 3
        22.600          23.400
  23954920.519    23954919.271    23954917.892    -5315673.977 4  -4142082.518 4
        24.200          24.600
  25135641.874    25135639.828    25135642.955     -192569.988     -150057.774 1
                         9.000
  20715227.512    20715226.949    20715225.553   -22363260.818 6 -17425908.720 7
        40.200          44.500
  20525285.101    20525284.763    20525281.566   -24344654.333 7 -18969850.275 7
        42.900          46.200
 09  1 27  0 51 30.0000000  0  9G 9G11G19G32G12G31G14G18G22
  21945969.971    21945969.413    21945968.315   -15361027.184 5 -11969623.434 5
        34.000          31.000
  23537989.302    23537988.929    23537986.981    -7174479.904 3  -5590502.445 3
        23.400          23.000
  23968515.755    23968514.012    23968512.799    -5244230.338 3  -4086412.200 4
        23.400          24.900
  25117323.825    25117321.161    25117325.051     -288822.206     -225057.577 1
                         9.000
  25249400.360    25249401.019    25249401.479           -.89511         -.68312
         9.000          13.900
  25052650.377    25052650.836    25052649.285           -.12612          .29913
        12.600          21.100
  20707457.119    20707456.680    20707455.246   -22404093.949 6 -17457726.738 7
        40.200          44.600
  22375865.911    22375865.135    22375863.275   -15863560.795 5 -12361203.590 4
        32.600          28.800
  20531779.662    20531779.307    20531776.099   -24310525.091 7 -18943256.058 7
        42.800          46.200
 09  1 27  0 52  0.0000000  0  9G 9G11G19G32G12G31G14G18G22
  21957741.389    21957740.969    21957740.232   -15299165.299 5 -11921419.366 5
        33.200          31.300
  23524435.086    23524434.750    23524433.217    -7245707.157 3  -5646004.189 3
        23.800          23.400
  23982178.003    23982175.971    23982175.168    -5172435.501 3  -4030468.182 4
        22.600          25.300
  25099013.272    25099012.842    25099015.807     -385052.251     -300041.827 1
                        11.000
  25233467.456    25233466.699    25233464.437      -83746.721 2    -65257.145 2
        15.100          13.900
  25030487.581    25030487.663    25030486.622     -116467.791 2    -90753.656 3
        16.100          21.100
  20699770.062    20699769.606    20699768.182   -22444489.830 6 -17489204.044 7
        40.100          44.700
  22391560.618    22391560.010    22391558.185   -15781083.614 5 -12296935.675 4
        32.400          28.400
  20538349.994    20538349.649    20538346.415   -24275998.048 7 -18916351.867 7
        42.800          46.100
 09  1 27  0 52 30.0000000  0  9G 9G11G19G32G12G31G14G18G22
  21969631.931    21969631.550    21969630.987   -15236678.577 5 -11872728.420 5
        32.700          31.300
  23510963.550    23510963.191    23510961.281    -7316501.157 4  -5701168.322 3
        24.200          23.000
  23995908.842    23995907.004    23995906.542    -5100280.285 3  -3974243.380 4
        22.600          25.600
  25080709.541    25080708.993    25080708.652     -481247.131 1   -374998.810 2
         6.500          12.600
  25217571.723    25217572.582    25217569.923     -167263.073 2   -130334.783 2
        13.900          13.900
  25008328.928    25008328.302    25008327.298     -232918.082 3   -181494.141 3
        19.300          19.300
  20692168.571    20692168.019    20692166.763   -22484435.915 6 -17520330.858 7
        40.100          44.800
  22407306.312    22407305.814    22407304.108   -15698338.387 5 -12232458.883 4
        32.300          28.400
  20544998.068    20544997.772    20544994.528   -24241061.883 7 -18889128.879 7
        42.700          46.000
 09  1 27  0 53  0.0000000  0  9G 9G11G19G32G12G31G14G18G22
  21981638.313    21981637.772    21981637.037   -15173586.888 5 -11823566.063 5
        33.200          31.300
  23497571.260    23497570.848    23497569.460    -7386876.928 4  -5756006.577 3
        24.200          23.000
  24009703.211    24009701.898    24009701.378    -5027784.964 3  -3917753.538 4
        21.600          24.200
  25062407.153    25062406.916    25062407.192     -577423.172 2   -449941.096 2
        12.600          13.900
  25201722.253    25201721.790    25201719.918     -250563.890 2   -195244.538 2
        12.600          15.100
  24986169.365    24986168.870    24986168.425     -349365.343 3   -272232.249 3
        21.100          18.600
  20684649.529    20684649.013    20684647.642   -22523949.172 6 -17551120.402 7
        40.100          44.900
  22423100.027    22423099.314    22423097.812   -15615343.047 5 -12167787.195 4
        32.100          28.400
  20551720.627    20551720.346    20551717.174   -24205733.859 7 -18861600.546 7
        42.600          45.900
 09  1 27  0 53 30.0000000  0 10G 9G11G 5G19G32G12G31G14G18G22
  21993762.899    21993762.288    21993761.497   -15109872.180 5 -11773918.238 5
        33.200          31.100
  23484262.319    23484262.484    23484261.481    -7456812.009 4  -5810501.431 3
        24.900          23.000
  25123043.310    25123042.589    25123043.890           -.6331          -.18711
         3.000           6.500
  24023567.519    24023566.239    24023564.703    -4954931.565 3  -3860984.672 3
        23.000          23.400
  25044112.830    25044112.315    25044114.084     -673559.011 1   -524852.038 2
        11.000          12.600
  25185914.608    25185915.454    25185914.632     -333626.176 1   -259968.403 2
         9.000          13.900
  24964014.807    24964013.969    24964014.845     -465787.010 3   -362950.449 2
        20.500          16.100
  20677216.734    20677216.246    20677214.798   -22563008.691 6 -17581556.387 7
        40.200          45.000
  22438944.993    22438944.245    22438942.191   -15532078.369 5 -12102905.633 4
        32.000          27.900
  20558521.740    20558521.448    20558518.232   -24169994.203 7 -18833751.462 7
        42.600          45.800
 09  1 27  0 54  0.0000000  0 10G 9G11G 5G19G32G12G31G14G18G22
  22006003.856    22006003.422    22006002.566   -15045544.070 5 -11723792.436 5
        32.800          31.000
  23471037.725    23471037.418    23471035.790    -7526311.180 4  -5864656.614 3
        25.300          22.600
  25105304.742    25105302.928    25105304.735      -93216.629      -72636.038
         3.000           3.000
  24037497.680    24037496.081    24037494.931    -4881730.089 3  -3803944.597 3
        22.600          23.800
  25025823.443    25025822.693    25025825.657     -769660.791     -599736.542 1
         3.000           9.000
  25170155.135    25170154.786    25170150.862     -416453.769     -324509.356 1
                         9.000
  24941863.518    24941863.382    24941863.857     -582187.865 3   -453652.457 2
        19.300          13.900
  20669868.990    20669868.426    20669867.091   -22601621.164 6 -17611644.020 7
        40.000          45.100
  22454839.035    22454838.604    22454836.886   -15448552.261 5 -12037820.356 4
        31.600          27.900
  20565399.626    20565399.330    20565396.245   -24133850.309 7 -18805587.387 7
        42.500          45.800
 09  1 27  0 54 30.0000000  0 10G 9G11G 5G19G32G12G31G14G18G22
  22018360.276    22018359.641    22018358.850   -14980611.481 5 -11673195.615 5
        32.600          31.000
  23457894.790    23457894.474    23457892.310    -7595378.765 4  -5918475.498 3
        25.900          21.600
  25087601.921    25087601.539    25087600.778     -186252.260 1   -145131.303 1
         6.500           6.500
  24051491.940    24051490.401    24051489.128    -4808189.541 3  -3746640.297 3
        22.100          23.800
  25007542.621    25007542.609    25007543.601     -865733.902 1   -674598.724 1
         6.500           9.000
  25154434.699    25154432.871    25154430.694     -499049.853     -388869.910 1
                         6.500
  24919716.350    24919716.730    24919717.319     -698571.676 3   -544341.217 2
        19.300          13.900
  20662605.291    20662604.822    20662603.313   -22639792.432 6 -17641387.860 7
        40.100          45.100
  22470782.061    22470781.548    22470779.881   -15364772.343 5 -11972537.314 4
        31.600          28.100
  20572353.416    20572353.050    20572349.713   -24097308.710 7 -18777113.413 7
        42.500          45.600
 09  1 27  0 55  0.0000000  0 10G 9G11G 5G19G32G12G31G14G18G22
  22030832.687    22030832.337    22030831.508   -14915067.265 5 -11622122.200 5
        32.600          31.000
  23444836.142    23444835.624    23444833.731    -7664002.761 4  -5971948.734 3
        26.200          21.600
  25069932.195    25069931.815    25069931.971     -279094.454     -217475.780 1
         3.000           6.500
  24065551.454    24065550.030    24065549.010    -4734302.986 3  -3689066.394 3
        21.600          22.600
  24989269.315    24989267.985    24989269.030     -961767.703 2   -749430.181 1
        12.600           9.000
  25138767.147    25138767.120    25138765.572     -581401.539     -453040.964 2
         3.000          12.600
  24897574.704    24897575.193    24897576.004     -814925.822 2   -635006.823 2
        17.000          17.000
  20655427.469    20655426.905    20655425.309   -22677512.509 6 -17670780.124 7
        40.100          45.000
  22486775.018    22486774.290    22486772.520   -15280729.854 5 -11907049.676 4
        31.100          27.900
  20579384.405    20579384.102    20579380.932   -24060359.984 7 -18748322.193 7
        42.400          45.500
 09  1 27  0 55 30.0000000  0  9G 9G 5G11G19G32G31G14G18G22
  22043420.717    22043420.202    22043418.993   -14848919.170 5 -11570578.228 5
        32.800          31.000
  25052302.064    25052301.212    25052303.186     -371745.233     -289671.196 1
         3.000           9.000
  23431860.749    23431860.514    23431858.905    -7732186.367 4  -6025078.809 3
        25.900          21.100
  24079676.170    24079675.064    24079673.786    -4660078.474 3  -3631229.136 3
        22.100          21.600
  24971000.351    24970999.830    24970999.736    -1057766.604 2   -824234.466 1
        13.900           9.000
  24875438.369    24875438.072    24875438.898     -931253.434 2   -725651.663 2
        16.100          17.000
  20648334.312    20648333.824    20648332.268   -22714786.487 6 -17699824.779 7
        40.000          45.100
  22502816.252    22502815.756    22502814.034   -15196430.943 5 -11841362.227 4
        31.000          27.900
  20586491.952    20586491.593    20586488.434   -24023009.935 7 -18719218.259 7
        42.300          45.500
 09  1 27  0 56  0.0000000  0  9G11G 5G19G32G31G 9G14G18G22
  23418968.501    23418968.336    23418965.786    -7799936.321 4  -6077870.964 3
        25.300          20.500
  25034708.005    25034706.866    25034706.670     -464210.384 1   -361721.962 1
         9.000          11.000
  24093862.649    24093860.841    24093860.186    -4585527.888 3  -3573137.797 3
        22.100          21.100
  24952737.742    24952736.766    24952738.334    -1153738.679 2   -899017.855 1
        12.600           9.000
  24853306.452    24853305.783    24853305.687    -1047561.150 2   -816281.019 2
        17.000          16.100
  22056120.933    22056120.382    22056119.567   -14782178.550 5 -11518572.554 5
        32.700          31.100
  20641324.579    20641324.090    20641322.602   -22751622.797 6 -17728528.392 7
        40.000          45.200
  22518904.708    22518904.048    22518902.558   -15111885.750 5 -11775482.867 4
        30.600          27.600
  20593673.969    20593673.605    20593670.412   -23985267.983 7 -18689808.943 7
        42.300          45.400
 09  1 27  0 56 30.0000000  0  9G11G 5G19G32G31G 9G14G18G22
  23406161.276    23406161.458    23406159.188    -7867235.399 4  -6130311.792 3
        24.200          21.600
  25017149.790    25017149.059    25017149.755     -556471.447 1   -433613.659 1
         9.000          11.000
  24108114.620    24108113.067    24108111.063    -4510638.592 4  -3514782.513 3
        24.200          21.600
  24934483.383    24934482.732    24934483.485    -1249667.690 2   -973767.660 1
        12.600           9.000
  24831180.655    24831179.982    24831179.382    -1163830.760 2   -906880.674 2
        17.000          13.900
  22068936.218    22068935.684    22068935.011   -14714833.034 5 -11466095.526 5
        32.600          30.800
  20634401.210    20634400.688    20634399.155   -22788005.946 6 -17756878.894 7
        39.900          45.200
  22535042.662    22535042.016    22535040.231   -15027080.348 5 -11709400.744 4
        30.800          26.800
  20600933.247    20600933.033    20600929.951   -23947119.016 7 -18660082.475 7
        42.200          45.300
 09  1 27  0 57  0.0000000  0 10G11G 5G19G32G12G31G 9G14G18G22
  23393440.329    23393440.154    23393438.093    -7934086.245 3  -6182403.348 3
        23.800          22.100
  24999630.805    24999630.569    24999630.664     -648529.758 1   -505347.303 1
         9.000          11.000
  24122428.045    24122426.582    24122424.826    -4435418.095 3  -3456169.192 3
        22.600          21.100
  24916235.758    24916234.660    24916234.587    -1345557.163 2  -1048486.655 2
        13.900          12.600
  25076545.290    25076545.126    25076542.537           -.76912         -.08212
        12.600          13.900
  24809061.945    24809061.665    24809059.908    -1280064.650 2   -997452.522 2
        15.100          13.900
  22081865.151    22081864.814    22081863.968   -14646890.028 5 -11413152.920 5
        32.300          30.600
  20627563.178    20627562.661    20627561.123   -22823940.081 6 -17784879.515 7
        39.900          45.300
  22551228.920    22551228.410    22551226.346   -14942020.099 5 -11643120.043 4
        30.200          26.500
  20608269.502    20608269.152    20608265.986   -23908568.114 7 -18630042.811 7
        42.300          45.200
 09  1 27  0 57 30.0000000  0 10G11G 5G19G32G12G31G 9G14G18G22
  23380804.492    23380804.519    23380803.049    -8000487.420 4  -6234144.512 3
        24.200          22.600
  24982153.267    24982152.376    24982151.302     -740382.803 1   -576921.041 2
        11.000          12.600
  24136803.964    24136802.410    24136801.447    -4359869.990 3  -3397300.565 3
        21.600          21.600
  24897996.092    24897994.954    24897995.379    -1441406.993 2  -1123174.749 2
        16.100          13.900
  25061111.699    25061111.608    25061109.200      -81112.327 2    -63203.786 2
        15.100          16.100
  24786951.216    24786950.332    24786949.443    -1396261.083 2  -1087995.119 3
        12.600          18.600
  22094907.704    22094907.153    22094906.286   -14578352.888 5 -11359747.354 5
        32.300          30.600
  20620810.373    20620809.840    20620808.467   -22859425.679 6 -17812530.625 7
        39.800          45.400
  22567463.732    22567463.002    22567461.149   -14856706.715 5 -11576642.090 4
        30.100          26.500
  20615681.653    20615681.359    20615678.189   -23869616.512 7 -18599690.910 7
        42.300          45.100
 09  1 27  0 58  0.0000000  0 10G11G 5G19G32G12G31G 9G14G18G22
  23368255.354    23368254.983    23368253.215    -8066437.465 4  -6285534.146 3
        25.600          23.000
  24964714.164    24964713.388    24964714.226     -832027.606 2   -648332.622 2
        13.900          12.600
  24151242.381    24151240.951    24151239.832    -4283997.151 3  -3338178.890 3
        22.100          21.600
  24879765.460    24879763.983    24879764.474    -1537216.490 2  -1197831.458 2
        17.000          13.900
  25045721.989    25045722.084    25045723.087     -161966.206 1   -126206.750 2
        11.000          17.800
  24764848.495    24764847.360    24764844.687    -1512417.907 2  -1178506.852 3
        12.600          19.300
  22108062.368    22108061.657    22108061.048   -14509224.469 5 -11305881.052 5
        32.300          30.200
  20614142.984    20614142.446    20614141.080   -22894462.676 6 -17839832.177 7
        39.700          45.400
  22583746.208    22583745.782    22583743.607   -14771141.659 5 -11509968.033 4
        30.600          26.800
  20623169.974    20623169.702    20623166.514   -23830264.996 7 -18569027.389 7
        42.200          45.000
 09  1 27  0 58 30.0000000  0 10G11G 5G19G32G12G31G 9G14G18G22
  23355792.124    23355791.413    23355789.578    -8131932.800 4  -6336569.459 3
        25.300          23.400
  24947314.852    24947313.941    24947315.750     -923459.935 2   -719578.566 2
        15.100          15.100
  24165741.703    24165740.207    24165738.947    -4207801.635 3  -3278805.786 3
        22.100          21.100
  24861541.506    24861539.894    24861540.755    -1632983.756 2  -1272455.268 2
        15.100          16.100
  25030389.508    25030389.180    25030386.867     -242558.001 1   -189005.492 2
        11.000          17.000
  24742751.726    24742750.901    24742748.795    -1628531.527 1  -1268984.889 3
        11.000          21.600
  22121329.025    22121328.447    22121328.020   -14439506.323 5 -11251555.216 5
        32.000          30.400
  20607561.350    20607560.845    20607559.330   -22929049.845 6 -17866783.212 7
        39.600          45.500
  22600076.672    22600075.971    22600074.151   -14685324.997 4 -11443097.929 4
        29.900          26.200
  20630734.486    20630734.194    20630731.034   -23790513.070 7 -18538051.858 7
        42.200          44.800
 09  1 27  0 59  0.0000000  0 10G11G 5G19G32G12G31G 9G14G18G22
  23343414.760    23343414.462    23343412.774    -8196974.250 4  -6387251.095 3
        25.300          23.000
  24929954.001    24929953.564    24929956.114    -1014679.556 1   -790658.757 2
        11.000          15.100
  24180301.498    24180299.996    24180298.783    -4131289.280 3  -3219185.786 3
        22.100          20.500
  24843324.129    24843323.144    24843324.194    -1728710.841 1  -1347047.769 2
        11.000          17.000
  25015101.964    25015102.016    25015097.374     -322887.797 1   -251600.125 1
        11.000          11.000
  24720663.421    24720662.722    24720662.295    -1744602.370 1  -1359429.569 3
        11.000          22.100
  22134707.260    22134706.843    22134705.718   -14369203.866 5 -11196774.081 4
        31.600          29.900
  20601064.731    20601064.191    20601062.741   -22963190.018 6 -17893385.940 7
        39.700          45.600
  22616454.386    22616453.796    22616451.659   -14599260.869 5 -11376034.994 4
        30.600          26.500
  20638374.731    20638374.385    20638371.192   -23750363.967 7 -18506766.839 7
        42.200          44.800
 09  1 27  0 59 30.0000000  0 10G11G 5G19G32G12G31G 9G14G18G22
  23331123.936    23331123.497    23331121.166    -8261564.254 4  -6437580.966 3
        25.300          22.600
  24912636.819    24912636.045    24912636.246    -1105687.337     -861573.883 2
         3.000          13.900
  24194920.182    24194919.067    24194917.705    -4054466.827 3  -3159324.167 3
        22.100          20.500
  24825112.775    24825112.486    24825114.504    -1824400.592 1  -1421611.227 2
         9.000          13.900
  24999865.471    24999864.666    24999861.396     -402956.685 1   -313991.578 2
        11.000          12.600
  24698583.939    24698584.065    24698581.397    -1860631.838 2  -1449842.003 3
        13.900          23.800
  22148195.129    22148194.698    22148193.923   -14298323.911 5 -11141542.951 4
        31.500          29.900
  20594652.414    20594651.868    20594650.498   -22996886.781 6 -17919643.156 7
        39.600          45.700
  22632878.019    22632877.365    22632875.516   -14512954.281 5 -11308783.124 4
        30.200          26.500
  20646089.525    20646089.249    20646086.142   -23709821.798 7 -18475175.538 7
        42.200          44.800
                            4 15
RINEX FILE SPLICE                                           COMMENT
teqc  2008Oct2      WCDA Operator       20090127 02:18:44UTCCOMMENT
STATION INFORMATION EFFECTIVE FROM: 2001/01/13 18:20:00     COMMENT
                                TO: CURRENT DATE (above)    COMMENT
BIT 2 OF LLI FLAGS (+4) DATA COLLECTED UNDER 'AS' CONDITION COMMENT
L1 PHASE CENTRE 0.110m ABOVE ARP                            COMMENT
L2 PHASE CENTRE 0.128m ABOVE ARP                            COMMENT
where ARP is the Antenna Reference Point for HI measurement COMMENT
CONTACT gps@pgc.nrcan.gc.ca FOR ADDITIONAL INFORMATION      COMMENT
    P1 =    P1  TurboRogue; =    Y1  Benchmark              COMMENT
    L1 = L1(CA)                                             COMMENT
    P2 =    P2  TurboRogue; =    Y2  Benchmark              COMMENT
    L2 = L2(P2) TurboRogue; = L2(Y2) Benchmark              COMMENT
 SNR is mapped to RINEX snr flag value [0-9]                COMMENT
  L1 & L2: min(max(int(snr_dBHz/6), 0), 9)                  COMMENT
 09  1 27  1  0  0.0000000  0 10G11G 5G19G32G12G31G 9G14G18G22
  23318920.486    23318920.302    23318917.887    -8325693.913 4  -6487552.117 3
        25.600          23.400
  24895361.189    24895361.020    24895361.397    -1196472.897     -932315.805 2
                        13.900
  24209599.228    24209597.920    24209596.462    -3977330.029 3  -3099217.600 3
        22.600          21.600
  24806913.172    24806912.328    24806914.544    -1920045.156 1  -1496139.426 2
        11.000          13.900
  24984679.242    24984679.477    24984679.068     -482754.821 1   -376171.878 3
        11.000          19.900
  24676512.895    24676513.675    24676511.832    -1976610.754 2  -1540215.089 3
        16.100          23.800
  22161793.772    22161793.458    22161792.649   -14226862.479 5 -11085858.718 5
        31.600          30.100
  20588325.778    20588325.276    20588324.001   -23030132.795 6 -17945549.134 7
        39.500          45.800
  22649348.848    22649348.210    22649346.434   -14426398.910 4 -11241337.392 4
        29.700          26.500
  20653880.609    20653880.316    20653876.979   -23668880.321 7 -18443273.089 7
        42.300          44.600
 09  1 27  1  0 30.0000000  0 10G11G 5G19G32G12G31G 9G14G18G22
  23306805.176    23306804.838    23306802.658    -8389360.383 4  -6537162.331 4
        25.900          24.600
  24878127.715    24878126.864    24878128.252    -1287032.484 1  -1002881.730 2
         6.500          13.900
  24224337.142    24224335.732    24224334.438    -3899881.636 3  -3038868.218 3
        23.400          21.600
  24788722.816    24788721.792    24788720.691    -2015643.131 2  -1570631.301 2
        13.900          12.600
  24969545.049    24969546.416    24969543.450     -562278.575 1   -438138.365 3
         9.000          18.600
  24654451.327    24654452.144    24654450.699    -2092535.817 2  -1630546.211 3
        12.600          20.500
  22175502.929    22175502.463    22175501.664   -14154821.671 5 -11029723.029 5
        31.600          30.100
  20582085.326    20582084.796    20582083.285   -23062927.407 6 -17971103.373 7
        39.500          45.900
  22665866.403    22665865.915    22665864.592   -14339595.721 4 -11173698.565 4
        29.200          26.200
  20661747.349    20661747.056    20661743.820   -23627539.608 7 -18411059.541 7
        42.200          44.500
 09  1 27  1  1  0.0000000  0 10G11G 5G19G32G12G31G 9G14G18G22
  23294778.037    23294777.960    23294776.068    -8452561.511 4  -6586409.958 4
        25.900          24.200
  24860939.555    24860939.269    24860938.814    -1377363.050 1  -1073269.093 2
        11.000          16.100
  24239134.446    24239132.922    24239131.110    -3822124.285 4  -2978278.117 3
        24.900          22.100
  24770540.337    24770539.115    24770537.639    -2111193.496 2  -1645086.067 2
        12.600          12.600
  24954466.726    24954466.297    24954465.112     -641524.834 2   -499888.621 3
        13.900          19.300
  24632402.268    24632403.160    24632401.740    -2208404.784 2  -1720833.614 3
        13.900          19.900
  22189321.527    22189320.785    22189320.218   -14082204.264 5 -10973138.037 4
        31.100          29.900
  20575930.586    20575930.051    20575928.631   -23095270.528 6 -17996305.800 7
        39.400          46.000
  22682431.450    22682430.961    22682429.468   -14252546.059 4 -11105867.673 4
        29.500          25.900
  20669690.233    20669689.851    20669686.578   -23585800.069 7 -18378535.227 7
        42.100          44.400
 09  1 27  1  1 30.0000000  0 10G11G 5G19G32G12G31G 9G14G18G22
  23282839.785    23282839.558    23282838.600    -8515294.994 4  -6635293.178 4
        25.600          24.600
  24843796.249    24843795.017    24843794.591    -1467460.169 2  -1143474.600 3
        12.600          18.600
  24253988.776    24253987.487    24253986.469    -3744059.913 4  -2917448.755 3
        24.200          21.100
  24752366.407    24752366.012    24752365.163    -2206694.231 1  -1719502.182 2
        11.000          12.600
  24939440.522    24939439.809    24939438.280     -720489.716 2   -561419.663 3
        15.100          18.600
  24610365.531    24610365.905    24610363.982    -2324213.982 2  -1811074.485 3
        15.100          20.500
  22203249.063    22203248.674    22203248.422   -14009011.984 5 -10916105.092 4
        30.400          29.700
  20569862.079    20569861.511    20569860.085   -23127160.783 6 -18021155.344 7
        39.300          46.100
  22699044.139    22699043.299    22699041.630   -14165249.944 4 -11037844.733 4
        29.500          25.900
  20677708.967    20677708.686    20677705.353   -23543660.968 7 -18345699.561 7
        42.200          44.300
 09  1 27  1  2  0.0000000  0 10G11G 5G19G32G12G31G 9G14G18G22
  23270990.739    23270990.711    23270989.348    -8577561.215 4  -6683812.314 4
        25.600          24.200
  24826693.812    24826692.657    24826693.853    -1557323.671 1  -1213498.086 2
        11.000          17.000
  24268902.109    24268900.313    24268898.949    -3665694.191 3  -2856384.573 3
        23.800          19.900
  24734201.441    24734199.879    24734202.113    -2302147.406 1  -1793881.212 2
         9.000          15.100
  24924466.801    24924467.417    24924464.123     -799173.131 2   -622731.442 2
        16.100          16.100
  24588338.608    24588338.937    24588337.124    -2439963.749 2  -1901269.066 3
        16.100          18.600
  22217285.883    22217285.409    22217284.389   -13935250.665 5 -10858628.738 4
        31.000          29.200
  20563879.143    20563878.600    20563877.166   -23158601.089 6 -18045654.280 7
        39.200          46.200
  22715701.975    22715701.310    22715699.834   -14077710.430 4 -10969632.143 4
        29.000          25.900
  20685803.217    20685802.859    20685799.609   -23501125.919 7 -18312555.363 7
        42.200          44.400
 09  1 27  1  2 30.0000000  0 10G11G 5G19G32G12G31G 9G14G18G22
  23259231.693    23259231.509    23259229.959    -8639356.946 4  -6731964.822 4
        24.900          24.200
  24809639.461    24809638.579    24809637.347    -1646948.821 1  -1283335.845 2
         9.000          15.100
  24283870.898    24283869.868    24283868.455    -3587028.481 3  -2795086.630 3
        23.400          19.300
  24716047.251    24716046.507    24716047.206    -2397550.400 1  -1868221.156 2
         6.500          17.000
  24909549.239    24909549.111    24909546.166     -877570.583 2   -683820.338 2
        15.100          17.000
  24566324.806    24566324.679    24566323.509    -2555650.371 2  -1991414.443 3
        17.000          19.300
  22231430.250    22231429.644    22231428.755   -13860921.723 5 -10800710.079 4
        31.000          29.200
  20557982.159    20557981.693    20557980.358   -23189589.538 6 -18069801.120 7
        39.200          46.400
  22732406.443    22732405.749    22732404.035   -13989927.991 4 -10901230.269 4
        29.000          25.900
  20693972.836    20693972.489    20693969.328   -23458193.939 7 -18279101.871 7
        42.100          44.400
 09  1 27  1  3  0.0000000  0 10G11G 5G19G32G12G31G 9G14G18G22
  23247561.515    23247561.302    23247560.016    -8700683.819 4  -6779751.972 4
        25.300          24.600
  24792627.198    24792627.739    24792629.275    -1736335.944 1  -1352988.108 2
         6.500          13.900
  24298896.237    24298895.077    24298893.642    -3508069.457 3  -2733560.152 3
        22.600          19.900
  24697901.901    24697900.385    24697900.815    -2492905.821 1  -1942524.064 2
        11.000          17.000
  24894681.819    24894682.238    24894683.567     -955682.992 1   -744687.086 3
         9.000          18.600
  24544321.586    24544322.236    24544320.707    -2671275.041 3  -2081511.550 3
        18.600          19.300
  22245681.170    22245680.523    22245679.972   -13786031.581 5 -10742354.129 4
        31.000          29.200
  20552170.569    20552170.042    20552168.788   -23220129.654 6 -18093598.608 7
        39.100          46.500
  22749156.265    22749155.682    22749153.879   -13901907.544 4 -10832642.916 4
        29.500          25.900
  20702217.276    20702216.985    20702213.774   -23414869.085 7 -18245342.245 7
        42.300          44.300
 09  1 27  1  3 30.0000000  0 10G11G 5G19G32G12G31G 9G14G18G22
  23235980.567    23235980.119    23235978.618    -8761544.473 4  -6827175.850 4
        25.300          24.200
  24775663.456    24775663.811    24775662.465    -1825486.548    -1422456.092 1
         3.000           9.000
  24313976.710    24313974.902    24313973.977    -3428824.833 3  -2671811.122 3
        21.600          19.900
  24679764.390    24679763.484    24679763.713    -2588217.588 2  -2016792.948 2
        12.600          17.000
  24879872.315    24879872.183    24879871.638    -1033511.872 1   -805332.937 3
         9.000          18.600
  24522331.362    24522331.970    24522329.566    -2786839.765 3  -2171561.948 3
        20.500          19.300
  22260037.653    22260037.038    22260036.542   -13710587.879 5 -10683566.830 4
        31.000          29.000
  20546443.494    20546443.037    20546441.697   -23250225.721 6 -18117050.083 7
        39.100          46.600
  22765950.116    22765949.541    22765947.757   -13813654.769 4 -10763874.539 4
        28.800          25.600
  20710535.545    20710535.193    20710531.956   -23371156.558 7 -18211280.530 7
        42.200          44.100
 09  1 27  1  4  0.0000000  0 10G11G 5G19G32G12G31G 9G14G18G22
  23224490.020    23224489.689    23224488.086    -8821927.261 4  -6874227.370 4
        25.600          24.600
  24758747.042    24758746.686    24758744.515    -1914387.527 1  -1491729.497 1
        11.000          11.000
  24329112.330    24329110.935    24329109.328    -3349287.129 3  -2609833.684 3
        21.100          19.900
  24661638.314    24661637.615    24661637.563    -2683474.598 2  -2091019.117 3
        15.100          19.300
  24865121.359    24865120.910    24865117.966    -1111044.117 2   -865747.639 3
        17.000          20.500
  24500354.284    24500354.149    24500352.397    -2902331.804 3  -2261555.699 3
        19.900          19.300
  22274500.801    22274500.333    22274499.706   -13634583.264 5 -10624342.444 4
        31.000          29.200
  20540802.626    20540802.231    20540801.009   -23279868.067 6 -18140148.012 7
        39.100          46.600
  22782789.606    22782789.209    22782787.708   -13725160.363 4 -10694917.873 4
        27.900          25.300
  20718929.314    20718928.959    20718925.724   -23327046.700 7 -18176909.215 7
        42.100          44.000
 09  1 27  1  4 30.0000000  0 10G11G 5G19G32G12G31G 9G14G18G22
  23213091.587    23213090.899    23213089.023    -8881828.675 4  -6920903.787 4
        25.300          24.200
  24741878.293    24741877.793    24741878.419    -2003033.974 1  -1560804.623 1
        11.000          11.000
  24344302.558    24344301.446    24344300.080    -3269457.878 3  -2547629.097 3
        19.900          19.900
  24643520.816    24643520.672    24643521.799    -2778674.328 2  -2165200.656 3
        15.100          19.300
  24850422.466    24850422.701    24850421.109    -1188275.455 2   -925927.841 3
        12.600          19.300
  24478391.689    24478391.760    24478389.951    -3017747.207 3  -2351489.730 2
        20.500          17.000
  22289070.260    22289069.915    22289069.358   -13558018.996 5 -10564681.980 4
        30.200          29.000
  20535248.799    20535248.220    20535246.796   -23309054.808 6 -18162890.921 7
        39.100          46.700
  22799675.790    22799675.108    22799673.523   -13636424.216 4 -10625772.841 4
        28.100          24.600
  20727398.780    20727398.542    20727395.334   -23282538.711 7 -18142227.664 7
        42.100          43.800
 09  1 27  1  5  0.0000000  0 10G11G 5G19G32G12G31G 9G14G18G22
  23201781.301    23201781.321    23201779.784    -8941259.045 4  -6967213.165 3
        24.600          23.800
  24725057.075    24725056.311    24725054.608    -2091434.775 2  -1629688.368 1
        13.900          11.000
  24359546.605    24359545.513    24359543.423    -3189352.011 3  -2485208.971 3
        20.500          20.500
  24625412.947    24625413.797    24625414.780    -2873827.858 2  -2239346.207 3
        16.100          19.900
  24835779.743    24835780.605    24835778.610    -1265214.856 1   -985880.614 3
         6.500          18.600
  24456441.094    24456441.383    24456440.318    -3133095.683 3  -2441371.638 2
        20.500          16.100
  22303743.795    22303743.434    22303742.871   -13480910.231 5 -10504597.231 4
        30.200          29.000
  20529779.131    20529778.643    20529777.623   -23337797.571 6 -18185287.873 7
        39.100          46.600
  22816605.488    22816605.058    22816603.083   -13547459.495 4 -10556449.682 4
        28.800          25.300
  20735941.846    20735941.560    20735938.270   -23237645.109 7 -18107245.634 7
        42.100          43.700
 09  1 27  1  5 30.0000000  0 10G11G 5G19G32G12G31G 9G14G18G22
  23190564.204    23190563.983    23190562.315    -9000207.770 4  -7013147.224 4
        25.600          24.200
  24708282.970    24708281.871    24708279.987    -2179578.160 1  -1698371.466 1
         9.000           9.000
  24374844.918    24374843.028    24374841.561    -3108964.337 3  -2422569.235 3
        21.100          21.600
  24607318.037    24607317.543    24607318.238    -2968925.464 2  -2313448.199 3
        17.800          21.100
  24821199.436    24821199.491    24821197.606    -1341851.015 2  -1045597.037 3
        15.100          21.100
  24434505.389    24434505.738    24434504.913    -3248366.062 3  -2531192.687 3
        18.600          19.300
  22318521.983    22318521.481    22318520.573   -13403251.292 5 -10444083.765 4
        30.100          28.400
  20524395.721    20524395.198    20524393.673   -23366087.833 6 -18207332.230 7
        39.000          46.500
  22833579.821    22833579.205    22833577.829   -13458258.520 4 -10486942.442 4
        28.400          25.600
  20744559.686    20744559.375    20744556.192   -23192357.900 7 -18071956.899 7
        42.000          43.700
 09  1 27  1  6  0.0000000  0 10G11G 5G19G32G12G31G 9G14G18G22
  23179438.733    23179438.434    23179436.645    -9058673.799 4  -7058705.157 4
        26.200          24.200
  24691558.508    24691557.406    24691558.518    -2267461.834 1  -1766852.239 2
         9.000          12.600
  24390193.409    24390192.141    24390191.273    -3028298.333 3  -2359712.636 3
        20.500          22.100
  24589232.869    24589232.118    24589232.449    -3063967.262 3  -2387506.703 3
        19.900          20.500
  24806674.334    24806673.601    24806670.175    -1418181.848 2  -1105075.535 3
        13.900          18.600
  24412584.748    24412584.913    24412585.112    -3363556.923 2  -2620951.739 3
        17.000          21.600
  22333403.805    22333403.300    22333402.589   -13325046.064 4 -10383144.635 4
        29.900          28.600
  20519098.270    20519097.735    20519096.625   -23393926.401 6 -18229024.616 7
        39.100          46.400
  22850598.453    22850597.857    22850596.463   -13368823.440 4 -10417252.784 4
        27.600          24.900
  20753252.205    20753251.908    20753248.699   -23146678.532 7 -18036362.585 7
        42.100          43.700
 09  1 27  1  6 30.0000000  0 10G11G 5G19G32G12G31G 9G14G18G22
  23168407.257    23168406.846    23168404.726    -9116646.432 4  -7103878.630 4
        26.800          24.200
  24674887.463    24674887.046    24674886.360    -2355073.708 2  -1835121.141 2
        13.900          16.100
  24405597.895    24405597.309    24405595.689    -2947347.970 3  -2296634.453 3
        21.100          22.600
  24571159.314    24571158.629    24571159.156    -3158943.299 3  -2461513.941 3
        19.900          20.500
  24792207.212    24792207.050    24792208.038    -1494195.278 2  -1164306.769 3
        15.100          21.600
  24390681.266    24390681.344    24390681.421    -3478656.507 2  -2710639.695 3
        17.000          21.600
  22348390.969    22348390.592    22348389.586   -13246288.235 4 -10321774.886 4
        29.500          28.100
  20513888.294    20513887.826    20513886.216   -23421304.487 6 -18250358.185 7
        39.100          46.300
  22867663.694    22867662.885    22867661.445   -13279146.518 4 -10347374.672 4
        27.400          24.900
  20762020.915    20762020.655    20762017.321   -23100598.572 7 -18000456.121 7
        42.000          43.400
 09  1 27  1  7  0.0000000  0 10G11G 5G19G32G12G31G 9G14G18G22
  23157466.969    23157466.635    23157464.656    -9174135.543 4  -7148675.338 3
        26.200          23.800
  24658265.903    24658265.029    24658264.812    -2442422.061 2  -1903184.741 2
        15.100          16.100
  24421054.735    24421053.313    24421051.856    -2866127.884 3  -2233346.128 4
        21.600          24.200
  24553096.814    24553095.726    24553095.801    -3253864.051 3  -2535478.097 3
        19.900          19.900
  24777804.100    24777803.882    24777802.587    -1569900.052 3  -1223297.479 3
        21.600          22.600
  24368794.418    24368794.210    24368794.513    -3593673.900 2  -2800263.584 3
        17.000          23.000
  22363480.671    22363480.239    22363479.319   -13166992.426 4 -10259985.952 4
        29.500          28.100
  20508763.974    20508763.425    20508762.413   -23448233.542 6 -18271341.859 7
        39.100          46.300
  22884772.026    22884771.540    22884770.069   -13189240.523 4 -10277318.062 4
        26.800          24.900
  20770863.560    20770863.257    20770860.060   -23054130.193 6 -17964246.995 7
        41.900          43.500
 09  1 27  1  7 30.0000000  0 10G 5G11G19G32G12G31G 9G14G18G22
  24641693.175    24641692.524    24641693.794    -2529503.919 2  -1971040.759 2
        12.600          15.100
  23146619.165    23146619.039    23146617.123    -9231139.442 4  -7193093.959 3
        26.800          23.800
  24436560.650    24436558.649    24436558.309    -2784641.158 3  -2169850.023 4
        20.500          24.200
  24535043.839    24535043.062    24535043.482    -3348728.824 2  -2609398.643 3
        17.800          19.300
  24763455.564    24763455.585    24763452.113    -1645293.529 3  -1282045.585 3
        19.900          18.600
  24346922.493    24346922.903    24346923.821    -3708607.128 2  -2889821.876 3
        17.000          23.000
  22378671.508    22378671.258    22378670.592   -13087161.958 4 -10197780.404 4
        29.900          28.600
  20503725.022    20503724.532    20503722.812   -23474713.396 6 -18291975.509 7
        39.100          46.300
  22901924.000    22901923.473    22901921.766   -13099106.834 4 -10207084.031 4
        26.800          24.900
  20779780.018    20779779.719    20779776.416   -23007274.170 6 -17927735.807 7
        41.900          43.400
 09  1 27  1  8  0.0000000  0 10G 5G11G19G32G12G31G 9G14G18G22
  24625175.348    24625174.526    24625174.667    -2616311.957 2  -2038683.325 2
        13.900          13.900
  23135865.112    23135864.946    23135863.059    -9287652.115 4  -7237129.798 3
        27.100          23.800
  24452118.077    24452116.825    24452115.885    -2702886.425 3  -2106145.080 3
        22.100          23.400
  24517002.667    24517001.587    24517002.991    -3443532.297 2  -2683271.409 3
        17.000          19.900
  24749167.808    24749168.325    24749166.742    -1720368.710 2  -1340545.689 2
        16.100          17.800
  24325069.011    24325068.961    24325069.660    -3823449.181 2  -2979309.131 3
        17.000          23.000
  22393964.840    22393964.360    22393963.968   -13006795.425 4 -10135157.127 4
        29.900          28.600
  20498772.220    20498771.667    20498770.714   -23500740.099 6 -18312256.052 7
        39.000          46.100
  22919119.994    22919119.216    22919117.333   -13008742.565 4 -10136670.343 4
        26.800          24.900
  20788770.791    20788770.452    20788767.365   -22960026.855 6 -17890919.715 7
        41.800          43.400
 09  1 27  1  8 30.0000000  0 10G 5G11G19G32G12G31G 9G14G18G22
  24608707.381    24608706.557    24608705.912    -2702848.286 2  -2106114.222 2
        13.900          12.600
  23125204.364    23125204.108    23125201.695    -9343677.225 4  -7280785.717 4
        27.900          24.200
  24467725.042    24467723.541    24467722.451    -2620872.130 3  -2042237.845 3
        22.100          23.400
  24498972.662    24498972.788    24498973.308    -3538278.816 2  -2757099.821 3
        17.000          21.100
  24734942.509    24734941.851    24734942.031    -1795127.931 2  -1398799.644 3
        15.100          19.900
  24303232.903    24303232.409    24303232.377    -3938202.879 3  -3068727.563 4
        18.600          24.200
  22409358.015    22409357.840    22409357.510   -12925901.369 4 -10072122.800 4
        29.500          28.400
  20493904.712    20493904.261    20493902.488   -23526318.810 6 -18332187.512 7
        39.000          46.000
  22936358.527    22936357.815    22936355.771   -12918153.800 4 -10066081.721 4
        27.400          24.600
  20797834.961    20797834.608    20797831.566   -22912394.164 6 -17853803.336 7
        41.700          43.300
 09  1 27  1  9  0.0000000  0 10G 5G11G19G32G12G31G 9G14G18G22
  24592293.438    24592293.182    24592290.999    -2789105.856 2  -2173327.871 1
        13.900          11.000
  23114637.304    23114636.807    23114634.637    -9399209.178 4  -7324057.363 4
        28.400          24.200
  24483380.903    24483379.867    24483378.770    -2538597.436 3  -1978127.753 3
        21.100          22.600
  24480955.450    24480954.911    24480954.988    -3632963.496 3  -2830880.077 3
        19.300          21.600
  24720778.195    24720777.651    24720776.307    -1869564.412 2  -1456802.060 2
        17.800          17.800
  24281413.730    24281413.984    24281414.249    -4052862.134 3  -3158072.381 4
        19.900          25.600
  22424852.577    22424852.302    22424851.531   -12844478.715 4 -10008676.583 4
        29.900          27.600
  20489123.361    20489122.862    20489121.860   -23551445.539 6 -18351766.779 7
        39.000          46.200
  22953640.022    22953639.525    22953637.741   -12827337.913 4  -9995316.110 4
        27.600          24.600
  20806973.152    20806972.892    20806969.652   -22864372.916 6 -17816384.180 7
        41.700          43.100
 09  1 27  1  9 30.0000000  0 10G 5G11G19G32G12G31G 9G14G18G22
  24575932.248    24575931.247    24575931.766    -2875083.934 2  -2240323.738 2
        12.600          13.900
  23104163.284    23104163.118    23104161.007    -9454248.626 4  -7366945.241 4
        28.400          24.200
  24499086.059    24499084.310    24499084.636    -2456067.631 3  -1913818.823 3
        19.300          22.600
  24462949.267    24462948.377    24462949.076    -3727587.844 3  -2904613.308 3
        18.600          22.100
  24706675.507    24706675.501    24706672.726    -1943677.955 3  -1514552.803 2
        18.600          16.100
  24259612.739    24259612.891    24259613.144    -4167426.675 3  -3247343.385 4
        18.600          24.900
  22440446.947    22440446.482    22440445.016   -12762533.254 5  -9944822.962 4
        30.200          27.600
  20484427.395    20484426.889    20484425.087   -23576122.688 6 -18370995.723 7
        39.000          46.000
  22970963.873    22970963.317    22970961.829   -12736298.839 4  -9924376.580 4
        26.500          24.200
  20816184.733    20816184.378    20816181.079   -22815966.196 6 -17778664.658 7
        41.600          43.000
 09  1 27  1 10  0.0000000  0 10G 5G11G19G32G12G31G 9G14G18G22
  24559625.150    24559623.851    24559625.230    -2960776.476 1  -2307097.114 2
        11.000          13.900
  23093784.089    23093783.840    23093782.020    -9508790.944 4  -7409445.742 4
        28.400          24.900
  24514839.652    24514838.399    24514837.214    -2373282.906 3  -1849311.239 3
        18.600          21.600
  24444955.032    24444954.028    24444955.184    -3822148.020 2  -2978296.523 3
        17.800          23.000
  24692633.176    24692632.890    24692632.519    -2017462.609 2  -1572047.324 2
        16.100          17.000
  24237830.863    24237831.112    24237830.811    -4281891.153 3  -3336536.433 3
        18.600          23.400
  22456139.690    22456139.278    22456138.358   -12680064.884 4  -9880561.895 4
        29.200          27.600
  20479817.648    20479817.072    20479816.086   -23600347.424 6 -18389872.137 7
        39.000          46.000
  22988330.968    22988330.286    22988328.839   -12645034.489 4  -9853261.522 3
        24.900          23.400
  20825469.781    20825469.498    20825466.338   -22767171.811 6 -17740643.058 7
        41.500          42.900
 09  1 27  1 10 30.0000000  0 10G 5G11G19G32G12G31G 9G14G18G22
  24543374.338    24543373.086    24543372.723    -3046177.038 1  -2373642.959 2
        11.000          13.900
  23083500.520    23083500.334    23083498.356    -9562831.203 4  -7451555.027 4
        28.600          24.600
  24530641.680    24530639.893    24530638.302    -2290242.901 2  -1784604.758 3
        17.800          19.900
  24426974.416    24426973.019    24426973.809    -3916639.541 2  -3051926.232 3
        17.800          22.600
  24678657.833    24678657.338    24678654.938    -2090911.919 3  -1629280.579 2
        19.300          17.000
  24216069.717    24216070.110    24216068.325    -4396249.866 3  -3425647.071 3
        19.300          22.600
  22471932.226    22471931.977    22471931.332   -12597073.337 4  -9815893.169 4
        29.200          27.900
  20475294.479    20475293.965    20475292.103   -23624116.742 6 -18408393.679 7
        39.000          46.000
  23005741.248    23005740.700    23005739.142   -12553542.791 4  -9781969.307 3
        24.900          23.400
  20834829.530    20834829.163    20834825.999   -22717986.850 6 -17702317.116 7
        41.600          42.900
 09  1 27  1 11  0.0000000  0 10G 5G11G19G32G12G31G 9G14G18G22
  24527179.286    24527178.271    24527178.727    -3131279.743 1  -2439956.736 2
         9.000          16.100
  23073313.475    23073313.175    23073311.051    -9616364.867 4  -7493269.573 4
        28.600          24.600
  24546494.215    24546492.095    24546489.658    -2206947.933 3  -1719699.596 3
        19.300          20.500
  24409006.702    24409005.632    24409006.816    -4011058.730 2  -3125499.589 3
        17.800          23.400
  24664744.827    24664744.811    24664743.681    -2164020.818 3  -1686248.504 3
        18.600          18.600
  24194330.123    24194329.847    24194328.076    -4510497.364 3  -3514671.059 3
        20.500          23.000
  22487824.992    22487824.306    22487823.678   -12513558.935 4  -9750817.006 4
        29.000          27.600
  20470858.533    20470858.130    20470857.088   -23647427.436 6 -18426557.851 7
        39.100          45.900
  23023195.166    23023194.679    23023193.174   -12461822.607 4  -9710499.049 3
        25.300          23.800
  20844263.684    20844263.371    20844260.211   -22668409.446 6 -17663685.370 7
        41.600          42.700
 09  1 27  1 11 30.0000000  0 10G 5G11G19G32G12G31G 9G14G18G22
  24511039.480    24511038.230    24511039.995    -3216092.838 2  -2506044.814 2
        12.600          17.000
  23063221.134    23063220.988    23063218.688    -9669401.609 4  -7534596.900 4
        28.400          24.900
  24562388.314    24562387.291    24562385.888    -2123412.205 3  -1654606.836 3
        19.300          19.300
  24391050.393    24391049.548    24391051.020    -4105415.851 3  -3199024.588 3
        18.600          23.400
  24650895.926    24650895.349    24650894.660    -2236797.797 2  -1742957.778 3
        17.000          20.500
  24172609.106    24172608.917    24172606.768    -4624642.637 3  -3603615.391 3
        20.500          23.400
  22503813.450    22503813.135    22503812.648   -12429536.356 4  -9685344.877 4
        28.600          27.900
  20466507.785    20466507.224    20466505.356   -23670291.246 6 -18444373.805 7
        39.000          46.100
  23040690.220    23040689.571    23040687.945   -12369886.059 4  -9638860.206 3
        25.600          23.400
  20853770.367    20853770.024    20853766.835   -22618451.650 6 -17624757.215 7
        41.500          42.600
 09  1 27  1 12  0.0000000  0 10G 5G11G19G32G12G31G 9G14G18G22
  24494957.462    24494957.360    24494956.204    -3300610.673 2  -2571902.833 2
        15.100          15.100
  23053223.514    23053223.211    23053221.471    -9721937.804 4  -7575534.182 4
        27.600          24.900
  24578329.325    24578328.694    24578327.741    -2039636.539 3  -1589327.149 3
        18.600          18.600
  24373107.937    24373107.092    24373107.442    -4199707.736 3  -3272498.728 3
        18.600          22.100
  24637111.172    24637110.714    24637108.593    -2309237.564 3  -1799404.354 3
        18.600          19.300
  24150908.608    24150908.429    24150906.285    -4738680.956 3  -3692476.371 3
        21.100          23.800
  22519899.294    22519898.846    22519898.363   -12345006.222 4  -9619477.241 4
        28.600          28.100
  20462242.335    20462241.836    20462240.867   -23692706.074 6 -18461839.901 7
        39.100          45.700
  23058227.086    23058226.249    23058224.320   -12277732.326 4  -9567052.123 3
        25.900          23.800
  20863349.593    20863349.304    20863346.278   -22568111.935 6 -17585531.466 7
        41.400          42.700
 09  1 27  1 12 30.0000000  0 10G 5G11G19G32G12G31G 9G14G18G22
  24478931.552    24478931.115    24478930.400    -3384824.659 2  -2637524.102 2
        15.100          15.100
  23043322.807    23043322.735    23043321.445    -9773965.778 4  -7616075.446 4
        27.600          25.600
  24594319.278    24594318.187    24594316.596    -1955618.507 3  -1523858.562 3
        21.100          19.900
  24355177.977    24355177.501    24355177.491    -4293927.679 3  -3345916.825 3
        20.500          21.100
  24623393.236    24623393.192    24623388.730    -2381331.339 3  -1855581.337 2
        20.500          17.800
  24129229.544    24129229.135    24129227.251    -4852604.231 3  -3781247.713 3
        22.100          23.400
  22536081.721    22536081.371    22536080.878   -12259965.943 4  -9553212.097 4
        28.400          27.600
  20458063.573    20458063.121    20458061.190   -23714665.602 6 -18478951.219 7
        39.000          45.900
  23075805.870    23075804.870    23075803.063   -12185356.693 4  -9495071.123 3
        26.200          23.400
  20873002.702    20873002.396    20872999.257   -22517385.026 6 -17546004.001 7
        41.400          42.600
 09  1 27  1 13  0.0000000  0 10G 5G11G19G32G12G31G 9G14G18G22
  24462963.601    24462962.620    24462963.284    -3468738.720 2  -2702911.660 2
        13.900          17.800
  23033517.718    23033517.472    23033516.053    -9825491.216 4  -7656225.136 4
        27.600          25.300
  24610351.358    24610349.698    24610348.714    -1871367.955 3  -1458208.793 3
        20.500          20.500
  24337261.125    24337260.718    24337259.961    -4388081.646 3  -3419283.519 3
        19.300          19.900
  24609737.426    24609736.249    24609736.382    -2453083.876 2  -1911492.356 3
        13.900          19.300
  24107571.150    24107570.930    24107569.264    -4966416.984 3  -3869932.948 3
        22.600          23.400
  22552359.265    22552359.039    22552358.323   -12174425.848 4  -9486557.486 4
        28.400          27.400
  20453969.958    20453969.513    20453968.641   -23736177.418 6 -18495713.670 7
        39.000          45.700
  23093424.337    23093423.962    23093422.473   -12092767.506 4  -9422923.727 3
        25.600          23.800
  20882727.944    20882727.589    20882724.473   -22466278.806 6 -17506180.973 7
        41.400          42.500
 09  1 27  1 13 30.0000000  0 10G 5G11G19G32G12G31G 9G14G18G22
  24447052.309    24447051.819    24447053.114    -3552347.019 1  -2768060.935 2
        11.000          17.800
  23023809.100    23023808.895    23023807.432    -9876509.849 4  -7695979.904 4
        27.600          25.300
  24626427.493    24626425.886    24626425.500    -1786885.325 3  -1392378.195 3
        19.900          20.500
  24319357.306    24319356.215    24319356.131    -4482166.046 2  -3492595.995 3
        17.000          19.300
  24596148.802    24596148.858    24596147.715    -2524489.484 2  -1967133.029 3
        13.900          19.300
  24085934.949    24085935.140    24085933.990    -5080113.945 3  -3958527.941 4
        22.600          24.600
  22568732.484    22568732.130    22568731.179   -12088386.445 4  -9419513.798 4
        28.600          27.100
  20449962.198    20449961.629    20449959.738   -23757239.080 6 -18512125.351 7
        39.000          46.000
  23111083.891    23111083.468    23111082.007   -11999963.637 4  -9350609.059 3
        24.900          23.000
  20892525.615    20892525.326    20892522.172   -22414791.332 6 -17466060.860 7
        41.400          42.400
 09  1 27  1 14  0.0000000  0 10G 5G11G19G32G12G31G 9G14G18G22
  24431204.058    24431202.983    24431203.275    -3635635.468 1  -2832960.958 2
        11.000          16.100
  23014199.339    23014199.232    23014197.689    -9927009.150 4  -7735330.004 4
        27.900          25.300
  24642550.460    24642548.983    24642547.890    -1702162.493 3  -1326360.447 3
        19.900          22.100
  24301468.392    24301467.949    24301468.758    -4576168.679 2  -3565844.757 3
        15.100          18.600
  24582631.649    24582631.193    24582627.484    -2595534.491 3  -2022492.790 3
        18.600          19.300
  24064323.881    24064323.867    24064322.463    -5193681.632 3  -4047022.211 4
        22.600          24.200
  22585201.848    22585201.447    22585200.476   -12001839.450 4  -9352074.576 4
        28.400          26.800
  20446042.032    20446041.594    20446040.496   -23777839.420 6 -18528177.560 7
        39.000          45.700
  23128787.310    23128786.591    23128784.592   -11906935.023 4  -9278119.249 3
        24.200          22.100
  20902397.793    20902397.559    20902394.423   -22362912.083 6 -17425635.472 7
        41.400          42.200
 09  1 27  1 14 30.0000000  0 10G 5G11G19G32G12G31G 9G14G18G22
  24415414.967    24415414.083    24415413.166    -3718608.080 1  -2897614.933 2
        11.000          13.900
  23004687.820    23004687.553    23004685.473    -9976994.562 4  -7774279.661 4
        27.900          24.900
  24658716.066    24658714.788    24658713.904    -1617209.772 3  -1260163.552 3
        19.300          22.600
  24283595.564    24283594.430    24283595.125    -4670095.830 2  -3639034.742 3
        16.100          18.600
  24569177.909    24569178.452    24569177.736    -2666223.205 2  -2077574.871 3
        17.800          22.100
  24042736.140    24042736.060    24042734.854    -5307124.840 3  -4135419.487 4
        23.400          24.600
  22601765.790    22601764.977    22601764.295   -11914795.650 4  -9284248.240 4
        27.600          26.800
  20442208.359    20442207.831    20442205.787   -23797985.974 6 -18543876.171 7
        38.900          45.900
  23146530.918    23146530.200    23146528.365   -11813690.253 3  -9205460.998 3
        23.800          21.100
  20912343.193    20912342.957    20912339.682   -22310649.032 6 -17384911.012 7
        41.400          42.100
 09  1 27  1 15  0.0000000  0 10G 5G11G19G32G12G31G 9G14G18G22
  24399684.772    24399683.969    24399684.693    -3801267.868 1  -2962025.133 2
        11.000          16.100
  22995272.940    22995272.663    22995270.260   -10026470.822 4  -7812832.587 4
        28.600          24.900
  24674924.879    24674922.333    24674921.279    -1532036.349 3  -1193794.659 3
        18.600          21.600
  24265735.646    24265734.435    24265733.896    -4763952.453 2  -3712169.744 3
        16.100          18.600
  24555794.506    24555794.507    24555793.526    -2736558.941 3  -2132381.888 3
        18.600          22.100
  24021171.640    24021171.707    24021170.490    -5420447.100 3  -4223722.497 4
        23.800          24.900
  22618422.359    22618421.789    22618421.015   -11827264.125 4  -9216041.858 4
        27.400          27.100
  20438459.733    20438459.204    20438458.326   -23817684.863 6 -18559225.948 7
        38.900          45.700
  23164314.482    23164313.720    23164311.971   -11720236.280 3  -9132639.746 3
        23.800          21.100
  20922360.273    20922359.952    20922356.764   -22258009.073 6 -17343892.864 7
        41.200          42.100
 09  1 27  1 15 30.0000000  0 10G 5G11G19G32G12G31G 9G14G18G22
  24384015.683    24384015.177    24384016.474    -3883606.334 1  -3026184.930 2
        11.000          17.000
  22985956.394    22985956.001    22985953.737   -10075431.180 4  -7850983.510 4
        29.200          25.600
  24691174.445    24691172.357    24691172.118    -1446639.637 2  -1127251.791 3
        17.800          21.100
  24247889.584    24247888.191    24247888.238    -4857732.276 3  -3785244.870 3
        18.600          19.300
  24542478.046    24542477.509    24542475.331    -2806534.071 2  -2186907.934 3
        17.000          19.300
  23999631.410    23999631.924    23999629.878    -5533640.612 3  -4311925.207 4
        23.400          24.200
  22635172.153    22635171.764    22635171.079   -11739242.594 4  -9147453.665 4
        27.100          26.800
  20434797.321    20434796.834    20434794.761   -23836930.766 6 -18574222.754 7
        38.900          45.600
  23182138.793    23182138.181    23182136.235   -11626569.325 4  -9059652.527 3
        24.200          21.600
  20932449.927    20932449.651    20932446.472   -22204987.583 6 -17302577.416 7
        41.300          42.100
 09  1 27  1 16  0.0000000  0 10G 5G11G19G32G12G31G 9G14G18G22
  24368410.779    24368409.866    24368409.581    -3965617.375 2  -3090089.622 2
        13.900          17.000
  22976738.420    22976738.086    22976736.010   -10123870.598 4  -7888728.506 4
        28.800          25.600
  24707467.576    24707466.636    24707464.887    -1361019.756 2  -1060535.057 3
        17.800          20.500
  24230058.588    24230057.977    24230058.297    -4951431.105 3  -3858256.897 3
        19.900          19.300
  24529232.105    24529231.857    24529229.687    -2876142.057 2  -2241147.885 3
        17.800          19.900
  23978117.636    23978117.232    23978115.820    -5646699.756 4  -4400023.231 4
        24.200          24.600
  22652015.350    22652014.870    22652014.328   -11650731.551 4  -9078484.028 4
        27.400          26.800
  20431221.788    20431221.223    20431220.183   -23855720.756 6 -18588864.303 7
        38.900          45.600
  23200003.923    23200003.372    23200001.513   -11532687.466 4  -8986497.842 3
        24.200          21.600
  20942612.697    20942612.423    20942609.230   -22151582.194 6 -17260962.827 7
        41.400          42.000
 09  1 27  1 16 30.0000000  0 10G 5G11G19G32G12G31G 9G14G18G22
  24352866.041    24352865.203    24352864.095    -4047307.864 2  -3153744.487 2
        16.100          17.000
  22967617.976    22967617.806    22967615.758   -10171797.810 4  -7926074.381 4
        29.500          25.600
  24723798.954    24723797.676    24723797.570    -1275189.727 2   -993654.563 2
        16.100          17.800
  24212242.548    24212241.554    24212241.900    -5045057.868 3  -3931212.763 3
        22.100          19.900
  24516054.624    24516054.815    24516053.802    -2945390.362 2  -2295107.585 3
        17.000          22.100
  23956626.077    23956626.227    23956625.515    -5759632.224 3  -4488022.495 4
        22.600          25.600
  22668948.939    22668948.709    22668948.134   -11561743.792 4  -9009142.929 4
        27.600          26.500
  20427731.070    20427730.549    20427728.318   -23874065.114 6 -18603158.605 7
        38.900          45.900
  23217907.899    23217907.092    23217905.660   -11438601.766 3  -8913184.338 3
        23.400          21.600
  20952846.338    20952846.090    20952842.900   -22097803.702 6 -17219057.509 6
        41.400          41.900
 09  1 27  1 17  0.0000000  0 10G 5G11G19G32G12G31G 9G14G18G22
  24337380.335    24337378.840    24337380.683    -4128678.021 2  -3217149.766 2
        13.900          17.800
  22958595.287    22958594.859    22958592.768   -10219214.564 4  -7963022.487 4
        29.700          25.900
  24740170.668    24740171.068    24740169.618    -1189156.091 2   -926615.400 2
        13.900          17.000
  24194439.759    24194438.613    24194438.825    -5138614.868 3  -4004114.283 3
        23.400          21.100
  24502944.779    24502945.364    24502944.383    -3014279.895 2  -2348787.699 3
        16.100          22.100
  23935159.327    23935159.829    23935158.807    -5872438.613 3  -4575923.552 4
        23.000          24.600
  22685972.764    22685972.399    22685971.024   -11472285.801 4  -8939435.408 4
        28.100          26.200
  20424324.226    20424323.722    20424322.819   -23891967.308 6 -18617108.363 7
        38.800          45.600
  23235850.150    23235849.389    23235847.302   -11344316.907 4  -8839715.643 3
        24.200          22.100
  20963150.391    20963150.060    20963146.804   -22043656.226 6 -17176864.667 6
        41.300          41.800
 09  1 27  1 17 30.0000000  0 10G 5G11G19G32G12G31G 9G14G18G22
  24321964.873    24321963.972    24321963.434    -4209694.150 2  -3280279.174 2
        17.000          17.000
  22949674.872    22949674.633    22949672.744   -10266089.016 4  -7999548.035 4
        29.200          25.600
  24756589.090    24756587.698    24756585.123    -1102890.938 2   -859395.867 2
        13.900          17.000
  24176655.448    24176654.731    24176654.674    -5232070.449 3  -4076936.770 3
        23.800          21.600
  24489911.029    24489910.677    24489908.778    -3082777.139 2  -2402162.097 3
        17.000          21.100
  23913723.259    23913723.883    23913723.240    -5985085.944 3  -4663700.668 4
        23.000          24.900
  22703090.413    22703089.920    22703089.043   -11382330.386 4  -8869340.268 4
        27.900          25.900
  20421007.581    20421006.982    20421004.861   -23909396.632 6 -18630689.654 7
        38.800          45.600
  23253835.379    23253834.922    23253832.819   -11249803.800 4  -8766069.091 3
        24.600          21.600
  20973530.107    20973529.902    20973526.584   -21989109.748 6 -17134360.915 6
        41.400          41.800
 09  1 27  1 18  0.0000000  0 10G22G 5G11G19G32G12G31G 9G14G18
  20983981.108    20983980.795    20983977.531   -21934190.070 6 -17091566.360 6
        41.300          41.800
  24306610.032    24306609.293    24306609.387    -4290378.049 2  -3343149.727 2
        16.100          17.000
  22940853.961    22940853.440    22940851.538   -10312444.766 4  -8035669.399 4
        29.000          25.300
  24773042.792    24773041.107    24773039.868    -1016422.430 2   -792017.878 3
        13.900          19.300
  24158886.606    24158885.640    24158885.381    -5325448.388 3  -4149698.774 3
        23.400          21.600
  24476946.986    24476947.088    24476944.433    -3150904.189 2  -2455248.097 3
        17.800          19.300
  23892313.742    23892314.003    23892313.268    -6097596.650 3  -4751371.311 4
        23.400          25.300
  22720297.726    22720297.214    22720296.482   -11291905.523 4  -8798879.341 4
        27.400          25.900
  20417775.981    20417775.526    20417774.581   -23926378.404 6 -18643922.199 7
        38.800          45.400
  23271858.875    23271858.436    23271856.740   -11155088.426 4  -8692264.927 3
        24.200          22.100
 09  1 27  1 18 30.0000000  0 10G22G 5G11G19G32G12G31G 9G14G18
  20994502.201    20994501.950    20994498.778   -21878900.529 6 -17048483.603 6
        41.200          41.700
  24291320.248    24291319.219    24291319.264    -4370729.429 2  -3405761.167 2
        16.100          17.000
  22932131.230    22932130.925    22932128.723   -10358282.699 4  -8071387.258 4
        29.000          25.600
  24789534.500    24789532.439    24789532.823     -929756.271 2   -724485.832 3
        13.900          21.100
  24141131.459    24141130.289    24141130.727    -5418750.458 3  -4222401.653 3
        22.100          21.100
  24464052.915    24464052.646    24464051.844    -3218661.276 2  -2508045.821 3
        17.000          20.500
  23870929.461    23870929.715    23870929.047    -6209970.875 3  -4838935.614 4
        23.400          24.900
  22737593.427    22737593.110    22737592.067   -11201016.965 4  -8728057.092 4
        27.400          25.900
  20414629.145    20414628.646    20414626.526   -23942915.390 6 -18656808.163 7
        38.900          45.500
  23289919.999    23289919.695    23289918.233   -11060174.821 3  -8618306.300 3
        23.000          21.600
 09  1 27  1 19  0.0000000  0 10G22G 5G11G19G32G12G31G 9G14G18
  21005094.324    21005094.071    21005090.885   -21823238.718 6 -17005110.763 6
        41.200          41.600
  24276094.189    24276093.625    24276093.263    -4450741.831 2  -3468108.471 2
        17.800          17.000
  22923508.007    22923507.631    22923505.581   -10403598.157 4  -8106698.002 4
        29.200          25.600
  24806064.614    24806063.208    24806060.703     -842892.202 2   -656799.541 3
        12.600          19.900
  24123391.564    24123390.692    24123390.914    -5511972.199 3  -4295041.939 3
        21.600          20.500
  24451230.457    24451230.690    24451228.752    -3286042.199 3  -2560550.420 3
        19.300          21.600
  23849572.238    23849572.575    23849571.533    -6322202.914 3  -4926389.134 4
        23.000          24.900
  22754976.880    22754976.457    22754976.266   -11109664.848 4  -8656873.639 4
        26.800          26.200
  20411567.483    20411566.990    20411565.962   -23959004.576 6 -18669345.185 7
        38.800          45.400
  23308019.730    23308019.114    23308017.810   -10965060.615 3  -8544191.363 3
        22.100          21.100
 09  1 27  1 19 30.0000000  0 10G22G 5G11G19G32G12G31G 9G14G18
  21015758.307    21015758.063    21015754.913   -21767198.790 6 -16961443.284 6
        41.100          41.500
  24260933.964    24260933.624    24260933.444    -4530405.360 2  -3530183.914 2
        17.800          16.100
  22914985.562    22914985.348    22914983.331   -10448382.859 4  -8141595.167 4
        29.700          25.900
  24822631.877    24822630.780    24822630.069     -755826.343 1   -588956.010 3
         9.000          18.600
  24105668.751    24105668.174    24105667.906    -5605105.467 3  -4367613.294 3
        21.600          19.900
  24438481.938    24438481.912    24438479.634    -3353037.415 3  -2612754.451 3
        18.600          21.600
  23828244.320    23828244.535    23828243.356    -6434283.366 3  -5013724.518 4
        23.800          25.900
  22772449.164    22772449.110    22772448.917   -11017845.490 4  -8585326.096 4
        26.200          26.800
  20408592.315    20408591.804    20408589.606   -23974639.100 6 -18681527.930 7
        38.700          45.400
  23326158.575    23326157.929    23326156.719   -10869740.234 3  -8469915.774 3
        22.600          21.600
 09  1 27  1 20  0.0000000  0 10G22G 5G11G19G32G12G31G 9G14G18
  21026493.119    21026492.845    21026489.723   -21710786.894 6 -16917485.965 6
        41.000          41.300
  24245840.831    24245839.738    24245839.624    -4609722.698 2  -3591989.610 2
        17.800          17.000
  22906563.203    22906563.222    22906561.385   -10492641.276 4  -8176082.241 4
        29.500          26.500
  24839236.424    24839235.416    24839235.522     -668567.445 1   -520962.103 3
        11.000          18.600
  24087962.046    24087961.292    24087961.067    -5698155.121 3  -4440119.498 3
        21.600          19.900
  24425805.390    24425805.700    24425804.761    -3419649.913 2  -2664660.271 3
        17.800          22.600
  23806944.448    23806944.659    23806943.415    -6546215.409 4  -5100944.267 4
        24.600          25.600
  22790008.950    22790008.773    22790008.423   -10925567.933 4  -8513421.515 4
        25.900          26.500
  20405702.594    20405701.998    20405700.992   -23989825.198 6 -18693361.248 7
        38.700          45.500
  23344335.518    23344334.984    23344333.178   -10774221.010 3  -8395485.234 3
        23.000          21.600
 09  1 27  1 20 30.0000000  0 10G22G 5G11G19G32G12G31G 9G14G18
  21037300.174    21037299.793    21037296.566   -21653996.271 6 -16873233.528 6
        41.000          41.200
  24230815.600    24230814.811    24230813.821    -4688683.606 3  -3653517.572 2
        19.300          17.000
  22898243.553    22898243.229    22898241.291   -10536364.726 4  -8210152.454 4
        29.700          26.800
  24855878.512    24855878.282    24855877.003     -581111.277 1   -452814.502 3
        11.000          18.600
  24070272.634    24070271.889    24070272.306    -5791112.828 3  -4512554.041 3
        20.500          19.900
  24413204.410    24413204.362    24413203.237    -3485869.926 3  -2716260.241 3
        18.600          22.600
  23785674.440    23785674.240    23785673.486    -6657989.361 4  -5188040.839 4
        24.200          25.600
  22807657.088    22807656.820    22807655.826   -10832828.044 4  -8441156.674 4
        26.200          25.900
  20402899.328    20402898.746    20402896.620   -24004556.006 6 -18704839.798 7
        38.600          45.300
  23362551.379    23362550.716    23362549.051   -10678496.836 3  -8320895.005 3
        22.600          21.100
 09  1 27  1 21  0.0000000  0 10G22G 5G11G19G32G12G31G 9G14G18
  21048177.802    21048177.428    21048174.262   -21596834.132 6 -16828691.600 6
        41.100          41.300
  24215856.514    24215855.686    24215856.236    -4767290.499 2  -3714769.665 3
        17.000          18.600
  22890023.791    22890023.588    22890021.951   -10579557.473 4  -8243809.140 4
        29.500          27.400
  24872556.666    24872556.369    24872555.210     -493466.611 2   -384520.000 2
        17.000          17.000
  24052600.444    24052599.557    24052599.880    -5883982.950 3  -4584920.337 3
        20.500          20.500
  24400678.854    24400678.384    24400675.643    -3551700.372 3  -2767556.664 3
        21.600          22.600
  23764433.478    23764433.602    23764433.163    -6769608.355 3  -5275016.647 4
        23.400          26.200
  22825391.315    22825391.169    22825390.478   -10739634.705 4  -8368538.494 4
        26.800          26.200
  20400181.731    20400181.184    20400180.219   -24018836.979 6 -18715967.824 7
        38.600          45.200
  23380804.658    23380803.981    23380802.881   -10582574.369 3  -8246150.246 3
        22.600          20.500
 09  1 27  1 21 30.0000000  0 10G22G 5G11G19G32G12G31G 9G14G18
  21059126.604    21059126.248    21059123.200   -21539297.627 6 -16783857.957 6
        41.000          41.300
  24200966.019    24200965.215    24200966.321    -4845537.546 2  -3775741.327 3
        13.900          19.300
  22881906.437    22881905.934    22881904.458   -10622215.515 4  -8277049.147 4
        29.000          27.400
  24889272.412    24889270.717    24889268.664     -405633.443 3   -316078.585 2
        20.500          13.900
  24034945.241    24034944.368    24034944.983    -5976761.658 3  -4657215.387 3
        19.300          19.900
  24388225.965    24388225.918    24388223.662    -3617135.973 3  -2818545.455 3
        21.100          22.100
  23743224.282    23743224.141    23743223.003    -6881067.139 3  -5361867.600 4
        23.800          25.600
  22843211.548    22843210.928    22843210.583   -10645988.016 4  -8295567.040 4
        26.200          25.600
  20397550.214    20397549.690    20397547.380   -24032665.363 6 -18726743.186 7
        38.500          45.000
  23399096.110    23399095.280    23399094.024   -10486452.021 3  -8171249.734 3
        23.000          20.500
 09  1 27  1 22  0.0000000  0 10G22G 5G11G19G32G12G31G 9G14G18
  21070146.369    21070146.032    21070143.055   -21481387.711 6 -16738733.350 6
        40.700          41.200
  24186145.764    24186145.426    24186144.565    -4923421.250 2  -3836429.887 2
        17.000          17.800
  22873890.998    22873890.654    22873888.840   -10664336.969 4  -8309871.059 4
        29.700          26.500
  24906021.220    24906019.344    24906018.699     -317614.478 3   -247492.373 2
        21.600          12.600
  24017306.729    24017306.331    24017307.275    -6069447.356 3  -4729437.959 3
        19.900          19.900
  24375848.991    24375848.612    24375847.262    -3682173.130 2  -2869223.719 3
        17.800          21.100
  23722045.745    23722045.678    23722044.109    -6992362.665 4  -5448591.360 4
        25.300          25.600
  22861117.961    22861117.179    22861116.799   -10551890.980 4  -8222244.686 4
        25.600          25.600
  20395004.809    20395004.353    20395003.334   -24046041.085 6 -18737165.820 7
        38.400          44.800
  23417425.424    23417425.097    23417423.046   -10390130.834 3  -8096194.277 3
        23.000          19.300
 09  1 27  1 22 30.0000000  0 10G22G 5G11G19G32G12G31G 9G14G18
  21081236.147    21081235.875    21081232.777   -21423110.802 6 -16693322.770 6
        40.800          41.100
  24171393.909    24171393.308    24171391.854    -5000943.996 3  -3896837.200 2
        18.600          16.100
  22865977.086    22865976.821    22865974.618   -10705925.818 4  -8342277.954 4
        29.700          26.500
  24922804.241    24922802.686    24922801.933     -229418.238 3   -178768.099 1
        22.100          11.000
  23999685.902    23999685.062    23999686.599    -6162044.361 3  -4801591.438 3
        19.300          19.300
  24363549.063    24363548.971    24363546.303    -3746814.908 3  -2919593.930 3
        21.100          21.100
  23700897.210    23700897.014    23700895.908    -7103497.886 4  -5535190.195 4
        25.300          25.600
  22879107.948    22879107.750    22879106.703   -10457352.380 4  -8148578.257 4
        25.300          24.600
  20392544.538    20392544.106    20392541.723   -24058969.869 6 -18747240.194 7
        38.400          44.900
  23435791.275    23435790.891    23435788.950   -10293617.215 3  -8020988.888 3
        22.100          19.900
 09  1 27  1 23  0.0000000  0 10G22G 5G11G19G32G12G31G 9G14G18
  21092395.246    21092395.001    21092391.839   -21364469.352 6 -16647628.135 6
        40.900          41.000
  24156710.350    24156709.453    24156709.525    -5078105.281 3  -3956962.854 3
        18.600          18.600
  22858163.765    22858163.411    22858161.606   -10746983.430 4  -8374270.889 4
        29.000          26.800
  24939620.769    24939619.067    24939617.610     -141050.292 3   -109910.013 1
        22.100           9.000
  23982082.213    23982081.753    23982082.437    -6254554.094 3  -4873676.912 3
        19.900          19.900
  24351323.317    24351322.928    24351320.976    -3811061.171 3  -2969655.955 3
        21.600          22.100
  23679779.343    23679779.329    23679778.012    -7214472.770 4  -5621664.088 4
        25.900          25.900
  22897180.439    22897180.042    22897179.695   -10362377.929 4  -8074572.194 4
        25.300          24.200
  20390168.836    20390168.365    20390167.377   -24071454.416 6 -18756968.410 7
        38.400          44.800
  23454192.887    23454192.388    23454191.313   -10196915.102 3  -7945636.633 3
        21.100          20.500
 09  1 27  1 23 30.0000000  0 10G22G 5G11G19G32G12G31G 9G14G18
  21103624.555    21103624.274    21103621.043   -21305458.950 6 -16601646.003 6
        40.700          40.800
  24142097.250    24142096.685    24142097.500    -5154896.083 3  -4016799.794 3
        18.600          20.500
  22850453.332    22850453.061    22850451.022   -10787502.605 4  -8405844.260 4
        29.500          26.500
  24956470.556    24956468.836    24956466.270      -52507.444 3    -40915.581 1
        22.100          11.000
  23964497.009    23964496.104    23964495.906    -6346969.335 3  -4945688.778 3
        20.500          19.900
  24339173.732    24339173.797    24339171.921    -3874903.413 3  -3019403.140 3
        19.300          21.100
  23658693.986    23658693.828    23658692.393    -7325278.715 4  -5708006.348 4
        26.200          25.900
  22915337.066    22915336.863    22915336.351   -10266964.844 4  -8000224.336 4
        26.200          24.600
  20387878.799    20387878.258    20387875.859   -24083489.188 6 -18766346.151 7
        38.400          44.900
  23472631.759    23472631.005    23472630.095   -10100019.848 3  -7870133.900 3
        20.500          21.100
 09  1 27  1 24  0.0000000  0 10G22G 5G11G19G32G12G31G 9G14G18
  21114924.075    21114923.732    21114920.465   -21246080.057 6 -16555376.734 6
        40.900          40.700
  24127555.606    24127555.597    24127554.284    -5231313.132 2  -4076345.516 2
        17.800          17.800
  22842845.588    22842845.330    22842843.038   -10827481.579 4  -8436996.704 4
        29.200          26.200
  24973350.625    24973348.435    24973348.794       36207.124 3     28212.684 2
        19.300          12.600
  23946929.000    23946927.919    23946928.213    -6439288.790 3  -5017625.988 3
        21.100          20.500
  24327102.465    24327102.182    24327099.507    -3938338.686 3  -3068833.195 3
        19.900          19.300
  23637640.497    23637640.661    23637639.290    -7435913.243 4  -5794215.035 4
        25.300          26.200
  22933576.627    22933576.550    22933576.188   -10171116.275 4  -7925537.140 4
        26.500          24.900
  20385674.328    20385673.820    20385672.781   -24095074.085 6 -18775373.339 7
        38.400          45.200
  23491107.211    23491106.465    23491105.150   -10002932.905 3  -7794481.791 3
        21.100          20.500
 09  1 27  1 24 30.0000000  0 10G22G 5G11G19G32G12G31G 9G14G18
  21126295.068    21126294.805    21126291.519   -21186324.443 6 -16508813.918 6
        40.700          40.600
  24113087.319    24113086.681    24113085.994    -5307344.646 2  -4135590.838 2
        17.800          17.000
  22835342.315    22835342.159    22835340.116   -10866910.470 4  -8467720.518 4
        29.200          26.200
  24990268.014    24990265.964    24990265.476      125099.613 2     97479.576 2
        17.800          16.100
  23929380.502    23929379.465    23929380.406    -6531502.420 3  -5089480.736 3
        21.100          21.600
  24315111.434    24315111.305    24315109.591    -4001355.704 3  -3117937.315 3
        21.600          22.100
  23616622.309    23616622.386    23616621.292    -7546364.783 4  -5880281.122 4
        25.900          26.800
  22951899.948    22951899.476    22951899.480   -10074826.373 4  -7850506.053 4
        25.600          25.300
  20383556.963    20383556.457    20383554.068   -24106200.470 6 -18784043.247 7
        38.400          45.000
  23509620.224    23509619.880    23509617.869    -9905645.860 3  -7718673.742 3
        22.100          19.900
 09  1 27  1 25  0.0000000  0 10G22G 5G11G19G32G12G31G 9G14G18
  21137734.136    21137733.861    21137730.670   -21126211.341 6 -16461972.543 6
        40.600          40.500
  24098690.105    24098689.194    24098688.537    -5383005.883 2  -4194547.632 2
        17.800          17.000
  22827940.408    22827940.335    22827938.528   -10905806.484 4  -8498029.085 4
        28.600          26.500
  25007211.993    25007210.919    25007210.615      214148.878 2    166868.580 2
        17.000          17.800
  23911849.777    23911849.059    23911849.616    -6623627.337 3  -5161266.371 3
        21.100          22.100
  24303195.691    24303195.576    24303194.351    -4063970.134 3  -3166727.756 3
        20.500          22.600
  23595635.544    23595635.789    23595634.998    -7656649.028 4  -5966216.841 4
        25.600          27.400
  22970303.664    22970303.047    22970302.670    -9978116.800 4  -7775147.957 4
        25.300          24.900
  20381523.497    20381522.922    20381521.840   -24116887.121 6 -18792370.503 7
        38.600          45.200
  23528167.170    23528166.655    23528165.391    -9808178.567 3  -7642725.230 3
        21.100          19.900
 09  1 27  1 25 30.0000000  0 10G22G 5G11G19G32G12G31G 9G14G18
  21149243.034    21149242.800    21149239.630   -21065731.678 6 -16414845.530 6
        40.700          40.400
  24084364.382    24084363.887    24084363.468    -5458283.946 2  -4253205.827 3
        16.100          18.600
  22820642.038    22820641.877    22820640.268   -10944158.535 4  -8527913.784 4
        28.400          26.500
  25024189.228    25024187.669    25024185.786      303361.375 2    236384.795 2
        16.100          17.800
  23894338.030    23894337.444    23894338.018    -6715652.557 3  -5232974.323 3
        21.100          22.600
  24291359.473    24291359.202    24291357.523    -4126169.684 3  -3215194.906 3
        19.900          22.100
  23574683.352    23574683.480    23574682.099    -7766753.902 4  -6052012.790 4
        25.600          26.800
  22988787.816    22988787.350    22988786.846    -9880981.314 4  -7699457.968 4
        24.600          24.600
  20379575.184    20379574.728    20379572.325   -24127124.357 6 -18800347.569 7
        38.500          44.900
  23546749.992    23546749.563    23546749.140    -9710522.613 3  -7566629.723 3
        18.600          19.300
 09  1 27  1 26  0.0000000  0 10G22G 5G11G19G32G12G31G 9G14G18
  21160824.166    21160823.901    21160820.701   -21004873.180 6 -16367423.325 6
        40.700          40.400
  24070115.304    24070114.658    24070114.846    -5533162.696 2  -4311552.871 3
        16.100          18.600
  22813450.470    22813450.208    22813448.487   -10981952.105 4  -8557363.311 4
        29.000          26.500
  25041199.042    25041197.962    25041196.102      392747.340 2    306036.154 3
        15.100          18.600
  23876848.064    23876847.627    23876847.896    -6807563.751 3  -5304593.407 3
        21.100          23.000
  24279604.891    24279604.439    24279603.169    -4187938.192 3  -3263326.210 3
        19.300          21.600
  23553767.811    23553767.970    23553767.162    -7876663.735 4  -6137656.783 4
        25.300          26.800
  23007354.508    23007354.382    23007353.734    -9783409.519 4  -7623428.026 3
        24.600          23.800
  20377715.084    20377714.595    20377713.528   -24136899.252 6 -18807964.369 7
        38.400          44.800
  23565371.998    23565371.637    23565370.062    -9612665.881 3  -7490377.775 3
        19.300          18.600
 09  1 27  1 26 30.0000000  0 11G22G 5G11G19G32G12G31G30G 9G14G18
  21172475.056    21172474.805    21172471.602   -20943646.963 6 -16319714.585 6
        40.600          40.200
  24055941.304    24055940.397    24055940.524    -5607649.723 2  -4369594.669 3
        17.800          19.300
  22806363.639    22806363.250    22806360.990   -11019196.818 4  -8586385.162 4
        29.900          27.100
  25058238.857    25058237.595    25058235.821      482293.272 2    375812.226 3
        16.100          18.600
  23859378.753    23859377.673    23859377.689    -6899370.253 3  -5376130.926 3
        21.100          23.400
  24267931.924    24267932.013    24267929.163    -4249283.874 3  -3311128.030 3
        19.900          22.100
  23532888.721    23532888.637    23532887.553    -7986386.567 4  -6223155.046 4
        25.900          27.100
  24935742.612    24935742.599    24935743.883           -.48411         -.85911
         9.000           9.000
  23026001.862    23026001.546    23026001.244    -9685415.142 3  -7547068.760 3
        23.000          23.400
  20375941.044    20375940.552    20375938.063   -24146222.539 6 -18815229.266 7
        38.400          45.000
  23584030.112    23584029.631    23584027.604    -9514620.209 3  -7413978.564 2
        19.900          17.800
 09  1 27  1 27  0.0000000  0 11G22G 5G11G19G32G12G31G30G 9G14G18
  21184193.073    21184192.779    21184189.628   -20882068.682 6 -16271731.509 6
        40.600          40.200
  24041839.494    24041838.954    24041838.935    -5681756.540 2  -4427340.194 3
        17.800          19.300
  22799377.882    22799377.326    22799375.611   -11055905.819 4  -8614989.572 4
        29.700          27.100
  25075305.953    25075304.106    25075302.605      571981.688 2    445699.235 3
        16.100          19.300
  23841924.949    23841924.134    23841924.919    -6991085.522 3  -5447597.336 3
        21.600          23.000
  24256336.012    24256335.762    24256334.319    -4310218.678 3  -3358609.683 3
        19.300          23.000
  23512041.768    23512041.924    23512041.453    -8095934.339 4  -6308516.904 4
        25.300          27.100
  24916461.710    24916461.177    24916461.359     -101322.668 1    -78953.241 1
         6.500           6.500
  23044726.786    23044726.470    23044726.177    -9587016.049 3  -7470394.152 3
        23.400          23.800
  20374249.960    20374249.394    20374248.388   -24155109.271 6 -18822153.988 7
        38.400          44.900
  23602720.732    23602720.048    23602718.133    -9416401.555 3  -7337444.545 3
        19.300          18.600
 09  1 27  1 27 30.0000000  0 11G22G 5G11G19G32G12G31G30G 9G14G18
  21195980.030    21195979.684    21195976.480   -20820128.204 6 -16223466.200 6
        40.500          40.000
  24027812.026    24027811.151    24027811.197    -5755469.348 2  -4484778.746 3
        17.000          19.300
  22792496.661    22792496.300    22792494.225   -11092067.024 4  -8643167.124 4
        29.700          27.100
  25092401.612    25092400.033    25092400.059      661820.123 2    515703.165 3
        13.900          21.100
  23824491.988    23824491.336    23824491.280    -7082697.530 3  -5518983.276 3
        23.000          23.000
  24244821.298    24244820.899    24244820.096    -4370729.247 3  -3405760.740 3
        19.300          23.400
  23491231.788    23491231.897    23491231.007    -8205293.821 4  -6393732.033 4
        26.200          27.600
  24897203.775    24897203.470    24897202.896     -202526.721 1   -157813.558
         6.500           3.000
  23063530.669    23063530.173    23063529.253    -9488204.822 3  -7393398.399 3
        23.800          23.400
  20372643.877    20372643.360    20372640.924   -24163549.108 6 -18828730.484 7
        38.400          45.000
  23621445.302    23621444.804    23621443.670    -9318000.193 2  -7260768.201 3
        17.800          19.900
 09  1 27  1 28  0.0000000  0 11G22G 5G11G19G32G12G31G30G 9G14G18
  21207835.798    21207835.406    21207832.280   -20757825.771 6 -16174918.846 6
        40.300          40.100
  24013860.940    24013859.735    24013859.296    -5828784.511 2  -4541907.409 3
        17.800          18.600
  22785719.358    22785719.124    22785717.460   -11127678.840 4  -8670916.589 4
        29.700          26.800
  25109525.310    25109523.266    25109523.442      751806.601 1    585822.484 3
        11.000          19.300
  23807078.831    23807078.134    23807077.847    -7174204.164 3  -5590287.142 3
        23.800          22.600
  24233388.213    24233388.166    24233385.817    -4430812.307 3  -3452578.689 3
        21.100          22.100
  23470458.293    23470457.986    23470457.108    -8314461.496 4  -6478797.712 4
        26.500          27.600
  24877967.838    24877968.589    24877968.608     -303608.347     -236578.573
                         3.000
  23082411.555    23082410.980    23082410.464    -9388984.052 4  -7316083.514 3
        24.900          23.800
  20371122.892    20371122.382    20371121.323   -24171541.478 6 -18834958.300 7
        38.400          44.700
  23640204.725    23640204.013    23640203.401    -9219416.851 2  -7183950.069 3
        17.800          19.900
 09  1 27  1 28 30.0000000  0 11G22G 5G11G19G32G12G31G30G 9G14G18
  21219760.264    21219759.899    21219756.875   -20695161.921 6 -16126089.877 6
        40.200          40.000
  23999985.429    23999984.734    23999984.768    -5901698.661 2  -4598723.610 3
        16.100          19.900
  22779047.729    22779047.551    22779045.639   -11162739.672 4  -8698236.715 4
        29.900          26.500
  25126677.315    25126675.598    25126674.069      841938.429 1    656055.080 2
        11.000          16.100
  23789685.735    23789684.985    23789685.099    -7265604.122 3  -5661507.865 3
        23.400          22.600
  24222037.049    24222036.714    24222033.652    -4490465.071 3  -3499061.344 3
        21.600          21.100
  23449721.077    23449720.814    23449719.961    -8423434.651 4  -6563711.803 4
        26.800          27.600
  24858755.116    24858755.567    24858756.473     -404564.351     -315245.451 1
                         9.000
  23101369.911    23101369.562    23101368.955    -9289356.695 4  -7238451.794 3
        24.600          23.800
  20369687.330    20369686.798    20369684.282   -24179086.194 6 -18840837.299 7
        38.400          45.000
  23658999.977    23658999.046    23658997.772    -9120652.591 3  -7106990.960 3
        19.300          19.900
 09  1 27  1 29  0.0000000  0 11G22G 5G11G19G32G12G31G30G 9G14G18
  21231753.398    21231753.082    21231749.934   -20632137.109 6 -16076979.632 6
        40.100          39.700
  23986186.161    23986185.800    23986186.767    -5974208.035 2  -4655224.414 3
        17.800          20.500
  22772481.196    22772480.968    22772478.755   -11197247.723 5  -8725126.110 4
        30.600          26.500
  25143858.303    25143856.076    25143852.776      932213.301 2    726399.109 2
        12.600          12.600
  23772313.443    23772312.905    23772312.970    -7356895.325 3  -5732643.862 3
        23.000          23.000
  24210767.497    24210767.349    24210765.569    -4549684.426 3  -3545206.289 3
        20.500          22.600
  23429021.764    23429021.523    23429020.502    -8532210.031 4  -6648471.798 4
        26.800          27.400
  24839571.906    24839571.150    24839570.230     -505390.289 1   -393811.124 1
         9.000          11.000
  23120405.602    23120405.252    23120404.183    -9189325.222 4  -7160505.196 3
        24.600          23.400
  20368336.849    20368336.265    20368335.210   -24186183.073 6 -18846367.330 7
        38.400          45.000
  23677828.442    23677827.541    23677826.396    -9021707.404 3  -7029890.837 3
        19.900          19.300
 09  1 27  1 29 30.0000000  0 11G22G 5G11G19G32G12G31G30G 9G14G18
  21243814.530    21243814.185    21243811.110   -20568755.784 6 -16027591.588 6
        40.000          39.700
  23972466.277    23972465.552    23972465.595    -6046314.155 2  -4711410.969 3
        17.800          21.100
  22766019.114    22766018.846    22766016.740   -11231206.140 5  -8751587.199 4
        31.100          26.800
  25161059.363    25161057.389    25161057.316     1022623.996 1    796848.971 2
         9.000          12.600
  23754961.427    23754960.871    23754961.371    -7448080.978 3  -5803697.591 3
        23.000          23.400
  24199580.654    24199580.302    24199579.290    -4608472.156 3  -3591014.879 3
        19.300          23.000
  23408359.182    23408359.608    23408358.383    -8640789.556 4  -6733079.179 4
        26.500          27.400
  24820408.330    24820408.740    24820408.166     -606087.503 2   -472276.500 2
        12.600          12.600
  23139516.195    23139515.826    23139514.662    -9088897.125 3  -7082249.551 3
        23.400          22.600
  20367070.601    20367070.010    20367067.627   -24192836.856 6 -18851552.094 7
        38.400          44.900
  23696690.262    23696689.538    23696688.733    -8922587.076 3  -6952654.228 3
        19.900          19.300
 09  1 27  1 30  0.0000000  0 11G22G 5G11G19G32G12G31G30G 9G14G18
  21255943.523    21255943.203    21255940.031   -20505017.453 6 -15977925.359 6
        40.000          39.600
  23958822.745    23958822.183    23958821.687    -6118011.967 3  -4767279.382 3
        18.600          21.600
  22759662.464    22759662.223    22759659.662   -11264612.167 5  -8777617.866 4
        31.500          26.500
  25178286.844    25178288.086    25178289.601     1113169.464      867402.839 1
                        11.000
  23737630.513    23737629.834    23737629.986    -7539157.648 4  -5874666.401 3
        24.200          23.400
  24188476.508    24188476.092    24188474.005    -4666823.616 2  -3636483.540 3
        17.800          22.100
  23387735.617    23387735.620    23387734.715    -8749168.596 4  -6817530.341 4
        26.800          28.100
  24801270.954    24801271.394    24801271.041     -706650.475 2   -550637.230 2
        13.900          12.600
  23158702.025    23158701.859    23158701.450    -8988073.443 4  -7003685.641 3
        24.200          23.000
  20365889.031    20365888.552    20365887.441   -24199045.675 6 -18856390.132 7
        38.400          44.800
  23715585.468    23715584.920    23715584.053    -8823291.064 3  -6875280.760 2
        19.900          17.800
 09  1 27  1 30 30.0000000  0 11G22G 5G11G19G32G12G31G30G 9G14G18
  21268141.928    21268141.592    21268138.543   -20440913.942 6 -15927974.570 6
        39.800          39.500
  23945258.929    23945258.156    23945257.804    -6189289.875 3  -4822820.568 3
        19.300          21.100
  22753412.547    22753412.228    22753409.759   -11297455.998 5  -8803210.460 4
        31.500          26.500
  25195548.101    25195545.187    25195544.976     1203855.322 1    938067.118 2
         6.500          13.900
  23720321.754    23720321.075    23720320.957    -7630115.427 3  -5945542.577 3
        23.400          23.000
  24177458.552    24177458.447    24177456.167    -4724727.431 3  -3681603.384 3
        21.100          23.000
  23367151.912    23367152.148    23367151.251    -8857335.934 4  -6901816.538 4
        27.100          28.600
  24782163.312    24782162.979    24782161.160     -807067.349 2   -628884.163 2
        13.900          12.600
  23177965.130    23177964.519    23177964.368    -8886848.770 3  -6924809.268 3
        23.800          23.400
  20364793.841    20364793.412    20364790.767   -24204801.140 6 -18860874.910 7
        38.500          44.900
  23734516.173    23734515.447    23734513.852    -8723811.832 3  -6797764.501 2
        18.600          17.000
 09  1 27  1 31  0.0000000  0 11G22G 5G11G19G32G12G31G30G 9G14G18
  21280407.965    21280407.611    21280404.415   -20376456.692 6 -15877748.149 6
        40.000          39.500
  23931773.583    23931773.045    23931772.392    -6260155.311 3  -4878040.376 3
        19.300          19.900
  22747267.776    22747267.515    22747265.091   -11329747.036 5  -8828372.305 4
        32.000          26.800
  25212829.434    25212828.424    25212824.444     1294668.267 2   1008830.411 1
        13.900          11.000
  23703033.453    23703032.790    23703033.325    -7720963.569 3  -6016333.313 3
        23.000          23.400
  24166523.087    24166522.679    24166520.702    -4782191.871 3  -3726380.873 3
        21.600          23.000
  23346607.317    23346607.296    23346606.316    -8965299.613 4  -6985944.032 4
        27.600          29.000
  24763081.190    24763081.171    24763080.114     -907345.728 2   -707023.155 2
        12.600          15.100
  23197300.735    23197300.290    23197300.490    -8785236.992 3  -6845631.258 3
        23.800          23.400
  20363782.889    20363782.309    20363781.190   -24210114.087 6 -18865014.866 7
        38.400          44.900
  23753479.414    23753478.780    23753476.291    -8624160.809 3  -6720114.359 2
        19.300          16.100
 09  1 27  1 31 30.0000000  0 11G22G 5G11G19G32G12G31G30G 9G14G18
  21292741.756    21292741.396    21292738.108   -20311641.851 6 -15827243.078 6
        40.000          39.300
  23918367.978    23918366.956    23918367.599    -6330600.592 3  -4932932.800 3
        19.300          20.500
  22741229.294    22741228.910    22741226.740   -11361479.342 5  -8853098.778 4
        31.800          26.800
  25230135.061    25230133.065    25230131.084     1385610.240 2   1079694.259 2
        12.600          12.600
  23685767.578    23685767.159    23685767.458    -7811696.094 3  -6087033.964 3
        22.600          23.400
  24155671.850    24155671.921    24155670.203    -4839209.880 3  -3770810.471 3
        20.500          23.000
  23326102.571    23326102.734    23326101.269    -9073052.410 4  -7069907.210 4
        27.600          28.400
  24744023.703    24744024.644    24744026.771    -1007477.387 1   -785047.795 2
         9.000          17.000
  23216711.232    23216710.937    23216709.799    -8683236.865 4  -6766150.642 3
        24.600          22.600
  20362856.782    20362856.360    20362853.670   -24214980.123 6 -18868806.582 7
        38.400          44.800
  23772475.381    23772474.796    23772472.683    -8524335.010 3  -6642328.040 2
        19.300          16.100
 09  1 27  1 32  0.0000000  0 11G22G 5G11G19G32G12G31G30G 9G14G18
  21305142.945    21305142.551    21305139.346   -20246473.327 6 -15776462.412 6
        39.900          39.300
  23905043.366    23905042.298    23905041.901    -6400625.955 3  -4987497.978 3
        21.100          21.100
  22735296.486    22735296.277    22735293.956   -11392655.057 5  -8877391.539 4
        31.300          26.500
  25247464.135    25247462.624    25247461.725     1476675.119 2   1150653.905 2
        13.900          13.900
  23668523.554    23668522.712    23668523.491    -7902314.880 3  -6157645.993 3
        22.100          23.800
  24144906.546    24144906.450    24144905.383    -4895781.584 3  -3814892.289 3
        19.900          23.400
  23305637.855    23305637.949    23305636.487    -9180594.594 4  -7153706.278 4
        28.100          28.600
  24725000.736    24724999.953    24724999.703    -1107461.749 1   -862957.653 3
         9.000          18.600
  23236194.711    23236193.871    23236192.300    -8580854.346 4  -6686372.067 3
        24.900          22.100
  20362015.341    20362014.763    20362013.671   -24219402.680 6 -18872252.725 7
        38.400          44.900
  23791504.010    23791503.386    23791501.430    -8424338.611 2  -6564408.804 2
        17.800          17.800
 09  1 27  1 32 30.0000000  0 11G22G 5G11G19G32G12G31G30G 9G14G18
  21317611.851    21317611.597    21317608.539   -20180947.522 6 -15725403.344 6
        39.800          39.200
  23891798.984    23891798.372    23891797.661    -6470223.848 3  -5041730.091 3
        21.600          21.600
  22729470.751    22729470.529    22729468.561   -11423268.664 5  -8901246.295 4
        31.100          26.800
  25264816.010    25264815.670    25264814.039     1567864.475 2   1221710.508 2
        15.100          15.100
  23651301.655    23651301.361    23651302.057    -7992813.956 3  -6228164.731 4
        23.000          24.200
  24134228.417    24134228.108    24134225.484    -4951900.394 3  -3858621.200 3
        21.100          22.600
  23285214.510    23285214.536    23285213.066    -9287919.074 4  -7237335.706 4
        27.900          28.100
  24706003.765    24706003.475    24706002.520    -1207291.219 1   -940746.861 2
         9.000          17.800
  23255749.562    23255749.135    23255748.018    -8478088.293 3  -6606294.640 3
        23.800          21.600
  20361258.939    20361258.421    20361255.890   -24223377.539 6 -18875350.016 7
        38.500          45.100
  23810565.426    23810564.994    23810563.853    -8324168.293 2  -6486354.052 2
        16.100          17.800
 09  1 27  1 33  0.0000000  0 11G22G 5G11G19G32G12G31G30G 9G14G18
  21330148.060    21330147.681    21330144.496   -20115070.658 6 -15674070.732 6
        39.800          39.200
  23878635.416    23878634.740    23878635.169    -6539396.878 3  -5095631.122 3
        19.900          21.100
  22723751.483    22723751.228    22723749.133   -11453324.534 5  -8924666.457 4
        31.300          27.400
  25282192.329    25282190.658    25282188.599     1659169.838 1   1292857.489 2
        11.000          15.100
  23634103.129    23634102.409    23634102.097    -8083197.482 4  -6298593.436 3
        24.600          23.800
  24123634.146    24123634.288    24123632.328    -5007569.494 3  -3901999.743 3
        21.100          22.600
  23264831.814    23264832.242    23264830.981    -9395029.022 4  -7320797.969 4
        27.400          28.800
  24687034.957    24687035.397    24687033.757    -1306967.966 1  -1018417.047 2
         6.500          16.100
  23275376.117    23275376.212    23275374.920    -8374947.494 3  -6525925.209 3
        23.000          21.600
  20360586.583    20360585.998    20360584.944   -24226910.588 6 -18878103.039 7
        38.500          44.900
  23829659.558    23829658.853    23829657.690    -8223830.447 2  -6408168.776 2
        16.100          17.800
 09  1 27  1 33 30.0000000  0 11G22G 5G11G19G32G12G31G30G 9G14G18
  21342753.523    21342753.210    21342749.818   -20048828.762 6 -15622453.673 6
        40.000          39.000
  23865557.284    23865556.119    23865555.765    -6608126.888 3  -5149186.963 3
        20.500          19.300
  22718141.303    22718141.141    22718139.017   -11482806.604 5  -8947639.483 4
        31.500          27.400
  25299589.526    25299587.856    25299590.498     1750603.582     1364104.414 2
         3.000          12.600
  23616928.939    23616928.140    23616927.687    -8173448.973 4  -6368919.263 3
        25.600          23.400
  24113130.179    24113130.047    24113128.820    -5062770.398 3  -3945013.407 3
        22.100          23.400
  23244494.151    23244494.125    23244492.944    -9501906.598 4  -7404079.152 4
        28.100          29.000
  24668098.630    24668099.189    24668099.733    -1406473.542    -1095953.836 2
                        16.100
  23295077.326    23295076.910    23295075.715    -8271419.807 3  -6445254.299 3
        23.000          21.600
  20360001.223    20360000.667    20359998.158   -24229986.699 6 -18880500.008 7
        38.500          45.000
  23848788.264    23848787.922    23848785.211    -8123311.249 3  -6329842.150 2
        18.600          17.000
 09  1 27  1 34  0.0000000  0 12G22G 5G11G19G32G12G31G30G17G 9G14G18
  21355423.379    21355423.163    21355419.988   -19982247.157 6 -15570571.907 6
        39.700          38.900
  23852558.183    23852556.832    23852556.570    -6676435.670 3  -5202414.564 3
        20.500          19.900
  22712635.839    22712635.523    22712633.191   -11511738.842 5  -8970184.082 4
        31.800          27.600
  25317007.102    25317006.429    25317008.914     1842138.184     1435430.180 1
         3.000           9.000
  23599774.961    23599774.459    23599774.251    -8263591.766 4  -6439160.379 4
        26.200          24.200
  24102710.555    24102710.456    24102708.106    -5117525.956 3  -3987680.068 3
        21.600          22.600
  23224195.743    23224195.951    23224194.740    -9608573.869 4  -7487196.459 4
        28.400          29.200
  24649191.853    24649190.337    24649191.711    -1505829.464    -1173373.968 2
         3.000          13.900
  25285884.784    25285885.213    25285885.312           -.6281          -.40412
         3.000          16.100
  23314846.098    23314846.040    23314845.045    -8167532.889 3  -6364303.482 3
        23.000          21.600
  20359497.801    20359497.370    20359496.190   -24232631.317 6 -18882560.746 7
        38.500          44.700
  23867945.609    23867945.207    23867942.708    -8022636.977 3  -6251394.666 2
        18.600          17.000
 09  1 27  1 34 30.0000000  0 12G22G 5G11G19G32G12G31G30G17G 9G14G18
  21368159.024    21368158.725    21368155.553   -19915321.334 6 -15518421.921 6
        39.700          38.900
  23839640.672    23839640.240    23839640.313    -6744314.967 3  -5255307.495 3
        21.100          19.900
  22707235.904    22707235.643    22707233.575   -11540114.663 5  -8992295.111 4
        31.600          27.400
  25334449.394    25334447.566    25334444.332     1933776.229     1506836.331 1
                         6.500
  23582643.731    23582642.681    23582642.256    -8353619.359 4  -6509311.720 4
        25.900          24.200
  24092377.705    24092377.018    24092374.844    -5171828.291 3  -4029993.573 3
        21.100          23.000
  23203939.249    23203939.388    23203938.206    -9715022.916 4  -7570143.730 4
        29.200          29.500
  24630315.484    24630316.188    24630315.206    -1605026.876 1  -1250670.602 2
         6.500          15.100
  25277133.092    25277132.414    25277131.162      -46007.264 1    -35849.791 2
         6.500          17.800
  23334684.431    23334683.894    23334683.000    -8063284.717 3  -6283071.155 3
        22.600          21.100
  20359077.640    20359077.219    20359074.549   -24234839.669 6 -18884281.541 7
        38.500          44.900
  23887133.116    23887132.560    23887131.146    -7921803.304 2  -6172823.012 2
        17.800          17.800
 09  1 27  1 35  0.0000000  0 12G22G 5G11G19G32G12G31G30G17G 9G14G18
  21380960.800    21380960.459    21380957.265   -19848047.989 6 -15466001.140 6
        39.600          38.900
  23826806.775    23826805.741    23826805.639    -6811757.655 3  -5307860.206 3
        21.100          19.300
  22701943.151    22701942.850    22701941.080   -11567928.967 5  -9013968.596 4
        31.800          28.100
  25351902.757    25351904.487    25351905.815     2025518.926     1578324.004 1
                         9.000
  23565534.411    23565533.579    23565533.638    -8443526.072 4  -6579368.872 4
        25.300          24.200
  24082131.196    24082131.149    24082129.314    -5225670.941 3  -4071948.870 3
        21.600          23.000
  23183726.400    23183725.891    23183724.221    -9821247.168 4  -7652915.831 4
        29.900          29.200
  24611472.299    24611472.425    24611469.774    -1704058.245    -1327837.862 2
                        13.900
  25268468.911    25268468.698    25268466.362      -91518.261      -71313.000 2
         3.000          12.600
  23354591.189    23354590.142    23354590.083    -7958674.113 3  -6201556.409 3
        21.100          21.100
  20358741.278    20358740.757    20358739.655   -24236607.499 6 -18885659.068 7
        38.500          44.900
  23906352.557    23906352.073    23906350.780    -7820807.233 3  -6094124.806 2
        19.300          17.800
 09  1 27  1 35 30.0000000  0 12G22G 5G11G19G32G12G31G30G17G 9G14G18
  21393828.529    21393828.237    21393825.021   -19780426.966 6 -15413309.438 6
        39.400          38.600
  23814056.974    23814056.169    23814055.299    -6878759.967 3  -5360069.771 3
        21.100          19.300
  22696757.045    22696757.028    22696755.031   -11595179.877 5  -9035203.068 4
        31.800          28.100
  25369379.682    25369383.394    25369376.585     2117364.202 1   1649891.828 1
         6.500           9.000
  23548449.485    23548448.595    23548448.581    -8533309.625 4  -6649330.070 4
        25.300          24.200
  24071973.756    24071973.580    24071971.123    -5279050.519 3  -4113543.348 3
        22.600          22.100
  23163555.639    23163555.668    23163553.969    -9927242.925 5  -7735509.882 4
        30.100          29.700
  24592656.554    24592656.615    24592656.922    -1802919.054    -1404872.216 2
                        13.900
  25259905.110    25259905.415    25259903.838     -136531.112 2   -106387.781 1
        12.600           9.000
  23374565.988    23374565.268    23374565.196    -7853703.524 3  -6119761.154 3
        20.500          21.100
  20358488.944    20358488.351    20358485.880   -24237934.235 6 -18886692.888 7
        38.600          45.300
  23925602.690    23925601.890    23925600.262    -7719648.959 2  -6015300.196 2
        17.800          17.800
 09  1 27  1 36  0.0000000  0 12G22G 5G11G19G32G12G31G30G17G 9G14G18
  21406762.196    21406761.775    21406758.664   -19712460.712 6 -15360348.723 6
        39.300          38.700
  23801390.799    23801389.869    23801389.621    -6945320.287 3  -5411934.941 3
        21.100          19.300
  22691678.801    22691678.430    22691676.637   -11621867.817 5  -9055998.862 4
        31.600          28.400
  25386881.121    25386879.800    25386877.875     2209307.928 1   1721536.292 1
        11.000           6.500
  23531387.402    23531386.820    23531386.573    -8622969.997 4  -6719195.284 4
        25.300          24.200
  24061903.239    24061903.210    24061901.119    -5331966.383 3  -4154776.482 3
        21.600          22.100
  23143428.792    23143428.827    23143427.177   -10033009.160 4  -7817925.084 4
        29.700          29.200
  24573879.775    24573879.484    24573878.992    -1901607.674 1  -1481772.301 2
         9.000          17.000
  25251434.689    25251433.821    25251431.089     -181045.508 1   -141074.292 1
        11.000          11.000
  23394608.638    23394608.205    23394607.763    -7748377.625 3  -6037689.030 3
        20.500          21.100
  20358320.029    20358319.490    20358318.433   -24238821.630 6 -18887384.361 7
        38.700          45.200
  23944881.944    23944881.210    23944880.642    -7618331.065 2  -5936351.215 2
        16.100          17.800
 09  1 27  1 36 30.0000000  0 11G22G 5G11G32G12G31G30G17G 9G14G18
  21419760.848    21419760.529    21419757.414   -19644152.200 6 -15307121.317 6
        39.400          38.700
  23788808.887    23788808.272    23788807.539    -7011438.200 3  -5463455.375 3
        22.100          19.300
  22686706.904    22686706.604    22686704.737   -11647994.573 5  -9076357.364 4
        31.600          28.100
  23514348.699    23514347.914    23514348.018    -8712508.258 4  -6788965.338 4
        25.300          24.600
  24051923.738    24051923.014    24051921.317    -5384417.855 3  -4195647.758 3
        22.100          23.400
  23123345.601    23123345.683    23123344.686   -10138545.546 4  -7900161.185 5
        29.500          30.100
  24555133.207    24555132.954    24555132.079    -2000122.909 2  -1558537.375 2
        15.100          13.900
  25243054.494    25243057.564    25243055.634     -225062.368     -175373.107 2
         3.000          13.900
  23414718.395    23414717.654    23414717.101    -7642701.882 3  -5955344.318 3
        21.100          21.100
  20358234.166    20358233.627    20358231.203   -24239272.801 6 -18887735.924 7
        38.600          45.200
  23964191.650    23964190.819    23964190.104    -7516857.383 2  -5857280.846 2
        15.100          17.800
 09  1 27  1 37  0.0000000  0 11G22G 5G11G32G12G31G30G17G 9G14G18
  21432824.541    21432824.255    21432821.104   -19575501.275 6 -15253627.096 6
        39.200          38.400
  23776311.986    23776311.084    23776310.315    -7077109.507 3  -5514627.816 3
        20.500          19.900
  22681842.797    22681842.341    22681840.016   -11673558.153 5  -9096277.030 4
        32.100          27.600
  23497334.471    23497333.423    23497333.248    -8801921.784 4  -6858638.185 4
        25.900          24.900
  24042030.808    24042030.466    24042028.467    -5436401.359 3  -4236154.384 3
        22.600          23.000
  23103306.530    23103307.200    23103305.792   -10243848.219 4  -7982215.167 4
        29.500          29.900
  24536418.364    24536418.396    24536417.293    -2098460.278 2  -1635163.883 1
        13.900           9.000
  25234776.221    25234775.388    25234775.158     -268578.555     -209281.860 2
         3.000          13.900
  23434893.599    23434893.922    23434892.820    -7536678.389 3  -5872728.611 3
        21.600          20.500
  20358231.525    20358230.935    20358229.901   -24239286.420 6 -18887746.534 7
        38.600          45.000
  23983531.888    23983531.218    23983529.768    -7415227.662 2  -5778088.865 2
        16.100          17.000
 09  1 27  1 37 30.0000000  0 11G22G 5G11G32G12G31G30G17G 9G14G18
  21445956.909    21445956.522    21445953.365   -19506491.573 6 -15199853.307 6
        39.200          38.500
  23763903.755    23763902.955    23763903.011    -7142314.185 3  -5565436.614 3
        21.100          20.500
  22677088.845    22677088.507    22677086.266   -11698540.083 5  -9115743.465 4
        32.300          28.100
  23480346.904    23480345.963    23480345.769    -8891191.869 4  -6928199.272 4
        26.800          24.900
  24032230.854    24032231.070    24032228.853    -5487897.640 3  -4276281.351 3
        23.000          22.600
  23083316.677    23083316.958    23083315.490   -10348897.524 4  -8064071.724 5
        29.500          30.100
  24517741.241    24517741.971    24517742.410    -2196599.487 1  -1711635.943 1
         6.500           9.000
  25226595.899    25226596.873    25226592.702     -311575.356     -242785.786 2
         3.000          12.600
  23455139.009    23455138.671    23455137.018    -7430292.461 3  -5789830.494 3
        20.500          20.500
  20358315.462    20358314.900    20358312.447   -24238845.587 6 -18887403.027 7
        38.600          45.200
  24002904.639    24002904.094    24002902.023    -7313425.742 2  -5698762.719 2
        16.100          16.100
 09  1 27  1 38  0.0000000  0 11G22G 5G11G32G12G31G30G17G 9G14G18
  21459154.440    21459154.262    21459151.133   -19437136.693 6 -15145810.552 6
        39.300          38.400
  23751583.432    23751582.392    23751581.717    -7207062.161 3  -5615889.580 3
        21.600          20.500
  22672442.908    22672442.744    22672440.846   -11722952.534 5  -9134766.149 4
        32.100          28.400
  23463383.860    23463383.172    23463383.526    -8980330.011 4  -6997657.546 4
        26.200          25.600
  24022522.190    24022522.161    24022520.576    -5538917.058 3  -4316036.742 3
        23.800          23.000
  23063373.039    23063372.983    23063371.257   -10453703.753 4  -8145738.863 5
        29.700          30.100
  24499103.782    24499104.147    24499104.545    -2294549.505 2  -1787960.620 1
        13.900          11.000
  25218512.630    25218511.327    25218508.883     -354063.981     -275893.728 2
                        13.900
  23475449.361    23475448.770    23475447.144    -7323560.380 3  -5706662.654 3
        19.300          19.900
  20358483.296    20358482.791    20358481.600   -24237963.689 6 -18886715.833 7
        38.700          45.300
  24022306.525    24022305.999    24022304.050    -7211465.972 2  -5619313.570 2
        13.900          15.100
 09  1 27  1 38 30.0000000  0 11G22G 5G11G32G12G31G30G17G 9G14G18
  21472418.295    21472417.941    21472414.702   -19367436.093 6 -15091498.399 6
        39.300          38.300
  23739348.347    23739347.431    23739348.392    -7271349.060 3  -5665983.263 3
        19.300          21.100
  22667906.102    22667905.856    22667904.065   -11746793.227 5  -9153343.304 4
        31.800          28.400
  23446447.433    23446446.644    23446447.094    -9069333.198 4  -7067010.642 4
        25.900          26.500
  24012905.408    24012905.488    24012903.210    -5589455.692 4  -4355417.487 3
        24.200          23.400
  23043476.226    23043476.432    23043474.619   -10558262.580 5  -8227213.236 5
        30.400          30.400
  24480502.428    24480502.429    24480501.535    -2392305.155 2  -1864133.830 2
        17.000          13.900
  25210522.071    25210522.482    25210519.713     -396040.829 1   -308603.091 2
         6.500          12.600
  23495824.006    23495823.469    23495823.513    -7216484.250 2  -5623226.726 3
        17.800          19.900
  20358735.232    20358734.655    20358732.276   -24236639.952 6 -18885684.351 7
        38.700          45.400
  24041738.685    24041738.207    24041737.046    -7109347.917 2  -5539741.105 2
        12.600          15.100
 09  1 27  1 39  0.0000000  0 11G22G 5G11G32G12G31G30G17G 9G14G18
  21485746.746    21485746.521    21485743.430   -19297393.513 6 -15036919.773 6
        39.000          38.400
  23727204.188    23727203.246    23727202.439    -7335175.056 3  -5715717.783 3
        21.100          21.100
  22663477.886    22663477.617    22663475.760   -11770064.300 5  -9171476.609 4
        31.600          28.400
  23429535.902    23429535.149    23429535.329    -9158203.034 4  -7136259.833 4
        26.500          26.500
  24003379.643    24003379.581    24003377.311    -5639514.317 4  -4394424.212 3
        24.600          23.400
  23023626.516    23023626.371    23023624.797   -10662574.620 5  -8308495.297 5
        30.600          30.600
  24461936.419    24461936.712    24461936.910    -2489866.341 2  -1940155.501 2
        17.000          15.100
  25202630.677    25202631.217    25202629.450     -437507.649 1   -340914.839 2
         6.500          13.900
  23516264.520    23516264.025    23516264.161    -7109069.908 2  -5539527.252 3
        17.000          20.500
  20359070.630    20359070.138    20359068.961   -24234877.271 6 -18884310.832 7
        38.900          45.500
  24061200.349    24061199.702    24061198.582    -7007075.374 2  -5460048.244 2
        12.600          15.100
 09  1 27  1 39 30.0000000  0 11G22G 5G11G32G12G31G30G17G 9G14G18
  21499139.547    21499139.142    21499136.087   -19227014.375 6 -14982078.894 6
        38.800          38.300
  23715146.366    23715145.218    23715144.243    -7398541.711 3  -5765094.385 3
        22.100          20.500
  22659157.159    22659156.872    22659155.150   -11792769.285 5  -9189168.796 4
        30.800          28.600
  23412649.264    23412648.680    23412648.594    -9246942.546 4  -7205407.479 4
        27.600          26.200
  23993944.515    23993944.022    23993942.456    -5689095.010 3  -4433058.520 4
        23.400          24.200
  23003823.038    23003822.921    23003821.242   -10766641.652 5  -8389586.444 5
        30.400          30.600
  24443409.257    24443409.146    24443408.382    -2587234.416 2  -2016026.700 2
        17.000          13.900
  25194833.149    25194834.966    25194833.957     -478467.154     -372831.388 1
                        11.000
  23536768.100    23536767.876    23536767.098    -7001324.779 2  -5455570.008 3
        17.800          19.300
  20359488.701    20359488.177    20359485.681   -24232680.410 6 -18882598.991 7
        38.800          45.400
  24080690.816    24080689.631    24080688.860    -6904654.721 2  -5380239.998 2
        12.600          15.100
 09  1 27  1 40  0.0000000  0 11G22G 5G11G32G12G31G30G17G 9G14G18
  21512596.569    21512596.211    21512593.054   -19156296.966 6 -14926974.427 6
        38.800          38.000
  23703175.483    23703175.040    23703174.174    -7461443.539 3  -5814108.774 3
        21.100          20.500
  22654944.782    22654944.575    22654942.825   -11814904.944 5  -9206417.351 4
        31.000          28.800
  23395788.563    23395787.923    23395787.437    -9335547.649 4  -7274450.400 4
        27.600          26.200
  23984601.177    23984601.033    23984599.332    -5738192.715 3  -4471316.460 3
        22.600          23.800
  22984066.898    22984067.132    22984065.394   -10870458.608 5  -8470482.726 5
        30.400          30.600
  24424917.442    24424917.653    24424916.803    -2684403.280 2  -2091742.725 1
        12.600          11.000
  25187140.154    25187139.924    25187137.787     -518915.424 2   -404349.431 2
        12.600          16.100
  23557334.645    23557334.066    23557333.093    -6893249.415 2  -5371355.457 3
        17.000          19.300
  20359989.695    20359989.152    20359988.044   -24230047.389 6 -18880547.285 7
        38.800          45.400
  24100208.835    24100208.372    24100207.089    -6802084.420 2  -5300315.141 2
        13.900          13.900
 09  1 27  1 40 30.0000000  0 11G22G 5G11G32G12G31G30G17G 9G14G18
  21526118.269    21526118.062    21526114.984   -19085239.477 6 -14871604.963 6
        38.900          38.100
  23691295.695    23691294.801    23691293.860    -7523875.191 3  -5862756.798 3
        22.600          21.100
  22650841.789    22650841.334    22650839.355   -11836467.976 5  -9223219.718 4
        31.100          28.400
  23378953.667    23378953.111    23378952.447    -9424014.329 4  -7343385.455 4
        27.400          25.600
  23975351.353    23975351.576    23975348.990    -5786802.757 3  -4509194.413 3
        23.000          22.600
  22964360.377    22964360.337    22964358.435   -10974020.297 5  -8551180.101 5
        31.100          31.300
  24406464.565    24406464.425    24406464.878    -2781366.828 1  -2167298.655 1
         6.500          11.000
  25179542.087    25179541.239    25179539.111     -558847.861 2   -435465.674 2
        16.100          16.100
  23577963.660    23577963.045    23577962.208    -6784844.282 2  -5286883.928 3
        17.000          19.300
  20360574.190    20360573.638    20360571.223   -24226975.968 6 -18878153.970 7
        38.800          45.400
  24119756.393    24119755.731    24119753.806    -6699362.631 2  -5220272.220 2
        12.600          13.900
 09  1 27  1 41  0.0000000  0 11G22G 5G11G32G12G31G30G17G 9G14G18
  21539704.249    21539704.005    21539700.970   -19013844.538 6 -14815972.552 6
        38.600          37.900
  23679504.792    23679503.891    23679503.213    -7585835.508 3  -5911037.548 3
        22.100          21.100
  22646846.965    22646846.707    22646844.915   -11857459.331 5  -9239576.613 4
        31.300          28.600
  23362145.735    23362144.996    23362144.140    -9512342.784 4  -7412212.800 4
        28.100          25.300
  23966194.301    23966194.381    23966191.707    -5834924.570 3  -4546691.948 3
        23.400          22.600
  22944701.909    22944701.812    22944700.000   -11077325.462 5  -8631677.589 5
        31.100          31.600
  24388054.032    24388054.420    24388053.949    -2878123.034 1  -2242693.082 2
        11.000          12.600
  25172040.270    25172039.675    25172035.809     -598264.793 2   -466180.080 2
        13.900          12.600
  23598653.632    23598653.260    23598652.688    -6676114.167 2  -5202159.169 3
        16.100          19.300
  20361241.802    20361241.159    20361239.968   -24223468.270 6 -18875420.696 7
        38.900          45.500
  24139331.568    24139330.865    24139329.763    -6596492.500 2  -5140113.695 2
        12.600          12.600
 09  1 27  1 41 30.0000000  0 11G22G 5G11G32G12G31G30G17G 9G14G18
  21553353.591    21553353.322    21553350.134   -18942117.747 6 -14760081.553 6
        38.700          37.700
  23667803.540    23667802.642    23667802.438    -7647326.464 3  -5958952.569 3
        22.600          22.600
  22642960.729    22642960.452    22642958.629   -11877882.832 5  -9255491.028 4
        31.300          28.600
  23345363.032    23345362.303    23345361.377    -9600536.212 4  -7480934.947 4
        28.100          25.600
  23957129.965    23957129.401    23957127.203    -5882560.274 3  -4583810.672 3
        23.400          23.000
  22925091.659    22925091.783    22925090.288   -11180376.614 5  -8711977.145 5
        31.300          32.100
  24369680.443    24369680.421    24369681.061    -2974673.437 2  -2317927.126 2
        12.600          13.900
  25164634.993    25164634.207    25164634.348     -637169.354 1   -496495.346 2
         9.000          15.100
  23619405.719    23619405.194    23619403.518    -6567067.022 2  -5117187.367 3
        17.000          18.600
  20361991.227    20361990.678    20361988.329   -24219529.272 6 -18872351.346 7
        38.900          45.500
  24158934.692    24158934.321    24158932.241    -6493479.736 2  -5059843.992 1
        16.100          11.000
 09  1 27  1 42  0.0000000  0 11G22G 5G11G32G12G31G30G17G 9G14G18
  21567066.739    21567066.477    21567063.213   -18870054.895 6 -14703928.685 6
        38.600          37.700
  23656193.181    23656192.071    23656191.916    -7708340.353 3  -6006495.864 3
        22.100          22.600
  22639183.112    22639182.742    22639181.097   -11897733.064 5  -9270958.729 4
        31.000          28.400
  23328606.674    23328606.239    23328606.181    -9688588.417 4  -7549547.044 4
        27.400          26.800
  23948158.251    23948158.161    23948156.233    -5929703.061 3  -4620545.309 3
        23.400          23.000
  22905531.464    22905531.364    22905529.824   -11283166.324 5  -8792072.977 5
        31.300          32.100
  24351347.138    24351347.744    24351348.688    -3071009.568 1  -2392994.208 2
        11.000          13.900
  25157331.796    25157331.112    25157330.961     -675555.553     -526406.568 2
         3.000          16.100
  23640217.817    23640217.206    23640215.389    -6457701.398 2  -5031967.428 2
        17.000          17.800
  20362823.603    20362823.130    20362821.966   -24215154.631 6 -18868942.533 7
        38.900          45.100
  24178565.853    24178565.237    24178563.076    -6390320.671 2  -4979460.290 2
        16.100          13.900
 09  1 27  1 42 30.0000000  0 11G22G 5G11G32G12G31G30G17G 9G14G18
  21580843.316    21580842.934    21580839.718   -18797659.129 6 -14647516.410 6
        38.600          37.500
  23644673.272    23644672.185    23644671.984    -7768876.082 3  -6053666.525 3
        22.100          21.600
  22635515.020    22635514.616    22635512.505   -11917010.983 5  -9285980.486 4
        31.300          28.400
  23311878.167    23311877.631    23311877.418    -9776499.374 4  -7618049.064 4
        27.100          28.100
  23939281.774    23939281.448    23939279.993    -5976352.098 3  -4656895.213 4
        23.000          24.200
  22886020.933    22886021.051    22886019.541   -11385693.334 5  -8871964.105 5
        31.500          32.000
  24333057.041    24333057.293    24333056.827    -3167129.697 1  -2467893.011 2
         9.000          15.100
  25150125.949    25150125.111    25150123.570     -713423.137 1   -555913.805 1
         9.000          11.000
  23661087.560    23661087.892    23661086.481    -6348021.839 2  -4946502.849 2
        15.100          17.000
  20363738.722    20363738.213    20363735.635   -24210346.396 6 -18865195.857 7
        38.900          45.500
  24198223.840    24198223.324    24198221.164    -6287018.156 2  -4898964.854 2
        13.900          16.100
 09  1 27  1 43  0.0000000  0 11G22G 5G11G32G12G31G30G17G 9G14G18
  21594683.489    21594683.176    21594679.836   -18724927.824 6 -14590842.673 6
        38.400          37.200
  23633246.086    23633245.180    23633244.427    -7828927.863 3  -6100460.109 3
        23.000          22.600
  22631955.866    22631955.701    22631953.545   -11935713.003 5  -9300553.484 4
        31.500          28.100
  23295176.618    23295175.916    23295176.043    -9864264.759 4  -7686437.637 4
        26.800          28.100
  23930499.333    23930499.297    23930497.105    -6022502.257 3  -4692856.351 3
        23.400          23.800
  22866561.557    22866561.812    22866560.215   -11487952.448 5  -8951646.488 5
        31.800          31.300
  24314806.508    24314807.640    24314807.850    -3263027.529 1  -2542618.570 2
         9.000          15.100
  25143020.620    25143019.955    25143016.464     -750767.784 2   -585013.565 1
        12.600          11.000
  23682018.441    23682018.444    23682017.605    -6238028.309 2  -4860793.614 2
        13.900          17.800
  20364736.725    20364736.157    20364734.920   -24205102.076 6 -18861109.370 7
        38.900          45.600
  24217907.416    24217906.681    24217907.255    -6183570.750 1  -4818356.558 2
        11.000          17.000
 09  1 27  1 43 30.0000000  0 11G22G 5G11G32G12G31G30G17G 9G14G18
  21608587.911    21608587.621    21608584.495   -18651859.427 6 -14533906.265 6
        38.400          37.400
  23621910.806    23621910.130    23621910.202    -7888490.176 3  -6146872.291 3
        22.600          22.600
  22628506.793    22628506.852    22628505.118   -11953835.414 5  -9314674.838 4
        31.300          28.600
  23278503.671    23278502.934    23278503.372    -9951880.176 4  -7754709.362 4
        27.400          27.600
  23921813.582    23921813.413    23921810.690    -6068148.606 4  -4728424.943 3
        24.600          23.400
  22847154.071    22847154.545    22847152.927   -11589938.043 5  -9031115.744 5
        31.800          31.500
  24296603.762    24296604.080    24296603.023    -3358696.579 2  -2617165.865 2
        12.600          16.100
  25136013.713    25136011.123    25136012.383     -787585.033     -613702.347 2
         3.000          15.100
  23703010.299    23703009.477    23703008.422    -6127721.093 2  -4774839.940 3
        13.900          18.600
  20365818.052    20365817.535    20365815.162   -24199418.968 6 -18856680.972 7
        38.900          45.500
  24237620.574    24237619.707    24237620.630    -6079976.664 1  -4737633.982 2
         9.000          17.800
 09  1 27  1 44  0.0000000  0 11G22G 5G11G32G12G31G30G17G 9G14G18
  21622557.207    21622556.902    21622553.757   -18578450.102 6 -14476704.199 6
        38.200          37.200
  23610672.165    23610671.323    23610670.492    -7947555.717 4  -6192897.359 3
        24.200          23.000
  22625170.040    22625169.727    22625168.030   -11971373.366 5  -9328340.772 4
        32.000          28.800
  23261860.637    23261860.297    23261860.632   -10039339.635 4  -7822859.572 4
        27.900          27.900
  23913223.433    23913223.490    23913222.009    -6113284.534 3  -4763595.797 4
        23.000          24.200
  22827800.034    22827800.392    22827799.062   -11691643.111 5  -9110366.392 5
        31.800          31.300
  24278442.159    24278442.010    24278443.114    -3454128.873 1  -2691528.669 3
        11.000          19.300
  25129109.852    25129108.839    25129106.235     -823869.078     -641975.653 1
         3.000           9.000
  23724061.020    23724060.081    23724059.311    -6017098.879 2  -4688640.829 2
        13.900          17.800
  20366983.758    20366983.298    20366982.036   -24193293.171 6 -18851907.621 7
        38.900          45.400
  24257365.106    24257364.599    24257362.070    -5976232.397 2  -4656794.346 3
        12.600          18.600
 09  1 27  1 44 30.0000000  0 11G22G 5G11G32G12G31G30G17G 9G14G18
  21636588.822    21636588.607    21636585.476   -18504712.670 6 -14419246.465 6
        37.900          37.200
  23599524.320    23599523.368    23599522.898    -8006133.735 3  -6238542.575 3
        23.000          22.600
  22621941.719    22621941.511    22621939.330   -11988337.991 5  -9341559.964 4
        32.400          27.900
  23245246.196    23245245.317    23245245.365   -10126653.556 4  -7890896.386 4
        28.400          27.600
  23904730.085    23904729.929    23904728.151    -6157919.585 3  -4798376.355 4
        22.600          24.900
  22808497.910    22808498.145    22808496.677   -11793077.324 5  -9189406.000 5
        32.100          31.800
  24260326.224    24260326.027    24260326.008    -3549333.093 2  -2765713.691 3
        12.600          19.900
  25122303.140    25122301.728    25122301.419     -859630.562     -669841.513 1
                         6.500
  23745169.874    23745168.646    23745167.165    -5906176.476 2  -4602207.788 2
        13.900          17.000
  20368231.356    20368230.778    20368228.452   -24186737.161 6 -18846799.041 7
        38.800          45.500
  24277133.064    24277132.111    24277129.556    -5872351.496 2  -4575848.191 2
        13.900          17.000
 09  1 27  1 45  0.0000000  0 11G22G 5G11G32G12G31G30G17G 9G14G18
  21650681.596    21650681.245    21650677.970   -18430656.046 6 -14361540.014 6
        38.000          37.100
  23588469.457    23588468.342    23588468.383    -8064229.494 3  -6283811.985 3
        23.000          23.000
  22618821.038    22618820.759    22618818.831   -12004736.996 5  -9354338.406 4
        32.400          28.100
  23228657.489    23228656.582    23228656.428   -10213828.294 4  -7958824.740 4
        28.800          27.900
  23896330.173    23896329.994    23896328.997    -6202059.840 3  -4832771.339 4
        22.100          25.300
  22789246.439    22789246.677    22789245.037   -11894245.459 5  -9268238.279 5
        32.600          31.800
  24242252.541    24242252.700    24242251.308    -3644313.874 2  -2839724.650 3
        17.800          20.500
  25115598.270    25115598.020    25115597.487     -894875.503 2   -697305.205 2
        17.000          12.600
  23766332.386    23766331.248    23766330.037    -5794964.854 2  -4515549.373 2
        17.000          17.800
  20369559.149    20369558.662    20369557.561   -24179759.165 6 -18841361.641 7
        38.800          45.400
  24296924.800    24296924.439    24296921.047    -5768342.856 2  -4494802.495 2
        15.100          16.100
 09  1 27  1 45 30.0000000  0 11G22G 5G11G32G12G31G30G17G 9G14G18
  21664836.328    21664835.930    21664832.721   -18356272.921 6 -14303579.142 6
        37.900          37.100
  23577507.911    23577507.051    23577506.459    -8121832.226 4  -6328697.200 3
        24.200          23.000
  22615809.828    22615809.704    22615807.428   -12020561.575 5  -9366669.239 4
        32.700          28.400
  23212096.906    23212095.968    23212095.799   -10300854.437 4  -8026637.301 4
        29.000          28.100
  23888027.489    23888027.214    23888025.201    -6245694.672 3  -4866772.510 4
        23.400          25.300
  22770047.272    22770047.558    22770045.956   -11995137.188 5  -9346855.175 5
        32.600          32.300
  24224222.369    24224222.681    24224222.850    -3739059.663 2  -2913552.533 3
        17.800          20.500
  25108989.592    25108988.628    25108986.529     -929594.837 2   -724359.265 1
        13.900           9.000
  23787550.549    23787549.709    23787548.822    -5683459.245 2  -4428661.881 2
        17.000          17.800
  20370968.779    20370968.280    20370965.972   -24172351.394 6 -18835589.352 7
        38.900          45.300
  24316742.460    24316741.436    24316739.828    -5664199.029 2  -4413651.460 2
        13.900          15.100
 09  1 27  1 46  0.0000000  0 11G22G 5G11G32G12G31G30G17G 9G14G18
  21679053.202    21679052.926    21679049.847   -18281561.541 6 -14245362.491 6
        37.700          36.900
  23566641.294    23566640.535    23566639.880    -8178936.632 4  -6373194.138 3
        24.600          22.600
  22612908.576    22612908.169    22612905.965   -12035808.625 5  -9378550.053 4
        32.300          28.400
  23195565.104    23195564.326    23195564.345   -10387727.756 4  -8094330.780 4
        29.500          28.800
  23879821.370    23879821.196    23879818.263    -6288819.355 4  -4900376.169 4
        24.600          24.600
  22750902.121    22750902.092    22750900.708   -12095747.377 5  -9425252.686 5
        32.800          32.700
  24206238.788    24206238.683    24206237.797    -3833564.315 2  -2987192.502 3
        16.100          18.600
  25102483.465    25102482.362    25102480.732     -963784.707 1   -751000.613 1
         6.500           9.000
  23808824.593    23808824.159    23808822.961    -5571660.199 2  -4341545.724 2
        15.100          17.800
  20372460.633    20372460.171    20372458.996   -24164511.956 6 -18829480.694 7
        38.900          45.400
  24336585.706    24336584.311    24336584.424    -5559919.126 1  -4332394.400 2
         9.000          15.100
 09  1 27  1 46 30.0000000  0 11G22G 5G11G32G12G31G30G17G 9G14G18
  21693333.351    21693333.109    21693330.135   -18206517.972 6 -14186886.990 6
        37.600          36.600
  23555870.588    23555869.739    23555869.877    -8235534.601 3  -6417296.445 3
        23.800          22.600
  22610118.030    22610117.802    22610115.898   -12050472.177 5  -9389976.197 4
        32.400          28.800
  23179064.366    23179063.510    23179063.009   -10474441.313 4  -8161899.766 4
        29.900          28.400
  23871712.501    23871712.675    23871711.110    -6331426.652 3  -4933576.650 4
        23.400          24.900
  22731811.864    22731811.790    22731810.237   -12196068.075 5  -9503424.618 5
        33.200          32.700
  24188301.645    24188302.183    24188301.909    -3927818.754 2  -3060637.524 2
        15.100          17.000
  25096078.494    25096078.491    25096077.687     -997438.116 1   -777224.003 2
         6.500          12.600
  23830155.147    23830154.328    23830153.554    -5459565.202 2  -4254198.965 2
        13.900          16.100
  20374035.597    20374035.024    20374032.686   -24156236.057 6 -18823031.944 7
        38.900          45.700
  24356455.168    24356453.514    24356453.897    -5455498.671    -4251027.819 1
                        11.000
 09  1 27  1 47  0.0000000  0 11G22G 5G11G32G12G31G30G17G 9G14G18
  21707675.074    21707674.716    21707671.645   -18131153.181 6 -14128161.185 6
        37.700          36.600
  23545195.338    23545194.560    23545194.457    -8291633.619 3  -6461009.954 3
        23.800          23.000
  22607436.932    22607436.642    22607434.637   -12064561.821 5  -9400955.143 4
        32.600          28.800
  23162592.060    23162591.144    23162590.912   -10561003.647 4  -8229350.928 4
        29.900          28.600
  23863702.206    23863702.169    23863700.310    -6373524.467 4  -4966380.140 4
        24.600          25.600
  22712775.464    22712775.280    22712773.633   -12296106.603 5  -9581376.679 5
        33.400          33.100
  24170413.235    24170413.681    24170412.429    -4021829.939 2  -3133892.965 2
        16.100          17.000
  25089775.024    25089775.326    25089771.974    -1030563.756 1   -803036.289 1
         6.500          11.000
  23851538.663    23851539.042    23851539.235    -5347187.318 1  -4166631.750 2
        11.000          15.100
  20375691.566    20375690.971    20375689.914   -24147534.042 6 -18816251.149 7
        38.900          45.800
  24376351.986    24376350.725    24376348.039    -5350949.275    -4169560.810 1
                         9.000
 09  1 27  1 47 30.0000000  0 11G22G 5G11G32G12G31G30G17G 9G14G18
  21722078.043    21722077.715    21722074.651   -18055465.012 6 -14069183.395 6
        37.600          36.500
  23534616.282    23534615.497    23534615.466    -8347228.291 4  -6504330.468 3
        24.600          23.800
  22604865.581    22604865.309    22604863.386   -12078074.273 5  -9411484.324 4
        32.300          29.200
  23146149.262    23146148.429    23146148.167   -10647410.475 4  -8296680.912 4
        29.000          28.400
  23855789.050    23855788.932    23855786.814    -6415107.919 4  -4998782.828 4
        24.900          25.300
  22693793.208    22693793.082    22693791.623   -12395858.032 5  -9659105.021 5
        33.200          33.400
  24152571.555    24152570.886    24152570.752    -4115591.607 2  -3206953.986 3
        15.100          18.600
  25083573.902    25083574.186    25083569.824    -1063157.802 2   -828434.199 1
        12.600          11.000
  23872978.203    23872978.321    23872977.898    -5234527.002 1  -4078844.530 2
         9.000          15.100
  20377428.779    20377428.335    20377426.026   -24138403.731 6 -18809136.622 7
        38.900          45.500
  24396272.543    24396271.328    24396268.078    -5246269.468    -4087992.127 1
         3.000          11.000
 09  1 27  1 48  0.0000000  0 11G22G 5G11G32G12G31G30G17G 9G14G18
  21736542.256    21736541.896    21736538.759   -17979454.798 6 -14009954.663 6
        37.300          36.300
  23524132.704    23524132.278    23524132.291    -8402316.460 3  -6547256.320 3
        23.800          23.000
  22602403.806    22602403.581    22602401.791   -12091009.674 5  -9421563.858 4
        32.100          29.200
  23129735.918    23129735.340    23129735.340   -10733660.721 4  -8363888.880 4
        28.100          28.100
  23847974.196    23847974.074    23847971.582    -6456175.857 4  -5030783.824 4
        24.900          24.600
  22674865.916    22674865.930    22674864.590   -12495320.014 5  -9736607.809 5
        33.200          33.600
  24134776.082    24134776.654    24134776.504    -4209100.491 2  -3279817.990 3
        17.000          19.900
  25077471.696    25077470.940    25077473.614    -1095219.199 1   -853417.052 2
        11.000          15.100
  23894470.626    23894470.213    23894469.518    -5121587.947 1  -3990840.069 2
        11.000          16.100
  20379247.759    20379247.237    20379246.024   -24128845.752 6 -18801688.843 7
        39.000          45.800
  24416216.089    24416215.418    24416212.379    -5141460.761    -4006323.010 1
         3.000           9.000
 09  1 27  1 48 30.0000000  0 11G22G 5G11G32G12G31G30G17G 9G14G18
  21751067.886    21751067.541    21751064.297   -17903123.278 6 -13950475.564 6
        37.400          36.400
  23513747.158    23513746.442    23513746.495    -8456895.072 4  -6589785.085 3
        24.200          23.400
  22600052.340    22600052.159    22600050.192   -12103367.312 5  -9431193.184 4
        32.300          29.000
  23113353.485    23113352.786    23113352.560   -10819752.353 4  -8430973.247 4
        28.400          28.100
  23840257.542    23840257.423    23840255.494    -6496725.007 4  -5062380.562 4
        24.200          24.200
  22655994.007    22655994.251    22655992.922   -12594489.831 5  -9813882.937 5
        33.100          33.500
  24117031.407    24117031.406    24117031.097    -4302352.921 2  -3352482.189 3
        17.000          19.300
  25071473.652    25071472.631    25071469.708    -1126746.379 1   -877983.636 1
        11.000           9.000
  23916016.275    23916015.380    23916013.476    -5008372.652 2  -3902620.359 2
        13.900          16.100
  20381147.831    20381147.302    20381144.956   -24118860.296 6 -18793907.969 7
        39.000          45.600
  24436183.465    24436182.726    24436181.168    -5036523.913    -3924554.063 1
         3.000           9.000
 09  1 27  1 49  0.0000000  0 11G22G 5G11G32G12G31G30G17G 9G14G18
  21765655.142    21765654.893    21765651.847   -17826465.507 6 -13890742.244 6
        37.100          36.500
  23503459.913    23503459.096    23503458.768    -8510955.729 4  -6631910.268 3
        24.600          23.800
  22597811.723    22597811.496    22597809.884   -12115140.414 5  -9440367.033 4
        31.800          29.200
  23097002.625    23097001.826    23097001.408   -10905677.965 4  -8497928.265 4
        28.800          28.100
  23832641.467    23832641.201    23832639.468    -6536747.967 3  -5093567.274 4
        23.800          24.600
  22637180.127    22637180.229    22637178.539   -12693358.729 5  -9890923.593 5
        33.500          33.400
  24099335.766    24099336.112    24099335.127    -4395339.571 2  -3424939.293 3
        17.000          18.600
  25065575.343    25065574.656    25065575.263    -1157732.032 1   -902128.409 1
         9.000          11.000
  23937612.343    23937611.869    23937610.152    -4894878.136 2  -3814183.051 2
        13.900          15.100
  20383130.538    20383129.967    20383128.880   -24108442.027 6 -18785789.834 7
        39.100          45.800
  24456177.216    24456176.444    24456175.915    -4931454.062    -3842681.497 1
         3.000           9.000
 09  1 27  1 49 30.0000000  0 11G22G 5G11G32G12G31G30G17G 9G14G18
  21780303.087    21780302.754    21780299.722   -17749490.269 6 -13830761.555 6
        37.000          36.400
  23493269.879    23493269.188    23493269.400    -8564503.475 4  -6673635.795 3
        24.900          23.400
  22595681.102    22595680.873    22595679.065   -12126336.561 5  -9449091.297 4
        31.600          28.800
  23080681.680    23080680.784    23080680.645   -10991443.639 4  -8564758.650 4
        28.800          28.100
  23825124.396    23825124.144    23825122.537    -6576250.817 4  -5124348.717 4
        24.600          25.300
  22618422.295    22618422.341    22618420.700   -12791932.126 5  -9967733.987 5
        33.800          33.500
  24081691.191    24081691.185    24081690.619    -4488064.584 2  -3497192.546 3
        17.800          18.600
  25059780.949    25059782.044    25059781.465    -1188182.909 2   -925856.340 1
        13.900           9.000
  23959260.623    23959260.108    23959258.993    -4781114.821 2  -3725536.305 2
        12.600          13.900
  20385193.809    20385193.189    20385190.842   -24097599.114 6 -18777340.814 7
        39.100          45.800
  24476196.421    24476195.262    24476194.158    -4826260.285 1  -3760712.317 1
         9.000          11.000
 09  1 27  1 50  0.0000000  0 11G22G 5G11G32G12G31G30G17G 9G14G18
  21795011.408    21795011.095    21795007.739   -17672197.791 6 -13770533.662 5
        36.800          35.900
  23483178.389    23483177.591    23483177.785    -8617535.193 4  -6714959.192 4
        24.600          24.200
  22593660.887    22593660.597    22593658.322   -12136954.955 5  -9457365.372 4
        32.300          28.400
  23064391.798    23064391.018    23064390.952   -11077047.238 4  -8631462.745 4
        29.200          28.400
  23817706.853    23817706.702    23817705.145    -6615230.183 3  -5154722.254 4
        23.800          25.600
  22599721.430    22599721.402    22599719.296   -12890207.014 5 -10044311.778 5
        34.100          33.400
  24064097.539    24064097.385    24064096.836    -4580524.014 3  -3569238.826 3
        20.500          20.500
  25054089.386    25054089.898    25054087.683    -1218096.796 2   -949165.790 1
        16.100           6.500
  23980958.241    23980959.814    23980958.776    -4667085.377 1  -3636682.200 2
        11.000          16.100
  20387337.835    20387337.321    20387336.171   -24086331.580 6 -18768560.913 7
        39.000          45.600
  24496239.690    24496238.989    24496236.291    -4720943.332 2  -3678647.161 1
        15.100          11.000
 09  1 27  1 50 30.0000000  0 11G22G 5G11G32G12G31G30G17G 9G14G18
  21809780.594    21809780.321    21809776.903   -17594585.196 6 -13710056.324 5
        36.900          35.700
  23473186.708    23473185.891    23473185.198    -8670044.490 4  -6755875.519 4
        25.300          24.200
  22591751.158    22591750.897    22591748.601   -12146991.332 5  -9465185.926 4
        32.700          28.600
  23048133.559    23048132.908    23048133.144   -11162483.395 4  -8698036.366 4
        29.900          29.000
  23810390.293    23810389.841    23810387.854    -6653680.398 3  -5184683.456 4
        23.000          24.600
  22581078.021    22581077.979    22581076.278   -12988176.885 5 -10120651.900 5
        34.000          33.800
  24046555.286    24046555.555    24046553.811    -4672710.528 3  -3641072.400 3
        22.600          19.900
  25048498.489    25048497.777    25048499.153    -1247469.051 1   -972053.314 2
         6.500          13.900
  24002708.380    24002709.143    24002708.895    -4552789.118 1  -3547620.199 2
        11.000          17.000
  20389563.389    20389562.925    20389560.597   -24074635.908 6 -18759447.405 7
        39.000          45.600
  24516303.202    24516303.318    24516300.791    -4615500.310 2  -3596483.784 2
        13.900          12.600
 09  1 27  1 51  0.0000000  0 11G22G 5G11G32G12G31G30G17G 9G14G18
  21824609.866    21824609.587    21824606.375   -17516657.019 6 -13649333.078 5
        36.700          35.900
  23463293.323    23463292.598    23463292.610    -8722032.359 4  -6796385.525 4
        24.900          24.200
  22589951.518    22589951.168    22589949.238   -12156448.677 5  -9472555.274 4
        32.400          28.800
  23031907.594    23031906.751    23031906.742   -11247753.937 5  -8764480.940 4
        30.600          29.200
  23803173.553    23803173.532    23803170.947    -6691603.322 3  -5214233.777 4
        23.800          24.200
  22562492.833    22562492.852    22562491.348   -13085842.535 5 -10196754.965 5
        34.300          34.000
  24029063.645    24029063.909    24029063.163    -4764623.685 3  -3712692.986 3
        19.900          19.300
  25043014.385    25043014.502    25043013.028    -1276301.522 1   -994520.156 2
         9.000          16.100
  24024507.479    24024508.335    24024507.796    -4438232.626 1  -3458355.440 2
        11.000          17.000
  20391869.833    20391869.301    20391868.194   -24062516.149 6 -18750003.435 7
        39.100          45.800
  24536390.298    24536389.150    24536388.672    -4509935.923 1  -3514225.805 2
        11.000          12.600
 09  1 27  1 51 30.0000000  0 11G 5G11G32G12G31G30G17G 9G14G18G22
  23453501.153    23453500.337    23453500.057    -8773490.607 4  -6836482.871 3
        24.900          23.800
  22588263.267    22588262.934    22588260.552   -12165321.127 5  -9479468.871 4
        32.600          28.600
  23015714.174    23015713.194    23015713.569   -11332851.605 5  -8830790.799 4
        30.800          29.700
  23796058.941    23796058.773    23796056.802    -6728991.069 4  -5243367.095 4
        24.600          24.600
  22543966.974    22543967.115    22543965.600   -13183195.986 5 -10272614.761 5
        34.400          34.300
  24011626.904    24011626.887    24011626.675    -4856254.891 2  -3784093.849 3
        17.800          18.600
  25037631.242    25037630.442    25037626.333    -1304587.755 1  -1016561.367 1
         6.500           9.000
  24046358.343    24046357.509    24046356.677    -4323412.982 1  -3368885.618 2
        11.000          15.100
  20394257.735    20394257.321    20394255.051   -24049967.171 6 -18740225.009 7
        39.100          45.900
  24556503.712    24556502.788    24556500.951    -4404245.706 1  -3431869.821 1
         9.000          11.000
  21839499.791    21839499.654    21839496.634   -17438408.528 6 -13588360.241 5
        36.500          35.800
 09  1 27  1 52  0.0000000  0 11G 5G11G32G12G31G30G17G 9G14G18G22
  23443808.246    23443807.737    23443806.983    -8824427.599 4  -6876174.013 4
        24.900          24.200
  22586683.364    22586683.185    22586681.527   -12173619.448 5  -9485935.108 4
        31.800          28.600
  22999551.483    22999550.762    22999550.953   -11417785.583 5  -8896973.117 4
        30.600          29.500
  23789044.693    23789044.391    23789041.640    -6765853.192 4  -5272090.827 4
        24.900          24.200
  22525499.047    22525499.049    22525497.547   -13280245.436 5 -10348237.676 5
        34.300          34.100
  23994242.974    23994242.790    23994241.354    -4947611.716 3  -3855280.965 2
        20.500          17.800
  25032349.364    25032351.061    25032347.218    -1332337.526 1  -1038184.454 1
         6.500           6.500
  24068254.850    24068254.556    24068253.620    -4208344.171 2  -3279221.603 2
        12.600          13.900
  20396725.249    20396724.793    20396723.770   -24037000.273 6 -18730120.931 7
        39.200          45.800
  24576636.785    24576635.944    24576633.958    -4298441.766 1  -3349425.270 1
         6.500           9.000
  21854448.855    21854448.642    21854445.390   -17359851.422 6 -13527146.922 5
        36.600          35.500
 09  1 27  1 52 30.0000000  0 11G 5G11G32G12G31G30G17G 9G14G18G22
  23434215.981    23434215.098    23434214.980    -8874835.517 4  -6915452.906 4
        25.900          24.200
  22585215.144    22585214.876    22585212.765   -12181337.772 5  -9491949.385 4
        32.100          28.800
  22983421.516    22983420.810    22983420.623   -11502549.121 5  -8963022.615 4
        30.600          29.000
  23782131.865    23782131.480    23782128.862    -6802181.762 4  -5300398.803 4
        24.600          24.600
  22507090.449    22507090.499    22507088.758   -13376983.138 5 -10423617.670 5
        34.400          33.900
  23976912.507    23976912.225    23976910.855    -5038684.984 3  -3926247.131 3
        20.500          19.300
  25027172.400    25027172.117    25027172.254    -1359544.155 1  -1059384.530 2
        11.000          12.600
  24090199.868    24090199.533    24090198.709    -4093023.886 2  -3189361.656 2
        12.600          12.600
  20399273.251    20399272.672    20399270.490   -24023610.716 6 -18719687.509 7
        39.200          45.900
  24596791.592    24596791.803    24596789.977    -4192520.221 1  -3266889.028 1
         9.000          11.000
  21869457.370    21869457.041    21869454.003   -17280981.541 6 -13465689.876 5
        36.500          35.600
 09  1 27  1 53  0.0000000  0 11G 5G11G32G12G31G30G17G 9G14G18G22
  23424727.815    23424726.953    23424726.151    -8924697.085 4  -6954306.070 4
        25.900          24.200
  22583859.565    22583859.375    22583857.229   -12188461.085 5  -9497500.006 4
        32.300          28.800
  22967327.058    22967326.357    22967326.111   -11587125.653 5  -9028926.410 4
        30.200          28.800
  23775322.481    23775322.309    23775320.273    -6837960.258 3  -5328278.148 4
        23.400          24.600
  22488744.523    22488744.573    22488742.806   -13473391.701 5 -10498741.189 5
        34.900          33.900
  23959637.931    23959638.268    23959638.279    -5129456.434 3  -3996978.075 3
        20.500          19.900
  25022101.808    25022102.047    25022098.610    -1386191.537 1  -1080148.692 2
        11.000          12.600
  24112195.682    24112194.873    24112192.555    -3977440.132 1  -3099296.380 1
        11.000          11.000
  20401904.329    20401903.791    20401902.827   -24009784.093 6 -18708913.513 7
        39.200          45.800
  24616974.063    24616973.990    24616971.981    -4086467.134 1  -3184250.288 1
         9.000           9.000
  21884528.023    21884527.678    21884524.631   -17201784.996 6 -13403978.299 5
        36.500          35.600
 09  1 27  1 53 30.0000000  0 12G 5G11G20G32G12G31G30G17G 9G14G18G22
  23415339.083    23415338.232    23415338.350    -8974032.070 4  -6992748.896 4
        24.900          24.200
  22582613.087    22582612.830    22582610.698   -12195011.512 5  -9502604.236 4
        32.400          28.800
  25095815.751    25095814.494    25095814.656            .2081          -.47411
                         6.500
  22951264.060    22951263.557    22951263.409   -11671535.729 5  -9094700.488 4
        30.200          29.200
  23768616.245    23768615.342    23768612.714    -6873209.073 4  -5355744.764 4
        24.200          24.600
  22470457.708    22470457.734    22470455.775   -13569490.948 5 -10573623.690 5
        35.500          34.100
  23942419.876    23942420.008    23942418.131    -5219944.858 3  -4067488.498 3
        21.100          18.600
  25017132.017    25017132.869    25017131.606    -1412301.132 1  -1100493.738 2
         9.000          13.900
  24134234.186    24134233.296    24134233.432    -3861618.045 1  -3009045.356 1
         9.000          11.000
  20404614.285    20404613.785    20404611.652   -23995543.046 6 -18697816.594 7
        39.300          45.900
  24637176.383    24637174.813    24637173.578    -3980305.908 1  -3101527.285 1
         9.000           9.000
  21899656.397    21899656.041    21899652.938   -17122285.040 6 -13342030.288 5
        36.500          35.500
 09  1 27  1 54  0.0000000  0 11G 5G11G32G12G31G30G17G 9G14G18G22
  23406051.613    23406050.648    23406050.074    -9022841.984 4  -7030782.585 4
        25.600          24.200
  22581474.577    22581474.451    22581472.560   -12200992.813 5  -9507264.999 4
        32.300          28.800
  22935232.899    22935232.171    22935232.052   -11755781.837 5  -9160346.801 4
        30.800          29.700
  23762008.380    23762008.134    23762005.854    -6907930.545 4  -5382800.455 4
        24.600          24.600
  22452228.819    22452228.988    22452227.223   -13665282.179 5 -10648266.169 5
        35.200          34.100
  23925254.280    23925254.111    23925252.228    -5310150.909 3  -4137778.895 2
        21.600          17.800
  25012266.793    25012266.275    25012265.073    -1437875.669 1  -1120421.966 2
        11.000          12.600
  24156317.416    24156318.082    24156317.574    -3745564.603 1  -2918614.101 1
         6.500          11.000
  20407402.218    20407401.707    20407400.855   -23980892.169 6 -18686400.323 7
        39.300          45.900
  24657397.343    24657396.519    24657395.152    -3874041.902 1  -3018724.170 1
        11.000          11.000
  21914841.398    21914841.149    21914838.305   -17042486.644 6 -13279849.734 5
        36.200          35.600
 09  1 27  1 54 30.0000000  0 11G 5G11G32G12G31G30G17G 9G14G18G22
  23396864.421    23396863.306    23396863.298    -9071119.165 4  -7068401.166 3
        24.600          23.800
  22580446.094    22580445.857    22580443.924   -12206399.447 5  -9511477.961 4
        32.600          29.000
  22919234.389    22919233.300    22919232.856   -11839856.986 5  -9225859.899 4
        31.100          29.700
  23755502.759    23755502.623    23755500.035    -6942117.387 4  -5409439.556 4
        24.600          25.300
  22434060.414    22434060.537    22434058.778   -13760757.676 5 -10722662.617 5
        35.300          34.100
  23908142.905    23908143.009    23908143.117    -5400065.645 2  -4207842.293 3
        17.800          19.900
  25007504.668    25007504.800    25007501.912    -1462908.775 2  -1139928.332 2
        17.000          13.900
  24178448.084    24178447.721    24178445.649    -3629277.498 1  -2828000.802 2
         9.000          12.600
  20410269.190    20410268.638    20410266.498   -23965826.767 6 -18674661.050 7
        39.300          46.100
  24677639.932    24677639.620    24677637.264    -3767670.676 1  -2935837.491 1
         9.000           9.000
  21930084.089    21930083.940    21930080.789   -16962385.769 6 -13217433.480 5
        36.200          35.100
 09  1 27  1 55  0.0000000  0 11G 5G11G32G12G31G30G17G 9G14G18G22
  23387781.136    23387780.556    23387780.158    -9118850.918 4  -7105594.728 4
        25.600          24.200
  22579528.256    22579527.972    22579526.047   -12211221.188 5  -9515235.160 4
        32.300          28.600
  22903269.669    22903268.800    22903268.849   -11923749.266 5  -9291230.501 5
        31.000          30.100
  23749100.388    23749100.498    23749099.109    -6975757.506 3  -5435652.629 4
        23.800          26.200
  22415955.003    22415954.863    22415952.680   -13855904.419 5 -10796802.893 5
        35.600          34.100
  23891091.017    23891090.571    23891090.551    -5489675.522 2  -4277668.106 3
        17.800          19.900
  25002843.047    25002842.533    25002845.692    -1487389.419 1  -1159004.108 2
         6.500          15.100
  24200622.760    24200621.467    24200620.172    -3512749.308 1  -2737199.626 2
         9.000          12.600
  20413216.772    20413216.182    20413215.204   -23950337.165 6 -18662591.227 7
        39.300          46.200
  24697903.118    24697902.298    24697901.692    -3661183.355    -2852860.390 1
         3.000          11.000
  21945386.294    21945385.961    21945382.839   -16881972.581 6 -13154773.860 5
        36.100          35.100
 09  1 27  1 55 30.0000000  0 11G 5G11G32G12G31G30G17G 9G14G18G22
  23378801.915    23378801.012    23378800.406    -9166038.047 4  -7142363.914 3
        25.900          23.800
  22578721.652    22578721.450    22578719.327   -12215460.661 5  -9518538.647 4
        32.700          28.800
  22887339.815    22887339.041    22887339.105   -12007460.078 5  -9356459.696 4
        30.200          29.900
  23742802.913    23742802.765    23742801.322    -7008852.451 4  -5461440.895 4
        24.200          26.200
  22397911.306    22397911.353    22397909.231   -13950723.977 5 -10870688.229 5
        35.900          34.300
  23874096.625    23874096.818    23874095.220    -5578980.232 3  -4347256.159 3
        18.600          19.300
  24998291.065    24998289.808    24998286.433    -1511319.641 1  -1177650.963 1
         9.000           9.000
  24222841.449    24222840.711    24222838.801    -3395986.079 1  -2646215.340 1
        11.000          11.000
  20416244.328    20416243.818    20416241.648   -23934426.866 6 -18650193.592 7
        39.400          46.100
  24718184.882    24718187.998    24718188.597    -3554584.645    -2769796.448 1
                        11.000
  21960747.187    21960746.912    21960743.496   -16801251.389 6 -13091874.245 5
        36.100          34.800
 09  1 27  1 56  0.0000000  0 11G 5G11G32G12G31G30G17G 9G14G18G22
  23369927.080    23369926.276    23369926.289    -9212675.282 4  -7178704.598 3
        25.600          23.800
  22578026.187    22578026.051    22578024.034   -12219115.012 5  -9521386.200 4
        32.600          29.000
  22871445.715    22871445.060    22871445.171   -12090985.054 5  -9421544.086 5
        30.800          30.200
  23736609.714    23736609.472    23736607.901    -7041397.049 3  -5486800.319 4
        23.800          25.600
  22379931.117    22379931.225    22379929.129   -14045210.147 5 -10944313.780 5
        35.900          34.500
  23857162.410    23857162.439    23857161.276    -5667973.562 3  -4416601.577 3
        19.300          19.900
  24993843.613    24993843.360    24993839.331    -1534695.357 2  -1195865.863 2
        13.900          13.900
  24245104.833    24245104.611    24245103.060    -3278988.251 1  -2555048.198 1
        11.000           6.500
  20419352.458    20419351.966    20419350.860   -23918093.554 6 -18637466.333 7
        39.500          46.100
  24738493.292    24738493.042    24738495.254    -3447872.701    -2686644.350 1
                        11.000
  21976166.905    21976166.546    21976163.172   -16720220.395 5 -13028733.216 5
        35.900          34.600
 09  1 27  1 56 30.0000000  0 11G 5G11G32G12G31G30G17G 9G14G18G22
  23361156.813    23361155.931    23361155.375    -9258764.662 4  -7214618.401 3
        26.200          23.400
  22577441.274    22577441.022    22577438.982   -12222188.734 5  -9523781.303 4
        32.400          29.000
  22855586.592    22855585.977    22855586.017   -12174326.809 5  -9486485.703 5
        31.800          30.600
  23730520.683    23730520.871    23730518.808    -7073394.366 4  -5511733.302 4
        24.200          25.600
  22362014.355    22362014.209    22362012.162   -14139364.922 6 -11017681.095 5
        36.200          34.900
  23840285.420    23840286.176    23840285.728    -5756656.135 3  -4485704.823 3
        18.600          21.100
  24989498.565    24989498.556    24989499.040    -1557519.924 2  -1213651.245 3
        13.900          19.300
  24267411.911    24267412.434    24267410.779    -3161762.879 1  -2463703.762 1
        11.000           6.500
  20422540.176    20422539.655    20422537.519   -23901342.303 6 -18624413.411 7
        39.500          46.300
  24758820.615    24758820.717    24758822.196    -3341052.501    -2603407.843 1
                         9.000
  21991644.355    21991644.100    21991641.001   -16638884.767 5 -12965354.818 5
        35.700          34.900
 09  1 27  1 57  0.0000000  0 11G 5G11G32G12G31G30G17G 9G14G18G22
  23352490.213    23352489.402    23352489.410    -9304306.854 4  -7250105.815 4
        25.900          24.200
  22576966.627    22576966.425    22576964.412   -12224684.354 5  -9525725.941 4
        33.000          29.200
  22839761.998    22839761.396    22839760.973   -12257486.685 5  -9551285.601 5
        32.700          30.200
  23724535.825    23724535.831    23724534.371    -7104845.615 4  -5536240.752 4
        24.200          25.900
  22344160.286    22344160.122    22344157.978   -14233189.178 6 -11090790.866 5
        36.300          35.300
  23823469.988    23823469.504    23823468.527    -5845027.430 3  -4554565.526 3
        18.600          19.900
  24985259.393    24985259.455    24985259.064    -1579795.457 2  -1231008.780 2
        13.900          17.000
  24289762.003    24289761.989    24289761.091    -3044315.714 1  -2372186.501 1
        11.000           6.500
  20425806.675    20425806.192    20425805.082   -23884176.415 6 -18611037.391 7
        39.400          46.300
  24779168.401    24779168.647    24779168.156    -3234128.759    -2520090.685 1
                         6.500
  22007179.533    22007179.155    22007175.859   -16557248.563 5 -12901742.202 5
        35.900          34.700
 09  1 27  1 57 30.0000000  0 11G 5G11G32G12G31G30G17G 9G14G18G22
  23343929.801    23343928.836    23343928.690    -9349293.027 4  -7285159.969 4
        25.600          24.200
  22576602.813    22576602.558    22576600.400   -12226595.768 5  -9527215.348 4
        33.000          28.800
  22823973.156    22823972.358    22823972.067   -12340456.561 5  -9615937.462 4
        32.400          29.900
  23718657.001    23718656.900    23718654.217    -7135742.541 4  -5560316.273 4
        25.600          25.600
  22326370.318    22326370.285    22326368.385   -14326673.672 6 -11163635.881 5
        36.200          35.400
  23806714.661    23806714.194    23806713.695    -5933077.530 3  -4623175.965 3
        18.600          20.500
  24981127.744    24981127.020    24981124.133    -1601515.050 2  -1247933.166 2
        13.900          12.600
  24312156.147    24312155.205    24312153.933    -2926643.254 1  -2280493.675 1
        11.000           6.500
  20429153.316    20429152.760    20429150.693   -23866590.167 6 -18597333.821 7
        39.500          46.400
  24799536.086    24799537.220    24799535.692    -3127095.934    -2436688.465 1
                         6.500
  22022772.258    22022772.006    22022768.799   -16475306.615 5 -12837891.340 5
        35.400          34.400
 09  1 27  1 58  0.0000000  0 11G 5G11G32G12G31G30G17G 9G14G18G22
  23335476.032    23335475.370    23335474.756    -9393716.362 4  -7319775.552 3
        25.900          23.800
  22576351.256    22576351.109    22576348.925   -12227917.911 5  -9528245.592 4
        32.700          28.800
  22808221.788    22808220.949    22808220.813   -12423230.054 5  -9680436.287 5
        32.000          30.400
  23712883.999    23712883.849    23712881.755    -7166078.764 4  -5583954.885 4
        25.300          26.200
  22308646.643    22308646.551    22308644.763   -14419811.448 6 -11236210.736 5
        36.200          35.300
  23790020.952    23790021.217    23790020.382    -6020798.780 3  -4691530.146 3
        19.300          20.500
  24977101.250    24977100.761    24977099.757    -1622672.504 2  -1264419.509 2
        12.600          16.100
  24334590.796    24334590.678    24334590.056    -2808743.740 1  -2188623.926 1
         9.000           6.500
  20432580.636    20432580.058    20432579.069   -23848579.344 6 -18583299.413 7
        39.500          46.500
  24819924.407    24819924.836    24819921.642    -3019950.422    -2353198.501
                         3.000
  22038424.229    22038423.911    22038420.784   -16393055.054 5 -12773799.232 5
        35.100          34.300
 09  1 27  1 58 30.0000000  0 12G 5G11G20G32G12G31G30G17G 9G14G18G22
  23327127.452    23327126.856    23327126.382    -9437588.602 4  -7353961.714 4
        25.300          24.200
  22576209.005    22576208.760    22576207.000   -12228664.976 5  -9528827.717 4
        32.700          29.200
  24886903.963    24886905.587    24886903.531           -.7291          -.44711
                         9.000
  22792505.314    22792504.476    22792504.497   -12505819.595 5  -9744791.754 5
        31.600          30.600
  23707215.154    23707215.319    23707213.419    -7195866.814 4  -5607166.340 4
        25.600          26.200
  22290986.845    22290986.894    22290984.922   -14512614.014 6 -11308524.391 5
        36.300          35.200
  23773389.212    23773389.033    23773387.811    -6108201.684 3  -4759636.252 3
        19.900          20.500
  24973176.416    24973176.784    24973176.999    -1643281.227 1  -1280478.169 2
         9.000          15.100
  24357066.461    24357066.300    24357065.479    -2690634.213 1  -2096590.510 1
         9.000           6.500
  20436085.812    20436085.308    20436083.373   -23830158.713 6 -18568945.672 7
        39.500          46.200
  24840331.245    24840330.681    24840332.659    -2912707.881    -2269633.002
                         3.000
  22054132.293    22054132.008    22054128.718   -16310509.202 5 -12709477.795 5
        35.400          34.300
 09  1 27  1 59  0.0000000  0 12G 5G11G20G32G12G31G30G17G 9G14G18G22
  23318883.489    23318882.633    23318881.921    -9480912.947 4  -7387720.926 3
        25.600          23.800
  22576175.197    22576174.893    22576172.946   -12228842.439 5  -9528965.998 4
        32.600          28.600
  24866062.425    24866061.875    24866060.162     -109533.176      -85350.374 1
         3.000           9.000
  22776823.666    22776822.977    22776822.526   -12588228.875 5  -9809006.774 5
        32.400          30.600
  23701650.719    23701650.318    23701648.005    -7225110.528 4  -5629953.657 4
        24.900          26.200
  22273390.153    22273390.156    22273388.293   -14605084.506 6 -11380579.284 5
        36.200          35.100
  23756817.133    23756817.180    23756816.442    -6195287.768 3  -4827495.516 3
        20.500          21.100
  24969360.599    24969361.018    24969360.207    -1663345.558 1  -1296112.719 2
         9.000          17.800
  24379580.751    24379580.500    24379579.283    -2572322.908 1  -2004399.891 1
         6.500           6.500
  20439668.022    20439667.498    20439666.521   -23811334.231 6 -18554277.245 7
        39.500          46.300
  24860757.874    24860759.244    24860756.070    -2805375.049    -2185997.013
                         3.000
  22069895.022    22069894.754    22069891.538   -16227675.141 5 -12644931.778 5
        35.400          34.100
 09  1 27  1 59 30.0000000  0 12G 5G11G20G32G12G31G30G17G 9G14G18G22
  23310744.149    23310743.149    23310742.709    -9523684.455 4  -7421049.375 4
        24.600          24.200
  22576250.115    22576249.984    22576247.979   -12228447.652 5  -9528658.375 4
        32.700          28.800
  24845226.245    24845225.423    24845224.541     -219019.916     -170664.686 1
         3.000           9.000
  22761176.756    22761175.990    22761176.034   -12670453.651 5  -9873078.021 5
        32.700          31.000
  23696189.634    23696189.508    23696188.111    -7253805.372 4  -5652313.263 4
        24.200          26.200
  22255857.963    22255857.968    22255855.806   -14697217.769 6 -11452371.408 5
        36.500          35.200
  23740305.897    23740306.477    23740305.618    -6282051.157 3  -4895103.348 3
        19.900          20.500
  24965648.324    24965648.597    24965644.701    -1682862.274 2  -1311320.570 2
        15.100          17.800
  24402132.376    24402132.422    24402132.036    -2453810.229 1  -1912052.402 1
         6.500           6.500
  20443327.503    20443326.939    20443325.008   -23792103.634 6 -18539292.364 7
        39.700          46.400
  24881201.258    24881200.482    24881199.949    -2697950.477    -2102289.542 1
         3.000           9.000
  22085712.843    22085712.695    22085709.579   -16144551.504 5 -12580160.119 5
        35.100          34.100
                            4 15
RINEX FILE SPLICE                                           COMMENT
teqc  2008Oct2      WCDA Operator       20090127 03:18:32UTCCOMMENT
STATION INFORMATION EFFECTIVE FROM: 2001/01/13 18:20:00     COMMENT
                                TO: CURRENT DATE (above)    COMMENT
BIT 2 OF LLI FLAGS (+4) DATA COLLECTED UNDER 'AS' CONDITION COMMENT
L1 PHASE CENTRE 0.110m ABOVE ARP                            COMMENT
L2 PHASE CENTRE 0.128m ABOVE ARP                            COMMENT
where ARP is the Antenna Reference Point for HI measurement COMMENT
CONTACT gps@pgc.nrcan.gc.ca FOR ADDITIONAL INFORMATION      COMMENT
    P1 =    P1  TurboRogue; =    Y1  Benchmark              COMMENT
    L1 = L1(CA)                                             COMMENT
    P2 =    P2  TurboRogue; =    Y2  Benchmark              COMMENT
    L2 = L2(P2) TurboRogue; = L2(Y2) Benchmark              COMMENT
 SNR is mapped to RINEX snr flag value [0-9]                COMMENT
  L1 & L2: min(max(int(snr_dBHz/6), 0), 9)                  COMMENT
 09  1 27  2  0  0.0000000  0 12G 5G11G20G32G12G31G30G17G 9G14G18G22
  23302711.932    23302711.014    23302710.317    -9565893.352 4  -7453939.423 3
        24.600          23.800
  22576435.610    22576435.445    22576433.520   -12227473.336 5  -9527899.166 4
        32.800          29.000
  24824402.117    24824401.385    24824402.248     -328451.341     -255935.940 1
         3.000           9.000
  22745566.783    22745565.983    22745565.875   -12752484.523 5  -9936998.181 5
        32.800          31.100
  23690835.461    23690835.646    23690833.256    -7281942.560 4  -5674238.343 4
        25.600          25.900
  22238391.386    22238391.605    22238389.607   -14789003.932 6 -11523893.071 5
        36.500          35.500
  23723859.779    23723860.109    23723858.514    -6368480.705 3  -4962451.028 3
        20.500          21.100
  24962037.416    24962037.644    24962033.482    -1701823.096    -1326095.209 2
         3.000          12.600
  24424723.173    24424722.362    24424723.251    -2335090.996 1  -1819543.884 1
         6.500           9.000
  20447065.533    20447065.085    20447064.078   -23772460.079 6 -18523985.696 7
        39.700          46.500
  24901663.256    24901661.849    24901661.519    -2590427.225    -2018505.236 2
                        12.600
  22101587.239    22101586.986    22101583.774   -16061131.542 5 -12515157.570 5
        34.500          33.800
 09  1 27  2  0 30.0000000  0 12G 5G11G20G32G12G31G30G17G 9G14G18G22
  23294787.484    23294786.766    23294786.420    -9607536.813 4  -7486388.870 4
        24.900          24.600
  22576731.738    22576731.489    22576729.292   -12225918.494 5  -9526687.598 4
        33.000          29.000
  24803588.232    24803589.347    24803587.917     -437825.054 1   -341162.173 1
         6.500           9.000
  22729994.071    22729993.154    22729993.271   -12834319.118 5 -10000765.389 5
        32.300          31.300
  23685587.885    23685587.912    23685585.911    -7309519.431 4  -5695726.828 4
        24.200          25.900
  22220991.910    22220991.938    22220990.143   -14880439.375 6 -11595141.450 5
        36.600          35.800
  23707477.729    23707477.265    23707476.282    -6454572.317 3  -5029535.393 3
        22.100          22.600
  24958537.540    24958537.442    24958535.816    -1720226.249 2  -1340435.402 3
        12.600          18.600
  24447353.824    24447352.220    24447353.303    -2216167.583 1  -1726876.295 1
         6.500           9.000
  20450882.244    20450881.726    20450879.745   -23752403.407 6 -18508357.118 7
        39.700          46.500
  24922138.999    24922142.755    24922134.354    -2482806.140    -1934644.546 1
                         9.000
  22117517.941    22117517.624    22117514.456   -15977415.771 5 -12449924.518 5
        34.600          34.000
 09  1 27  2  1  0.0000000  0 12G 5G11G20G32G12G31G30G17G 9G14G18G22
  23286971.998    23286971.020    23286971.056    -9648606.694 4  -7518391.364 4
        24.200          24.900
  22577139.096    22577138.874    22577136.812   -12223777.523 5  -9525019.303 4
        32.700          29.000
  24782789.386    24782788.183    24782786.301     -547133.144 1   -426337.304 1
         6.500           9.000
  22714460.267    22714459.536    22714459.375   -12915949.863 5 -10064373.753 5
        32.800          31.300
  23680448.548    23680447.994    23680446.069    -7336528.439 4  -5716772.797 4
        24.200          25.900
  22203660.611    22203660.614    22203658.626   -14971516.270 6 -11666110.439 5
        37.000          35.900
  23691160.080    23691160.117    23691159.977    -6540316.869 3  -5096349.303 3
        21.600          23.000
  24955142.780    24955142.672    24955142.086    -1738065.070 3  -1354335.796 3
        19.300          19.900
  24470024.881    24470024.486    24470021.750    -2097037.008 1  -1634047.263 1
         6.500          11.000
  20454778.600    20454778.049    20454776.923   -23731928.221 6 -18492402.427 7
        39.700          46.700
  24942642.198    24942643.657    24942640.017    -2375082.433    -1850710.298 1
                         9.000
  22133505.459    22133505.233    22133502.332   -15893399.469 5 -12384457.284 5
        34.300          34.000
 09  1 27  2  1 30.0000000  0 12G 5G11G20G32G12G31G30G17G 9G14G18G22
  23279264.226    23279263.245    23279262.528    -9689111.507 3  -7549953.535 3
        23.800          23.800
  22577656.272    22577655.920    22577653.499   -12221061.055 5  -9522902.578 4
        32.400          28.600
  24762000.475    24761998.866    24761997.196     -656384.268 1   -511468.009 1
         9.000           6.500
  22698963.480    22698962.862    22698962.539   -12997385.571 5 -10127830.148 5
        32.800          31.100
  23675414.992    23675414.677    23675413.033    -7362978.783 4  -5737383.459 4
        25.600          26.500
  22186395.954    22186395.975    22186394.063   -15062242.553 6 -11736806.227 6
        37.200          36.100
  23674908.121    23674908.533    23674907.532    -6625721.482 3  -5162898.315 3
        22.100          23.000
  24951851.969    24951852.260    24951851.380    -1755349.407 2  -1367804.059 2
        13.900          12.600
  24492732.347    24492731.259    24492729.537    -1977712.560    -1541067.212 1
                         9.000
  20458752.296    20458751.799    20458749.861   -23711045.700 6 -18476130.333 7
        39.700          46.700
  24963157.494    24963157.969    24963154.475    -2267267.726    -1766700.173

  22149548.231    22149548.094    22149545.038   -15809094.097 5 -12318764.799 5
        34.300          33.800
 09  1 27  2  2  0.0000000  0 11G 5G11G20G32G12G31G30G17G 9G14G22
  23271663.375    23271662.750    23271662.288    -9729052.284 3  -7581076.232 3
        23.800          23.800
  22578281.704    22578281.473    22578279.300   -12217772.419 5  -9520340.003 4
        32.300          28.600
  24741219.267    24741218.475    24741217.957     -765580.016 1   -596555.561 1
         9.000           6.500
  22683503.628    22683502.841    22683502.768   -13078627.866 5 -10191135.824 5
        32.700          31.500
  23670488.114    23670487.743    23670485.884    -7388872.211 4  -5757560.172 4
        26.200          26.200
  22169197.916    22169197.960    22169195.865   -15152619.217 6 -11807229.570 6
        37.400          36.300
  23658720.910    23658721.038    23658720.731    -6710785.821 3  -5229182.202 3
        22.100          22.600
  24948668.706    24948668.197    24948666.086    -1772081.910 1  -1380842.342 1
         9.000           9.000
  24515473.858    24515471.923    24515471.575    -1858200.560    -1447940.979 1
                         9.000
  20462803.003    20462802.407    20462801.313   -23689759.655 6 -18459543.803 7
        39.700          46.800
  22165645.303    22165645.041    22165641.998   -15724503.993 5 -12252850.445 5
        34.300          33.600
 09  1 27  2  2 30.0000000  0 11G 5G11G20G32G12G31G30G17G 9G14G22
  23264171.855    23264170.992    23264170.148    -9768423.591 4  -7611755.159 3
        24.600          23.800
  22579017.216    22579016.960    22579014.648   -12213908.479 5  -9517329.147 4
        32.700          28.800
  24720451.294    24720450.118    24720450.136     -874714.845 1   -681595.654 1
        11.000           6.500
  22668081.372    22668080.831    22668080.755   -13159671.570 5 -10254286.757 5
        33.500          31.600
  23665667.192    23665666.916    23665664.797    -7414203.760 4  -5777299.033 4
        24.600          25.600
  22152067.566    22152067.584    22152065.332   -15242640.456 6 -11877375.976 6
        37.700          36.300
  23642599.507    23642599.636    23642599.175    -6795503.204 3  -5295195.716 3
        22.100          22.600
  24945590.179    24945590.785    24945588.022    -1788258.053 1  -1393447.229 1
        11.000          11.000
  24538251.265    24538251.654    24538251.117    -1738500.006    -1354667.848 1
         3.000          11.000
  20466930.838    20466930.275    20466928.470   -23668067.372 6 -18442640.725 7
        39.800          46.800
  22181797.024    22181796.761    22181793.552   -15639626.786 5 -12186712.378 5
        34.100          33.400
 09  1 27  2  3  0.0000000  0 11G 5G11G20G32G12G31G30G17G 9G14G22
  23256789.673    23256788.757    23256788.384    -9807216.352 4  -7641983.289 4
        24.200          24.200
  22579863.443    22579863.075    22579860.861   -12209462.371 5  -9513864.646 4
        33.000          29.000
  24699697.189    24699695.787    24699696.290     -983779.806 2   -766581.320 1
        12.600           6.500
  22652698.683    22652698.004    22652698.170   -13240508.047 5 -10317276.218 5
        33.400          31.800
  23660955.236    23660955.386    23660953.077    -7438965.294 4  -5796593.712 4
        24.900          26.200
  22135006.573    22135006.556    22135004.452   -15332296.687 6 -11947237.941 6
        37.800          36.400
  23626546.655    23626546.869    23626545.806    -6879863.252 3  -5360930.794 3
        23.000          22.100
  24942620.612    24942620.739    24942617.921    -1803870.649 2  -1405612.848 2
        16.100          16.100
  24561067.355    24561066.545    24561065.956    -1618607.356    -1261245.069 2
         3.000          12.600
  20471137.365    20471136.726    20471135.613   -23645962.609 6 -18425416.233 7
        39.800          46.900
  22198004.228    22198003.973    22198000.771   -15554456.663 5 -12120346.063 5
        33.600          33.400
 09  1 27  2  3 30.0000000  0 11G 5G11G20G32G12G31G30G17G 9G14G22
  23249517.873    23249516.713    23249516.485    -9845430.980 3  -7671760.921 4
        23.800          24.200
  22580819.737    22580819.410    22580817.289   -12204436.625 5  -9509948.476 4
        33.000          29.000
  24678956.709    24678954.786    24678955.644    -1092775.424 2   -851512.938 1
        12.600           9.000
  22637355.579    22637354.780    22637354.657   -13321137.939 5 -10380104.701 5
        33.200          32.100
  23656351.823    23656351.757    23656349.313    -7463157.406 4  -5815444.722 4
        24.900          26.200
  22118014.659    22118014.646    22118012.728   -15421588.150 6 -12016815.652 6
        37.600          36.300
  23610561.499    23610561.880    23610560.917    -6963864.961 3  -5426386.663 3
        22.100          22.600
  24939753.199    24939753.742    24939755.072    -1818921.302    -1417340.566 2
         3.000          17.800
  24583917.711    24583916.202    24583916.322    -1498527.361    -1167676.221 1
         3.000          11.000
  20475421.581    20475421.096    20475419.280   -23623448.269 6 -18407872.591 7
        39.900          47.000
  22214266.776    22214266.461    22214263.387   -15468996.965 5 -12053754.109 5
        33.600          33.400
 09  1 27  2  4  0.0000000  0 11G 5G11G20G32G12G31G30G17G 9G14G22
  23242354.863    23242354.115    23242353.540    -9883071.997 4  -7701091.575 4
        24.200          24.200
  22581885.139    22581884.890    22581882.478   -12198838.413 5  -9505586.236 4
        33.400          28.800
  24658228.291    24658226.976    24658226.541    -1201706.839 2   -936394.526 1
        12.600           9.000
  22622050.762    22622049.915    22622049.514   -13401566.081 5 -10442775.967 5
        33.800          32.100
  23651855.200    23651855.242    23651852.856    -7486785.515 4  -5833856.236 4
        25.600          26.200
  22101091.621    22101091.618    22101089.761   -15510519.143 6 -12086112.471 6
        37.700          36.500
  23594643.129    23594643.596    23594643.620    -7047511.363 3  -5491565.621 3
        20.500          23.000
  24936998.611    24936998.830    24936995.774    -1833416.089 1  -1428635.194 2
         9.000          17.000
  24606799.918    24606799.598    24606800.941    -1378269.486    -1073968.791 2
         3.000          12.600
  20479782.595    20479782.048    20479780.714   -23600531.305 6 -18390015.215 7
        40.000          47.200
  22230582.892    22230582.560    22230579.442   -15383255.427 5 -11986942.532 5
        33.600          33.100
 09  1 27  2  4 30.0000000  0 11G 5G11G20G32G12G31G30G17G 9G14G22
  23235303.230    23235302.551    23235302.064    -9920128.798 4  -7729967.015 4
        24.600          24.200
  22583060.685    22583060.417    22583058.481   -12192659.378 5  -9500771.413 4
        33.100          29.000
  24637513.037    24637512.295    24637511.338    -1310563.017 2  -1021217.486 1
        13.900           9.000
  22606786.415    22606785.384    22606785.045   -13481782.267 5 -10505282.093 5
        33.900          32.300
  23647468.360    23647468.412    23647466.125    -7509839.604 4  -5851820.458 4
        25.600          26.800
  22084239.061    22084239.206    22084237.350   -15599078.722 6 -12155119.916 6
        37.700          36.800
  23578797.230    23578797.646    23578796.134    -7130790.588 3  -5556458.505 3
        22.100          23.400
  24934346.376    24934346.190    24934344.412    -1847345.646 1  -1439489.433 2
        11.000          13.900
  24629719.723    24629718.623    24629720.158    -1257827.862     -980118.163 1
         3.000          11.000
  20484221.580    20484221.025    20484219.178   -23577204.334 6 -18371838.353 7
        40.000          47.300
  22246953.829    22246953.569    22246950.727   -15297224.680 5 -11919905.597 5
        33.400          33.100
 09  1 27  2  5  0.0000000  0 11G 5G11G20G32G12G31G30G17G 9G14G22
  23228362.364    23228361.252    23228360.766    -9956604.692 4  -7758389.775 4
        24.600          24.600
  22584345.721    22584345.496    22584343.709   -12185904.893 5  -9495508.168 4
        32.600          29.000
  24616812.603    24616811.325    24616809.629    -1419347.379 2  -1105984.522 1
        13.900           9.000
  22591560.968    22591560.214    22591560.238   -13561789.983 5 -10567625.761 5
        33.600          32.600
  23643190.152    23643189.946    23643187.575    -7532323.548 4  -5869340.400 4
        25.900          27.100
  22067457.177    22067457.195    22067455.069   -15687269.728 6 -12223840.165 6
        37.700          36.800
  23563018.610    23563018.473    23563017.770    -7213704.876 3  -5621067.024 3
        20.500          22.600
  24931803.672    24931802.641    24931802.232    -1860714.559 1  -1449906.719 2
         9.000          17.000
  24652672.946    24652672.243    24652671.334    -1137210.650     -886130.705 1
         3.000           9.000
  20488737.479    20488736.936    20488735.628   -23553472.852 6 -18353346.288 7
        40.000          47.300
  22263379.007    22263378.686    22263375.802   -15210910.829 5 -11852648.063 5
        33.600          33.400
 09  1 27  2  5 30.0000000  0 11G 5G11G20G32G12G31G30G17G 9G14G22
  23221533.638    23221532.645    23221532.304    -9992487.442 4  -7786350.368 4
        24.200          24.200
  22585742.770    22585742.513    22585740.653   -12178565.176 5  -9489788.908 4
        33.000          29.700
  24596126.843    24596125.687    24596125.151    -1528047.828 2  -1190686.165 1
        13.900           9.000
  22576377.908    22576377.169    22576377.197   -13641577.241 5 -10629797.644 5
        34.000          32.400
  23639021.502    23639021.658    23639019.712    -7554225.674 4  -5886407.010 4
        25.300          26.800
  22050747.416    22050747.511    22050745.283   -15775079.566 6 -12292263.396 6
        38.000          36.700
  23547312.795    23547312.577    23547311.079    -7296240.401 3  -5685380.381 3
        21.600          22.600
  24929367.758    24929367.540    24929367.568    -1873512.040 1  -1459878.796 3
         6.500          18.600
  24675662.445    24675661.741    24675659.198    -1016410.297     -792000.535 1
                         9.000
  20493332.296    20493331.676    20493329.991   -23529327.359 6 -18334531.618 7
        40.100          47.500
  22279859.772    22279859.329    22279856.329   -15124304.819 5 -11785162.876 5
        33.600          33.100
 09  1 27  2  6  0.0000000  0 11G 5G11G20G32G12G31G30G17G 9G14G22
  23214815.210    23214814.344    23214813.665   -10027794.274 4  -7813862.174 4
        24.600          24.600
  22587247.189    22587246.764    22587244.974   -12170659.443 5  -9483628.597 4
        32.600          29.700
  24575453.862    24575453.779    24575452.299    -1636681.431 2  -1275335.688 1
        16.100           9.000
  22561233.356    22561232.732    22561232.705   -13721161.519 5 -10691811.365 5
        33.800          32.600
  23634961.628    23634961.492    23634959.238    -7575563.897 4  -5903034.181 4
        25.300          27.100
  22034107.219    22034107.183    22034104.905   -15862525.140 6 -12360402.779 6
        38.300          36.800
  23531675.771    23531675.713    23531674.860    -7378412.650 3  -5749410.722 3
        22.600          23.000
  24927036.598    24927036.106    24927034.084    -1885756.893 2  -1469420.206 2
        13.900          15.100
  24698683.285    24698681.840    24698678.696     -895448.766     -697744.805 1
                         9.000
  20498002.005    20498001.477    20498000.116   -23504787.479 6 -18315409.634 7
        40.100          47.600
  22296391.938    22296391.613    22296388.538   -15037426.938 5 -11717465.843 5
        33.400          33.100
 09  1 27  2  6 30.0000000  0 11G 5G11G20G32G12G31G30G17G 9G14G22
  23208207.018    23208206.144    23208206.176   -10062519.581 4  -7840920.857 4
        25.300          24.900
  22588859.845    22588859.545    22588857.562   -12162184.398 5  -9477024.667 4
        32.400          29.200
  24554796.156    24554794.902    24554793.775    -1745242.540 2  -1359928.735 1
        17.800           9.000
  22546128.944    22546128.146    22546128.029   -13800537.336 5 -10753662.643 5
        34.100          32.700
  23631008.562    23631008.442    23631007.062    -7596333.702 4  -5919218.452 4
        24.600          26.800
  22017537.244    22017537.242    22017535.075   -15949600.350 6 -12428253.568 6
        38.400          36.900
  23516108.742    23516108.848    23516108.718    -7460214.864 3  -5813152.674 3
        21.600          23.400
  24924813.825    24924814.215    24924812.012    -1897444.793 3  -1478527.633 2
        18.600          13.900
  24721731.625    24721729.923    24721727.882     -774324.940     -603362.645 1
                         6.500
  20502747.360    20502746.830    20502745.186   -23479850.325 6 -18295978.085 7
        40.200          47.500
  22312976.350    22312976.128    22312972.980   -14950274.885 5 -11649555.166 5
        33.400          32.800
 09  1 27  2  7  0.0000000  0 11G 5G11G20G32G12G31G30G17G 9G14G22
  23201712.204    23201711.191    23201710.569   -10096650.972 4  -7867516.753 4
        25.300          24.200
  22590582.785    22590582.517    22590580.633   -12153130.065 5  -9469969.338 4
        32.300          29.500
  24534153.740    24534153.022    24534151.591    -1853718.517 2  -1444455.457 1
        17.800          11.000
  22531066.372    22531065.578    22531065.234   -13879692.427 5 -10815341.934 5
        34.500          32.600
  23627167.438    23627167.442    23627165.101    -7616522.029 4  -5934949.622 4
        25.300          27.100
  22001040.257    22001040.360    22001038.104   -16036292.414 6 -12495805.822 6
        38.400          37.000
  23500616.266    23500616.238    23500614.831    -7541632.916 3  -5876595.284 3
        22.100          23.400
  24922696.057    24922697.015    24922693.881    -1908564.745 2  -1487192.432 2
        12.600          12.600
  24744812.586    24744811.135    24744808.354     -653031.399     -508848.290 1
         3.000           6.500
  20507570.224    20507569.692    20507568.282   -23454506.173 6 -18276229.395 7
        40.200          47.400
  22329614.974    22329614.629    22329611.409   -14862838.837 5 -11581423.190 5
        33.100          32.600
 09  1 27  2  7 30.0000000  0 11G 5G11G20G32G12G31G30G17G 9G14G22
  23195328.483    23195327.494    23195327.156   -10130197.205 4  -7893656.670 4
        24.600          24.600
  22592413.694    22592413.533    22592411.798   -12143507.408 5  -9462471.162 4
        32.000          29.500
  24513525.715    24513524.863    24513523.745    -1962118.353 2  -1528922.831 1
        17.800          11.000
  22516043.798    22516043.010    22516042.766   -13958635.676 5 -10876856.147 5
        34.300          32.600
  23623434.393    23623434.109    23623432.274    -7636139.008 4  -5950235.571 4
        25.300          27.100
  21984614.694    21984614.709    21984612.479   -16122609.668 6 -12563066.006 6
        38.500          37.100
  23485193.422    23485193.983    23485193.000    -7622674.426 3  -5939744.456 3
        22.100          23.400
  24920685.017    24920686.089    24920685.721    -1919126.685    -1495422.568 2
                        16.100
  24767923.118    24767921.356    24767920.395     -531581.463     -414212.083
         3.000           3.000
  20512468.329    20512467.885    20512466.210   -23428765.834 6 -18256171.988 7
        40.300          47.400
  22346305.347    22346304.875    22346301.890   -14775130.544 5 -11513079.077 5
        32.700          32.700
 09  1 27  2  8  0.0000000  0 11G 5G11G20G32G12G31G30G17G 9G14G22
  23189057.468    23189056.162    23189055.613   -10163153.696 4  -7919337.062 4
        24.200          24.900
  22594353.698    22594353.477    22594351.474   -12133314.303 5  -9454528.483 4
        32.100          29.700
  24492912.436    24492912.025    24492910.476    -2070437.265 2  -1613327.168 1
        17.000           9.000
  22501062.275    22501061.635    22501061.326   -14037362.678 5 -10938201.862 5
        34.400          32.400
  23619810.767    23619810.788    23619808.714    -7655180.635 4  -5965073.209 4
        24.900          27.400
  21968261.503    21968261.382    21968259.110   -16208547.100 6 -12630030.187 6
        38.700          37.200
  23469845.027    23469845.057    23469844.921    -7703333.141 3  -6002595.373 3
        22.600          23.800
  24918784.933    24918783.778    24918782.798    -1929127.689 1  -1503215.598 3
         9.000          19.900
  24791063.101    24791061.645    24791060.487     -409975.093     -319453.904
         3.000           3.000
  20517442.325    20517441.812    20517440.333   -23402627.741 6 -18235804.642 7
        40.300          47.400
  22363047.584    22363047.355    22363044.363   -14687148.629 5 -11444521.759 5
        32.700          32.700
 09  1 27  2  8 30.0000000  0 11G 5G11G20G32G12G31G30G17G 9G14G22
  23182899.430    23182898.639    23182898.143   -10195513.312 4  -7944552.341 4
        25.300          24.900
  22596402.489    22596402.304    22596400.506   -12122545.294 5  -9446137.050 4
        31.500          29.200
  24472316.686    24472316.381    24472315.308    -2178667.830 2  -1697662.647 1
        16.100          11.000
  22486123.512    22486122.711    22486122.839   -14115866.226 5 -10999373.455 5
        34.300          32.800
  23616298.074    23616297.918    23616296.012    -7673640.606 4  -5979457.598 4
        24.600          27.100
  21951981.771    21951981.738    21951979.487   -16294096.934 6 -12696692.357 6
        38.900          37.200
  23454570.989    23454571.102    23454570.316    -7783600.278 3  -6065141.163 3
        23.000          23.800
  24916987.690    24916988.892    24916986.793    -1938561.982 2  -1510567.055 2
        12.600          16.100
  24814233.612    24814233.171    24814231.854     -288209.436 1   -224571.584
         6.500
  20522492.890    20522492.369    20522490.688   -23376086.972 6 -18215123.521 7
        40.400          47.400
  22379843.125    22379842.725    22379839.627   -14598888.801 5 -11375747.878 5
        32.600          32.300
 09  1 27  2  9  0.0000000  0 10G 5G11G20G32G12G31G30G17G14G22
  23176852.273    23176851.345    23176850.861   -10227291.044 4  -7969314.209 4
        24.900          25.300
  22598558.194    22598557.862    22598556.236   -12111218.406 5  -9437310.904 4
        31.500          29.700
  24451735.232    24451734.710    24451733.680    -2286824.878 2  -1781940.837 1
        16.100           9.000
  22471224.752    22471223.907    22471223.878   -14194161.447 5 -11060382.709 5
        34.800          33.200
  23612894.073    23612893.581    23612890.553    -7691534.121 4  -5993400.613 4
        25.600          26.800
  21935773.031    21935773.050    21935770.965   -16379273.674 6 -12763063.825 6
        39.000          37.300
  23439367.958    23439368.321    23439367.780    -7863489.467 3  -6127392.468 4
        22.600          24.200
  24915298.398    24915298.064    24915295.279    -1947446.161 1  -1517489.777 2
         6.500          13.900
  20527616.680    20527616.200    20527614.647   -23349161.056 6 -18194142.289 7
        40.400          47.400
  22396687.856    22396687.486    22396684.210   -14510369.110 5 -11306771.508 5
        32.600          32.000
 09  1 27  2  9 30.0000000  0 10G 5G11G20G32G12G31G30G17G14G22
  23170917.553    23170916.762    23170916.440   -10258475.587 4  -7993613.849 4
        24.200          24.900
  22600821.853    22600821.468    22600819.778   -12099324.068 5  -9428042.588 4
        31.500          29.500
  24431170.521    24431169.615    24431168.774    -2394896.842 2  -1866152.743 1
        17.000           9.000
  22456367.207    22456366.525    22456366.218   -14272237.025 5 -11121220.815 5
        34.800          32.700
  23609598.072    23609597.507    23609595.826    -7708850.305 4  -6006893.737 4
        24.900          26.800
  21919637.397    21919637.538    21919635.404   -16464066.048 6 -12829135.777 6
        38.900          37.500
  23424240.581    23424240.442    23424240.122    -7942987.756 3  -6189339.142 4
        23.400          24.200
  24913713.738    24913714.773    24913712.122    -1955769.695 1  -1523975.625 2
         9.000          13.900
  20532815.495    20532814.986    20532813.435   -23321841.022 6 -18172853.949 7
        40.400          47.300
  22413583.651    22413583.265    22413580.016   -14421581.105 5 -11237586.067 5
        32.800          31.600
 09  1 27  2 10  0.0000000  0 10G 5G11G20G32G12G31G30G17G14G22
  23165100.398    23165099.505    23165099.019   -10289047.395 4  -8017436.042 4
        24.900          24.900
  22603196.092    22603195.731    22603194.139   -12086845.295 5  -9418318.883 4
        31.000          29.000
  24410625.673    24410624.805    24410623.871    -2502864.009 2  -1950283.015 1
        17.800           9.000
  22441555.368    22441554.530    22441554.439   -14350073.420 5 -11181872.554 5
        34.600          32.700
  23606416.477    23606416.020    23606413.896    -7725570.775 4  -6019922.675 4
        24.600          26.800
  21903579.068    21903579.078    21903577.001   -16548453.700 6 -12894892.333 6
        39.100          37.700
  23409191.421    23409191.319    23409189.440    -8022074.093 3  -6250964.834 3
        23.800          22.600
  24912240.927    24912240.246    24912239.396    -1963514.909 2  -1530010.803 2
        13.900          17.800
  20538092.624    20538092.076    20538090.485   -23294109.955 6 -18151245.324 7
        40.500          47.300
  22430533.522    22430533.355    22430530.103   -14332507.965 5 -11168178.433 5
        32.400          31.800
