     2.11           OBSERVATION DATA    G (GPS)             RINEX VERSION / TYPE
teqc  2008Oct2      WCDA Operator       20090122 01:03:18UTCPGM / RUN BY / DATE
Solaris x86 5.10|AMD64|cc SC5.8 -xarch=amd64|=+|=+          COMMENT
teqc  2008Oct2      WCDA Operator       20090122 01:03:17UTCCOMMENT
teqc  2008Oct2      WCDA Operator       20090121 01:18:27UTCCOMMENT
flin  WCDA-ACP   965000   CFS Flin Flon SASK Canada         MARKER NAME
40135M001                                                   MARKER NUMBER
PGC-WCDA            GEOL. SURV. CANADA                      OBSERVER / AGENCY
1115                AOA BENCHMARK ACT   3.3.32.4            REC # / TYPE / VERS
231                 AOAD/M_T        SCIS                    ANT # / TYPE
  -766174.4630 -3611375.3160  5184056.2210                  APPROX POSITION XYZ
        0.1500        0.0000        0.0000                  ANTENNA: DELTA H/E/N
     1     1                                                WAVELENGTH FACT L1/2
     7    C1    P1    P2    L1    L2    S1    S2            # / TYPES OF OBSERV
STATION INFORMATION EFFECTIVE FROM: 2001/01/13 18:20:00     COMMENT
                                TO: CURRENT DATE (above)    COMMENT
BIT 2 OF LLI FLAGS (+4) DATA COLLECTED UNDER 'AS' CONDITION COMMENT
L1 PHASE CENTRE 0.110m ABOVE ARP                            COMMENT
L2 PHASE CENTRE 0.128m ABOVE ARP                            COMMENT
where ARP is the Antenna Reference Point for HI measurement COMMENT
CONTACT gps@pgc.nrcan.gc.ca FOR ADDITIONAL INFORMATION      COMMENT
    P1 =    P1  TurboRogue; =    Y1  Benchmark              COMMENT
    L1 = L1(CA)                                             COMMENT
    P2 =    P2  TurboRogue; =    Y2  Benchmark              COMMENT
    L2 = L2(P2) TurboRogue; = L2(Y2) Benchmark              COMMENT
 SNR is mapped to RINEX snr flag value [0-9]                COMMENT
  L1 & L2: min(max(int(snr_dBHz/6), 0), 9)                  COMMENT
  2009     1    21     0     0    0.0000000     GPS         TIME OF FIRST OBS
                                                            END OF HEADER
 09  1 21  0  0  0.0000000  0 10G 9G28G19G 3G 6G14G15G21G18G22
  21695709.801    21695709.482    21695709.325   -15545729.593 6 -12113547.457 6
        38.100          36.500
  25460339.918    25460340.248    25460339.357     -688821.359 1   -536743.928 1
         9.000          11.000
  22926752.872    22926751.144    22926748.750    -9865108.703 5  -7687093.672 5
        34.500          32.300
  23329713.071    23329712.333    23329712.874    -4079982.371 4  -3179203.140 4
        27.600          27.400
  23392039.131    23392038.930    23392039.775    -6257260.618 4  -4875783.586 4
        27.100          28.400
  22792332.256    22792331.804    22792330.771   -12753262.783 5  -9937602.428 4
        32.000          29.200
  24172778.900    24172778.717    24172776.919    -3883163.545 3  -3025832.941 4
        23.800          26.500
  22511976.169    22511975.237    22511973.426   -15600677.685 5 -12156365.942 4
        33.500          27.600
  20678827.684    20678827.074    20678825.496   -23610987.933 7 -18398164.103 7
        43.400          46.300
  20436585.036    20436584.730    20436581.577   -23872620.486 7 -18602032.649 8
        45.900          49.200
 09  1 21  0  0 30.0000000  0 10G 9G28G19G 3G 6G14G15G21G18G22
  21687118.669    21687117.957    21687117.322   -15590880.310 6 -12148729.819 6
        38.700          36.600
  25458615.860    25458614.735    25458612.969     -697890.189 1   -543810.504 2
         9.000          12.600
  22925713.861    22925712.498    22925710.882    -9870563.086 5  -7691343.834 5
        34.100          32.000
  23343282.763    23343282.338    23343282.831    -4008671.556 4  -3123636.284 4
        27.100          27.400
  23406108.978    23406108.454    23406109.234    -6183324.835 4  -4818171.314 4
        26.800          27.600
  22773776.941    22773776.234    22773775.041   -12850774.122 5 -10013585.271 4
        32.100          29.000
  24192570.985    24192571.206    24192568.878    -3779154.826 4  -2944787.175 4
        24.600          26.200
  22530802.339    22530801.674    22530799.853   -15501743.976 5 -12079274.747 4
        33.400          27.100
  20685156.526    20685155.892    20685154.153   -23577730.950 7 -18372249.565 7
        43.500          46.200
  20431458.077    20431457.684    20431454.498   -23899563.150 7 -18623026.929 8
        45.800          49.300
 09  1 21  0  1  0.0000000  0 10G 9G28G19G 3G 6G14G15G21G18G22
  21678653.928    21678653.434    21678652.734   -15635360.718 6 -12183389.861 6
        38.600          36.300
  25456986.924    25456986.198    25456986.449     -706445.622 1   -550477.079 2
         9.000          12.600
  22924790.468    22924788.890    22924786.462    -9875420.261 5  -7695128.653 5
        34.900          31.800
  23356928.527    23356927.687    23356928.407    -3936961.615 4  -3067758.438 4
        26.200          27.100
  23420245.055    23420244.017    23420243.631    -6109043.179 4  -4760289.513 4
        27.100          25.900
  22755272.483    22755272.014    22755270.946   -12948013.827 5 -10089356.460 4
        32.300          29.700
  24212390.842    24212390.486    24212387.775    -3675003.710 4  -2863630.464 4
        24.200          24.900
  22549685.577    22549685.291    22549683.937   -15402508.086 5 -12001948.088 4
        32.400          27.100
  20691556.881    20691556.221    20691554.451   -23544096.517 7 -18346040.914 7
        43.600          45.900
  20426404.374    20426404.063    20426400.801   -23926120.540 7 -18643720.990 8
        45.900          49.300
 09  1 21  0  1 30.0000000  0 10G 9G28G19G 3G 6G14G15G21G18G22
  21670316.790    21670316.297    21670315.879   -15679171.612 6 -12217528.205 6
        38.300          36.300
  25455456.089    25455456.583    25455453.431     -714489.689 2   -556745.157 1
        12.600          11.000
  22923978.895    22923977.515    22923975.617    -9879682.913 5  -7698450.198 5
        35.200          32.400
  23370649.001    23370648.929    23370648.981    -3864858.146 4  -3011573.920 4
        26.800          26.500
  23434444.603    23434444.236    23434444.243    -6034420.600 4  -4702142.046 4
        27.100          26.200
  22736819.727    22736819.163    22736818.317   -13044982.996 5 -10164916.820 4
        32.700          29.900
  24232236.004    24232236.027    24232232.996    -3570715.184 4  -2782366.677 3
        24.600          23.800
  22568626.825    22568626.213    22568624.477   -15302974.577 5 -11924389.530 4
        32.300          26.500
  20698028.387    20698027.848    20698026.107   -23510087.926 7 -18319540.708 7
        43.600          45.800
  20421423.467    20421423.127    20421419.964   -23952294.973 7 -18664116.646 8
        45.900          49.300
 09  1 21  0  2  0.0000000  0 10G 9G28G19G 3G 6G14G15G21G18G22
  21662106.633    21662106.245    21662105.894   -15722316.964 6 -12251147.946 6
        38.600          36.600
  25454021.203    25454021.243    25454019.698     -722028.251 1   -562619.404 2
        11.000          12.600
  22923279.436    22923278.542    22923276.643    -9883356.736 5  -7701312.915 5
        35.700          32.300
  23384444.058    23384443.582    23384443.819    -3792369.554 4  -2955089.302 4
        27.600          27.400
  23448708.402    23448707.528    23448708.247    -5959465.796 4  -4643735.705 4
        26.800          26.500
  22718417.507    22718417.330    22718416.386   -13141685.344 5 -10240269.277 4
        32.800          29.900
  24252105.391    24252106.120    24252103.117    -3466297.292 4  -2701002.066 3
        24.200          22.600
  22587623.381    22587622.420    22587619.819   -15203151.354 5 -11846605.209 4
        32.700          25.900
  20704570.134    20704569.460    20704567.805   -23475711.325 7 -18292753.740 7
        43.600          45.800
  20416514.572    20416514.195    20416510.932   -23978091.706 7 -18684217.991 8
        45.900          49.400
 09  1 21  0  2 30.0000000  0 10G 9G28G19G 3G 6G14G15G21G18G22
  21654023.819    21654023.539    21654022.637   -15764791.957 6 -12284245.330 6
        38.600          36.500
  25452683.529    25452683.116    25452682.495     -729058.348 2   -568097.430 2
        12.600          16.100
  22922692.910    22922691.397    22922689.726    -9886439.342 5  -7703714.937 5
        34.700          31.800
  23398311.519    23398310.739    23398310.866    -3719496.028 4  -2898304.749 4
        27.100          26.800
  23463033.707    23463033.640    23463034.973    -5884178.769 4  -4585070.509 4
        26.200          25.600
  22700067.435    22700067.029    22700065.758   -13238116.823 5 -10315410.666 4
        32.800          29.500
  24272000.458    24272000.388    24271998.256    -3361749.306 3  -2619536.088 3
        23.400          22.100
  22606673.845    22606673.056    22606670.973   -15103037.896 5 -11768594.730 4
        32.600          26.200
  20711182.200    20711181.584    20711179.942   -23440964.554 7 -18265678.334 7
        43.600          45.800
  20411677.884    20411677.617    20411674.455   -24003507.505 7 -18704022.503 8
        45.900          49.400
 09  1 21  0  3  0.0000000  0 10G 9G28G19G 3G 6G14G15G21G18G22
  21646070.039    21646069.798    21646069.955   -15806586.242 6 -12316812.290 6
        38.000          37.400
  25451443.589    25451443.538    25451443.119     -735571.117 2   -573172.298 2
        15.100          17.000
  22922220.477    22922219.025    22922217.137    -9888922.514 5  -7705649.866 5
        34.800          31.800
  23412253.691    23412252.733    23412252.284    -3646231.862 4  -2841215.796 4
        27.400          26.200
  23477425.136    23477425.034    23477425.425    -5808554.008 4  -4526142.125 4
        26.500          24.900
  22681770.960    22681770.237    22681768.713   -13334267.283 5 -10390333.080 4
        33.000          29.200
  24291920.581    24291920.684    24291919.271    -3257065.088 4  -2537963.962 3
        24.200          21.600
  22625780.840    22625780.259    22625778.361   -15002627.722 5 -11690353.040 4
        32.100          26.200
  20717866.306    20717865.697    20717863.800   -23405839.796 7 -18238308.388 7
        43.700          45.500
  20406915.594    20406915.318    20406912.253   -24028533.450 7 -18723523.236 8
        45.900          49.500
 09  1 21  0  3 30.0000000  0 10G 9G28G19G 3G 6G14G15G21G18G22
  21638245.866    21638245.472    21638245.099   -15847705.172 6 -12348852.997 6
        38.900          37.000
  25450300.899    25450301.074    25450302.023     -741573.854 2   -577849.734 2
        12.600          17.000
  22921860.731    22921859.340    22921857.288    -9890813.473 5  -7707123.334 5
        34.700          32.000
  23426267.086    23426266.179    23426266.668    -3572587.317 4  -2783830.439 4
        25.900          26.500
  23491878.910    23491878.576    23491878.321    -5732601.344 4  -4466958.235 4
        26.500          24.600
  22663526.235    22663525.796    22663524.230   -13430142.178 5 -10465040.772 4
        32.800          29.500
  24311864.792    24311865.679    24311864.469    -3152254.142 4  -2456293.069 3
        24.200          21.600
  22644942.842    22644942.220    22644940.616   -14901930.406 5 -11611887.612 4
        31.600          26.200
  20724620.711    20724620.144    20724618.224   -23370344.690 7 -18210649.858 7
        43.700          45.400
  20402226.229    20402225.910    20402222.881   -24053176.498 7 -18742725.601 8
        45.900          49.700
 09  1 21  0  4  0.0000000  0 10G 9G28G19G 3G 6G14G15G21G18G22
  21630550.781    21630550.080    21630549.115   -15888145.830 6 -12380365.182 6
        38.900          36.500
  25449255.787    25449255.427    25449255.507     -747064.600 1   -582128.248 2
        11.000          13.900
  22921613.729    22921612.213    22921610.569    -9892110.958 5  -7708134.364 5
        34.500          32.100
  23440353.344    23440352.824    23440352.547    -3498563.545 4  -2726149.592 4
        25.600          26.500
  23506394.217    23506393.739    23506393.303    -5656322.158 4  -4407519.921 4
        26.200          24.900
  22645335.101    22645334.487    22645332.828   -13525738.559 5 -10539531.436 4
        33.000          29.500
  24331834.268    24331834.639    24331833.626    -3047316.770 4  -2374523.682 3
        25.300          22.600
  22664158.966    22664158.700    22664157.388   -14800946.735 5 -11533199.051 4
        31.300          26.500
  20731445.935    20731445.249    20731443.478   -23334478.219 7 -18182701.954 7
        43.600          45.300
  20397610.057    20397609.718    20397606.704   -24077434.575 7 -18761627.994 8
        45.900          49.800
 09  1 21  0  4 30.0000000  0 10G 9G28G19G 3G 6G14G15G21G18G22
  21622983.539    21622983.059    21622982.664   -15927909.170 6 -12411349.590 6
        38.700          36.500
  25448310.955    25448309.424    25448306.443     -752046.322 2   -586010.116 1
        12.600           9.000
  22921479.559    22921478.170    22921476.096    -9892818.216 5  -7708685.476 5
        34.900          32.100
  23454509.820    23454509.632    23454510.120    -3424166.925 4  -2668178.220 4
        26.200          26.500
  23520970.442    23520970.028    23520969.679    -5579722.273 4  -4347831.701 4
        26.200          24.200
  22627196.250    22627195.662    22627194.244   -13621057.859 5 -10613806.197 4
        33.200          29.500
  24351826.813    24351826.901    24351826.066    -2942257.993 4  -2292659.696 3
        25.600          22.600
  22683429.523    22683428.720    22683427.699   -14699681.913 5 -11454291.419 4
        31.100          26.500
  20738340.841    20738340.224    20738338.495   -23298244.331 7 -18154467.750 7
        43.600          45.200
  20393066.736    20393066.401    20393063.358   -24101310.122 7 -18780232.311 8
        46.000          49.900
 09  1 21  0  5  0.0000000  0 10G 9G28G19G 3G 6G14G15G21G18G22
  21615547.411    21615546.924    21615546.306   -15966986.932 6 -12441799.779 6
        38.900          36.600
  25447458.726    25447459.407    25447456.610     -756512.687 1   -589490.484 1
         6.500           9.000
  22921458.733    22921457.225    22921455.092    -9892928.720 5  -7708771.579 5
        35.100          32.400
  23468739.863    23468739.426    23468739.121    -3349393.234 4  -2609913.003 4
        27.100          25.900
  23535608.790    23535608.762    23535608.725    -5502797.753 4  -4287890.532 4
        26.500          25.600
  22609111.975    22609111.323    22609109.918   -13716091.770 5 -10687858.582 4
        33.400          29.700
  24371842.764    24371842.827    24371841.833    -2837073.649 4  -2210697.866 3
        24.900          21.600
  22702754.079    22702753.307    22702751.962   -14598131.304 5 -11375161.080 4
        31.000          26.200
  20745307.163    20745306.508    20745304.805   -23261636.675 7 -18125942.301 7
        43.600          45.200
  20388597.550    20388597.225    20388594.185   -24124796.233 7 -18798533.171 8
        46.100          50.000
 09  1 21  0  5 30.0000000  0 10G 9G28G19G 3G 6G14G15G21G18G22
  21608241.352    21608240.793    21608240.753   -16005379.169 6 -12471715.791 6
        38.300          36.800
  25446706.799    25446707.806    25446705.370     -760464.790 1   -592570.014 1
         6.500           9.000
  22921550.594    22921548.838    22921547.313    -9892444.719 5  -7708394.452 5
        34.500          33.000
  23483039.329    23483038.510    23483038.603    -3274247.354 4  -2551357.792 4
        25.900          25.600
  23550308.331    23550308.058    23550308.418    -5425553.251 4  -4227700.035 4
        25.900          26.800
  22591082.138    22591081.443    22591079.939   -13810840.317 5 -10761688.603 4
        33.600          29.900
  24391882.069    24391882.029    24391880.535    -2731767.505 4  -2128641.138 3
        24.600          22.100
  22722132.272    22722131.313    22722130.048   -14496298.900 5 -11295811.171 4
        30.800          26.500
  20752343.985    20752343.394    20752341.730   -23224657.385 7 -18097127.265 7
        43.600          45.100
  20384202.033    20384201.729    20384198.659   -24147894.175 7 -18816531.562 8
        46.100          50.000
 09  1 21  0  6  0.0000000  0 10G 9G28G19G 3G 6G14G15G21G18G22
  21601065.362    21601065.112    21601065.213   -16043085.292 6 -12501097.170 6
        38.000          36.500
  25446055.143    25446053.707    25446051.703     -763903.919 2   -595249.862 1
        12.600          11.000
  22921755.139    22921753.645    22921752.265    -9891367.691 5  -7707555.193 5
        34.500          33.000
  23497409.868    23497408.740    23497408.696    -3198733.505 4  -2492515.841 4
        25.900          25.300
  23565067.935    23565067.369    23565067.819    -5347992.843 4  -4167263.366 4
        25.300          27.400
  22573106.105    22573105.613    22573104.336   -13905303.413 5 -10835296.187 5
        33.600          30.200
  24411943.543    24411943.676    24411942.312    -2626342.887 4  -2046492.084 3
        24.600          22.100
  22741563.089    22741562.231    22741561.154   -14394188.119 5 -11216244.356 4
        30.600          26.500
  20759451.069    20759450.603    20759448.759   -23187308.403 7 -18068024.157 7
        43.600          44.800
  20379880.583    20379880.209    20379877.084   -24170604.786 7 -18834228.135 8
        46.200          50.100
 09  1 21  0  6 30.0000000  0 10G 9G28G19G 3G 6G14G15G21G18G22
  21594021.821    21594021.359    21594020.620   -16080104.916 6 -12529943.607 6
        39.100          36.800
  25445498.605    25445497.047    25445494.269     -766831.021 2   -597530.755 2
        12.600          12.600
  22922072.572    22922071.655    22922069.324    -9889699.001 5  -7706254.919 5
        35.500          32.000
  23511848.303    23511847.522    23511847.551    -3122855.943 4  -2433390.467 4
        25.300          24.200
  23579885.988    23579885.713    23579886.259    -5270120.556 4  -4106583.690 4
        25.300          26.800
  22555184.595    22555184.197    22555182.818   -13999480.653 5 -10908681.023 5
        33.900          30.200
  24432026.713    24432027.624    24432025.712    -2520802.980 4  -1964253.202 3
        24.600          22.600
  22761046.074    22761045.752    22761044.047   -14291802.334 5 -11136463.234 4
        31.000          26.200
  20766628.484    20766627.871    20766625.953   -23149591.578 7 -18038634.418 7
        43.600          44.700
  20375632.225    20375631.979    20375628.975   -24192928.998 7 -18851623.618 8
        46.100          50.200
 09  1 21  0  7  0.0000000  0 10G 9G28G19G 3G 6G14G15G21G18G22
  21587108.155    21587107.786    21587107.271   -16116435.521 6 -12558253.165 6
        39.000          36.900
  25445036.949    25445036.477    25445033.756     -769245.373 1   -599412.054 2
        11.000          12.600
  22922502.769    22922501.556    22922499.562    -9887438.516 5  -7704493.505 5
        35.200          31.800
  23526355.759    23526355.094    23526355.653    -3046616.726 4  -2373983.309 4
        25.900          24.600
  23594764.306    23594763.805    23594763.349    -5191938.445 4  -4045662.574 4
        25.600          26.500
  22537318.280    22537317.685    22537316.014   -14093369.734 5 -10981841.322 4
        33.800          29.700
  24452132.787    24452132.809    24452131.014    -2415149.444 4  -1881925.765 3
        24.600          23.000
  22780582.163    22780581.399    22780579.626   -14189143.137 5 -11056469.077 4
        30.200          25.600
  20773875.991    20773875.375    20773873.575   -23111506.717 7 -18008957.897 7
        43.800          44.800
  20371457.863    20371457.574    20371454.448   -24214865.528 7 -18868717.009 8
        46.100          50.200
 09  1 21  0  7 30.0000000  0 10G 9G28G19G 3G 6G14G15G21G18G22
  21580325.916    21580325.527    21580324.957   -16152075.418 6 -12586024.494 6
        38.600          36.700
  25444673.433    25444674.143    25444671.618     -771147.451 2   -600894.122 2
        12.600          12.600
  22923045.709    22923044.182    22923042.167    -9884586.726 5  -7702271.334 5
        35.100          32.300
  23540931.532    23540930.755    23540931.228    -2970019.152 4  -2314296.899 3
        25.300          23.800
  23609700.044    23609699.657    23609699.268    -5113449.517 4  -3984502.373 4
        25.300          26.500
  22519506.040    22519505.804    22519504.453   -14186969.133 5 -11054775.906 4
        33.500          29.700
  24472259.093    24472259.030    24472257.532    -2309384.188 4  -1799511.277 4
        24.200          24.200
  22800169.566    22800168.885    22800166.333   -14086212.605 5 -10976263.487 4
        30.400          25.300
  20781193.259    20781192.500    20781190.867   -23073054.571 7 -17978995.182 7
        43.800          44.800
  20367357.168    20367356.861    20367354.007   -24236414.041 7 -18885508.055 8
        46.100          50.300
 09  1 21  0  8  0.0000000  0 10G 9G28G19G 3G 6G14G15G21G18G22
  21573675.793    21573675.263    21573674.711   -16187024.177 6 -12613257.287 6
        39.100          37.300
  25444410.596    25444410.024    25444407.446     -772538.083 2   -601977.776 1
        12.600          11.000
  22923701.042    22923699.121    22923697.161    -9881144.667 5  -7699589.198 5
        34.700          32.700
  23555576.092    23555575.017    23555575.135    -2893066.844 4  -2254334.067 4
        25.600          24.200
  23624693.863    23624693.083    23624693.403    -5034657.482 4  -3923106.006 4
        24.600          25.600
  22501750.183    22501749.825    22501748.306   -14280278.003 5 -11127484.105 4
        33.800          29.900
  24492404.548    24492406.183    24492405.134    -2203510.338 3  -1717012.178 4
        22.600          24.600
  22819807.397    22819806.915    22819804.276   -13983014.131 5 -10895849.094 4
        31.100          24.600
  20788580.133    20788579.418    20788577.665   -23034236.385 7 -17948747.240 7
        43.800          44.600
  20363330.366    20363330.057    20363326.956   -24257575.314 7 -18901997.353 8
        46.100          50.200
 09  1 21  0  8 30.0000000  0 10G 9G28G19G 3G 6G14G15G21G18G22
  21567156.749    21567156.247    21567156.043   -16221280.549 6 -12639950.550 6
        38.900          37.400
  25444243.421    25444243.181    25444241.122     -773416.737 2   -602662.481 1
        15.100          11.000
  22924467.606    22924466.167    22924464.427    -9877113.123 5  -7696447.729 5
        34.400          33.100
  23570285.872    23570285.194    23570285.553    -2815762.651 4  -2194097.040 4
        26.500          24.200
  23639744.243    23639743.675    23639744.207    -4955565.177 4  -3861475.656 4
        24.900          24.200
  22484050.059    22484049.470    22484047.809   -14373295.116 5 -11199964.960 5
        34.000          30.200
  24512571.977    24512573.082    24512572.522    -2097530.069 3  -1634430.148 4
        22.100          24.900
  22839496.176    22839495.304    22839492.845   -13879549.969 5 -10815227.673 4
        30.200          24.600
  20796036.270    20796035.669    20796033.960   -22995053.154 7 -17918214.846 7
        43.700          44.600
  20359377.550    20359377.180    20359373.841   -24278348.750 7 -18918184.439 8
        46.100          50.200
 09  1 21  0  9  0.0000000  0 10G 9G28G19G 3G 6G14G15G21G18G22
  21560770.404    21560770.118    21560769.067   -16254841.774 6 -12666102.136 6
        39.300          36.600
  25444172.924    25444171.886    25444172.361     -773782.786 1   -602947.653 1
        11.000          11.000
  22925347.155    22925346.034    22925344.027    -9872491.159 5  -7692846.201 5
        34.900          32.800
  23585063.857    23585062.883    23585062.769    -2738108.646 4  -2133587.431 4
        26.200          24.200
  23654851.347    23654851.288    23654852.044    -4876174.388 4  -3799612.698 3
        24.600          22.600
  22466405.665    22466404.993    22466403.236   -14466017.652 5 -11272216.275 5
        34.100          30.200
  24532761.327    24532760.706    24532759.853    -1991444.335 3  -1551765.946 4
        22.100          24.600
  22859234.775    22859234.038    22859231.758   -13775821.294 4 -10734400.153 4
        29.500          24.600
  20803562.091    20803561.540    20803559.908   -22955503.820 7 -17887397.179 7
        43.700          44.400
  20355498.343    20355498.036    20355494.963   -24298732.944 7 -18934068.220 8
        46.100          50.400
 09  1 21  0  9 30.0000000  0 10G 9G28G19G 3G 6G14G15G21G18G22
  21554516.853    21554516.072    21554515.352   -16287705.860 6 -12691710.513 6
        39.300          36.800
  25444201.298    25444199.231    25444198.573     -773636.003     -602833.258 1
         3.000          11.000
  22926339.418    22926338.088    22926335.815    -9867279.045 5  -7688784.808 5
        34.600          32.300
  23599907.251    23599906.051    23599905.213    -2660107.768 4  -2072807.553 4
        25.900          24.600
  23670015.545    23670015.165    23670015.396    -4796487.681 4  -3737519.158 3
        24.200          22.100
  22448817.719    22448817.134    22448815.708   -14558443.763 5 -11344236.604 5
        34.600          31.100
  24552968.750    24552967.897    24552966.912    -1885254.739 3  -1469020.813 4
        21.600          25.300
  22879023.304    22879022.876    22879020.505   -13671829.838 4 -10653367.864 4
        29.200          24.600
  20811157.805    20811157.231    20811155.248   -22915589.107 7 -17856294.804 7
        43.800          44.100
  20351693.559    20351693.227    20351690.076   -24318727.073 7 -18949648.056 8
        46.000          50.300
 09  1 21  0 10  0.0000000  0 10G 9G28G19G 3G 6G14G15G21G18G22
  21548397.081    21548396.589    21548395.919   -16319864.375 6 -12716769.089 6
        39.400          37.200
  25444328.654    25444327.150    25444324.866     -772969.403 1   -602313.864 1
         9.000          11.000
  22927444.190    22927443.057    22927441.243    -9861470.331 5  -7684258.543 5
        33.800          32.300
  23614814.904    23614814.598    23614815.278    -2581755.770 4  -2011754.056 3
        25.300          23.800
  23685236.908    23685236.421    23685235.887    -4716501.143 4  -3675192.010 3
        25.300          23.000
  22431287.383    22431286.563    22431285.772   -14650565.219 5 -11416019.536 5
        34.300          31.500
  24573195.362    24573195.604    24573194.813    -1778956.673 3  -1386191.149 4
        21.600          25.300
  22898862.975    22898862.491    22898860.152   -13567571.015 4 -10572127.243 4
        28.600          24.200
  20818823.934    20818823.294    20818821.625   -22875302.729 7 -17824902.817 7
        43.800          44.100
  20347964.506    20347964.206    20347961.121   -24338323.366 7 -18964917.894 8
        46.100          50.400
 09  1 21  0 10 30.0000000  0 10G 9G28G19G 3G 6G14G15G21G18G22
  21542410.158    21542409.748    21542409.404   -16351323.431 6 -12741282.629 6
        38.900          37.000
  25444553.931    25444553.483    25444550.392     -771790.243 1   -601394.990 1
        11.000          11.000
  22928661.779    22928660.517    22928658.784    -9855072.639 5  -7679273.322 5
        34.400          32.100
  23629789.962    23629789.686    23629790.065    -2503063.011 4  -1950435.024 3
        25.300          23.800
  23700514.605    23700513.631    23700511.946    -4636224.583 4  -3612638.868 3
        26.200          23.400
  22413813.908    22413813.427    22413812.482   -14742387.259 5 -11487569.154 5
        34.500          31.100
  24593442.483    24593442.602    24593441.163    -1672559.039 3  -1303283.897 4
        22.100          25.600
  22918751.467    22918751.026    22918748.967   -13463054.026 4 -10490685.439 3
        28.400          23.800
  20826559.468    20826558.913    20826557.176   -22834652.215 7 -17793227.086 7
        43.800          44.100
  20344309.607    20344309.324    20344306.469   -24357529.609 7 -18979883.787 8
        46.100          50.600
 09  1 21  0 11  0.0000000  0 10G 9G28G19G 3G 6G14G15G21G18G22
  21536557.108    21536556.567    21536555.793   -16382082.626 6 -12765250.817 6
        39.000          36.300
  25444874.374    25444873.662    25444871.601     -770100.249 1   -600078.078 1
         9.000           9.000
  22929990.802    22929989.624    22929987.648    -9848088.039 5  -7673830.772 5
        34.500          31.600
  23644829.465    23644828.733    23644829.475    -2424033.945 4  -1888853.960 4
        25.600          24.200
  23715843.694    23715843.124    23715842.181    -4555662.435 4  -3549863.172 3
        25.900          23.000
  22396397.990    22396397.406    22396396.327   -14833909.863 5 -11558885.459 5
        34.600          31.500
  24613708.248    24613707.774    24613705.975    -1566065.484 3  -1220301.893 4
        23.400          25.600
  22938689.491    22938688.395    22938686.653   -13358283.034 4 -10409045.730 3
        28.100          23.800
  20834363.894    20834363.204    20834361.514   -22793640.099 7 -17761269.592 7
        43.700          44.000
  20340728.852    20340728.530    20340725.585   -24376346.671 7 -18994546.430 8
        46.100          50.500
 09  1 21  0 11 30.0000000  0 10G 9G28G19G 3G 6G14G15G21G18G22
  21530837.269    21530836.838    21530836.130   -16412140.203 6 -12788672.302 6
        39.100          36.500
  25445293.534    25445293.493    25445291.755     -767899.195 1   -598362.913 2
         9.000          12.600
  22931431.670    22931430.121    22931428.393    -9840516.560 5  -7667930.919 5
        34.100          31.500
  23659932.370    23659931.627    23659931.581    -2344670.509 4  -1827012.351 4
        25.900          24.200
  23731228.446    23731227.499    23731226.767    -4474817.011 4  -3486866.753 3
        25.600          23.800
  22379038.926    22379038.427    22379037.623   -14925131.170 5 -11629966.974 5
        34.900          32.000
  24633990.250    24633990.484    24633988.977    -1459477.688 3  -1137246.475 4
        23.000          26.500
  22958674.690    22958674.024    22958671.847   -13253259.283 4 -10327209.056 3
        28.400          23.400
  20842236.980    20842236.391    20842234.753   -22752265.857 7 -17729029.917 7
        43.600          43.800
  20337222.677    20337222.265    20337219.108   -24394773.264 7 -19008904.809 8
        46.100          50.500
 09  1 21  0 12  0.0000000  0 10G 9G28G19G 3G 6G14G15G21G18G22
  21525252.012    21525251.500    21525250.859   -16441492.225 6 -12811543.987 6
        39.300          36.900
  25445808.159    25445808.674    25445809.464     -765184.078 2   -596247.287 2
        12.600          13.900
  22932984.807    22932983.277    22932981.574    -9832356.067 5  -7661572.081 5
        34.600          32.100
  23675096.935    23675096.920    23675097.619    -2264973.906 4  -1764911.119 4
        24.600          24.600
  23746666.229    23746665.838    23746665.912    -4393688.695 4  -3423649.901 4
        24.900          25.300
  22361738.141    22361737.671    22361736.909   -15016046.944 5 -11700810.413 5
        35.300          32.300
  24654290.161    24654291.494    24654290.395    -1352794.875 3  -1054117.008 4
        22.100          27.100
  22978707.928    22978707.487    22978705.489   -13147982.787 4 -10245175.424 3
        28.400          23.000
  20850179.409    20850178.764    20850177.189   -22710527.792 7 -17696506.748 7
        43.600          43.600
  20333790.713    20333790.469    20333787.370   -24412806.514 7 -19022956.686 8
        46.100          50.500
 09  1 21  0 12 30.0000000  0 10G 9G28G19G 3G 6G14G15G21G18G22
  21519801.390    21519800.880    21519799.919   -16470135.305 6 -12833863.260 6
        39.700          36.700
  25446424.153    25446423.240    25446422.667     -761953.458 1   -593729.970 1
         9.000          11.000
  22934650.131    22934648.878    22934646.744    -9823605.275 5  -7654753.289 5
        34.900          32.300
  23690327.315    23690326.430    23690326.654    -2184944.778 4  -1702550.779 4
        25.300          24.200
  23762156.750    23762156.860    23762157.427    -4312278.300 3  -3360213.254 4
        23.800          25.300
  22344496.001    22344495.821    22344494.635   -15106653.740 5 -11771413.095 5
        35.300          31.600
  24674609.013    24674610.299    24674609.615    -1246017.170 3   -970913.582 4
        21.100          27.600
  22998789.789    22998788.949    22998787.618   -13042453.724 4 -10162944.996 4
        27.900          24.200
  20858191.836    20858191.180    20858189.187   -22668424.356 7 -17663698.871 7
        44.000          43.500
  20330434.439    20330434.154    20330431.109   -24430444.116 7 -19036700.267 8
        46.100          50.500
 09  1 21  0 13  0.0000000  0 10G 9G28G19G 3G 6G14G15G21G18G22
  21514486.219    21514485.838    21514485.396   -16498064.836 6 -12855626.527 6
        39.300          36.900
  25447138.037    25447136.831    25447135.570     -758203.774 1   -590808.156 1
        11.000          11.000
  22936427.646    22936426.642    22936424.546    -9814261.193 5  -7647472.177 5
        34.400          32.300
  23705619.899    23705619.144    23705618.931    -2104582.459 4  -1639930.794 4
        25.900          24.200
  23777703.679    23777703.078    23777702.955    -4230585.070 4  -3296556.214 4
        24.600          24.600
  22327314.119    22327313.529    22327312.634   -15196946.489 5 -11841771.063 5
        35.400          32.100
  24694946.994    24694947.408    24694947.122    -1139142.939 3   -887634.944 4
        21.100          27.400
  23018919.660    23018918.969    23018917.461   -12936670.442 4 -10080516.498 3
        28.100          23.800
  20866273.605    20866272.977    20866271.389   -22625952.600 7 -17630603.991 7
        43.800          43.500
  20327154.395    20327154.015    20327150.718   -24447682.024 7 -19050132.398 8
        46.200          50.500
 09  1 21  0 13 30.0000000  0 10G 9G28G19G 3G 6G14G15G21G18G22
  21509305.870    21509305.602    21509304.880   -16525287.655 6 -12876839.094 6
        39.500          36.700
  25447950.152    25447949.388    25447946.916     -753943.275 2   -587488.281 1
        13.900           9.000
  22938317.254    22938316.114    22938314.006    -9804332.655 5  -7639735.673 5
        34.700          32.600
  23720973.083    23720972.616    23720972.666    -2023898.178 4  -1577059.934 4
        25.600          24.600
  23793301.283    23793300.696    23793300.353    -4148620.108 4  -3232687.411 3
        25.600          23.800
  22310190.084    22310189.808    22310189.197   -15286931.602 5 -11911889.303 5
        35.500          32.400
  24715301.518    24715301.621    24715300.316    -1032182.234 3   -804288.933 4
        19.900          26.800
  23039095.833    23039095.200    23039093.622   -12830643.744 4  -9997898.303 3
        27.900          23.400
  20874424.136    20874423.558    20874421.797   -22583121.470 7 -17597229.081 7
        43.800          43.400
  20323948.453    20323948.190    20323945.116   -24464528.093 7 -19063259.198 8
        46.300          50.600
 09  1 21  0 14  0.0000000  0 10G 9G28G19G 3G 6G14G15G21G18G22
  21504259.149    21504258.740    21504257.954   -16551809.140 6 -12897505.179 6
        39.500          36.500
  25448856.417    25448855.542    25448854.178     -749179.075 1   -583775.909 1
        11.000           9.000
  22940317.158    22940315.498    22940313.157    -9793827.054 5  -7631549.496 5
        35.500          32.400
  23736385.455    23736385.227    23736385.421    -1942901.860 4  -1513945.917 4
        24.600          24.600
  23808948.405    23808947.718    23808947.170    -4066392.923 4  -3168614.289 4
        25.300          24.600
  22293124.574    22293124.127    22293123.041   -15376614.384 5 -11981771.970 5
        35.900          32.400
  24735670.423    24735669.735    24735669.370     -925143.718 2   -720882.291 4
        17.800          26.200
  23059317.330    23059316.017    23059314.186   -12724382.869 4  -9915097.640 3
        27.600          22.600
  20882641.656    20882641.081    20882639.329   -22539938.181 7 -17563579.759 7
        43.800          43.300
  20320816.349    20320815.965    20320812.739   -24480988.485 7 -19076085.472 8
        46.200          50.600
 09  1 21  0 14 30.0000000  0 10G 9G28G19G 3G 6G14G15G21G18G22
  21499348.328    21499347.828    21499347.254   -16577615.508 6 -12917614.030 6
        39.300          36.700
  25449860.546    25449859.229    25449858.276     -743898.817 1   -579661.297 1
         6.500           9.000
  22942428.135    22942426.530    22942425.039    -9782732.341 5  -7622904.267 5
        35.600          33.400
  23751860.524    23751859.837    23751859.901    -1861583.881 4  -1450581.287 4
        24.900          24.900
  23824646.747    23824646.408    23824647.126    -3983893.972 3  -3104329.418 4
        23.400          25.900
  22276118.696    22276118.107    22276117.191   -15465981.069 5 -12051408.320 5
        35.800          32.600
  24756055.757    24756056.233    24756054.379     -818017.200 2   -637407.090 4
        17.800          25.600
  23079583.800    23079583.266    23079582.086   -12617876.654 4  -9832105.804 3
        28.100          22.100
  20890928.595    20890928.018    20890926.042   -22496390.776 7 -17529646.711 7
        44.000          43.200
  20317759.506    20317759.271    20317756.222   -24497050.615 7 -19088601.410 8
        46.300          50.600
 09  1 21  0 15  0.0000000  0 10G 9G28G19G 3G 6G14G15G21G18G22
  21494574.143    21494573.764    21494573.173   -16602703.675 6 -12937163.241 6
        39.300          36.800
  25450962.786    25450962.677    25450963.255     -738100.977 1   -575143.535 2
         6.500          12.600
  22944651.887    22944650.342    22944648.824    -9771047.992 6  -7613799.585 5
        36.000          33.900
  23767396.523    23767395.509    23767395.377    -1779945.450 4  -1386966.920 4
        25.600          25.300
  23840397.431    23840396.859    23840398.134    -3901124.171 3  -3039833.477 4
        22.100          25.900
  22259173.359    22259172.940    22259171.907   -15555027.925 6 -12120795.454 5
        36.000          32.300
  24776458.546    24776459.085    24776456.646     -710802.273 2   -553862.984 4
        17.000          24.900
  23099897.510    23099897.375    23099896.241   -12511126.027 4  -9748923.503 3
        28.100          22.600
  20899284.940    20899284.280    20899282.494   -22452477.809 7 -17495428.809 7
        43.900          43.100
  20314779.406    20314779.105    20314775.986   -24512712.036 7 -19100805.109 8
        46.400          50.700
 09  1 21  0 15 30.0000000  0 10G14G28G19G 3G 6G15G 9G21G18G22
  22242288.510    22242287.863    22242286.962   -15643759.180 6 -12189936.671 5
        36.000          32.400
  25452164.019    25452164.128    25452162.677     -731791.118 1   -570226.767 2
         9.000          13.900
  22946986.056    22946984.552    22946982.944    -9758779.393 5  -7604239.643 5
        35.500          33.800
  23782990.924    23782990.097    23782990.080    -1697994.978 4  -1323109.426 4
        24.900          25.600
  23856198.245    23856197.558    23856198.023    -3818092.058 3  -2975133.140 4
        21.100          24.900
  24796875.945    24796877.158    24796873.836     -603506.675 2   -470256.016 3
        16.100          23.800
  21489936.140    21489935.610    21489934.553   -16627078.181 6 -12956156.354 6
        39.300          36.900
  23120257.385    23120256.424    23120254.994   -12404138.721 4  -9665556.773 3
        27.100          21.600
  20907709.510    20907708.953    20907707.119   -22408205.775 7 -17460931.117 7
        44.000          42.900
  20311874.265    20311874.056    20311870.917   -24527978.057 7 -19112700.704 8
        46.400          50.700
 09  1 21  0 16  0.0000000  0 10G 9G28G19G 3G 6G14G15G21G18G22
  21485433.387    21485433.035    21485432.723   -16650738.478 6 -12974592.937 6
        39.300          37.300
  25453461.328    25453461.549    25453460.063     -724970.133 1   -564911.724 2
         9.000          12.600
  22949431.654    22949430.002    22949428.526    -9745928.126 5  -7594225.664 5
        35.300          33.900
  23798643.719    23798643.135    23798643.118    -1615735.849 4  -1259011.434 4
        24.200          24.900
  23872048.476    23872047.538    23872047.867    -3734800.919 3  -2910230.979 4
        22.100          24.600
  22225463.791    22225463.239    22225462.220   -15732173.639 6 -12258831.029 5
        36.300          33.000
  24817309.094    24817310.185    24817305.961     -496132.634 2   -386587.924 3
        17.000          22.600
  23140661.175    23140660.049    23140658.579   -12296917.569 4  -9582007.839 3
        26.200          21.600
  20916202.310    20916201.685    20916200.024   -22363575.488 7 -17426154.270 7
        43.900          43.000
  20309044.660    20309044.389    20309041.158   -24542848.742 7 -19124288.242 8
        46.500          50.600
 09  1 21  0 16 30.0000000  0 10G28G19G 3G 6G14G15G 9G21G18G22
  25454854.567    25454857.013    25454854.482     -717640.049     -559199.964 1
         3.000           9.000
  22951987.264    22951985.852    22951984.031    -9732496.614 5  -7583759.551 5
        35.500          33.600
  23814356.088    23814355.446    23814354.536    -1533172.600 4  -1194676.439 4
        24.600          25.300
  23887947.925    23887946.778    23887946.279    -3651255.175 3  -2845130.406 4
        23.400          24.200
  22208699.465    22208698.891    22208697.698   -15820271.588 6 -12327478.750 5
        36.500          33.100
  24837756.928    24837756.697    24837753.139     -388683.887 2   -302861.626 3
        16.100          21.600
  21481066.993    21481066.480    21481065.560   -16673684.598 6 -12992473.023 6
        39.300          36.600
  23161107.735    23161107.101    23161105.660   -12189466.191 4  -9498279.517 3
        26.200          21.600
  20924763.050    20924762.386    20924760.559   -22318589.362 7 -17391100.142 7
        44.000          42.700
  20306289.793    20306289.499    20306286.153   -24557325.433 7 -19135568.775 8
        46.400          50.600
 09  1 21  0 17  0.0000000  0 10G14G28G19G 3G 6G15G 9G21G18G22
  22191993.205    22191992.714    22191991.410   -15908063.342 6 -12395887.891 5
        36.500          33.000
  25456347.505    25456346.482    25456343.860     -709812.662 1   -553100.710 1
         9.000          11.000
  22954651.652    22954650.143    22954648.224    -9718497.093 6  -7572850.849 5
        36.000          33.500
  23830122.040    23830121.156    23830120.691    -1450320.492 4  -1130116.372 4
        24.600          25.300
  23903889.452    23903888.934    23903889.891    -3567469.511 3  -2779842.881 4
        23.000          24.600
  24858215.822    24858215.062    24858211.698     -281174.050 2   -219087.723 3
        16.100          21.100
  21476834.657    21476834.057    21476833.367   -16695927.526 6 -13009805.163 6
        39.700          37.000
  23181597.222    23181595.908    23181593.751   -12081798.444 4  -9414382.592 3
        26.200          22.100
  20933388.947    20933388.284    20933386.476   -22273259.586 7 -17355778.233 7
        44.000          42.700
  20303607.818    20303607.485    20303604.254   -24571419.371 7 -19146551.057 8
        46.300          50.600
 09  1 21  0 17 30.0000000  0 10G14G28G19G 3G 6G15G 9G21G18G22
  22175351.930    22175351.443    22175350.026   -15995514.287 6 -12464031.463 5
        37.000          33.400
  25457936.617    25457936.462    25457934.668     -701455.649 2   -546588.851 2
        12.600          12.600
  22957429.903    22957428.688    22957426.561    -9703897.847 5  -7561474.809 5
        35.900          33.900
  23845947.960    23845947.587    23845947.553    -1367149.553 4  -1065307.850 4
        24.600          24.900
  23919885.082    23919884.661    23919885.063    -3483414.154 4  -2714345.213 4
        24.200          24.200
  24878691.063    24878691.033    24878687.894     -173572.158 2   -135242.084 3
        15.100          21.100
  21472742.096    21472741.550    21472740.726   -16717433.400 6 -13026562.977 6
        39.700          36.800
  23202131.624    23202131.007    23202128.899   -11973884.224 4  -9330293.615 3
        26.200          21.100
  20942086.495    20942085.900    20942083.959   -22227553.995 7 -17320163.487 7
        44.100          42.600
  20301004.867    20301004.527    20301001.493   -24585097.306 7 -19157209.182 8
        46.300          50.700
 09  1 21  0 18  0.0000000  0 10G14G28G19G 3G 6G15G 9G21G18G22
  22158771.006    22158770.709    22158769.965   -16082643.551 6 -12531924.380 5
        36.600          33.500
  25459620.234    25459621.477    25459623.431     -692589.976     -539680.544 2
         3.000          13.900
  22960317.543    22960316.341    22960314.606    -9688720.227 5  -7549648.095 5
        35.400          33.600
  23861830.699    23861830.655    23861830.736    -1283683.060 3  -1000269.053 4
        23.400          24.600
  23935927.654    23935927.019    23935927.013    -3399112.250 4  -2648655.433 3
        24.200          23.800
  24899180.405    24899180.225    24899177.164      -65900.624 2    -51342.159 3
        15.100          20.500
  21468785.868    21468785.335    21468784.934   -16738221.585 6 -13042761.552 6
        39.300          37.100
  23222708.977    23222709.293    23222707.031   -11865746.005 4  -9246030.079 3
        26.500          20.500
  20950851.406    20950850.773    20950849.030   -22181493.859 7 -17284272.464 7
        44.000          42.600
  20298477.418    20298477.124    20298473.987   -24598379.323 7 -19167558.798 8
        46.600          50.700
 09  1 21  0 18 30.0000000  0 10G14G28G19G 3G 6G15G 9G21G18G22
  22142253.611    22142253.156    22142252.162   -16169442.648 6 -12599560.025 5
        36.500          33.200
  25461407.980    25461408.028    25461408.681     -683208.919     -532370.590 1
         3.000          11.000
  22963317.180    22963315.936    22963313.950    -9672958.037 6  -7537365.884 5
        36.000          33.400
  23877771.178    23877770.580    23877771.082    -1199917.412 3   -934997.144 4
        23.400          24.600
  23952016.900    23952016.394    23952016.937    -3314559.734 3  -2582770.373 3
        23.400          23.800
  24919683.447    24919683.253    24919680.517       41845.526 2     32615.884 3
        15.100          19.900
  21464968.107    21464967.762    21464967.139   -16758284.104 6 -13058394.679 6
        39.500          37.200
  23243330.716    23243330.739    23243328.777   -11757379.361 4  -9161588.538 3
        26.800          21.100
  20959684.908    20959684.282    20959682.490   -22135072.833 7 -17248100.237 7
        44.000          42.200
  20296026.789    20296026.381    20296023.183   -24611258.275 7 -19177594.342 8
        46.500          50.700
 09  1 21  0 19  0.0000000  0 10G14G28G19G 3G 6G15G 9G21G18G22
  22125798.250    22125797.719    22125796.372   -16255918.446 6 -12666943.742 5
        36.800          33.400
  25463291.717    25463291.473    25463289.425     -673320.921 1   -524665.649 1
        11.000           6.500
  22966426.462    22966424.955    22966423.131    -9656620.077 5  -7524635.006 5
        35.700          33.100
  23893766.434    23893765.530    23893766.202    -1115863.228 3   -869500.399 4
        22.600          24.900
  23968152.037    23968152.304    23968152.876    -3229767.805 3  -2516698.743 3
        23.000          23.800
  24940199.733    24940199.633    24940196.469      149656.672 2    116624.579 3
        16.100          20.500
  21461287.080    21461286.541    21461286.200   -16777628.442 6 -13073468.179 6
        39.500          37.300
  23263994.998    23263994.078    23263992.082   -11648794.420 4  -9076976.913 3
        26.500          21.100
  20968585.586    20968585.001    20968583.058   -22088299.383 7 -17211653.386 6
        43.900          41.900
  20293651.094    20293650.851    20293647.642   -24623741.879 7 -19187321.817 8
        46.600          50.800
 09  1 21  0 19 30.0000000  0 10G14G28G19G 3G 6G15G 9G21G18G22
  22109404.211    22109403.538    22109402.150   -16342071.290 6 -12734075.814 5
        36.900          33.800
  25465269.183    25465268.857    25465266.321     -662928.424 1   -516567.612 1
        11.000          11.000
  22969643.699    22969642.396    22969640.688    -9639709.732 5  -7511458.104 5
        34.400          32.300
  23909815.329    23909814.791    23909814.919    -1031526.272 3   -803783.332 3
        23.000          23.400
  23984331.653    23984331.866    23984332.200    -3144741.304 3  -2450444.361 3
        22.100          22.100
  24960727.557    24960727.231    24960723.772      257528.132 2    200680.268 3
        17.000          19.900
  21457742.516    21457742.071    21457741.390   -16796255.678 6 -13087982.901 6
        40.000          37.100
  23284697.681    23284697.716    23284695.645   -11539995.627 4  -8992198.653 3
        26.200          21.100
  20977553.132    20977552.510    20977550.381   -22041176.409 7 -17174934.177 7
        44.100          42.100
  20291350.410    20291350.089    20291346.953   -24635832.084 7 -19196742.752 8
        46.500          50.800
 09  1 21  0 20  0.0000000  0 10G28G19G 3G 6G14G15G 9G21G18G22
  25467343.108    25467342.835    25467343.002     -652027.085 1   -508073.097 2
         9.000          13.900
  22972970.638    22972969.790    22972968.188    -9622222.587 5  -7497831.763 5
        33.800          31.500
  23925917.631    23925917.858    23925917.533     -946904.405 3   -737844.220 3
        23.800          21.600
  24000557.420    24000556.610    24000557.405    -3059478.174 3  -2384005.581 3
        22.100          20.500
  22093072.432    22093071.813    22093070.550   -16427894.930 6 -12800951.353 5
        37.200          33.900
  24981266.123    24981266.348    24981263.249      365463.690 2    284785.898 3
        17.800          19.900
  21454335.497    21454334.977    21454334.321   -16814159.989 6 -13101934.302 6
        40.000          36.900
  23305443.620    23305442.886    23305440.874   -11430980.074 4  -8907251.479 3
        25.900          21.100
  20986587.534    20986586.964    20986584.989   -21993699.636 7 -17137939.290 7
        44.100          42.200
  20289125.634    20289125.324    20289122.058   -24647523.426 7 -19205852.881 8
        46.500          50.700
 09  1 21  0 20 30.0000000  0 10G28G19G 3G 6G14G15G 9G21G18G22
  25469512.690    25469511.812    25469511.839     -640617.395 1   -499182.436 1
         9.000          11.000
  22976409.272    22976407.791    22976405.432    -9604159.856 5  -7483756.901 5
        34.700          31.600
  23942074.720    23942074.370    23942073.995     -862000.841 3   -671685.596 3
        23.800          20.500
  24016826.320    24016826.412    24016826.557    -2973981.565 3  -2317384.851 3
        22.100          20.500
  22076803.129    22076802.757    22076801.737   -16513388.129 6 -12867569.417 5
        37.100          33.900
  25001816.913    25001817.115    25001814.538      473461.234 2    368939.843 3
        17.800          18.600
  21451066.252    21451065.711    21451064.779   -16831340.467 6 -13115321.674 6
        40.100          36.500
  23326229.467    23326228.885    23326226.649   -11321750.263 4  -8822137.356 3
        26.500          21.100
  20995689.199    20995688.650    20995686.511   -21945869.906 7 -17100669.367 7
        44.100          42.000
  20286976.804    20286976.466    20286973.341   -24658815.569 7 -19214651.948 8
        46.600          50.900
 09  1 21  0 21  0.0000000  0 10G28G19G 3G 6G14G15G 9G21G18G22
  25471780.384    25471779.805    25471778.001     -628699.436 1   -489895.705 1
        11.000           9.000
  22979955.506    22979954.085    22979952.151    -9585522.045 5  -7469233.928 5
        34.400          32.000
  23958284.670    23958284.003    23958283.930     -776817.774 3   -605309.191 3
        23.000          19.900
  24033138.893    24033139.691    24033139.718    -2888253.889 3  -2250584.085 3
        21.600          20.500
  22060597.296    22060597.011    22060596.163   -16598548.964 6 -12933928.489 5
        37.200          34.100
  25022380.756    25022380.137    25022376.829      581519.275 2    453140.923 3
        17.800          18.600
  21447934.622    21447934.354    21447933.421   -16847796.123 6 -13128144.258 6
        40.000          36.500
  23347055.766    23347054.935    23347052.609   -11212308.385 4  -8736857.990 3
        26.200          21.600
  21004857.877    21004857.271    21004855.454   -21897687.432 7 -17063124.573 6
        44.000          41.900
  20284904.017    20284903.725    20284900.551   -24669708.003 7 -19223139.553 8
        46.600          50.900
 09  1 21  0 21 30.0000000  0 10G28G19G 3G 6G14G15G 9G21G18G22
  25474146.856    25474146.526    25474143.157     -616274.954 2   -480214.293 1
        16.100          11.000
  22983611.274    22983609.623    22983608.060    -9566311.376 5  -7454264.582 5
        33.400          32.600
  23974546.438    23974545.957    23974545.900     -691360.158 3   -538718.830 3
        22.600          19.900
  24049497.251    24049497.028    24049497.245    -2802299.037 3  -2183606.301 3
        22.100          21.100
  22044455.461    22044454.982    22044453.814   -16683376.977 6 -13000028.227 5
        37.500          34.100
  25042955.614    25042954.794    25042950.489      689635.083 2    537387.000 2
        16.100          17.800
  21444941.058    21444940.735    21444939.936   -16863527.070 6 -13140402.131 6
        39.800          36.800
  23367921.268    23367920.807    23367918.802   -11102657.503 4  -8651415.761 3
        26.200          22.100
  21014093.275    21014092.810    21014091.275   -21849153.676 7 -17025306.056 7
        43.900          42.000
  20282907.245    20282906.956    20282903.731   -24680201.332 7 -19231316.167 8
        46.600          50.900
 09  1 21  0 22  0.0000000  0 10G28G19G 3G 6G14G15G 9G21G18G22
  25476608.803    25476607.630    25476605.235     -603339.678 2   -470134.832 1
        12.600          11.000
  22987377.272    22987375.807    22987373.887    -9546524.067 5  -7438845.893 5
        34.400          33.400
  23990861.291    23990860.555    23990860.566     -605625.632 3   -471912.716 3
        23.000          19.900
  24065897.302    24065897.038    24065897.920    -2716115.464 3  -2116450.271 3
        23.000          21.600
  22028377.923    22028377.358    22028376.197   -16767866.055 6 -13065863.855 5
        37.600          34.400
  25063539.723    25063539.229    25063535.829      797810.983 2    621679.909 2
        15.100          17.000
  21442086.497    21442086.111    21442085.285   -16878527.979 6 -13152091.138 6
        39.800          37.000
  23388827.091    23388826.516    23388824.965   -10992795.377 4  -8565808.922 3
        24.600          22.100
  21023396.740    21023396.184    21023394.462   -21800264.859 7 -16987210.872 6
        43.900          41.900
  20280987.412    20280987.053    20280983.842   -24690290.574 7 -19239177.906 8
        46.500          51.000
 09  1 21  0 22 30.0000000  0 10G28G19G 3G 6G14G15G 9G21G18G22
  25479168.263    25479166.064    25479165.630     -589891.079 1   -459655.399 2
         6.500          13.900
  22991252.393    22991250.994    22991249.378    -9526158.317 5  -7422976.483 5
        34.700          33.400
  24007228.678    24007228.176    24007227.412     -519614.859 3   -404891.362 3
        23.400          20.500
  24082340.871    24082341.172    24082341.370    -2629703.219 3  -2049116.052 3
        22.100          21.600
  22012365.200    22012364.788    22012363.935   -16852011.962 6 -13131432.081 5
        37.700          34.600
  25084134.500    25084136.092    25084132.470      906048.224 2    706020.627 2
        13.900          16.100
  21439371.467    21439371.026    21439370.491   -16892795.519 6 -13163208.692 6
        39.700          37.000
  23409773.324    23409772.621    23409771.117   -10882721.618 3  -8480037.189 3
        23.400          21.100
  21032767.947    21032767.324    21032765.699   -21751018.690 7 -16948837.233 6
        43.700          41.800
  20279144.507    20279144.360    20279141.230   -24699972.767 7 -19246722.467 8
        46.500          50.900
 09  1 21  0 23  0.0000000  0 10G28G19G 3G 6G14G15G 9G21G18G22
  25481823.431    25481821.796    25481820.497     -575937.805 2   -448782.737 2
        12.600          12.600
  22995236.159    22995234.911    22995233.143    -9505222.800 5  -7406663.101 5
        34.500          32.800
  24023646.403    24023646.221    24023646.013     -433338.476 3   -337663.035 3
        23.000          21.100
  24098826.775    24098825.764    24098826.212    -2543072.710 3  -1981611.782 3
        22.100          21.600
  21996417.039    21996416.368    21996415.503   -16935821.125 6 -13196737.904 5
        37.700          34.700
  25104740.440    25104740.965    25104739.083     1014337.258 2    790401.719 2
        12.600          15.100
  21436794.881    21436794.424    21436793.845   -16906336.363 6 -13173759.992 6
        40.200          37.200
  23430757.988    23430757.414    23430756.286   -10772445.883 3  -8394108.069 3
        23.400          21.600
  21042205.666    21042205.080    21042203.356   -21701423.507 7 -16910191.634 6
        43.800          41.600
  20277378.320    20277378.027    20277374.972   -24709255.396 7 -19253955.678 8
        46.600          51.000
 09  1 21  0 23 30.0000000  0 10G28G19G 3G 6G14G15G 9G21G18G22
  25484575.524    25484573.251    25484572.151     -561480.402 2   -437517.282 2
        12.600          12.600
  22999328.322    22999326.848    22999325.070    -9483718.987 5  -7389906.877 5
        34.500          32.300
  24040114.004    24040113.209    24040114.260     -346799.596 3   -270230.152 3
        21.600          20.500
  24115352.044    24115352.140    24115352.869    -2456227.220 3  -1913939.984 3
        21.100          21.100
  21980532.509    21980532.204    21980531.199   -17019292.432 6 -13261780.462 5
        37.800          34.700
  25125356.108    25125357.004    25125354.534     1122676.114 1    874821.622 2
         6.500          12.600
  21434356.541    21434356.019    21434355.383   -16919150.094 6 -13183744.712 6
        40.100          37.200
  23451780.161    23451780.140    23451779.083   -10661970.972 3  -8308023.760 3
        23.400          21.100
  21051709.703    21051709.100    21051707.314   -21651480.266 7 -16871274.819 6
        44.000          41.600
  20275688.029    20275687.754    20275684.622   -24718138.109 7 -19260877.269 8
        46.600          51.000
 09  1 21  0 24  0.0000000  0 10G28G19G 3G 6G14G15G 9G21G18G22
  25487422.583    25487419.110    25487418.895     -546516.531 1   -425857.217 2
         6.500          12.600
  23003529.089    23003527.500    23003526.054    -9461644.775 5  -7372706.193 5
        35.200          33.000
  24056632.802    24056631.691    24056632.243     -259998.144 3   -202592.679 3
        22.100          21.100
  24131919.979    24131919.572    24131919.228    -2369166.601 3  -1846100.540 3
        20.500          20.500
  21964713.829    21964713.581    21964712.236   -17102421.117 6 -13326556.049 5
        38.300          34.700
  25145980.254    25145982.142    25145980.387     1231066.224      959281.444 1
         3.000          11.000
  21432056.914    21432056.627    21432055.911   -16931233.052 6 -13193159.991 6
        40.000          36.900
  23472841.615    23472840.999    23472839.785   -10551295.837 4  -8221783.400 3
        24.600          19.900
  21061279.912    21061279.365    21061277.739   -21601186.673 7 -16832084.998 6
        43.600          41.300
  20274074.438    20274074.116    20274070.918   -24726617.496 7 -19267484.575 8
        46.500          50.900
 09  1 21  0 24 30.0000000  0 10G28G19G 3G 6G14G15G 9G21G18G22
  25490366.190    25490364.676    25490363.305     -531047.423 1   -413803.266 2
        11.000          12.600
  23007837.917    23007836.470    23007834.604    -9439002.201 5  -7355062.624 5
        35.900          32.800
  24073199.401    24073198.795    24073198.411     -172938.364 3   -134753.908 3
        22.100          21.100
  24148527.878    24148527.328    24148526.643    -2281894.492 3  -1778096.324 3
        20.500          22.100
  21948960.653    21948960.072    21948958.404   -17185207.092 6 -13391064.584 5
        38.400          34.600
  25166615.685    25166620.500    25166614.940     1339504.661     1043778.971 1
                        11.000
  21429896.684    21429896.223    21429895.549   -16942585.562 6 -13202006.096 6
        39.800          36.600
  23493939.652    23493939.068    23493938.046   -10440423.693 4  -8135389.522 3
        24.200          19.900
  21070917.146    21070916.492    21070914.791   -21550543.946 7 -16792623.135 6
        43.600          41.400
  20272537.360    20272537.075    20272533.894   -24734694.226 7 -19273778.131 8
        46.400          50.900
 09  1 21  0 25  0.0000000  0 10G28G19G 3G 6G14G15G 9G21G18G22
  25493405.304    25493404.077    25493400.973     -515078.263 2   -401359.710 1
        15.100          11.000
  23012253.098    23012252.115    23012249.708    -9415797.003 5  -7336980.653 5
        35.300          32.100
  24089812.625    24089812.255    24089812.384      -85627.935 3    -66719.849 3
        21.100          19.900
  24165171.675    24165171.993    24165173.147    -2194418.371 3  -1709933.121 3
        18.600          22.600
  21933271.743    21933271.138    21933269.703   -17267653.036 6 -13455308.157 5
        38.700          34.700
  25187261.608    25187261.400    25187258.452     1447985.217     1128309.276 1
                        11.000
  21427874.727    21427874.358    21427873.590   -16953211.638 6 -13210286.147 6
        40.000          36.800
  23515073.484    23515073.392    23515072.733   -10329361.384 3  -8048847.471 3
        23.800          19.900
  21080619.575    21080618.941    21080617.032   -21499557.563 7 -16752893.482 6
        43.600          41.100
  20271076.358    20271076.031    20271072.870   -24742372.631 7 -19279761.294 8
        46.600          51.000
 09  1 21  0 25 30.0000000  0 10G28G19G 3G 6G14G15G 9G21G18G22
  25496537.219    25496535.980    25496536.603     -498604.778 1   -388523.282 1
         9.000           9.000
  23016776.625    23016775.742    23016773.757    -9392024.734 5  -7318456.809 5
        34.300          32.600
  24106475.829    24106475.839    24106475.730        1935.572 3      1511.435 3
        22.600          21.100
  24181858.373    24181857.686    24181858.498    -2106735.911 3  -1641609.144 3
        18.600          22.600
  21917648.499    21917648.009    21917646.889   -17349752.318 6 -13519281.615 5
        38.900          35.200
  25207914.718    25207912.826    25207912.170     1556511.645     1212875.316 1
         3.000          11.000
  21425991.958    21425991.400    21425990.917   -16963105.366 6 -13217995.539 6
        39.800          36.900
  23536245.499    23536244.730    23536243.982   -10218106.021 3  -7962154.997 3
        23.000          20.500
  21090388.399    21090387.725    21090385.817   -21448222.670 7 -16712892.262 6
        43.600          41.000
  20269692.165    20269691.848    20269688.571   -24749647.099 7 -19285429.707 8
        46.700          51.000
 09  1 21  0 26  0.0000000  0 10G28G19G 3G 6G14G15G 9G21G18G22
  25499770.297    25499769.404    25499768.071     -481620.244 1   -375288.576 1
         9.000          11.000
  23021410.077    23021408.582    23021406.779    -9367679.798 5  -7299486.745 5
        34.300          33.500
  24123188.195    24123188.042    24123187.346       89756.397 3     69943.235 3
        23.000          21.100
  24198585.141    24198584.496    24198583.665    -2018842.977 3  -1573121.160 3
        19.900          21.600
  21902093.073    21902092.576    21902091.504   -17431496.767 6 -13582978.569 5
        38.900          35.400
  25228578.923    25228577.817    25228572.875     1665088.899     1297480.945 1
                         9.000
  21424250.008    21424249.512    21424248.970   -16972259.308 6 -13225128.469 6
        40.000          36.900
  23557454.386    23557453.626    23557452.834   -10106652.763 3  -7875308.331 3
        22.600          20.500
  21100224.357    21100223.795    21100222.063   -21396532.993 7 -16672614.594 6
        43.500          40.900
  20268386.222    20268385.888    20268382.562   -24756510.293 7 -19290777.645 8
        46.800          51.000
 09  1 21  0 26 30.0000000  0 10G28G19G 3G 6G14G15G 9G21G18G22
  25503098.460    25503097.760    25503096.428     -464131.708 1   -361661.140 1
         9.000          11.000
  23026150.443    23026149.011    23026146.654    -9342769.970 5  -7280076.486 5
        34.000          33.100
  24139947.677    24139946.913    24139945.826      177824.841 3    138568.013 3
        23.000          21.100
  24215348.492    24215348.353    24215347.013    -1930748.937 3  -1504476.484 3
        21.600          21.100
  21886604.425    21886603.820    21886602.345   -17512891.092 6 -13646402.706 5
        38.900          35.200
  25249248.948    25249246.800    25249245.250     1773708.791     1382119.769 1
                         9.000
  21422648.378    21422647.750    21422646.629   -16980679.316 6 -13231689.510 6
        40.600          36.600
  23578699.603    23578698.860    23578697.908    -9995010.235 3  -7788314.163 3
        22.600          20.500
  21110126.567    21110126.058    21110124.378   -21344495.596 7 -16632065.965 6
        43.400          40.700
  20267157.134    20267156.862    20267153.647   -24762968.217 7 -19295809.784 8
        46.700          51.000
 09  1 21  0 27  0.0000000  0 10G28G19G 3G 6G14G15G 9G21G18G22
  25506520.069    25506518.848    25506518.325     -446145.084 1   -347645.622 1
         6.500           9.000
  23030996.455    23030994.915    23030993.179    -9317301.070 5  -7260230.601 5
        33.000          32.700
  24156751.293    24156750.893    24156750.684      266132.833 3    207379.415 3
        22.600          21.100
  24232147.871    24232148.037    24232147.901    -1842461.642 3  -1435681.216 3
        21.600          21.100
  21871181.262    21871180.843    21871179.286   -17593939.254 6 -13709557.102 5
        39.100          35.300
  25269923.785    25269924.676    25269918.250     1882364.996     1466786.926 1
                         9.000
  21421183.696    21421183.451    21421183.148   -16988370.116 6 -13237682.336 6
        39.800          36.700
  23599979.460    23599978.386    23599977.468    -9883185.743 3  -7701178.225 3
        22.600          21.100
  21120094.199    21120093.577    21120091.726   -21292116.379 7 -16591250.984 6
        43.400          40.600
  20266004.363    20266004.077    20266000.931   -24769025.688 7 -19300529.888 8
        46.600          51.100
 09  1 21  0 27 30.0000000  0 10G28G19G 3G 6G14G15G 9G21G18G22
  25510037.830    25510037.361    25510033.958     -427666.042 2   -333246.384 1
        12.600           9.000
  23035947.885    23035946.387    23035945.006    -9291279.583 5  -7239954.122 5
        33.000          32.400
  24173600.909    24173600.167    24173599.630      354672.289 4    276371.184 3
        24.200          20.500
  24248984.153    24248984.364    24248983.710    -1753989.194 3  -1366741.650 3
        21.600          22.100
  21855823.422    21855823.079    21855821.665   -17674644.736 6 -13772444.469 5
        39.300          35.500
  25290607.081    25290604.275    25290602.508     1991050.607     1551476.975 1
                         6.500
  21419858.788    21419858.225    21419857.762   -16995336.207 6 -13243110.453 6
        40.000          37.200
  23621291.824    23621291.158    23621289.969    -9771187.069 3  -7613906.566 3
        22.600          20.500
  21130125.384    21130124.868    21130123.235   -21239400.852 7 -16550173.949 6
        43.300          40.500
  20264927.043    20264926.740    20264923.529   -24774687.417 7 -19304941.619 8
        46.600          51.100
 09  1 21  0 28  0.0000000  0 10G28G19G 3G 6G14G15G 9G21G18G22
  25513649.794    25513648.970    25513648.310     -408684.012 1   -318455.202 2
         9.000          13.900
  23041007.026    23041005.375    23041003.638    -9264695.370 5  -7219239.152 5
        33.500          32.000
  24190494.655    24190493.972    24190494.105      443451.677 4    345549.909 3
        24.200          20.500
  24265856.848    24265856.513    24265856.693    -1665322.900 3  -1297651.049 3
        20.500          22.100
  21840533.278    21840532.967    21840531.690   -17754994.965 6 -13835055.029 5
        39.300          35.700
  25311293.120    25311296.627    25311295.967     2099774.980     1636196.164 1
                         6.500
  21418673.574    21418672.919    21418672.005   -17001566.016 6 -13247964.834 6
        40.200          36.800
  23642639.278    23642638.437    23642637.499    -9659004.798 3  -7526491.842 3
        22.100          19.900
  21140223.090    21140222.441    21140220.781   -21186338.341 7 -16508826.534 6
        43.300          40.400
  20263927.193    20263926.847    20263923.505   -24779941.884 7 -19309036.004 8
        46.600          51.000
 09  1 21  0 28 30.0000000  0 10G28G19G 3G 6G14G15G 9G21G18G22
  25517357.968    25517357.864    25517356.210     -389194.698 1   -303268.624 2
         9.000          12.600
  23046173.491    23046172.227    23046170.654    -9237544.665 5  -7198082.777 5
        34.000          32.000
  24207433.055    24207433.139    24207434.077      532472.802 3    414916.999 3
        22.600          20.500
  24282766.153    24282765.794    24282767.188    -1576460.731 3  -1228407.808 3
        19.300          22.600
  21825312.023    21825311.596    21825310.527   -17834983.442 6 -13897383.698 6
        39.200          36.100
  25331990.868    25331985.653    25331987.851     2208541.454     1720945.772 1
                         6.500
  21417628.900    21417628.317    21417627.437   -17007054.007 6 -13252241.178 6
        40.000          36.400
  23664021.925    23664021.366    23664019.949    -9546636.068 3  -7438931.815 3
        21.600          18.600
  21150387.411    21150386.890    21150385.041   -21132924.541 7 -16467205.389 6
        43.400          40.300
  20263005.756    20263005.470    20263002.327   -24784783.493 7 -19312808.685 8
        46.700          51.100
 09  1 21  0 29  0.0000000  0  9G28G19G 3G 6G14G 9G21G18G22
  25521161.855    25521160.696    25521160.144     -369208.733 2   -287695.098 2
        13.900          12.600
  23051446.275    23051444.681    23051442.453    -9209839.155 5  -7176494.070 5
        34.400          31.500
  24224417.118    24224417.555    24224417.740      621722.363 3    484462.081 3
        22.100          21.600
  24299711.537    24299711.788    24299711.794    -1487415.917 3  -1159022.270 3
        19.900          21.600
  21810157.847    21810157.424    21810156.098   -17914619.320 6 -13959437.604 6
        39.400          36.000
  21416723.977    21416723.366    21416722.503   -17011810.179 6 -13255947.291 6
        40.500          36.500
  23685438.902    23685437.638    23685435.593    -9434093.630 3  -7351236.423 2
        21.600          17.800
  21160616.434    21160615.836    21160614.171   -21079170.359 7 -16425319.009 6
        43.200          40.200
  20262161.066    20262160.786    20262157.690   -24789222.573 7 -19316267.698 8
        46.600          51.200
 09  1 21  0 29 30.0000000  0  9G28G19G 3G 6G14G 9G21G18G22
  25525057.420    25525056.699    25525057.383     -348734.414 1   -271741.121 2
        11.000          12.600
  23056821.744    23056820.440    23056819.137    -9181586.847 5  -7154479.278 5
        33.800          31.800
  24241444.000    24241442.979    24241442.641      711190.317 3    554177.351 3
        22.100          20.500
  24316688.564    24316688.811    24316689.243    -1398198.124 3  -1089501.927 3
        19.300          20.500
  21795070.063    21795069.394    21795067.891   -17993907.874 6 -14021220.880 6
        39.700          36.000
  21415956.380    21415956.124    21415955.508   -17015841.186 6 -13259088.318 6
        40.100          36.500
  23706886.341    23706885.224    23706882.994    -9321386.476 3  -7263412.699 2
        21.600          17.800
  21170908.636    21170908.029    21170906.341   -21025083.478 7 -16383173.394 6
        43.100          39.800
  20261391.581    20261391.288    20261388.338   -24793265.640 7 -19319418.139 8
        46.600          51.200
 09  1 21  0 30  0.0000000  0  9G28G19G 3G 6G14G 9G21G18G22
  25529046.536    25529045.572    25529045.848     -327766.741 1   -255402.594 1
         6.500          11.000
  23062303.548    23062302.297    23062300.311    -9152783.590 5  -7132035.161 5
        34.600          32.400
  24258511.412    24258509.904    24258509.406      800879.545 3    624065.063 3
        19.900          19.900
  24333699.587    24333699.366    24333699.642    -1308804.872 3  -1019844.859 3
        18.600          19.300
  21780048.673    21780048.459    21780047.417   -18072842.305 6 -14082728.216 6
        39.700          36.500
  21415328.750    21415328.274    21415326.861   -17019141.323 6 -13261659.856 5
        40.200          35.700
  23728364.532    23728364.143    23728362.574    -9208511.463 3  -7175458.158 2
        21.600          17.000
  21181265.405    21181264.855    21181262.960   -20970658.932 7 -16340764.649 6
        43.200          39.800
  20260698.708    20260698.452    20260695.276   -24796907.012 7 -19322255.566 8
        46.700          51.200
 09  1 21  0 30 30.0000000  0  9G28G19G 3G 6G14G 9G21G18G22
  25533135.691    25533134.465    25533132.533     -306287.300     -238665.330 1
         3.000           6.500
  23067892.594    23067891.128    23067888.843    -9123411.775 5  -7109148.033 5
        34.400          31.300
  24275622.407    24275622.172    24275622.160      890805.449 3    694137.180 3
        18.600          19.300
  24350747.985    24350747.395    24350747.066    -1219219.667 3   -950038.222 3
        18.600          18.600
  21765099.396    21765098.980    21765098.033   -18151402.107 6 -14143943.627 6
        39.700          36.600
  21414843.610    21414843.009    21414842.106   -17021691.031 6 -13263646.641 6
        40.200          36.400
  23749878.923    23749879.119    23749877.209    -9095451.693 3  -7087359.640 2
        22.100          17.000
  21191690.093    21191689.350    21191687.515   -20915878.283 7 -16298078.430 6
        43.300          39.900
  20260085.892    20260085.606    20260082.453   -24800127.177 7 -19324764.781 8
        46.600          51.100
 09  1 21  0 31  0.0000000  0  9G28G19G 3G 6G14G 9G21G18G22
  25537319.131    25537317.870    25537318.672     -284304.036 1   -221535.535 2
         9.000          12.600
  23073588.067    23073587.005    23073584.686    -9093479.498 5  -7085824.186 5
        34.400          31.100
  24292778.791    24292778.585    24292777.617      980958.737 3    764386.486 3
        19.300          19.300
  24367828.112    24367828.767    24367829.448    -1129452.658 2   -880089.910 3
        17.000          18.600
  21750220.318    21750219.851    21750218.776   -18229592.916 6 -14204871.520 6
        40.000          36.700
  21414499.763    21414499.269    21414498.761   -17023497.202 6 -13265054.034 6
        40.100          36.900
  23771427.050    23771426.866    23771425.099    -8982216.592 3  -6999124.491 2
        21.100          16.100
  21202180.806    21202180.130    21202178.080   -20860749.152 7 -16255120.660 6
        43.200          39.600
  20259552.102    20259551.819    20259548.644   -24802932.780 7 -19326950.961 8
        46.700          51.100
 09  1 21  0 31 30.0000000  0  9G28G19G 3G 6G14G 9G21G18G22
  25541596.471    25541595.286    25541594.695     -261829.048 1   -204022.531 2
         6.500          12.600
  23079388.532    23079387.369    23079384.988    -9062999.620 5  -7062073.644 5
        34.400          31.800
  24309974.910    24309974.468    24309974.195     1071324.549 3    834801.387 3
        19.300          20.500
  24384943.316    24384942.864    24384942.918    -1039517.958 2   -810010.938 2
        17.000          17.800
  21735409.001    21735408.562    21735407.864   -18307424.786 6 -14265519.717 6
        39.700          36.800
  21414295.020    21414294.658    21414294.134   -17024571.153 6 -13265890.866 6
        39.900          36.500
  23793005.714    23793005.114    23793004.255    -8868819.799 3  -6910763.394 2
        19.900          16.100
  21212735.315    21212734.693    21212732.918   -20805283.720 7 -16211900.841 6
        43.100          39.700
  20259094.955    20259094.674    20259091.454   -24805334.997 7 -19328822.814 8
        46.800          51.000
 09  1 21  0 32  0.0000000  0  9G28G19G 3G 6G14G 9G21G18G22
  25545966.484    25545964.822    25545962.380     -238865.269 1   -186128.594 1
         6.500           9.000
  23085292.362    23085290.764    23085288.772    -9031975.661 5  -7037899.124 5
        34.100          31.800
  24327209.727    24327209.512    24327210.387     1161897.890 3    905378.005 3
        18.600          21.600
  24402089.962    24402089.593    24402087.700     -949420.743 3   -739805.343 2
        19.900          17.000
  21720666.090    21720665.762    21720664.961   -18384898.757 6 -14325889.036 6
        39.800          37.100
  21414229.787    21414229.258    21414228.556   -17024914.925 6 -13266158.732 6
        39.800          36.300
  23814614.600    23814614.314    23814612.450    -8755265.738 3  -6822279.713 2
        19.900          15.100
  21223353.510    21223352.930    21223351.303   -20749484.846 7 -16168421.196 6
        43.300          39.700
  20258714.041    20258713.846    20258710.568   -24807336.041 7 -19330382.064 8
        46.800          51.000
 09  1 21  0 32 30.0000000  0  9G28G19G 3G 6G14G 9G21G18G22
  25550427.691    25550426.689    25550426.882     -215408.542 1   -167850.666 2
        11.000          12.600
  23091300.839    23091299.304    23091296.410    -9000403.798 5  -7013297.688 5
        34.500          31.100
  24344485.405    24344484.711    24344485.921     1252680.973 3    976118.024 3
        19.300          21.600
  24419265.092    24419265.018    24419263.492     -859158.385 3   -669471.053 2
        20.500          17.000
  21705992.802    21705992.249    21705991.554   -18462008.074 6 -14385974.207 6
        39.800          37.200
  21414304.395    21414303.899    21414303.304   -17024523.189 6 -13265853.486 6
        40.000          36.600
  23836254.151    23836253.233    23836251.655    -8641551.414 3  -6733671.157 2
        19.300          15.100
  21234036.224    21234035.510    21234033.725   -20693347.818 7 -16124678.054 6
        43.200          39.500
  20258410.891    20258410.529    20258407.276   -24808929.956 7 -19331624.072 8
        46.700          51.000
 09  1 21  0 33  0.0000000  0  9G28G19G 3G 6G14G 9G21G18G22
  25554985.064    25554985.048    25554984.634     -191457.820 1   -149187.818 2
        11.000          13.900
  23097412.619    23097410.931    23097409.116    -8968283.521 5  -6988268.902 5
        33.500          31.300
  24361800.533    24361799.882    24361800.771     1343672.486 3   1047020.496 3
        19.300          21.100
  24436471.721    24436471.240    24436472.221     -768731.743 3   -599008.751 2
        18.600          17.800
  21691389.382    21691388.963    21691388.213   -18538749.410 6 -14445772.640 6
        39.700          37.200
  21414519.384    21414518.945    21414518.457   -17023393.416 6 -13264973.139 6
        40.100          37.000
  23857923.871    23857923.155    23857921.402    -8527676.964 3  -6644937.821 2
        18.600          15.100
  21244783.173    21244782.558    21244780.550   -20636871.291 7 -16080670.363 6
        43.000          39.100
  20258185.560    20258185.196    20258182.028   -24810114.470 7 -19332547.067 8
        46.800          51.100
 09  1 21  0 33 30.0000000  0  9G19G28G 3G 6G14G 9G21G18G22
  23103628.546    23103627.065    23103625.313    -8935618.395 5  -6962815.552 5
        33.200          31.800
  25559635.917    25559636.415    25559636.662     -167015.636 1   -130141.998 2
         9.000          13.900
  24379155.955    24379154.775    24379154.498     1434868.026 3   1118081.923 3
        18.600          21.100
  24453710.501    24453710.308    24453709.769     -678145.815 2   -528422.320 2
        17.800          17.800
  21676855.916    21676855.534    21676854.829   -18615123.603 6 -14505284.990 6
        40.100          37.500
  21414874.361    21414873.912    21414873.030   -17021527.734 6 -13263519.354 6
        40.000          36.400
  23879622.852    23879621.712    23879620.883    -8413646.610 2  -6556083.025 2
        17.800          15.100
  21255594.512    21255593.838    21255592.095   -20580057.864 7 -16036400.158 6
        42.900          39.500
  20258037.664    20258037.376    20258033.988   -24810891.604 7 -19333152.622 8
        46.800          51.000
 09  1 21  0 34  0.0000000  0  9G19G28G 3G 6G14G 9G21G18G22
  23109947.376    23109945.744    23109944.115    -8902413.078 5  -6936941.291 5
        33.600          31.600
  25564381.683    25564381.051    25564380.636     -142086.690 1   -110716.762 1
         9.000          11.000
  24396546.095    24396545.657    24396546.192     1526260.585 3   1189296.902 3
        18.600          21.600
  24470976.554    24470977.629    24470977.045     -587407.042 2   -457716.790 2
        17.000          17.000
  21662392.018    21662391.651    21662390.519   -18691132.707 6 -14564512.860 6
        40.400          37.500
  21415368.723    21415368.358    21415367.432   -17018929.923 6 -13261495.075 6
        40.200          36.500
  23901350.156    23901350.041    23901348.901    -8299466.208 3  -6467111.325 2
        19.900          15.100
  21266468.826    21266468.289    21266466.763   -20522912.091 7 -15991870.986 6
        43.000          39.500
  20257966.450    20257966.160    20257963.025   -24811264.486 7 -19333443.175 8
        46.600          50.900
 09  1 21  0 34 30.0000000  0  9G19G28G 3G 6G14G 9G21G18G22
  23116369.176    23116367.700    23116366.021    -8868665.207 5  -6910644.245 5
        33.900          31.500
  25569217.393    25569216.476    25569217.525     -116667.490 1    -90909.565 1
         9.000           9.000
  24413975.478    24413975.180    24413975.112     1617851.267 2   1260666.243 3
        17.800          20.500
  24488274.573    24488273.873    24488275.714     -496514.111 2   -386891.160 3
        16.100          19.300
  21647998.335    21647997.852    21647996.876   -18766771.328 6 -14623452.033 6
        40.200          37.600
  21416003.390    21416002.841    21416001.881   -17015595.801 6 -13258897.051 6
        40.100          36.500
  23923106.502    23923106.697    23923105.597    -8185134.212 3  -6378021.458 2
        19.300          15.100
  21277407.636    21277406.883    21277404.897   -20465430.236 7 -15947079.925 6
        43.100          38.900
  20257973.455    20257973.143    20257969.852   -24811228.868 7 -19333415.417 8
        46.700          51.000
 09  1 21  0 35  0.0000000  0  9G19G28G 3G 6G14G 9G21G18G22
  23122893.274    23122891.826    23122890.030    -8834380.205 5  -6883928.656 5
        33.600          31.300
  25574147.942    25574147.628    25574145.107      -90763.294 1    -70724.553 1
         6.500           9.000
  24431440.118    24431440.159    24431440.302     1709633.524 2   1332184.870 3
        17.800          19.900
  24505598.794    24505597.816    24505599.772     -405473.735 2   -315950.611 3
        15.100          20.500
  21633674.618    21633674.342    21633673.318   -18842042.188 6 -14682104.644 6
        40.300          37.700
  21416776.871    21416776.512    21416775.438   -17011529.354 6 -13255728.395 5
        40.200          35.900
  23944890.294    23944890.114    23944890.248    -8070656.606 2  -6288818.151 2
        17.800          13.900
  21288408.755    21288408.197    21288406.178   -20407616.930 7 -15902030.592 6
        43.000          38.800
  20258057.229    20258056.934    20258053.679   -24810788.329 7 -19333072.135 8
        46.800          50.900
 09  1 21  0 35 30.0000000  0  8G19G 3G 6G14G 9G21G18G22
  23129520.466    23129519.023    23129516.441    -8799558.388 5  -6856794.773 5
        34.900          31.300
  24448942.147    24448941.938    24448940.986     1801605.498 2   1403851.333 3
        17.800          18.600
  24522952.282    24522951.467    24522950.657     -314287.625 2   -244896.519 3
        15.100          19.900
  21619421.922    21619421.399    21619420.212   -18916942.772 6 -14740468.726 6
        40.500          37.800
  21417690.128    21417689.797    21417688.839   -17006729.648 6 -13251988.354 5
        39.900          35.800
  23966702.256    23966701.879    23966702.112    -7956034.626 2  -6199502.337 2
        17.800          13.900
  21299473.010    21299472.622    21299470.989   -20349471.883 7 -15856722.756 6
        42.600          38.900
  20258218.403    20258218.086    20258214.833   -24809941.450 7 -19332412.229 8
        46.800          50.900
 09  1 21  0 36  0.0000000  0  9G19G11G 3G 6G14G 9G21G18G22
  23136249.085    23136247.944    23136245.821    -8764195.853 5  -6829239.562 5
        34.900          31.100
  24856769.681    24856767.808    24856763.576           -.7581          -.83711
         3.000           9.000
  24466478.947    24466478.577    24466480.065     1893769.234 2   1475667.235 3
        17.000          18.600
  24540331.191    24540330.945    24540331.301     -222953.154 2   -173726.786 3
        15.100          19.900
  21605240.550    21605240.147    21605238.846   -18991466.195 6 -14798538.919 6
        40.600          37.900
  21418744.169    21418743.930    21418742.928   -17001191.306 6 -13247672.757 6
        40.200          36.300
  23988542.647    23988542.383    23988542.079    -7841264.682 3  -6110071.242 2
        18.600          13.900
  21310602.053    21310601.484    21310599.824   -20290990.039 7 -15811152.488 6
        42.700          38.900
  20258458.001    20258457.628    20258454.378   -24808682.535 7 -19331431.252 8
        46.700          50.900
 09  1 21  0 36 30.0000000  0  9G19G11G 3G 6G14G 9G21G18G22
  23143081.087    23143079.665    23143077.955    -8728292.980 5  -6801263.289 5
        34.500          31.100
  24838127.934    24838126.681    24838124.544      -97959.251      -76332.045 1
         3.000           9.000
  24484053.538    24484054.216    24484056.148     1986122.825 2   1547631.070 3
        17.800          19.300
  24557739.312    24557738.990    24557738.928     -131472.371 2   -102443.063 3
        15.100          19.300
  21591131.566    21591130.951    21591129.837   -19065610.416 6 -14856313.633 6
        40.700          38.100
  21419938.978    21419938.515    21419937.856   -16994913.263 6 -13242780.772 6
        40.100          36.500
  24010411.768    24010410.429    24010410.316    -7726348.132 3  -6020525.906 2
        19.900          15.100
  21321794.983    21321794.411    21321792.203   -20232171.507 7 -15765319.860 6
        42.700          38.300
  20258776.046    20258775.769    20258772.499   -24807010.577 7 -19330128.422 8
        46.700          50.900
 09  1 21  0 37  0.0000000  0  9G19G11G 3G 6G14G 9G21G18G22
  23150016.190    23150014.462    23150011.971    -8691853.034 5  -6772868.537 5
        35.300          31.000
  24819532.132    24819531.011    24819528.310     -195679.071 1   -152477.303 1
         6.500           6.500
  24501663.066    24501663.913    24501665.884     2078661.627 2   1619739.225 3
        17.800          18.600
  24575173.479    24575173.385    24575173.421      -39849.602 2    -31048.724 2
        13.900          17.800
  21577094.456    21577093.802    21577092.515   -19139376.013 6 -14913793.314 6
        40.700          38.000
  21421273.752    21421273.547    21421272.523   -16987897.227 6 -13237313.725 6
        39.800          36.100
  24032306.831    24032306.020    24032305.202    -7611289.278 3  -5930869.695 2
        19.900          13.900
  21333051.493    21333050.852    21333048.903   -20173018.602 7 -15719226.680 6
        42.700          38.500
  20259172.659    20259172.342    20259169.082   -24804926.765 7 -19328504.670 8
        46.700          50.900
 09  1 21  0 37 30.0000000  0  9G19G11G 3G 6G14G 9G21G18G22
  23157049.995    23157048.518    23157046.273    -8654887.900 5  -6744064.550 5
        34.700          31.000
  24800977.302    24800976.714    24800973.682     -293167.806     -228442.506 1
         3.000           9.000
  24519306.661    24519306.129    24519307.294     2171372.688 2   1691981.578 2
        16.100          17.000
  24592632.929    24592632.311    24592633.077       51902.026 2     40446.018 2
        12.600          17.800
  21563127.639    21563127.034    21563125.877   -19212771.694 6 -14970984.747 6
        40.900          38.300
  21422747.962    21422747.335    21422746.278   -16980153.682 6 -13231279.796 6
        40.200          36.000
  24054225.480    24054224.796    24054224.475    -7496100.597 3  -5841112.307 2
        19.900          13.900
  21344369.571    21344368.892    21344367.093   -20113541.819 7 -15672881.136 6
        42.500          38.500
  20259645.489    20259645.299    20259642.092   -24802441.042 7 -19326567.740 8
        46.700          50.900
 09  1 21  0 38  0.0000000  0  9G19G11G 3G 6G14G 9G21G18G22
  23164185.751    23164184.254    23164182.060    -8617388.244 5  -6714844.035 5
        34.000          31.100
  24782469.413    24782469.648    24782470.587     -390411.775     -304216.998 1
                         9.000
  24536983.104    24536982.733    24536982.927     2264264.220 2   1764364.571 2
        15.100          16.100
  24610117.970    24610118.863    24610119.554      143790.788 2    112047.627 3
        13.900          18.600
  21549233.107    21549232.805    21549231.782   -19285785.257 6 -15027878.424 6
        40.900          38.300
  21424361.818    21424361.379    21424359.904   -16971671.979 6 -13224670.670 5
        40.200          35.600
  24076171.421    24076171.012    24076170.390    -7380773.150 3  -5751246.799 2
        20.500          13.900
  21355751.013    21355750.494    21355748.567   -20053730.990 7 -15626275.293 6
        42.600          38.300
  20260197.386    20260197.013    20260193.684   -24799542.334 7 -19324309.004 8
        46.700          50.900
 09  1 21  0 38 30.0000000  0  9G19G11G 3G 6G14G 9G21G18G22
  23171422.628    23171421.591    23171419.666    -8579355.961 5  -6685208.483 5
        33.600          31.100
  24764012.396    24764010.168    24764013.717     -487408.984     -379799.216 1
         3.000           9.000
  24554693.444    24554693.350    24554692.974     2357332.841 2   1836885.578 2
        15.100          15.100
  24627631.507    24627630.768    24627632.499      235813.650 2    183753.737 3
        15.100          19.900
  21535412.147    21535411.751    21535410.814   -19358415.551 6 -15084473.449 6
        41.100          38.400
  21426116.056    21426115.662    21426114.462   -16962452.592 6 -13217486.730 5
        40.300          35.800
  24098144.475    24098143.799    24098142.366    -7265309.283 3  -5661274.975 2
        21.100          13.900
  21367196.091    21367195.504    21367193.584   -19993587.033 7 -15579409.866 6
        42.300          38.300
  20260827.489    20260827.167    20260823.918   -24796230.431 7 -19321728.295 8
        46.700          50.900
 09  1 21  0 39  0.0000000  0  9G19G11G 3G 6G14G 9G21G18G22
  23178760.462    23178759.271    23178757.764    -8540794.674 5  -6655160.718 5
        32.600          31.100
  24745600.904    24745602.025    24745602.429     -584159.157     -455188.917 1
         3.000          11.000
  24572436.492    24572435.033    24572436.163     2450572.988 1   1909540.187 2
        11.000          16.100
  24645168.380    24645167.627    24645168.430      327965.404 2    255560.271 3
        17.000          19.900
  21521664.293    21521663.614    21521662.521   -19430663.402 6 -15140770.467 6
        41.200          38.500
  21428010.455    21428010.140    21428008.860   -16952497.981 6 -13209729.883 5
        40.600          35.900
  24120142.282    24120141.076    24120140.330    -7149712.877 3  -5571199.888 2
        21.100          13.900
  21378704.163    21378703.408    21378701.343   -19933112.887 7 -15532287.155 6
        42.300          38.100
  20261536.031    20261535.680    20261532.381   -24792507.346 7 -19318827.190 8
        46.700          50.800
 09  1 21  0 39 30.0000000  0  9G19G11G 3G 6G14G 9G21G18G22
  23186198.472    23186196.678    23186195.380    -8501709.523 5  -6624704.760 5
        31.800          31.600
  24727238.004    24727237.540    24727237.585     -680663.252 1   -530386.844 1
         6.500          11.000
  24590210.361    24590210.754    24590212.154     2543977.874 2   1982323.175 2
        12.600          17.000
  24662727.652    24662727.958    24662726.926      420240.003 2    327462.516 2
        17.800          17.800
  21507987.872    21507987.572    21507986.383   -19502531.271 6 -15196771.395 6
        41.400          38.500
  21430043.875    21430043.436    21430042.437   -16941812.203 6 -13201403.298 5
        40.300          35.800
  24142163.474    24142162.424    24142161.759    -7033990.534 3  -5481026.658 2
        19.900          13.900
  21390273.625    21390273.105    21390271.122   -19872312.635 7 -15484910.330 6
        42.300          37.700
  20262321.946    20262321.716    20262318.418   -24788376.613 7 -19315608.432 8
        46.700          50.800
 09  1 21  0 40  0.0000000  0  9G19G11G 3G 6G14G 9G21G18G22
  23193735.331    23193733.814    23193732.454    -8462101.204 5  -6593841.138 5
        32.100          30.800
  24708922.685    24708923.265    24708919.328     -776917.369 1   -605389.977 1
         6.500          11.000
  24608016.630    24608016.461    24608016.731     2637546.493 2   2055233.836 2
        16.100          16.100
  24680310.544    24680309.891    24680309.161      512635.616 2    399459.069 2
        15.100          15.100
  21494384.913    21494384.448    21494383.075   -19574016.738 6 -15252474.349 6
        41.600          38.600
  21432216.265    21432215.808    21432215.073   -16930394.161 6 -13192506.115 5
        39.500          35.800
  24164208.192    24164207.645    24164206.929    -6918143.243 3  -5390756.086 2
        21.100          13.900
  21401905.899    21401905.257    21401903.181   -19811186.175 7 -15437279.315 6
        42.400          37.800
  20263186.074    20263185.668    20263182.420   -24783836.686 7 -19312070.822 8
        46.600          50.800
 09  1 21  0 40 30.0000000  0  9G19G11G 3G 6G14G 9G21G18G22
  23201372.151    23201370.388    23201368.500    -8421973.084 5  -6562572.479 5
        32.300          30.600
  24690653.534    24690653.677    24690650.596     -872921.024 1   -680198.008 2
         9.000          12.600
  24625853.411    24625852.550    24625851.841     2731273.557 2   2128267.920 2
        16.100          13.900
  24697910.054    24697913.776    24697913.392      605147.600 1    471546.323 2
        11.000          15.100
  21480854.478    21480854.015    21480852.447   -19645120.530 6 -15307879.895 6
        41.600          38.600
  21434528.195    21434527.732    21434526.888   -16918246.262 6 -13183040.214 6
        39.800          36.000
  24186276.716    24186276.049    24186275.173    -6802175.024 3  -5300391.270 2
        21.100          15.100
  21413599.289    21413598.797    21413596.957   -19749735.844 7 -15389395.941 6
        42.000          38.100
  20264127.337    20264127.023    20264123.831   -24778889.278 7 -19308215.696 8
        46.600          50.800
 09  1 21  0 41  0.0000000  0  9G19G11G 3G 6G14G 9G21G18G22
  23209106.415    23209105.411    23209103.946    -8381324.970 5  -6530898.624 5
        32.600          31.100
  24672433.583    24672433.273    24672430.597     -968669.598 1   -754807.265 2
         9.000          12.600
  24643719.045    24643717.890    24643717.992     2825158.512 2   2201424.993 2
        15.100          13.900
  24715537.070    24715539.336    24715539.847      697775.222 1    543723.654 2
        11.000          15.100
  21467397.219    21467396.557    21467395.076   -19715839.318 6 -15362985.430 6
        41.500          38.600
  21436979.586    21436978.901    21436977.789   -16905366.793 6 -13173004.270 6
        40.300          36.100
  24208367.300    24208366.746    24208365.595    -6686086.091 3  -5209932.385 2
        19.900          15.100
  21425354.832    21425354.231    21425352.638   -19687959.971 6 -15341258.896 6
        41.900          38.100
  20265146.775    20265146.501    20265143.314   -24773532.078 7 -19304041.250 8
        46.600          50.800
 09  1 21  0 41 30.0000000  0  9G19G11G 3G 6G14G 9G21G18G22
  23216940.214    23216939.234    23216937.145    -8340158.342 5  -6498820.741 5
        33.200          31.000
  24654262.571    24654261.655    24654259.549    -1064160.549 1   -829215.775 2
        11.000          13.900
  24661613.364    24661612.580    24661613.843     2919198.655 2   2274702.996 2
        15.100          12.600
  24733187.585    24733187.544    24733187.998      790515.897 1    615989.091 2
        11.000          15.100
  21454013.242    21454012.681    21454011.410   -19786171.646 6 -15417789.832 6
        41.500          39.100
  21439569.383    21439568.810    21439567.861   -16891756.048 6 -13162398.486 6
        40.000          36.000
  24230479.923    24230480.095    24230479.029    -6569878.417 3  -5119380.959 2
        18.600          15.100
  21437172.299    21437171.696    21437170.042   -19625859.666 7 -15292869.045 6
        42.000          37.900
  20266244.277    20266243.983    20266240.789   -24767764.717 7 -19299547.201 8
        46.600          50.800
 09  1 21  0 42  0.0000000  0  9G19G14G11G 3G 6G 9G21G18G22
  23224871.875    23224871.045    23224869.191    -8298476.642 5  -6466341.490 5
        33.800          31.100
  21440702.582    21440702.209    21440700.955   -19856117.877 6 -15472293.371 6
        41.600          39.100
  24636140.211    24636139.925    24636137.150    -1159392.488 2   -903422.446 2
        13.900          12.600
  24679538.023    24679537.996    24679538.476     3013389.304 2   2348098.284 2
        17.800          15.100
  24750857.689    24750857.133    24750855.338      883365.150 1    688339.152 2
         6.500          12.600
  21442298.040    21442297.629    21442296.536   -16877416.306 6 -13151224.656 6
        40.500          36.100
  24252616.328    24252615.768    24252615.305    -6453555.757 3  -5028739.959 2
        18.600          15.100
  21449050.942    21449050.306    21449048.497   -19563436.674 6 -15244227.749 6
        41.800          37.400
  20267419.575    20267419.294    20267416.085   -24761588.500 7 -19294734.559 8
        46.500          50.800
 09  1 21  0 42 30.0000000  0  9G19G14G11G 3G 6G 9G21G18G22
  23232902.303    23232901.043    23232899.019    -8256279.453 5  -6433460.558 5
        33.800          31.300
  21427466.527    21427466.015    21427464.615   -19925674.740 6 -15526493.513 6
        41.600          39.000
  24618067.960    24618067.810    24618065.298    -1254361.106 2   -977423.919 2
        15.100          12.600
  24697488.798    24697489.026    24697490.238     3107729.698 2   2421610.262 2
        16.100          15.100
  24768547.432    24768546.907    24768544.020      976322.312      760773.271 2
         3.000          12.600
  21445165.761    21445165.441    21445164.427   -16862345.753 6 -13139481.362 6
        40.500          36.000
  24274774.319    24274773.113    24274772.412    -6337118.287 2  -4938009.478 2
        17.000          15.100
  21460991.199    21460990.617    21460988.795   -19500689.980 6 -15195334.215 6
        41.600          37.400
  20268673.046    20268672.783    20268669.669   -24755001.009 7 -19289601.446 8
        46.500          50.800
 09  1 21  0 43  0.0000000  0  9G19G14G11G 3G 6G 9G21G18G22
  23241030.041    23241028.909    23241026.374    -8213569.047 5  -6400179.716 5
        34.300          31.100
  21414304.358    21414303.871    21414302.596   -19994841.837 6 -15580389.942 6
        41.600          39.300
  24600045.232    24600045.157    24600042.952    -1349064.658 2  -1051218.852 1
        13.900          11.000
  24715469.338    24715468.612    24715469.207     3202216.021 2   2495235.968 2
        12.600          13.900
  24786254.582    24786255.571    24786253.638     1069383.949      833288.740 1
                        11.000
  21448172.443    21448171.975    21448171.228   -16846545.514 6 -13127169.487 5
        40.200          35.800
  24296952.732    24296951.215    24296950.441    -6220568.869 2  -4847191.786 2
        17.800          16.100
  21472992.763    21472992.217    21472990.368   -19437620.811 6 -15146189.413 6
        41.800          37.200
  20270004.936    20270004.593    20270001.354   -24748003.083 7 -19284148.512 8
        46.600          50.800
 09  1 21  0 43 30.0000000  0  8G19G14G11G 3G 9G21G18G22
  23249254.628    23249253.408    23249251.187    -8170346.386 5  -6366499.718 5
        33.000          30.600
  21401216.846    21401216.413    21401215.312   -20063616.887 6 -15633980.876 6
        41.800          39.600
  24582075.792    24582075.492    24582073.197    -1443499.489 2  -1124804.424 1
        13.900           9.000
  24733477.229    24733475.998    24733475.527     3296846.100 2   2568973.665 2
        12.600          15.100
  21451317.910    21451317.529    21451316.611   -16830015.237 6 -13114288.739 5
        40.000          35.600
  24319151.830    24319151.251    24319150.109    -6103909.113 2  -4756288.088 2
        17.800          17.000
  21485055.848    21485055.287    21485053.509   -19374228.851 6 -15096793.070 6
        41.600          37.100
  20271414.731    20271414.451    20271411.243   -24740593.549 7 -19278374.844 8
        46.600          50.600
 09  1 21  0 44  0.0000000  0  8G19G11G 3G14G 9G21G18G22
  23257575.136    23257573.821    23257572.000    -8126620.647 5  -6332427.723 5
        32.000          30.200
  24564156.673    24564156.646    24564154.182    -1537670.005 2  -1198184.013 1
        13.900           6.500
  24751512.159    24751511.843    24751509.953     3391610.084 2   2642815.709 2
        13.900          16.100
  21388203.136    21388202.602    21388201.359   -20132005.782 6 -15687270.912 6
        41.900          39.700
  21454601.099    21454600.508    21454599.798   -16812762.799 6 -13100845.280 5
        40.000          35.600
  24341370.319    24341370.183    24341368.966    -5987148.168 2  -4665305.558 3
        16.100          18.600
  21497179.022    21497178.185    21497176.330   -19310522.050 6 -15047151.408 6
        41.400          36.500
  20272901.832    20272901.546    20272898.100   -24732779.411 7 -19272285.903 8
        46.600          50.500
 09  1 21  0 44 30.0000000  0  8G19G14G 9G11G 3G21G18G22
  23265994.403    23265993.008    23265991.375    -8082377.887 5  -6297952.848 4
        31.600          29.900
  21375265.756    21375265.241    21375263.977   -20199992.130 6 -15740247.272 6
        41.900          39.800
  21458024.497    21458023.945    21458022.961   -16794773.203 6 -13086827.408 5
        40.000          35.800
  24546290.399    24546289.770    24546288.950    -1631558.421 2  -1271343.776 1
        12.600           6.500
  24769570.800    24769570.361    24769571.679     3486520.795 1   2716772.105 2
        11.000          17.000
  24363611.341    24363611.089    24363609.424    -5870272.568 2  -4574233.712 2
        13.900          17.800
  21509364.534    21509364.106    21509362.315   -19246485.404 6 -14997252.716 6
        41.600          36.800
  20274468.705    20274468.433    20274465.184   -24724544.594 7 -19265869.157 8
        46.500          50.600
 09  1 21  0 45  0.0000000  0  8G19G14G11G 3G 9G21G18G22
  23274510.981    23274509.416    23274507.279    -8037624.988 5  -6263080.464 4
        31.300          29.500
  21362404.082    21362403.723    21362402.354   -20267579.712 7 -15792912.908 6
        42.000          39.800
  24528475.593    24528476.401    24528475.503    -1725167.303 1  -1344285.673 1
        11.000           6.500
  24787659.547    24787659.528    24787657.996     3581570.400 1   2790836.719 2
        11.000          15.100
  21461586.718    21461586.389    21461585.479   -16776052.209 6 -13072239.619 5
        40.200          35.700
  24385874.461    24385873.184    24385870.622    -5753289.802 2  -4483078.374 2
        12.600          17.000
  21521612.172    21521611.602    21521609.831   -19182124.954 6 -14947101.716 6
        41.500          37.100
  20276114.879    20276114.602    20276111.454   -24715894.231 7 -19259128.613 8
        46.600          50.700
 09  1 21  0 45 30.0000000  0  8G19G14G 9G11G 3G21G18G22
  23283123.119    23283121.260    23283119.594    -7992368.422 5  -6227815.600 4
        31.100          29.500
  21349617.948    21349617.488    21349615.905   -20334771.877 6 -15845270.426 6
        41.900          39.800
  21465287.791    21465287.275    21465286.133   -16756605.090 6 -13057086.026 5
        40.400          35.400
  24510715.465    24510715.651    24510715.877    -1818498.545 1  -1417011.258 1
         9.000           9.000
  24805771.370    24805770.045    24805770.313     3676750.951 2   2865003.347 2
        12.600          15.100
  24408153.927    24408153.086    24408150.220    -5636206.533 2  -4391844.685 2
        12.600          16.100
  21533920.176    21533919.623    21533917.825   -19117445.705 6 -14896702.305 6
        41.300          36.800
  20277839.322    20277838.979    20277835.826   -24706832.518 7 -19252067.531 8
        46.400          50.700
 09  1 21  0 46  0.0000000  0  8G19G14G 9G18G11G 3G21G22
  23291830.688    23291829.230    23291827.532    -7946608.166 5  -6192158.258 4
        31.500          29.700
  21336907.408    21336906.928    21336905.567   -20401565.474 6 -15897317.373 6
        41.800          40.000
  21469126.790    21469126.419    21469125.516   -16736430.548 6 -13041365.593 5
        40.400          35.800
  21546289.301    21546288.518    21546286.657   -19052446.678 6 -14846053.710 6
        41.200          36.500
  24493010.073    24493009.220    24493008.067    -1911547.648    -1489516.987 1
         3.000           9.000
  24823909.344    24823908.218    24823907.845     3772061.492 2   2939271.285 2
        12.600          17.000
  24430452.109    24430451.997    24430449.682    -5519023.325 2  -4300533.090 2
        12.600          15.100
  20279642.283    20279641.976    20279638.731   -24697357.740 7 -19244684.586 8
        46.400          50.600
 09  1 21  0 46 30.0000000  0  9G19G14G 9G18G 6G11G 3G21G22
  23300635.020    23300633.553    23300631.376    -7900342.851 5  -6156107.375 4
        32.300          29.900
  21324273.786    21324273.317    21324271.848   -20467956.243 6 -15949050.428 6
        41.900          40.100
  21473104.999    21473104.376    21473103.213   -16715526.432 6 -13025076.674 5
        40.300          35.700
  21558719.270    21558718.612    21558716.702   -18987125.362 6 -14795153.980 6
        41.100          36.300
  24910739.061    24910739.110    24910744.594           -.98111         -.02511
         6.500          11.000
  24475358.409    24475357.460    24475356.640    -2004308.937    -1561798.517 1
                         9.000
  24842070.012    24842069.567    24842070.609     3867502.180 1   3013640.647 3
        11.000          18.600
  24452770.011    24452770.468    24452769.130    -5401739.119 1  -4209142.812 2
        11.000          15.100
  20281524.717    20281524.422    20281521.076   -24687466.249 7 -19236976.923 8
        46.500          50.600
 09  1 21  0 47  0.0000000  0  9G19G14G 9G18G 6G11G 3G21G22
  23309532.219    23309530.543    23309528.326    -7853588.107 5  -6119675.104 4
        32.000          29.900
  21311714.311    21311713.707    21311712.374   -20533956.803 6 -16000479.424 6
        41.900          40.200
  21477218.686    21477218.173    21477217.090   -16693907.092 6 -13008230.436 5
        40.100          35.500
  21571208.249    21571207.545    21571205.540   -18921496.253 6 -14744014.415 6
        41.300          36.400
  24928589.695    24928588.680    24928588.127       93802.221 1     73093.348 1
         6.500          11.000
  24457759.953    24457761.309    24457755.980    -2096793.679    -1633864.678 1
                         6.500
  24860255.084    24860253.718    24860253.739     3963056.942 1   3088098.840 3
        11.000          18.600
  24475105.545    24475105.595    24475103.243    -5284369.816 1  -4117686.248 2
         9.000          15.100
  20283483.347    20283483.079    20283480.079   -24677171.720 7 -19228955.208 8
        46.300          50.600
 09  1 21  0 47 30.0000000  0  9G19G14G 9G18G 6G11G 3G21G22
  23318522.936    23318521.608    23318519.939    -7806339.309 5  -6082857.843 5
        31.600          30.200
  21299230.175    21299229.742    21299228.592   -20599559.524 6 -16051598.410 6
        41.900          40.300
  21481469.905    21481469.464    21481468.746   -16671566.528 6 -12990822.194 5
        39.800          35.900
  21583756.952    21583756.205    21583753.983   -18855553.502 6 -14692630.451 6
        41.200          36.000
  24946453.542    24946453.069    24946451.580      187682.577 1    146246.809 1
        11.000           9.000
  24440215.967    24440211.591    24440204.724    -2188992.692    -1705710.011 1
                         6.500
  24878457.739    24878458.509    24878459.603     4058728.929 2   3162648.394 2
        13.900          17.000
  24497457.569    24497456.722    24497455.028    -5166910.996 1  -4026159.926 2
         9.000          13.900
  20285520.634    20285520.271    20285516.942   -24666467.503 7 -19220614.258 8
        46.400          50.500
 09  1 21  0 48  0.0000000  0  8G14G19G 9G18G 6G 3G21G22
  21286821.068    21286820.686    21286819.880   -20664769.130 6 -16102411.078 6
        41.900          40.600
  23327606.071    23327605.113    23327603.531    -7758604.064 5  -6045661.563 5
        31.500          30.600
  21485857.047    21485856.474    21485855.706   -16648511.709 6 -12972857.397 5
        39.600          35.700
  21596363.824    21596363.203    21596361.072   -18789303.359 6 -14641006.966 6
        41.300          36.000
  24964330.393    24964331.149    24964329.333      281631.587 2    219453.827 1
        12.600           9.000
  24896685.747    24896685.706    24896684.942     4154509.749 2   3237282.818 2
        13.900          15.100
  24519825.910    24519824.549    24519821.377    -5049370.543 1  -3934569.975 2
         9.000          12.600
  20287634.171    20287633.919    20287630.866   -24655359.032 7 -19211958.302 8
        46.300          50.500
 09  1 21  0 48 30.0000000  0  8G14G19G 9G18G 6G 3G21G22
  21274487.983    21274487.505    21274486.533   -20729580.756 6 -16152913.630 6
        41.900          40.700
  23336783.291    23336781.927    23336780.090    -7710381.159 5  -6008085.271 5
        31.600          30.800
  21490380.397    21490380.191    21490379.284   -16624740.076 6 -12954334.046 5
        39.700          35.600
  21609029.708    21609029.042    21609027.024   -18722743.515 6 -14589142.147 6
        41.300          36.000
  24982223.591    24982222.995    24982222.243      375650.110 2    292715.044 1
        12.600           6.500
  24914934.104    24914933.528    24914931.376     4250400.026 2   3312002.565 2
        13.900          13.900
  24542208.296    24542206.848    24542204.729    -4931747.157 1  -3842915.440 1
         9.000           9.000
  20289825.836    20289825.507    20289822.310   -24643842.645 7 -19202984.491 8
        46.300          50.400
 09  1 21  0 49  0.0000000  0  8G14G19G 9G18G 6G 3G21G22
  21262231.620    21262231.032    21262229.927   -20793989.311 7 -16203102.092 6
        42.000          40.700
  23346053.099    23346051.671    23346049.797    -7661668.088 5  -5970127.045 5
        31.600          30.400
  21495041.379    21495041.010    21495040.296   -16600247.948 6 -12935249.276 5
        40.000          35.800
  21621755.131    21621754.592    21621752.522   -18655870.161 6 -14537033.043 5
        41.100          35.700
  25000127.163    25000126.406    25000129.762      469739.635 1    366031.527 1
         9.000           6.500
  24933201.311    24933200.710    24933201.357     4346400.750 1   3386808.342 2
        11.000          12.600
  24564607.497    24564607.078    24564605.011    -4814039.051 1  -3751194.835 1
        11.000           6.500
  20292095.794    20292095.438    20292092.217   -24631914.217 7 -19193689.606 8
        46.300          50.300
 09  1 21  0 49 30.0000000  0  8G14G19G 9G 6G 3G21G18G22
  21250054.488    21250054.040    21250052.800   -20857979.510 7 -16252964.575 6
        42.100          40.600
  23355418.725    23355417.043    23355415.192    -7612452.666 5  -5931777.373 5
        31.300          30.100
  21499841.643    21499841.181    21499840.254   -16575022.312 6 -12915592.933 5
        39.800          35.500
  25018046.809    25018048.245    25018046.683      563911.424 1    439412.081 1
         6.500           6.500
  24951489.855    24951490.987    24951492.942     4442523.200 1   3461708.965 2
        11.000          12.600
  24587025.220    24587024.701    24587022.409    -4696234.272 2  -3659398.896 1
        12.600           6.500
  21634543.100    21634542.494    21634540.315   -18588669.883 6 -14484669.187 5
        41.100          35.600
  20294446.966    20294446.647    20294443.232   -24619559.411 7 -19184062.481 8
        46.400          50.300
 09  1 21  0 50  0.0000000  0  9G14G19G 9G 6G11G 3G21G18G22
  21237956.388    21237955.921    21237954.569   -20921556.512 7 -16302505.080 6
        42.500          40.700
  23364878.496    23364876.732    23364874.697    -7562743.065 5  -5893042.627 4
        32.000          29.700
  21504779.770    21504779.612    21504778.890   -16549070.291 6 -12895370.574 5
        39.700          35.500
  25035982.959    25035982.084    25035981.419      658156.629 1    512849.948
         6.500           3.000
  24353326.497    24353325.668    24353321.093           -.6441           .38612
         3.000          12.600
  24969805.490    24969805.732    24969805.593     4538758.986 2   3536697.856 2
        15.100          13.900
  24609459.170    24609458.976    24609456.243    -4578341.051 2  -3567534.025 1
        13.900           6.500
  21647391.836    21647391.205    21647389.180   -18521149.691 6 -14432056.048 5
        41.000          35.800
  20296877.787    20296877.476    20296874.252   -24606784.202 7 -19174107.766 8
        46.200          50.200
 09  1 21  0 50 30.0000000  0  9G14G19G 9G 6G11G 3G21G18G22
  21225933.585    21225933.072    21225931.470   -20984738.087 7 -16351737.463 6
        42.600          40.800
  23374427.417    23374426.042    23374424.021    -7512560.397 5  -5853939.243 4
        32.300          29.200
  21509853.071    21509852.500    21509851.793   -16522411.728 6 -12874597.674 5
        39.400          35.400
  25053928.790    25053926.877    25053926.165      752453.609      586328.125 1
         3.000           9.000
  24336119.128    24336118.827    24336114.917      -90420.944 1    -70457.008 2
         6.500          13.900
  24988139.026    24988137.612    24988137.893     4635085.719 2   3611757.647 2
        15.100          13.900
  24631906.831    24631905.448    24631903.382    -4460380.740 2  -3475616.893 1
        15.100           9.000
  21660297.515    21660296.824    21660294.781   -18453329.409 6 -14379209.075 5
        40.700          35.300
  20299385.209    20299384.903    20299381.685   -24593607.660 7 -19163840.332 8
        46.100          50.100
 09  1 21  0 51  0.0000000  0  9G14G19G 9G 6G11G 3G21G18G22
  21213986.680    21213986.069    21213984.512   -21047519.711 7 -16400658.196 6
        42.700          40.900
  23384067.083    23384065.622    23384063.458    -7461903.212 5  -5814466.122 4
        32.400          29.200
  21515060.574    21515060.247    21515059.476   -16495044.308 6 -12853272.398 5
        39.400          35.200
  25071879.216    25071877.892    25071880.732      846803.019      659847.032 1
                         6.500
  24318968.209    24318966.999    24318966.034     -180543.132     -140682.078 2
         3.000          15.100
  25006486.231    25006484.693    25006484.573     4731504.296 1   3686889.032 2
         9.000          13.900
  24654368.706    24654367.656    24654362.825    -4342351.880 1  -3383646.353 1
        11.000          11.000
  21673260.615    21673260.059    21673258.084   -18385206.062 6 -14326125.945 5
        40.400          35.300
  20301969.806    20301969.492    20301966.193   -24580026.096 7 -19153257.290 8
        46.200          50.100
 09  1 21  0 51 30.0000000  0  8G14G 9G19G11G 3G21G18G22
  21202117.271    21202116.867    21202115.536   -21109891.962 7 -16449259.939 6
        42.700          41.000
  21520404.974    21520404.567    21520403.789   -16466960.805 6 -12831389.156 5
        39.400          35.300
  23393798.633    23393797.170    23393794.503    -7410765.113 5  -5774618.245 4
        32.100          28.100
  24301875.979    24301877.059    24301872.662     -270356.671 1   -210666.589 2
         6.500          13.900
  25024849.749    25024849.312    25024848.264     4828019.569     3762095.747 1
         3.000          11.000
  24676843.856    24676843.208    24676838.203    -4224247.967 1  -3291617.366 1
         9.000          11.000
  21686283.645    21686282.854    21686280.840   -18316772.134 6 -14272800.811 5
        40.400          35.400
  20304633.029    20304632.752    20304629.412   -24566030.653 7 -19142351.750 8
        46.100          50.000
 09  1 21  0 52  0.0000000  0  8G14G 9G19G11G 3G21G18G22
  21190325.499    21190325.115    21190323.805   -21171857.720 7 -16497544.930 6
        42.700          41.200
  21525884.466    21525884.040    21525882.955   -16438166.047 6 -12808951.677 5
        39.300          34.900
  23403620.346    23403619.000    23403616.408    -7359151.648 5  -5734399.954 4
        32.100          28.100
  24284842.975    24284842.954    24284838.896     -359862.478 1   -280411.345 2
         6.500          13.900
  25043235.097    25043234.128    25043233.459     4924625.581 1   3837373.075 1
         9.000          11.000
  24699331.479    24699329.929    24699324.240    -4106075.414 1  -3199534.909 2
         6.500          13.900
  21699364.122    21699363.708    21699361.729   -18248032.064 6 -14219237.118 5
        40.600          35.500
  20307374.215    20307373.891    20307370.639   -24551625.429 7 -19131126.891 8
        46.100          49.900
 09  1 21  0 52 30.0000000  0  8G14G 9G19G11G 3G21G18G22
  21178610.927    21178610.356    21178609.174   -21233418.452 7 -16545514.318 6
        42.700          41.300
  21531498.689    21531498.271    21531497.255   -16408663.630 6 -12785962.781 5
        39.500          35.300
  23413531.544    23413530.186    23413527.958    -7307067.935 5  -5693815.254 4
        32.400          28.800
  24267869.299    24267868.159    24267865.567     -449060.791 1   -349916.518 2
         6.500          13.900
  25061635.554    25061634.725    25061633.668     5021316.408 1   3912716.591 2
         6.500          12.600
  24721830.730    24721829.079    24721824.618    -3987839.413 1  -3107403.027 2
         9.000          15.100
  21712502.620    21712501.920    21712500.131   -18178989.326 6 -14165437.587 5
        40.200          35.200
  20310192.775    20310192.485    20310189.327   -24536812.982 7 -19119584.722 8
        46.000          49.900
 09  1 21  0 53  0.0000000  0  8G14G 9G19G11G 3G21G18G22
  21166975.683    21166975.252    21166974.060   -21294560.924 7 -16593157.784 6
        42.700          41.400
  21537249.759    21537249.402    21537248.354   -16378442.600 6 -12762413.923 5
        39.900          35.600
  23423534.286    23423532.783    23423530.699    -7254503.753 5  -5652856.149 4
        32.100          29.200
  24250956.001    24250956.791    24250953.504     -537936.858 1   -419170.605 2
         9.000          15.100
  25080050.759    25080050.348    25080048.652     5118101.691 1   3988133.788 1
         6.500           9.000
  24744344.929    24744343.676    24744338.687    -3869529.459 1  -3015213.499 2
        11.000          15.100
  21725700.732    21725700.127    21725697.887   -18109632.426 6 -14111393.254 5
        40.000          34.500
  20313091.588    20313091.284    20313087.857   -24521580.741 7 -19107715.442 8
        46.100          49.800
 09  1 21  0 53 30.0000000  0  8G14G 9G19G11G 3G21G18G22
  21155420.310    21155419.669    21155418.309   -21355286.677 7 -16640476.541 6
        42.700          41.400
  21543136.593    21543135.984    21543135.333   -16347506.642 6 -12738307.981 5
        39.400          35.400
  23433626.934    23433625.691    23433623.926    -7201463.729 5  -5611526.260 4
        31.800          29.700
  24234105.970    24234106.397    24234103.710     -626490.726 1   -488173.592 2
         6.500          17.000
  25098486.386    25098486.650    25098485.340     5214976.001 1   4063620.240 1
         6.500           6.500
  24766870.554    24766869.401    24766865.875    -3751150.336 2  -2922970.060 2
        12.600          13.900
  21738958.133    21738957.596    21738955.349   -18039964.545 6 -14057106.588 5
        40.200          34.700
  20316069.365    20316069.115    20316065.873   -24505931.399 7 -19095521.144 8
        46.000          49.800
 09  1 21  0 54  0.0000000  0  8G14G 9G19G11G 3G21G18G22
  21143943.134    21143942.591    21143941.215   -21415599.076 7 -16687473.199 6
        42.700          41.500
  21549158.253    21549157.879    21549156.764   -16315861.237 6 -12713649.227 5
        39.300          34.800
  23443809.692    23443808.356    23443806.491    -7147954.372 5  -5569830.673 4
        32.000          29.200
  24217313.906    24217313.978    24217313.703     -714724.251 1   -556926.943 2
         6.500          17.000
  25116936.032    25116935.276    25116935.723     5311932.040     4139170.360 1
         3.000           6.500
  24789408.749    24789408.185    24789404.619    -3632708.606 2  -2830677.840 2
        12.600          12.600
  21752273.939    21752273.098    21752270.974   -17969991.200 6 -14002581.903 5
        40.200          34.800
  20319125.870    20319125.586    20319122.418   -24489869.281 7 -19083005.207 8
        45.900          49.800
 09  1 21  0 54 30.0000000  0  8G14G 9G18G11G19G 3G21G22
  21132544.358    21132543.818    21132542.345   -21475500.356 7 -16734149.508 6
        42.800          41.600
  21555314.133    21555313.716    21555313.024   -16283510.576 6 -12688440.916 5
        39.000          34.900
  21765646.616    21765645.963    21765643.908   -17899716.058 6 -13947822.056 5
        40.200          34.800
  24200584.209    24200584.545    24200583.719     -802637.693 1   -625430.903 2
        11.000          17.000
  23454080.084    23454078.604    23454076.712    -7093980.830 5  -5527773.372 4
        31.500          29.000
  25135398.595    25135397.159    25135400.697     5408963.724     4214779.442 1
         3.000           6.500
  24811957.279    24811957.336    24811954.605    -3514209.601 1  -2738340.975 1
        11.000          11.000
  20322260.654    20322260.311    20322256.957   -24473397.120 7 -19070169.755 8
        46.100          49.700
 09  1 21  0 55  0.0000000  0  7G14G 9G18G11G19G 3G22
  21121221.681    21121221.170    21121219.809   -21535000.819 7 -16780513.491 6
        42.800          41.700
  21561602.144    21561601.717    21561601.218   -16250467.851 6 -12662693.329 5
        39.000          35.200
  21779074.440    21779073.950    21779071.995   -17829151.397 6 -13892836.611 5
        39.800          34.600
  24183914.185    24183915.446    24183913.964     -890240.319 2   -693692.703 2
        12.600          17.800
  23464437.125    23464435.423    23464433.377    -7039556.849 5  -5485365.079 4
        32.400          29.500
  25153876.762    25153877.375    25153878.935     5506056.824     4290436.426 1
         3.000           9.000
  20325471.110    20325470.728    20325467.271   -24456526.665 7 -19057023.938 8
        46.000          49.600
 09  1 21  0 55 30.0000000  0  7G14G 9G18G11G19G 3G22
  21109978.002    21109977.500    21109976.050   -21594086.617 7 -16826554.360 6
        42.800          41.800
  21568024.218    21568023.736    21568022.789   -16216720.877 6 -12636396.982 5
        39.100          34.800
  21792559.588    21792559.321    21792557.606   -17758284.829 6 -13837615.909 5
        39.800          34.700
  24167308.257    24167307.658    24167306.263     -977516.428 2   -761700.036 3
        17.800          19.300
  23474882.089    23474880.350    23474877.881    -6984671.277 5  -5442597.101 4
        32.300          29.700
  25172367.663    25172365.861    25172367.273     5603222.034 1   4366149.533 1
         6.500           9.000
  20328759.529    20328759.211    20328755.938   -24439244.587 7 -19043557.383 8
        45.900          49.500
 09  1 21  0 56  0.0000000  0  7G14G 9G18G11G19G 3G22
  21098817.430    21098816.856    21098815.451   -21652735.746 7 -16872254.967 6
        42.700          41.900
  21574583.714    21574583.176    21574582.235   -16182250.470 6 -12609536.934 5
        39.000          34.700
  21806106.521    21806105.944    21806104.301   -17687096.394 6 -13782144.399 5
        39.700          34.600
  24150765.115    24150765.542    24150765.007    -1064442.951 3   -829434.961 3
        19.300          21.100
  23485417.982    23485415.866    23485413.385    -6929305.887 5  -5399455.242 4
        31.600          29.000
  25190872.830    25190871.815    25190872.998     5700477.271     4441932.828 1
         3.000          11.000
  20332130.595    20332130.250    20332126.898   -24421530.002 7 -19029753.809 8
        45.900          49.500
 09  1 21  0 56 30.0000000  0  7G14G 9G18G11G19G 3G22
  21087736.877    21087736.404    21087734.972   -21710964.227 7 -16917627.797 7
        42.900          42.000
  21581277.551    21581277.001    21581276.237   -16147074.702 6 -12582127.240 5
        39.200          35.200
  21819710.990    21819710.365    21819708.872   -17615603.728 6 -13726435.833 5
        39.200          34.600
  24134287.158    24134287.623    24134286.541    -1151033.909 3   -896908.410 3
        19.300          21.600
  23496041.621    23496039.607    23496036.780    -6873479.865 5  -5355954.447 4
        31.800          29.500
  25209394.717    25209393.430    25209393.792     5797802.347     4517770.513 2
         3.000          12.600
  20335580.572    20335580.291    20335577.013   -24403399.677 7 -19015626.281 8
        45.800          49.500
 09  1 21  0 57  0.0000000  0  7G14G 9G18G11G19G 3G22
  21076735.793    21076735.232    21076733.826   -21768775.615 7 -16962675.622 7
        42.700          42.000
  21588104.210    21588103.731    21588102.691   -16111199.517 6 -12554172.543 5
        39.200          34.900
  21833372.437    21833371.969    21833370.382   -17543812.006 6 -13670494.233 5
        39.500          34.600
  24117874.547    24117873.953    24117871.914    -1237291.185 3   -964121.848 3
        19.300          21.100
  23506750.816    23506748.994    23506747.451    -6817199.011 5  -5312099.235 5
        31.000          30.100
  25227923.585    25227924.875    25227927.450     5895190.648 1   4593657.471 2
         6.500          12.600
  20339109.091    20339108.692    20339105.447   -24384857.984 7 -19001178.205 8
        45.800          49.400
 09  1 21  0 57 30.0000000  0  7G14G 9G18G11G19G 3G22
  21065813.861    21065813.303    21065812.030   -21826170.473 7 -17007398.877 7
        42.700          42.100
  21595063.425    21595062.948    21595062.023   -16074627.781 6 -12525675.087 5
        38.900          34.600
  21847090.910    21847090.153    21847088.350   -17471723.371 6 -13614321.273 5
        39.100          34.400
  24101524.687    24101523.691    24101521.133    -1323214.014 3  -1031074.663 3
        21.600          21.600
  23517545.758    23517544.437    23517542.453    -6760467.261 5  -5267892.685 4
        31.600          29.000
  25246469.703    25246468.220    25246470.416     5992637.724     4669590.214 2
         3.000          15.100
  20342715.287    20342714.943    20342711.707   -24365906.678 7 -18986410.954 8
        45.700          49.300
 09  1 21  0 58  0.0000000  0  7G14G 9G18G11G19G 3G22
  21054971.810    21054971.231    21054969.864   -21883145.869 7 -17051795.281 7
        42.600          42.100
  21602154.939    21602154.847    21602153.905   -16037359.443 6 -12496634.814 5
        38.700          34.400
  21860865.323    21860864.853    21860862.852   -17399337.244 6 -13557916.504 5
        39.100          34.000
  24085236.799    24085236.697    24085235.017    -1408797.916 4  -1097763.404 3
        24.200          22.600
  23528427.031    23528425.864    23528423.857    -6703285.421 5  -5223335.420 4
        31.500          28.600
  25265023.710    25265024.977    25265025.720     6090141.774     4745567.421 2
         3.000          15.100
  20346399.821    20346399.512    20346396.134   -24346544.276 7 -18971323.363 8
        45.700          49.200
 09  1 21  0 58 30.0000000  0  7G11G19G 3G14G 9G18G22
  24069016.264    24069016.190    24069014.225    -1494040.846 4  -1164186.469 3
        24.900          23.000
  23539393.361    23539392.264    23539390.360    -6645656.256 5  -5178429.577 4
        31.000          28.600
  25283588.063    25283588.346    25283589.158     6187700.103     4821586.900 2
                        13.900
  21044209.332    21044208.892    21044207.505   -21939701.957 7 -17095864.952 7
        42.500          42.300
  21609379.848    21609379.370    21609378.102   -15999396.021 6 -12467052.932 5
        39.100          34.600
  21874696.817    21874696.091    21874693.996   -17326654.612 6 -13501280.690 5
        39.300          34.100
  20350162.532    20350162.263    20350159.080   -24326770.380 7 -18955915.133 8
        45.600          49.200
 09  1 21  0 59  0.0000000  0  7G14G 9G18G11G19G 3G22
  21033526.501    21033525.988    21033524.656   -21995841.215 7 -17139609.817 7
        42.500          42.500
  21616734.532    21616734.143    21616733.839   -15960742.868 6 -12436933.586 5
        38.400          34.800
  21888583.301    21888582.709    21888580.523   -17253680.257 6 -13444417.560 5
        39.500          33.900
  24052859.636    24052859.282    24052857.917    -1578944.135 4  -1230344.851 3
        24.600          23.400
  23550443.902    23550443.059    23550440.379    -6587586.017 5  -5133180.048 4
        31.300          28.400
  25302163.711    25302162.929    25302160.979     6285305.806     4897643.258 1
                        11.000
  20354003.003    20354002.682    20353999.352   -24306589.417 7 -18940189.703 8
        45.600          49.100
 09  1 21  0 59 30.0000000  0  7G14G 9G18G11G19G 3G22
  21022922.535    21022922.012    21022920.409   -22051566.241 7 -17183031.905 7
        42.700          42.500
  21624220.651    21624220.265    21624219.650   -15921405.202 6 -12406280.852 5
        38.600          34.900
  21902524.401    21902523.812    21902521.859   -17180418.637 6 -13387330.583 5
        38.900          33.800
  24036766.419    24036766.868    24036765.081    -1663509.068 4  -1296239.580 3
        24.200          23.000
  23561577.758    23561576.160    23561574.350    -6529080.270 5  -5087591.146 4
        30.200          28.600
  25320743.813    25320742.651    25320745.376     6382952.762     4973731.729 1
                        11.000
  20357919.933    20357919.671    20357916.407   -24286004.893 7 -18924149.812 8
        45.600          49.000
                            4  1
other post-header comments skipped                          COMMENT
 09  1 21  1  0  0.0000000  0  7G14G 9G18G11G19G 3G22
  21012398.413    21012397.994    21012396.663   -22106869.823 7 -17226125.596 7
        42.500          42.800
  21631837.714    21631837.352    21631836.337   -15881378.075 6 -12375090.887 5
        38.800          34.700
  21916521.442    21916520.742    21916518.720   -17106864.060 6 -13330015.340 5
        38.700          33.500
  24020740.742    24020740.391    24020738.349    -1747726.840 3  -1361863.788 3
        23.400          22.100
  23572794.238    23572792.706    23572790.685    -6470135.167 4  -5041659.913 4
        29.200          27.900
  25339334.058    25339334.343    25339336.567     6480644.883     5049855.478 2
                        12.600
  20361915.346    20361915.002    20361911.631   -24265010.135 7 -18907790.258 8
        45.600          49.000
 09  1 21  1  0 30.0000000  0  7G14G 9G18G11G19G 3G22
  21001956.814    21001956.253    21001954.918   -22161742.400 7 -17268883.440 7
        42.700          43.000
  21639586.998    21639586.579    21639585.994   -15840654.390 6 -12343358.138 5
        38.600          34.800
  21930575.235    21930574.886    21930573.004   -17033008.107 6 -13272465.252 5
        38.600          33.200
  24004783.197    24004782.796    24004780.773    -1831585.800 3  -1427208.430 3
        23.800          22.100
  23584096.068    23584094.786    23584092.989    -6410743.627 4  -4995380.797 4
        29.500          28.400
  25357935.518    25357933.703    25357933.366     6578388.202     5126019.079 1
                        11.000
  20365990.216    20365989.847    20365986.524   -24243596.379 7 -18891104.211 8
        45.500          48.900
 09  1 21  1  1  0.0000000  0  6G14G 9G18G11G19G22
  20991594.907    20991594.361    20991593.004   -22216193.996 7 -17311313.246 7
        42.700          42.900
  21647466.602    21647466.332    21647465.683   -15799246.601 6 -12311092.326 5
        38.700          34.700
  21944684.969    21944684.389    21944682.415   -16958863.127 6 -13214689.945 5
        38.900          33.200
  23988891.919    23988891.533    23988889.727    -1915094.582 3  -1492280.196 3
        23.000          22.100
  23595480.078    23595478.862    23595477.524    -6350919.397 4  -4948764.528 4
        29.200          29.200
  20370142.566    20370142.262    20370139.071   -24221774.923 7 -18874100.476 8
        45.400          48.900
 09  1 21  1  1 30.0000000  0  6G 9G18G11G19G14G22
  21655475.846    21655475.340    21655474.556   -15757158.629 6 -12278296.504 5
        38.400          34.500
  21958848.899    21958848.240    21958846.064   -16884432.060 6 -13156691.709 5
        38.800          32.800
  23973067.711    23973067.209    23973065.208    -1998253.207 3  -1557079.099 3
        23.400          22.100
  23606946.100    23606944.725    23606942.611    -6290667.268 4  -4901814.813 4
        29.500          28.400
  20981312.648    20981312.226    20981310.896   -22270226.285 7 -17353416.322 7
        42.600          43.000
  20374372.318    20374371.958    20374368.692   -24199548.129 7 -18856780.895 8
        45.500          48.800
 09  1 21  1  2  0.0000000  0  6G 9G18G11G19G14G22
  21663616.560    21663616.164    21663615.516   -15714378.159 6 -12244961.069 5
        38.400          34.700
  21973068.901    21973068.528    21973066.670   -16809701.330 6 -13098459.979 5
        38.100          32.600
  23957311.637    23957311.798    23957310.863    -2081044.650 3  -1621591.892 3
        23.000          22.100
  23618495.361    23618493.748    23618491.874    -6229974.697 4  -4854521.922 4
        28.800          27.600
  20971113.431    20971112.947    20971111.592   -22323823.952 7 -17395180.728 7
        42.600          43.000
  20378681.722    20378681.450    20378678.231   -24176901.329 7 -18839134.037 8
        45.400          48.800
 09  1 21  1  2 30.0000000  0  6G 9G18G11G19G14G22
  21671887.771    21671887.317    21671886.314   -15670912.880 6 -12211092.017 5
        38.100          34.100
  21987345.418    21987344.890    21987343.321   -16734677.986 6 -13040000.237 5
        37.800          33.000
  23941626.092    23941626.569    23941625.867    -2163472.473 3  -1685821.345 3
        23.000          23.800
  23630126.535    23630125.703    23630123.724    -6168850.619 4  -4806892.759 4
        29.000          27.900
  20960995.568    20960995.146    20960993.824   -22376992.542 7 -17436610.788 7
        42.500          43.100
  20383069.957    20383069.689    20383066.455   -24153840.773 7 -18821164.771 8
        45.300          48.700
 09  1 21  1  3  0.0000000  0  6G 9G18G11G19G14G22
  21680289.207    21680288.769    21680287.738   -15626763.795 6 -12176690.126 5
        38.400          34.100
  22001677.751    22001677.281    22001675.350   -16659362.622 6 -12981312.945 5
        38.400          32.600
  23926011.686    23926011.229    23926009.898    -2245533.875 3  -1749765.260 4
        23.400          24.900
  23641839.741    23641838.618    23641836.587    -6107296.869 4  -4758928.810 4
        28.400          27.600
  20950960.192    20950959.663    20950958.276   -22429730.350 7 -17477705.175 7
        42.600          43.300
  20387537.128    20387536.799    20387533.533   -24130366.256 7 -18802872.939 8
        45.200          48.700
 09  1 21  1  3 30.0000000  0  6G 9G18G11G19G14G22
  21688818.659    21688818.261    21688817.984   -15581939.380 6 -12141762.007 5
        37.800          34.600
  22016064.179    22016063.639    22016061.373   -16583762.627 6 -12922403.855 5
        38.400          32.100
  23910464.079    23910464.170    23910462.664    -2327233.332 3  -1813427.150 4
        23.000          24.900
  23653633.374    23653631.954    23653629.767    -6045322.489 4  -4710637.082 4
        28.600          27.100
  20941005.212    20941004.722    20941003.410   -22482043.443 7 -17518468.617 7
        42.600          43.300
  20392081.696    20392081.401    20392078.091   -24106484.419 7 -18784263.713 8
        45.300          48.600
 09  1 21  1  4  0.0000000  0  6G 9G18G11G19G14G22
  21697476.758    21697476.431    21697475.852   -15536440.868 6 -12106308.617 5
        37.800          34.500
  22030504.762    22030504.029    22030501.986   -16507877.985 6 -12863272.967 5
        38.200          32.400
  23894986.765    23894986.822    23894985.092    -2408567.753 3  -1876804.623 4
        22.600          25.300
  23665507.009    23665505.444    23665503.759    -5982929.438 4  -4662019.120 4
        28.400          27.900
  20931131.557    20931131.041    20931129.679   -22533930.468 7 -17558900.057 7
        42.700          43.500
  20396703.953    20396703.619    20396700.389   -24082194.695 7 -18765336.653 8
        45.200          48.700
 09  1 21  1  4 30.0000000  0  6G 9G18G11G19G14G22
  21706263.555    21706263.000    21706261.754   -15490269.038 6 -12070330.569 5
        38.100          34.100
  22044999.256    22044998.551    22044996.372   -16431708.750 6 -12803920.325 5
        37.700          32.300
  23879578.971    23879579.232    23879577.831    -2489533.537 3  -1939894.836 4
        21.100          25.300
  23677458.563    23677457.670    23677456.232    -5920118.927 4  -4613075.881 4
        28.800          27.400
  20921339.095    20921338.577    20921337.248   -22585389.456 7 -17598997.965 7
        42.800          43.500
  20401403.641    20401403.373    20401400.304   -24057496.263 7 -18746091.122 8
        45.100          48.600
 09  1 21  1  5  0.0000000  0  6G 9G18G11G19G14G22
  21715177.059    21715176.562    21715175.725   -15443427.372 6 -12033830.572 5
        38.100          34.500
  22059547.855    22059547.008    22059544.607   -16355257.224 6 -12744347.715 5
        37.700          32.100
  23864243.064    23864242.854    23864240.423    -2570129.453 3  -2002696.824 4
        21.100          24.900
  23689490.102    23689488.711    23689486.477    -5856894.910 4  -4563810.431 4
        28.100          26.200
  20911628.036    20911627.606    20911626.214   -22636421.471 7 -17638763.169 7
        42.900          43.600
  20406181.208    20406180.872    20406177.661   -24032390.851 7 -18726528.459 8
        45.000          48.500
 09  1 21  1  5 30.0000000  0  6G 9G18G11G19G14G22
  21724217.688    21724217.354    21724216.870   -15395917.053 6 -11996809.540 5
        37.800          34.400
  22074149.219    22074148.477    22074146.391   -16278524.067 6 -12684555.648 5
        37.700          31.800
  23848977.293    23848977.090    23848974.089    -2650353.248 3  -2065208.841 3
        22.100          23.800
  23701598.688    23701597.892    23701596.361    -5793259.245 4  -4514224.209 4
        28.400          26.200
  20901998.699    20901998.170    20901996.780   -22687025.081 7 -17678194.550 7
        43.000          43.800
  20411036.004    20411035.787    20411032.577   -24006877.902 7 -18706648.242 8
        45.000          48.500
 09  1 21  1  6  0.0000000  0  6G 9G18G11G19G14G22
  21733385.466    21733385.226    21733384.682   -15347738.862 6 -11959268.093 5
        37.400          34.300
  22088804.563    22088803.948    22088802.218   -16201508.622 6 -12624543.605 5
        37.400          32.400
  23833783.570    23833783.335    23833779.702    -2730200.859 3  -2127427.745 3
        22.100          23.000
  23713788.005    23713786.145    23713783.770    -5729213.409 4  -4464318.347 4
        29.200          26.500
  20892451.179    20892450.676    20892448.821   -22737198.412 7 -17717290.647 7
        43.200          43.700
  20415968.943    20415968.572    20415965.336   -23980956.276 7 -18686449.568 8
        45.000          48.500
 09  1 21  1  6 30.0000000  0  6G 9G18G11G19G14G22
  21742681.216    21742680.895    21742680.201   -15298889.607 6 -11921203.741 5
        37.400          34.100
  22103514.949    22103514.306    22103512.655   -16124206.685 6 -12564308.335 5
        37.300          32.700
  23818661.797    23818661.314    23818658.625    -2809664.782 3  -2189347.659 3
        22.100          22.600
  23726053.211    23726051.596    23726049.744    -5664754.944 4  -4414090.968 4
        27.600          26.800
  20882986.384    20882985.838    20882984.252   -22786935.502 7 -17756046.818 7
        43.100          44.000
  20420980.281    20420979.978    20420976.813   -23954620.689 7 -18665928.333 8
        45.000          48.400
 09  1 21  1  7  0.0000000  0  6G 9G18G11G19G14G22
  21752103.700    21752102.840    21752101.856   -15249378.803 6 -11882623.896 5
        37.700          34.000
  22118277.859    22118277.245    22118275.415   -16046626.909 6 -12503856.576 5
        36.900          32.100
  23803611.113    23803611.057    23803609.391    -2888750.241 3  -2250972.654 3
        21.600          22.600
  23738396.299    23738394.698    23738392.603    -5599893.418 4  -4363549.539 4
        28.400          27.100
  20873603.319    20873602.796    20873601.286   -22836243.445 7 -17794468.583 7
        43.000          44.100
  20426069.271    20426068.929    20426065.500   -23927879.292 7 -18645090.877 8
        45.100          48.300
 09  1 21  1  7 30.0000000  0  6G 9G18G11G19G14G22
  21761651.105    21761650.595    21761649.626   -15199204.822 6 -11843527.279 5
        37.700          33.600
  22133094.319    22133093.734    22133091.735   -15968765.986 6 -12443185.730 5
        37.200          32.100
  23788634.676    23788634.550    23788632.828    -2967451.206 3  -2312298.056 3
        22.100          21.100
  23750815.613    23750814.057    23750812.295    -5534627.629 4  -4312693.084 4
        28.800          26.800
  20864302.837    20864302.270    20864300.822   -22885117.689 7 -17832552.404 7
        43.000          44.100
  20431235.675    20431235.366    20431232.196   -23900728.186 7 -18623934.169 8
        44.900          48.300
 09  1 21  1  8  0.0000000  0  6G 9G18G11G19G14G22
  21771325.300    21771324.772    21771323.714   -15148366.312 6 -11803912.859 5
        37.200          33.400
  22147964.325    22147963.897    22147962.045   -15890622.017 6 -12382294.331 5
        37.200          32.000
  23773732.493    23773732.921    23773730.701    -3045762.003 3  -2373319.443 3
        23.800          19.900
  23763312.425    23763310.704    23763309.066    -5468957.091 4  -4261521.245 4
        28.100          26.500
  20855085.515    20855085.116    20855083.562   -22933554.426 7 -17870295.311 7
        43.000          44.300
  20436480.998    20436480.691    20436477.421   -23873164.637 7 -18602456.080 8
        45.100          48.300
 09  1 21  1  8 30.0000000  0  6G 9G18G11G19G14G22
  21781124.006    21781123.849    21781123.104   -15096871.344 6 -11763786.904 5
        37.600          33.400
  22162887.068    22162886.474    22162884.562   -15812202.232 6 -12321188.006 5
        37.000          31.500
  23758904.875    23758904.978    23758901.489    -3123686.874 3  -2434040.140 3
        23.800          19.300
  23775884.874    23775883.061    23775881.112    -5402890.887 4  -4210041.092 4
        28.600          26.800
  20845950.675    20845950.116    20845948.629   -22981559.164 7 -17907701.599 7
        42.900          44.400
  20441803.276    20441802.983    20441799.775   -23845195.223 7 -18580661.728 8
        45.000          48.100
 09  1 21  1  9  0.0000000  0  6G 9G18G11G19G14G22
  21791049.071    21791048.689    21791048.176   -15044716.213 6 -11723146.533 5
        37.700          33.600
  22177863.654    22177862.775    22177860.930   -15733501.331 6 -12259862.630 5
        36.500          31.300
  23744150.356    23744150.554    23744148.177    -3201217.230 3  -2494453.385 3
        23.000          19.900
  23788533.282    23788531.521    23788529.145    -5336425.330 4  -4158249.759 4
        28.800          26.500
  20836899.222    20836898.673    20836897.263   -23029125.242 7 -17944766.073 7
        42.900          44.600
  20447204.329    20447203.925    20447200.621   -23816813.709 7 -18558546.262 8
        44.900          48.100
 09  1 21  1  9 30.0000000  0  6G 9G18G11G19G14G22
  21801098.183    21801097.753    21801096.783   -14991908.210 6 -11681997.435 5
        37.500          33.400
  22192891.992    22192891.308    22192889.635   -15654525.443 6 -12198322.975 5
        36.000          31.100
  23729471.700    23729471.348    23729469.559    -3278355.831 3  -2554561.381 3
        23.400          21.600
  23801254.703    23801253.325    23801251.739    -5269567.803 4  -4106152.988 4
        28.400          26.500
  20827930.284    20827929.609    20827928.320   -23076257.252 7 -17981492.308 7
        42.700          44.600
  20452682.302    20452682.077    20452678.882   -23788025.369 7 -18536113.788 8
        44.900          48.100
 09  1 21  1 10  0.0000000  0  6G 9G18G11G19G14G22
  21811270.127    21811269.830    21811268.992   -14938452.403 6 -11640343.564 5
        37.100          33.200
  22207972.161    22207971.404    22207969.846   -15575279.018 5 -12136572.525 5
        35.600          31.600
  23714866.594    23714866.273    23714864.768    -3355103.423 4  -2614364.682 3
        24.200          22.100
  23814050.443    23814049.497    23814047.399    -5202324.489 4  -4053755.624 4
        28.800          25.900
  20819043.343    20819042.837    20819041.548   -23122957.331 7 -18017881.976 7
        42.700          44.700
  20458237.597    20458237.247    20458233.879   -23758833.579 7 -18513366.938 8
        45.000          48.000
 09  1 21  1 10 30.0000000  0  6G 9G18G11G19G14G22
  21821565.942    21821565.547    21821564.696   -14884347.630 6 -11598183.999 5
        36.700          32.800
  22223104.248    22223103.722    22223101.875   -15495759.156 6 -12074609.010 5
        36.200          31.300
  23700338.164    23700337.979    23700335.612    -3431454.221 4  -2673858.789 3
        25.300          22.600
  23826920.235    23826918.730    23826917.288    -5134694.085 4  -4001056.638 4
        28.100          25.300
  20810239.600    20810239.095    20810237.814   -23169221.478 7 -18053931.958 7
        42.700          44.800
  20463869.889    20463869.600    20463866.400   -23729234.916 7 -18490303.041 8
        45.100          48.000
 09  1 21  1 11  0.0000000  0  6G 9G18G11G19G14G22
  21831986.151    21831985.735    21831984.765   -14829591.161 6 -11555516.614 5
        37.100          33.100
  22238288.937    22238288.556    22238286.520   -15415961.853 6 -12012429.289 5
        36.000          30.800
  23685886.353    23685886.069    23685883.449    -3507401.320 4  -2733038.335 3
        26.200          22.600
  23839864.956    23839863.527    23839861.117    -5066674.932 4  -3948054.703 4
        29.500          25.600
  20801519.753    20801519.233    20801517.892   -23215044.933 7 -18089638.544 7
        42.700          44.900
  20469580.529    20469580.245    20469576.960   -23699225.416 7 -18466919.018 8
        45.000          48.000
 09  1 21  1 11 30.0000000  0  6G 9G18G11G19G14G22
  21842528.404    21842527.915    21842527.114   -14774192.772 6 -11512349.039 5
        37.300          33.800
  22253525.047    22253524.421    22253522.992   -15335895.744 5 -11950040.121 5
        35.500          31.100
  23671509.282    23671509.490    23671507.170    -3582949.607 4  -2791907.130 3
        26.800          23.000
  23852879.420    23852878.174    23852876.944    -4998276.851 4  -3894757.491 4
        28.400          25.900
  20792882.550    20792882.000    20792880.637   -23260434.206 7 -18125006.805 7
        42.700          45.200
  20475367.808    20475367.559    20475364.318   -23668812.332 7 -18443220.508 7
        45.000          47.800
 09  1 21  1 12  0.0000000  0  6G 9G18G11G19G14G22
  21853192.040    21853191.549    21853191.581   -14718149.730 5 -11468679.136 5
        35.800          33.600
  22268813.250    22268812.895    22268810.969   -15255556.980 6 -11887438.497 5
        36.000          31.000
  23657210.358    23657210.622    23657208.273    -3658092.006 4  -2850459.657 3
        26.800          23.800
  23865968.768    23865967.089    23865965.095    -4929497.293 4  -3841163.031 4
        27.600          25.300
  20784328.899    20784328.406    20784327.107   -23305383.539 7 -18160032.253 7
        42.600          45.300
  20481232.855    20481232.582    20481229.466   -23637991.155 7 -18419204.004 7
        44.900          47.800
 09  1 21  1 12 30.0000000  0  6G 9G18G11G19G14G22
  21863979.148    21863978.845    21863978.194   -14661463.828 6 -11424508.311 5
        36.100          33.100
  22284153.442    22284152.597    22284150.514   -15174945.740 5 -11824624.553 5
        35.400          30.400
  23642989.075    23642988.842    23642987.338    -3732825.628 4  -2908693.631 4
        25.900          25.300
  23879128.570    23879126.927    23879124.662    -4860338.474 4  -3787273.054 3
        26.800          23.800
  20775859.241    20775858.757    20775857.185   -23349892.033 7 -18194714.190 7
        42.600          45.200
  20487175.825    20487175.512    20487172.292   -23606761.093 7 -18394868.890 7
        44.900          47.600
 09  1 21  1 13  0.0000000  0  6G 9G18G11G19G14G22
  21874888.986    21874888.557    21874887.926   -14604134.167 6 -11379835.845 5
        36.500          33.000
  22299544.560    22299544.094    22299542.527   -15094059.976 5 -11761596.693 5
        35.100          30.200
  23628846.230    23628845.557    23628844.358    -3807145.431 4  -2966605.123 4
        24.600          24.600
  23892361.278    23892359.670    23892357.958    -4790800.111 4  -3733087.338 4
        26.500          24.600
  20767474.236    20767473.617    20767472.058   -23393956.362 7 -18229050.027 7
        42.500          45.200
  20493197.042    20493196.758    20493193.483   -23575119.992 7 -18370213.486 7
        45.000          47.600
 09  1 21  1 13 30.0000000  0  6G 9G18G11G19G14G22
  21885920.269    21885919.905    21885918.984   -14546164.852 6 -11334664.945 5
        36.500          32.800
  22314988.683    22314988.078    22314986.403   -15012902.598 5 -11698357.183 5
        35.500          30.200
  23614782.010    23614781.746    23614780.286    -3881050.722 3  -3024193.639 3
        23.800          23.800
  23905666.332    23905664.381    23905662.369    -4720886.654 4  -3678609.327 4
        26.800          24.900
  20759173.171    20759172.702    20759171.182   -23437577.618 7 -18263040.613 7
        42.400          45.200
  20499295.893    20499295.604    20499292.476   -23543069.803 7 -18345239.306 7
        44.900          47.500
 09  1 21  1 14  0.0000000  0  6G 9G18G11G19G14G22
  21897071.797    21897071.379    21897070.879   -14487561.810 5 -11289000.242 5
        35.900          32.700
  22330483.407    22330482.870    22330480.716   -14931477.970 5 -11634909.426 5
        35.700          30.200
  23600797.226    23600796.993    23600795.893    -3954542.695 3  -3081460.103 4
        23.800          24.200
  23919039.672    23919038.412    23919036.178    -4650604.501 4  -3623844.043 4
        26.200          25.300
  20750956.118    20750955.560    20750954.169   -23480758.838 7 -18296688.311 7
        42.300          45.400
  20505472.109    20505471.731    20505468.490   -23510614.236 7 -18319949.257 7
        44.800          47.400
 09  1 21  1 14 30.0000000  0  6G 9G18G11G19G14G22
  21908343.292    21908342.881    21908341.634   -14428330.132 6 -11242845.688 5
        36.000          32.100
  22346027.998    22346027.473    22346025.525   -14849790.234 5 -11571256.644 5
        35.100          30.400
  23586891.250    23586890.500    23586889.397    -4027622.204 3  -3138405.159 4
        23.800          24.200
  23932483.836    23932482.367    23932480.350    -4579959.326 4  -3568795.850 4
        26.500          26.800
  20742822.168    20742821.659    20742820.222   -23523502.391 7 -18329994.973 7
        42.300          45.400
  20511724.607    20511724.319    20511721.021   -23477756.611 7 -18294345.910 7
        44.900          47.200
 09  1 21  1 15  0.0000000  0  6G 9G18G11G19G14G22
  21919735.889    21919735.622    21919734.434   -14368462.758 6 -11196195.781 5
        37.000          32.700
  22361624.486    22361623.738    22361622.040   -14767830.851 5 -11507392.203 5
        34.600          30.200
  23573065.155    23573064.583    23573063.378    -4100277.666 3  -3195019.803 4
        23.800          24.200
  23945997.226    23945995.458    23945993.568    -4508944.429 4  -3513459.581 4
        25.600          27.100
  20734773.403    20734772.903    20734771.407   -23565798.723 7 -18362953.146 7
        42.300          45.500
  20518055.414    20518055.114    20518051.926   -23444487.734 7 -18268422.108 7
        44.800          47.100
 09  1 21  1 15 30.0000000  0  7G 9G18G11G19G12G14G22
  21931248.899    21931248.521    21931247.756   -14307960.332 6 -11149051.032 5
        36.600          32.700
  22377272.504    22377272.038    22377270.386   -14685599.160 5 -11443315.569 4
        34.600          29.700
  23559320.395    23559320.481    23559318.963    -4172505.425 4  -3251301.161 4
        24.900          24.600
  23959581.525    23959579.475    23959577.380    -4437560.903 4  -3457836.059 4
        24.200          26.800
  25261724.327    25261724.537    25261722.370            .10311         -.04312
        11.000          13.900
  20726810.426    20726809.910    20726808.379   -23607645.313 7 -18395560.872 7
        42.400          45.600
  20524464.855    20524464.560    20524461.268   -23410806.020 7 -18242176.615 7
        44.800          47.000
 09  1 21  1 16  0.0000000  0  8G 9G18G11G19G12G14G31G22
  21942876.946    21942876.533    21942875.416   -14246854.404 5 -11101436.022 5
        35.900          32.100
  22392966.925    22392966.273    22392964.548   -14603125.148 5 -11379050.116 4
        34.700          29.500
  23545653.022    23545652.720    23545650.813    -4244331.726 4  -3307269.689 4
        25.600          24.900
  23973229.348    23973227.368    23973225.599    -4365839.855 3  -3401949.541 4
        23.800          27.600
  25245774.090    25245773.553    25245770.516      -83829.102 2    -65321.496 2
        15.100          15.100
  20718927.504    20718926.987    20718925.297   -23649070.505 7 -18427840.238 7
        42.500          45.600
  25065232.601    25065231.100    25065229.646            .15611         -.06213
         9.000          21.100
  20530947.271    20530946.958    20530943.720   -23376740.874 7 -18215632.343 7
        44.700          47.000
 09  1 21  1 16 30.0000000  0  8G11G19G12G14G31G 9G18G22
  23532063.140    23532062.871    23532061.721    -4315743.250 4  -3362914.996 4
        25.600          24.900
  23986942.450    23986941.304    23986940.062    -4293772.660 4  -3345793.295 4
        24.200          27.900
  25229861.438    25229860.939    25229858.778     -167445.732 2   -130477.252 2
        15.100          15.100
  20711126.830    20711126.316    20711124.874   -23690062.760 7 -18459782.251 7
        42.300          45.700
  25043066.055    25043064.686    25043062.555     -116484.611 2    -90767.367 3
        13.900          21.100
  21954621.657    21954621.266    21954620.507   -14185135.992 5 -11053343.746 5
        35.800          32.800
  22408709.066    22408708.607    22408706.737   -14520398.649 5 -11314587.908 4
        34.800          29.200
  20537504.822    20537504.446    20537501.231   -23342281.292 7 -18188780.720 7
        44.700          47.000
 09  1 21  1 17  0.0000000  0  8G 9G11G19G12G14G31G18G22
  21966486.104    21966485.646    21966485.150   -14122788.312 5 -11004761.140 5
        35.700          33.400
  23518557.008    23518556.791    23518554.945    -4386718.611 4  -3418220.456 4
        26.200          24.200
  24000724.266    24000723.265    24000721.637    -4221343.533 4  -3289355.023 4
        24.200          25.900
  25213993.869    25213993.695    25213991.412     -250827.608 2   -195450.124 2
        15.100          15.100
  20703412.438    20703411.847    20703410.492   -23730602.476 7 -18491371.634 7
        42.200          45.800
  25020903.950    25020902.945    25020900.655     -232949.341 3   -181519.099 3
        18.600          19.300
  22424503.005    22424502.530    22424500.567   -14437401.597 5 -11249914.889 4
        34.700          29.500
  20544140.628    20544140.424    20544137.269   -23307408.489 7 -18161607.104 7
        44.700          46.900
 09  1 21  1 17 30.0000000  0  8G 9G11G19G12G14G31G18G22
  21978469.378    21978468.883    21978467.992   -14059816.655 6 -10955692.323 5
        36.000          33.000
  23505134.324    23505133.869    23505131.609    -4457258.158 4  -3473186.341 4
        26.500          24.200
  24014576.380    24014575.381    24014572.649    -4148557.255 4  -3232638.461 4
        26.800          25.300
  25198171.146    25198171.976    25198169.804     -333974.391 2   -260239.787 2
        12.600          17.000
  20695783.663    20695783.117    20695781.701   -23770691.718 7 -18522609.999 7
        42.300          45.900
  24998744.792    24998744.680    24998742.315     -349394.146 3   -272255.324 3
        22.100          18.600
  22440347.944    22440347.303    22440345.780   -14354136.961 5 -11185033.361 4
        34.000          29.900
  20550854.860    20550854.648    20550851.484   -23272125.213 7 -18134113.641 7
        44.600          46.800
 09  1 21  1 18  0.0000000  0  8G 9G11G19G12G14G31G18G22
  21990567.634    21990567.304    21990566.611   -13996238.024 5 -10906150.525 5
        35.800          32.800
  23491791.520    23491791.124    23491789.126    -4527374.616 4  -3527822.529 4
        27.100          24.600
  24028492.102    24028490.165    24028488.886    -4075431.338 4  -3175657.256 4
        26.500          25.900
  25182389.140    25182390.987    25182390.947     -416897.011     -324854.845 2
         3.000          16.100
  20688237.916    20688237.481    20688236.047   -23810344.405 7 -18553508.194 7
        42.300          46.000
  24976587.420    24976587.520    24976585.397     -465830.920 3   -362985.301 2
        22.600          17.800
  22456240.219    22456239.870    22456238.215   -14270620.419 5 -11119955.555 4
        33.600          29.500
  20557644.303    20557644.026    20557640.797   -23236446.491 7 -18106312.038 7
        44.500          46.700
 09  1 21  1 18 30.0000000  0 10G 9G11G32G19G 5G12G14G31G18G22
  22002784.364    22002783.829    22002783.226   -13932039.013 5 -10856125.319 5
        34.800          32.700
  23478531.961    23478531.992    23478530.668    -4597049.596 4  -3582114.720 4
        27.100          24.600
  25031802.896    25031802.458    25031802.935           -.8971          -.94711
         3.000          11.000
  24042474.619    24042472.468    24042471.340    -4001952.808 4  -3118401.242 4
        25.300          25.300
  25102490.605    25102489.774    25102490.795           -.78311         -.33411
         6.500           9.000
  25166656.604    25166657.227    25166656.232     -499576.888     -389280.589 2
         3.000          12.600
  20680778.496    20680777.931    20680776.424   -23849544.574 7 -18584053.774 7
        42.300          45.900
  24954434.723    24954434.286    24954432.978     -582241.563 3   -453694.922 2
        22.100          16.100
  22472184.446    22472183.714    22472181.429   -14186837.286 5 -11054670.012 4
        33.800          29.000
  20564512.191    20564511.829    20564508.585   -23200356.738 7 -18078190.149 7
        44.400          46.600
 09  1 21  1 19  0.0000000  0 10G 9G11G32G19G 5G12G14G31G18G22
  22015115.887    22015115.563    22015114.729   -13867236.198 5 -10805629.624 5
        34.800          32.600
  23465355.341    23465355.172    23465353.192    -4666295.168 4  -3636072.314 4
        27.400          24.200
  25013524.861    25013522.485    25013524.390      -96058.535      -74851.075 2
         3.000          12.600
  24056520.613    24056519.593    24056517.468    -3928138.609 4  -3060883.710 3
        26.200          23.800
  25084772.581    25084771.677    25084773.846      -93104.110      -72548.309 1
                        11.000
  25150970.090    25150968.976    25150966.239     -582024.914     -453525.705 2
         3.000          12.600
  20673402.287    20673401.876    20673400.479   -23888305.974 7 -18614257.460 7
        42.400          46.100
  24932285.209    24932284.861    24932283.755     -698637.321 3   -544392.935 2
        21.100          17.000
  22488175.193    22488174.715    22488172.561   -14102802.857 5 -10989188.648 4
        33.500          28.600
  20571454.952    20571454.743    20571451.640   -23163870.428 7 -18049759.259 7
        44.400          46.500
 09  1 21  1 19 30.0000000  0 10G 9G11G32G19G 5G12G14G31G18G22
  22027563.107    22027562.865    22027561.871   -13801825.851 5 -10754660.526 5
        35.200          32.600
  23452261.478    23452261.514    23452259.126    -4735103.229 4  -3689688.973 3
        28.100          23.800
  24995250.825    24995250.237    24995251.474     -192082.467 1   -149674.954 2
         6.500          12.600
  24070630.773    24070629.477    24070628.173    -3853985.532 4  -3003102.114 3
        25.300          22.100
  25067091.784    25067093.394    25067091.552     -186020.456 1   -144950.603 2
         6.500          12.600
  25135327.169    25135326.748    25135324.114     -664232.538 1   -517583.539 2
         6.500          13.900
  20666110.956    20666110.396    20666109.062   -23926622.511 7 -18644114.495 7
        42.200          46.100
  24910140.218    24910140.009    24910139.346     -815010.241 3   -635073.139 3
        21.100          19.900
  22504215.540    22504214.739    22504212.488   -14018512.546 5 -10923507.902 4
        33.600          28.600
  20578474.903    20578474.536    20578471.257   -23126982.064 7 -18021015.078 7
        44.400          46.400
 09  1 21  1 20  0.0000000  0 10G 9G32G11G19G 5G12G14G31G18G22
  22040124.837    22040124.675    22040123.413   -13735813.978 5 -10703222.709 5
        35.200          32.300
  24976985.509    24976984.546    24976983.266     -288074.558 1   -224473.969 2
         9.000          13.900
  23439251.407    23439251.200    23439248.544    -4803474.660 4  -3742965.414 3
        28.100          23.400
  24084805.605    24084804.538    24084801.783    -3779498.930 4  -2945060.610 3
        27.100          19.900
  25049447.200    25049445.851    25049447.483     -278749.239 1   -217206.740 2
         6.500          15.100
  25119725.913    25119727.833    25119724.830     -746199.268     -581453.775 2
         3.000          12.600
  20658903.770    20658903.217    20658901.909   -23964496.232 7 -18673626.481 7
        42.300          46.100
  24887998.442    24887999.086    24887998.637     -931360.505 3   -725735.652 3
        19.300          21.100
  22520303.168    22520302.650    22520300.554   -13933969.770 5 -10857630.424 4
        33.600          28.400
  20585570.095    20585569.831    20585566.768   -23089695.025 7 -17991960.241 7
        44.200          46.400
 09  1 21  1 20 30.0000000  0 10G 9G32G11G19G 5G12G14G31G18G22
  22052800.694    22052800.304    22052799.362   -13669202.251 5 -10651317.464 5
        34.700          32.300
  24958723.671    24958722.632    24958723.406     -384033.021 1   -299246.733 2
        11.000          13.900
  23426324.335    23426323.981    23426321.658    -4871406.703 4  -3795899.457 3
        28.100          23.400
  24099043.900    24099042.139    24099039.085    -3704681.551 4  -2886761.354 3
        26.500          21.100
  25031837.032    25031837.793    25031839.286     -371286.504 1   -289313.710 2
         6.500          16.100
  25104176.937    25104175.760    25104172.731     -827921.579 1   -645133.489 2
        11.000          12.600
  20651781.295    20651780.697    20651779.167   -24001926.027 7 -18702792.551 7
        42.300          46.200
  24865861.953    24865862.883    24865862.682    -1047684.742 3   -816377.879 3
        19.300          20.500
  22536438.636    22536438.210    22536436.529   -13849175.016 5 -10791556.591 4
        33.200          28.100
  20592741.579    20592741.305    20592738.241   -23052008.761 7 -17962594.323 7
        44.200          46.300
 09  1 21  1 21  0.0000000  0 10G11G32G19G 5G12G14G31G 9G18G22
  23413480.742    23413480.982    23413478.859    -4938894.955 4  -3848487.699 3
        27.600          23.800
  24940470.160    24940468.764    24940469.880     -479954.759 2   -373990.882 2
        12.600          15.100
  24113342.460    24113341.515    24113339.805    -3629533.465 3  -2828204.425 3
        23.800          21.600
  25014264.660    25014264.840    25014264.767     -463626.930 1   -361267.228 2
         6.500          13.900
  25088672.669    25088672.283    25088671.686     -909393.991 2   -708618.404 2
        13.900          15.100
  20644743.276    20644742.836    20644741.317   -24038909.580 7 -18731610.899 7
        42.200          46.100
  24843732.576    24843732.747    24843732.360    -1163978.441 3   -906996.322 3
        19.300          19.300
  22065590.810    22065590.214    22065589.635   -13601990.707 5 -10598944.828 5
        34.600          32.600
  22552623.226    22552622.650    22552620.675   -13764127.029 5 -10725285.440 4
        33.100          28.100
  20599989.116    20599989.018    20599985.825   -23013921.583 7 -17932916.000 7
        44.300          46.100
 09  1 21  1 21 30.0000000  0 10G11G32G19G 5G12G14G31G 9G18G22
  23400725.364    23400725.022    23400722.437    -5005931.043 4  -3900723.593 4
        27.100          24.600
  24922225.626    24922224.579    24922225.247     -575832.715 2   -448700.896 2
        13.900          16.100
  24127707.375    24127705.583    24127703.616    -3554051.077 3  -2769386.975 3
        22.600          21.100
  24996733.024    24996731.930    24996732.626     -555761.059     -433059.983 2
         3.000          12.600
  25073218.826    25073219.530    25073216.653     -990607.363 2   -771901.445 2
        15.100          15.100
  20637791.845    20637791.332    20637789.923   -24075440.467 7 -18760076.521 7
        42.200          46.300
  24821610.225    24821610.933    24821609.738    -1280232.848 3   -997584.162 3
        18.600          19.300
  22078495.353    22078494.965    22078493.747   -13534176.326 5 -10546102.457 5
        34.800          32.100
  22568856.597    22568855.944    22568853.646   -13678820.675 5 -10658812.971 4
        33.100          27.900
  20607314.512    20607314.227    20607311.098   -22975427.516 7 -17902920.619 7
        44.200          46.000
 09  1 21  1 22  0.0000000  0 10G11G32G19G 5G12G14G31G 9G18G22
  23388052.904    23388052.885    23388050.812    -5072521.395 4  -3952612.159 4
        26.800          24.600
  24903989.117    24903987.448    24903987.305     -671674.456 2   -523382.705 2
        13.900          17.000
  24142131.705    24142129.935    24142128.701    -3478246.179 3  -2710318.218 3
        21.600          21.100
  24979240.613    24979239.421    24979238.705     -647694.113 1   -504696.079 2
         9.000          13.900
  25057810.752    25057812.182    25057812.081    -1071567.438 2   -834987.133 2
        13.900          15.100
  20630924.995    20630924.428    20630922.886   -24111526.786 7 -18788195.725 7
        42.300          46.300
  24799493.904    24799494.684    24799493.703    -1396454.282 2  -1088146.295 3
        15.100          21.100
  22091512.560    22091512.258    22091511.305   -13465770.089 5 -10492798.899 5
        34.600          32.000
  22585137.108    22585136.545    22585134.470   -13593265.785 5 -10592146.831 4
        33.100          28.400
  20614715.475    20614715.193    20614711.958   -22936535.605 7 -17872615.236 7
        44.300          45.900
 09  1 21  1 22 30.0000000  0 10G11G32G19G 5G12G14G31G 9G18G22
  23375466.742    23375466.480    23375465.274    -5138663.520 4  -4004151.475 4
        26.500          24.900
  24885757.003    24885755.512    24885756.433     -767478.551 2   -598035.181 2
        12.600          17.800
  24156618.178    24156616.833    24156614.497    -3402120.884 3  -2650999.832 3
        23.400          20.500
  24961783.627    24961782.972    24961782.963     -739422.467 2   -576172.657 2
        13.900          16.100
  25042454.787    25042455.749    25042454.822    -1152270.466 2   -897872.578 2
        13.900          13.900
  20624142.660    20624142.179    20624140.622   -24147167.501 7 -18815967.709 7
        42.200          46.300
  24777382.055    24777385.150    24777384.951    -1512639.512 1  -1178680.160 3
        11.000          18.600
  22104641.883    22104641.505    22104640.900   -13396773.990 5 -10439035.703 5
        34.400          31.600
  22601464.831    22601464.085    22601462.437   -13507462.644 5 -10525287.263 4
        32.700          28.400
  20622192.094    20622191.794    20622188.504   -22897245.926 7 -17841999.897 7
        44.300          45.800
 09  1 21  1 23  0.0000000  0 10G11G32G19G 5G12G14G31G 9G18G22
  23362966.205    23362965.703    23362964.659    -5204352.073 4  -4055337.354 4
        25.900          24.600
  24867534.830    24867533.560    24867532.702     -863240.647 2   -672654.957 2
        12.600          17.000
  24171166.675    24171164.534    24171162.150    -3325675.150 3  -2591431.738 3
        23.400          21.600
  24944368.941    24944368.632    24944368.982     -830939.589 2   -647484.670 2
        15.100          17.000
  25027146.601    25027148.421    25027144.793    -1232710.248 2   -960552.926 2
        12.600          12.600
  20617445.894    20617445.360    20617443.795   -24182359.389 7 -18843389.954 7
        42.100          46.400
  24755279.610    24755283.087    24755279.152    -1628782.914 1  -1269181.444 3
        11.000          18.600
  22117883.694    22117883.339    22117882.733   -13327187.705 5 -10384812.609 5
        34.700          31.800
  22617840.047    22617839.492    22617837.609   -13421409.146 5 -10458232.602 4
        32.600          27.900
  20629745.053    20629744.650    20629741.409   -22857555.430 7 -17811072.236 7
        44.300          45.700
 09  1 21  1 23 30.0000000  0 10G11G32G19G 5G12G14G31G 9G18G22
  23350554.401    23350553.926    23350552.085    -5269580.730 4  -4106164.863 4
        27.400          24.600
  24849320.964    24849320.173    24849318.350     -958955.388 1   -747237.821 2
         9.000          17.000
  24185774.300    24185772.425    24185770.407    -3248907.184 3  -2531612.549 3
        23.000          22.100
  24926995.678    24926994.989    24926994.585     -922237.709 2   -718625.985 2
        12.600          17.000
  25011893.524    25011893.035    25011889.570    -1312878.892 1  -1023022.070 2
        11.000          16.100
  20610835.493    20610834.987    20610833.276   -24217097.722 7 -18870458.784 7
        42.100          46.400
  24733188.559    24733192.330    24733190.402    -1744877.515 2  -1359644.707 3
        17.800          22.600
  22131238.142    22131237.817    22131237.251   -13257009.357 5 -10330128.178 5
        34.300          32.000
  22634264.302    22634263.611    22634261.224   -13335101.762 5 -10390980.086 4
        32.700          27.400
  20637374.835    20637374.516    20637371.234   -22817459.997 7 -17779829.044 7
        44.200          45.600
 09  1 21  1 24  0.0000000  0 10G11G32G19G 5G12G14G31G 9G18G22
  23338228.598    23338228.208    23338225.753    -5334352.817 4  -4156636.605 3
        27.600          23.400
  24831113.734    24831112.325    24831113.038    -1054627.593 1   -821787.559 2
         6.500          16.100
  24200441.685    24200439.640    24200438.844    -3171825.249 3  -2471548.706 3
        23.800          23.000
  24909661.382    24909660.592    24909661.294    -1013319.311 1   -789598.623 2
         9.000          17.000
  24996686.475    24996685.906    24996683.102    -1392779.988 1  -1085282.543 3
         6.500          19.900
  20604310.252    20604309.743    20604308.118   -24251387.567 7 -18897178.139 7
        42.000          46.400
  24711107.973    24711108.424    24711106.822    -1860926.472 3  -1450072.421 4
        22.100          27.100
  22144703.627    22144703.300    22144702.303   -13186247.400 5 -10274988.994 5
        33.800          31.500
  22650734.752    22650734.128    22650732.059   -13248547.588 5 -10323535.274 4
        32.600          27.600
  20645080.421    20645080.243    20645077.053   -22776965.835 7 -17748275.148 7
        44.300          45.600
 09  1 21  1 24 30.0000000  0 10G11G32G19G 5G12G14G31G 9G18G22
  23325988.939    23325988.814    23325985.967    -5398671.615 4  -4206755.151 3
        27.900          23.400
  24812914.037    24812913.217    24812915.279    -1150261.351 1   -896307.297 2
         6.500          17.000
  24215167.616    24215166.704    24215165.816    -3094437.387 4  -2411246.507 4
        24.900          24.200
  24892371.241    24892369.945    24892370.346    -1104186.342 1   -860404.021 2
        11.000          16.100
  24981530.352    24981530.775    24981529.977    -1472414.649    -1147334.624 3
         3.000          18.600
  20597869.582    20597869.001    20597867.367   -24285233.801 6 -18923551.826 7
        41.900          46.500
  24689034.702    24689033.494    24689031.242    -1976932.403 3  -1540466.603 4
        23.400          26.800
  22158279.320    22158278.588    22158277.788   -13114909.415 5 -10219400.961 5
        34.000          31.600
  22667250.853    22667250.433    22667248.775   -13161752.701 5 -10255902.909 4
        32.100          28.100
  20652861.159    20652860.837    20652857.540   -22736078.957 7 -17716415.243 7
        44.200          45.400
 09  1 21  1 25  0.0000000  0 10G11G32G19G 5G12G14G31G 9G18G22
  23313837.355    23313837.040    23313835.087    -5462527.499 4  -4256512.965 4
        27.400          24.600
  24794724.206    24794725.356    24794724.432    -1245847.889 1   -970790.305 2
         9.000          15.100
  24229953.108    24229952.531    24229951.259    -3016738.818 4  -2350702.178 3
        25.600          23.800
  24875123.188    24875123.163    24875122.244    -1194827.777 2   -931033.716 2
        12.600          16.100
  24966433.487    24966433.477    24966429.754    -1551772.796 2  -1209171.935 3
        12.600          20.500
  20591514.461    20591514.045    20591512.596   -24318628.644 6 -18949573.781 7
        41.800          46.700
  24666969.541    24666968.057    24666965.742    -2092884.893 3  -1630819.134 4
        22.100          26.200
  22171964.629    22171964.389    22171963.741   -13042990.692 5 -10163360.395 5
        34.300          32.000
  22683814.650    22683814.187    22683812.535   -13074710.321 5 -10188077.702 4
        31.800          28.100
  20660717.861    20660717.570    20660714.107   -22694791.634 7 -17684243.300 7
        44.300          45.300
 09  1 21  1 25 30.0000000  0 10G11G32G19G 5G12G14G31G 9G18G22
  23301774.574    23301773.790    23301771.863    -5525922.013 4  -4305911.254 4
        27.400          24.900
  24776545.375    24776544.042    24776543.174    -1341390.138 2  -1045238.712 2
        13.900          15.100
  24244796.911    24244796.007    24244794.424    -2938736.058 4  -2289920.810 3
        25.600          22.600
  24857916.606    24857916.107    24857915.739    -1285244.155 2  -1001487.960 2
        12.600          15.100
  24951382.757    24951382.909    24951381.448    -1630854.879 2  -1270794.309 3
        15.100          19.900
  20585245.017    20585244.518    20585242.977   -24351575.479 6 -18975246.634 7
        41.800          46.800
  24644912.791    24644912.659    24644910.495    -2208785.025 3  -1721130.840 4
        21.100          24.600
  22185759.729    22185759.358    22185758.395   -12970497.631 5 -10106872.304 5
        33.800          31.300
  22700424.740    22700424.006    22700422.369   -12987425.136 5 -10120063.279 4
        31.300          27.600
  20668649.973    20668649.658    20668646.455   -22653107.883 7 -17651762.456 7
        44.200          45.400
 09  1 21  1 26  0.0000000  0 10G11G32G19G 5G12G14G31G 9G18G22
  23289798.249    23289797.996    23289796.788    -5588853.886 4  -4354949.077 4
        28.100          25.300
  24758372.676    24758371.154    24758371.341    -1436887.560 2  -1119652.221 2
        16.100          17.000
  24259697.514    24259696.670    24259694.788    -2860432.806 4  -2228905.305 3
        25.900          22.100
  24840756.177    24840754.587    24840753.981    -1375432.774 2  -1071764.733 2
        12.600          17.000
  24936387.860    24936387.565    24936386.295    -1709658.703 2  -1332199.886 3
        16.100          19.900
  20579060.644    20579060.184    20579058.563   -24384074.856 6 -19000570.824 7
        41.800          46.900
  24622866.546    24622867.815    24622866.099    -2324631.124 3  -1811400.489 3
        21.100          23.400
  22199663.008    22199662.670    22199661.956   -12897433.516 5 -10049939.222 5
        33.500          31.000
  22717080.559    22717079.887    22717078.192   -12899898.973 5 -10051861.092 4
        31.100          27.900
  20676657.262    20676657.011    20676653.598   -22611029.064 7 -17618973.766 7
        44.200          45.100
 09  1 21  1 26 30.0000000  0 10G11G32G19G 5G12G14G31G 9G18G22
  23277911.533    23277910.951    23277909.522    -5651320.542 4  -4403624.391 4
        28.100          25.300
  24740208.602    24740207.361    24740208.693    -1532338.455 2  -1194029.493 3
        17.800          19.300
  24274656.116    24274654.653    24274651.475    -2781831.002 4  -2167657.164 3
        26.500          21.600
  24823637.234    24823635.892    24823636.210    -1465389.632 2  -1141860.966 2
        12.600          17.000
  24921444.454    24921444.476    24921442.588    -1788180.445 2  -1393385.581 3
        16.100          19.900
  20572961.570    20572961.100    20572959.676   -24416125.494 6 -19025545.340 7
        41.600          47.100
  24600831.036    24600834.276    24600832.347    -2440420.134 3  -1901625.662 3
        20.500          21.600
  22213674.876    22213674.669    22213673.885   -12823800.652 5  -9992562.969 5
        33.400          31.000
  22733781.896    22733781.202    22733779.713   -12812132.456 5  -9983471.620 4
        31.500          27.600
  20684740.089    20684739.720    20684736.362   -22568554.699 7 -17585876.852 7
        44.300          45.200
 09  1 21  1 27  0.0000000  0 10G11G32G19G 5G12G14G31G 9G18G22
  23266113.289    23266113.170    23266111.689    -5713317.110 4  -4451933.400 4
        28.100          24.900
  24722053.245    24722053.008    24722053.895    -1627739.249 2  -1268367.753 3
        17.800          19.300
  24289669.345    24289667.781    24289666.933    -2702931.100 4  -2106176.736 3
        24.600          22.600
  24806562.365    24806562.494    24806560.826    -1555109.044 1  -1211772.136 2
        11.000          15.100
  24906556.292    24906556.025    24906556.749    -1866414.526 2  -1454347.114 3
        16.100          21.600
  20566948.437    20566947.966    20566946.393   -24447724.810 6 -19050168.182 7
        41.500          47.100
  24578810.042    24578812.073    24578810.262    -2556146.784 3  -1991802.258 3
        20.500          20.500
  22227795.364    22227794.870    22227793.927   -12749599.024 5  -9934743.512 5
        33.600          31.300
  22750529.403    22750528.716    22750527.082   -12724123.816 5  -9914893.477 4
        32.000          27.400
  20692898.203    20692897.843    20692894.619   -22525682.863 7 -17552470.226 7
        44.100          45.200
 09  1 21  1 27 30.0000000  0 10G11G32G19G 5G12G14G31G 9G18G22
  23254404.720    23254405.006    23254403.488    -5774844.573 4  -4499876.875 4
        28.800          25.300
  24703907.744    24703907.283    24703907.579    -1723091.697 3  -1342668.353 2
        19.300          17.800
  24304739.660    24304738.168    24304736.533    -2623738.549 4  -2044468.278 3
        24.900          22.100
  24789534.812    24789534.188    24789533.988    -1644590.349 1  -1281497.809 2
         6.500          13.900
  24891724.508    24891724.611    24891724.193    -1944360.704 3  -1515084.382 3
        19.300          22.600
  20561020.762    20561020.216    20561018.800   -24478875.233 6 -19074441.236 7
        41.500          47.300
  24556802.520    24556802.300    24556799.990    -2671811.298 3  -2081930.460 3
        18.600          20.500
  22242022.547    22242022.128    22242021.726   -12674834.251 5  -9876485.255 5
        33.500          31.500
  22767322.280    22767321.499    22767319.700   -12635876.850 5  -9846129.608 4
        31.600          27.400
  20701131.436    20701131.196    20701127.894   -22482416.847 7 -17518756.449 7
        44.300          45.000
 09  1 21  1 28  0.0000000  0 10G11G32G19G 5G12G14G31G 9G18G22
  23242787.099    23242786.434    23242784.815    -5835901.163 4  -4547453.421 4
        28.600          24.900
  24685772.623    24685771.685    24685771.763    -1818395.115 3  -1416930.716 3
        21.100          18.600
  24319863.561    24319862.957    24319860.665    -2544256.753 4  -1982534.396 3
        24.600          21.100
  24772550.261    24772552.098    24772550.588    -1733830.883    -1351035.765 2
                        12.600
  24876948.803    24876948.554    24876944.393    -2022015.994 3  -1575594.956 3
        21.600          21.100
  20555178.362    20555177.781    20555176.521   -24509576.765 6 -19098364.504 7
        41.400          47.400
  24534805.929    24534804.556    24534802.960    -2787411.361 2  -2172008.396 3
        15.100          21.600
  22256356.174    22256355.699    22256355.392   -12599509.678 5  -9817790.782 5
        33.100          31.000
  22784159.604    22784159.345    22784157.709   -12547392.953 5  -9777181.136 4
        30.600          27.600
  20709439.540    20709439.239    20709435.847   -22438757.375 7 -17484736.076 7
        44.100          44.800
 09  1 21  1 28 30.0000000  0 10G11G32G19G 5G12G14G31G 9G18G22
  23231258.117    23231257.799    23231255.778    -5896484.771 4  -4594661.434 4
        28.800          24.600
  24667647.912    24667646.990    24667646.464    -1913648.075 3  -1491153.738 3
        23.000          19.300
  24335043.907    24335042.490    24335040.471    -2464488.046 4  -1920376.982 3
        24.600          22.100
  24755614.402    24755615.790    24755615.434    -1822826.739 1  -1420383.173 1
         6.500           9.000
  24862224.411    24862224.321    24862223.582    -2099377.396 2  -1635876.517 3
        17.000          21.100
  20549421.530    20549421.054    20549419.670   -24539828.973 6 -19121937.648 7
        41.400          47.500
  24512819.461    24512818.954    24512817.548    -2902944.309 2  -2262034.013 3
        13.900          21.100
  22270795.832    22270795.699    22270795.300   -12523627.472 5  -9758661.789 5
        33.100          30.600
  22801043.196    22801042.565    22801040.396   -12458672.892 5  -9708048.647 4
        30.400          27.100
  20717822.672    20717822.254    20717818.901   -22394704.491 7 -17450409.154 7
        44.100          44.800
 09  1 21  1 29  0.0000000  0 10G11G32G19G 5G12G14G31G 9G18G22
  23219820.599    23219819.953    23219818.016    -5956591.111 4  -4641497.530 4
        28.100          25.300
  24649532.399    24649531.508    24649531.910    -2008847.325 3  -1565334.939 3
        23.000          21.600
  24350278.230    24350276.941    24350275.053    -2384432.978 4  -1857996.439 4
        25.300          24.200
  24738729.987    24738729.718    24738727.744    -1911572.493 2  -1489535.701 1
        15.100           9.000
  24847559.553    24847561.584    24847559.591    -2176439.626 2  -1695924.983 3
        15.100          21.600
  20543750.516    20543750.063    20543748.870   -24569629.238 6 -19145158.633 7
        41.300          47.600
  24490847.113    24490847.089    24490846.083    -3018405.264 2  -2352003.556 3
        12.600          18.600
  22285341.979    22285341.749    22285341.098   -12447188.184 5  -9699098.702 5
        32.700          30.800
  22817971.213    22817970.554    22817968.229   -12369715.522 5  -9638731.237 4
        31.000          26.200
  20726280.807    20726280.515    20726277.141   -22350256.368 7 -17415774.251 7
        44.300          44.700
 09  1 21  1 29 30.0000000  0 10G11G32G19G 5G12G14G31G 9G18G22
  23208471.675    23208471.977    23208470.397    -6016223.399 4  -4687964.239 4
        27.100          24.200
  24631425.157    24631424.464    24631425.580    -2103996.999 3  -1639477.529 3
        21.600          22.600
  24365564.730    24365563.235    24365561.792    -2304099.759 4  -1795399.122 4
        25.900          24.900
  24721889.716    24721888.551    24721888.703    -2000069.963 2  -1558494.792 1
        15.100          11.000
  24832952.334    24832952.869    24832951.881    -2253204.796 2  -1755741.979 3
        13.900          21.600
  20538164.957    20538164.381    20538163.121   -24598982.758 6 -19168031.500 7
        41.300          47.700
  24468889.141    24468889.704    24468887.424    -3133796.605 2  -2441918.903 2
        16.100          17.000
  22299992.608    22299992.191    22299991.296   -12370199.990 5  -9639107.917 5
        32.600          30.200
  22834943.265    22834942.725    22834940.155   -12280527.182 5  -9569233.826 4
        31.000          26.200
  20734813.105    20734812.843    20734809.447   -22305418.691 7 -17380835.802 7
        44.200          44.600
 09  1 21  1 30  0.0000000  0 10G11G32G19G 5G12G14G31G 9G18G22
  23197216.099    23197216.647    23197214.327    -6075371.829 4  -4734053.935 3
        27.400          23.800
  24613327.461    24613328.229    24613329.478    -2199088.160 3  -1713574.538 3
        19.900          22.600
  24380903.958    24380903.129    24380902.254    -2223483.297 4  -1732581.122 4
        25.600          25.300
  24705098.389    24705097.121    24705095.810    -2088308.099 2  -1627251.792 2
        13.900          12.600
  24818403.960    24818403.809    24818401.637    -2329661.977 2  -1815318.906 3
        16.100          20.500
  20532665.697    20532665.222    20532663.871   -24627881.378 6 -19190549.899 7
        41.400          47.800
  24446945.868    24446945.894    24446945.235    -3249108.101 2  -2531772.049 3
        17.000          19.300
  22314748.544    22314747.912    22314747.150   -12292657.572 5  -9578685.252 4
        32.400          29.700
  22851960.431    22851959.664    22851957.593   -12191100.997 4  -9499551.101 4
        29.700          26.200
  20743420.821    20743420.608    20743417.244   -22260184.139 7 -17345588.100 7
        44.100          44.400
 09  1 21  1 30 30.0000000  0 10G11G32G19G 5G12G14G31G 9G18G22
  23186053.195    23186052.963    23186050.843    -6134035.804 4  -4779766.111 4
        27.400          24.600
  24595243.992    24595243.288    24595245.052    -2294121.145 3  -1787626.191 3
        20.500          22.100
  24396299.779    24396298.775    24396296.256    -2142587.846 4  -1669545.724 4
        26.800          25.300
  24688356.407    24688355.145    24688355.567    -2176285.095 1  -1695805.217 2
         9.000          13.900
  24803914.883    24803914.346    24803912.105    -2405809.675 3  -1874654.726 3
        19.300          20.500
  20527253.096    20527252.480    20527250.913   -24656326.369 6 -19212714.824 7
        41.400          47.800
  24425018.339    24425017.776    24425017.000    -3364338.458 2  -2621561.889 3
        17.000          22.600
  22329608.562    22329608.352    22329607.628   -12214565.595 5  -9517834.347 4
        32.600          29.900
  22869022.449    22869021.601    22869019.795   -12101439.427 4  -9429684.967 4
        29.700          26.500
  20752103.910    20752103.652    20752100.298   -22214554.492 7 -17310032.527 7
        44.200          44.400
 09  1 21  1 31  0.0000000  0 10G32G11G19G 5G12G14G31G 9G18G22
  24577171.448    24577170.350    24577170.002    -2389103.135 3  -1861638.090 3
        22.100          21.100
  23174981.088    23174980.749    23174978.648    -6192221.689 4  -4825105.744 4
        27.900          24.900
  24411745.569    24411743.639    24411741.616    -2061424.621 4  -1606301.693 4
        25.900          26.500
  24671661.951    24671660.929    24671662.288    -2264005.835 1  -1764158.992 2
         9.000          15.100
  24789482.200    24789481.558    24789480.628    -2481653.215 3  -1933753.599 3
        21.100          21.100
  20521924.734    20521924.190    20521922.784   -24684325.728 6 -19234532.500 7
        41.200          47.800
  24403105.683    24403104.833    24403103.285    -3479493.719 3  -2711293.216 3
        20.500          23.000
  22344571.623    22344571.076    22344570.440   -12135934.858 5  -9456563.657 4
        32.100          29.200
  22886126.989    22886126.610    22886124.787   -12011551.870 4  -9359642.732 4
        29.700          26.500
  20760860.479    20760860.219    20760856.906   -22168538.495 7 -17274175.907 7
        44.000          44.400
 09  1 21  1 31 30.0000000  0 10G32G11G19G 5G12G14G31G 9G18G22
  24559108.230    24559107.499    24559106.390    -2484028.874 3  -1935606.179 3
        21.600          19.900
  23164001.420    23164000.917    23163998.131    -6249923.487 4  -4870068.190 4
        28.400          24.600
  24427240.807    24427238.782    24427237.674    -1979992.302 4  -1542847.970 4
        24.200          26.200
  24655022.379    24655021.762    24655020.613    -2351462.829 2  -1832307.242 2
        16.100          16.100
  24775108.665    24775108.320    24775105.206    -2557185.283 3  -1992609.722 2
        20.500          17.000
  20516682.562    20516681.908    20516680.350   -24711874.913 6 -19255999.396 8
        41.300          48.000
  24381206.754    24381206.504    24381205.431    -3594566.705 3  -2800960.468 4
        22.100          24.200
  22359637.428    22359636.921    22359635.688   -12056764.303 5  -9394872.309 4
        32.000          28.600
  22903275.980    22903275.195    22903273.637   -11921434.807 4  -9289421.662 4
        29.700          26.800
  20769691.217    20769690.871    20769687.694   -22122132.371 7 -17238015.294 7
        43.700          44.300
 09  1 21  1 32  0.0000000  0 10G32G11G19G 5G12G14G31G 9G18G22
  24541055.273    24541054.062    24541053.675    -2578895.089 3  -2009527.850 3
        20.500          19.300
  23153113.378    23153113.197    23153110.987    -6307136.925 4  -4914650.093 4
        28.400          25.300
  24442788.922    24442787.342    24442784.572    -1898291.393 4  -1479184.950 4
        24.900          24.900
  24638429.608    24638428.976    24638428.926    -2438650.768 2  -1900245.908 2
        13.900          16.100
  24760794.382    24760794.286    24760792.510    -2632400.886 2  -2051219.206 2
        17.000          17.000
  20511526.043    20511525.461    20511524.031   -24738971.827 6 -19277113.868 8
        41.300          48.100
  24359324.968    24359325.751    24359324.900    -3709552.611 3  -2890559.856 4
        23.000          25.600
  22374805.740    22374805.137    22374804.436   -11977054.535 5  -9332760.802 4
        32.700          29.500
  22920468.764    22920468.252    22920466.311   -11831087.339 5  -9219021.057 4
        30.200          26.800
  20778596.703    20778596.324    20778592.956   -22075334.808 7 -17201549.658 7
        43.900          44.100
 09  1 21  1 32 30.0000000  0 10G32G11G19G 5G12G14G31G 9G18G22
  24523013.661    24523013.025    24523012.756    -2673701.772 3  -2083403.151 3
        19.900          20.500
  23142318.909    23142318.557    23142317.253    -6363861.581 4  -4958851.114 4
        27.900          26.200
  24458385.401    24458384.079    24458381.435    -1816326.138 3  -1415315.923 4
        23.400          24.600
  24621890.561    24621889.209    24621888.621    -2525567.420 2  -1967973.187 2
        12.600          15.100
  24746542.411    24746542.164    24746541.737    -2707297.918 2  -2109580.551 3
        17.800          21.100
  20506455.367    20506454.892    20506453.509   -24765617.390 6 -19297876.640 8
        41.300          48.100
  24337460.711    24337460.905    24337460.276    -3824450.187 3  -2980090.411 4
        23.000          24.900
  22390075.718    22390075.346    22390074.611   -11896809.684 5  -9270232.355 4
        33.100          29.700
  22937704.616    22937704.378    22937702.180   -11740511.875 4  -9148442.788 4
        29.700          25.900
  20787576.192    20787575.815    20787572.553   -22028146.972 7 -17164779.914 7
        43.800          44.100
 09  1 21  1 33  0.0000000  0 10G32G11G19G 5G12G14G31G 9G18G22
  24504984.390    24504983.049    24504983.641    -2768448.777 3  -2157231.958 3
        20.500          22.100
  23131617.278    23131617.408    23131616.103    -6420096.333 4  -5002670.384 4
        28.400          26.200
  24474033.049    24474031.553    24474029.293    -1734100.102 3  -1351243.709 4
        19.900          24.600
  24605402.204    24605400.986    24605400.479    -2612210.411 2  -2035487.198 2
        15.100          16.100
  24732350.156    24732350.446    24732350.429    -2781874.592 3  -2167692.244 3
        18.600          21.600
  20501470.720    20501470.197    20501468.737   -24791812.315 6 -19318288.268 8
        41.300          48.200
  24315613.805    24315614.193    24315612.581    -3939257.387 3  -3069550.554 4
        23.400          24.600
  22405446.486    22405446.491    22405445.941   -11816033.355 5  -9207289.755 4
        32.300          29.500
  22954983.947    22954983.293    22954980.873   -11649710.093 4  -9077688.166 4
        29.000          25.300
  20796629.430    20796629.130    20796625.999   -21980570.824 7 -17127707.592 7
        43.700          44.000
 09  1 21  1 33 30.0000000  0 10G32G11G19G 5G12G14G31G 9G18G22
  24486966.962    24486965.662    24486966.264    -2863132.437 3  -2231011.418 3
        19.900          23.000
  23121011.062    23121010.498    23121008.641    -6475836.751 4  -5046104.480 4
        28.600          25.900
  24489727.956    24489726.853    24489726.153    -1651613.802 2  -1286968.673 3
        17.800          23.400
  24588966.853    24588966.451    24588968.017    -2698573.869 2  -2102783.371 2
        15.100          17.800
  24718220.876    24718220.542    24718219.271    -2856125.201 3  -2225549.815 3
        18.600          18.600
  20496572.281    20496571.757    20496570.265   -24817553.954 6 -19338346.685 8
        41.300          48.300
  24293785.030    24293785.270    24293784.285    -4053969.593 3  -3158936.686 4
        23.400          26.200
  22420919.184    22420918.634    22420918.101   -11734726.171 5  -9143933.509 4
        32.300          29.500
  22972305.923    22972305.304    22972303.272   -11558680.715 4  -9006756.204 4
        28.800          25.300
  20805757.277    20805756.983    20805753.697   -21932604.302 7 -17090331.081 7
        43.900          43.900
 09  1 21  1 34  0.0000000  0 10G32G11G19G 5G12G14G31G 9G18G22
  24468960.102    24468958.767    24468959.805    -2957754.984 3  -2304743.248 3
        18.600          23.400
  23110497.729    23110497.340    23110495.082    -6531084.568 4  -5089154.723 4
        29.700          26.200
  24505474.536    24505473.452    24505471.259    -1568873.379 3  -1222495.608 3
        20.500          23.800
  24572587.333    24572586.623    24572585.791    -2784657.949 2  -2169861.840 2
        13.900          16.100
  24704153.428    24704153.329    24704152.092    -2930050.121 3  -2283153.641 3
        18.600          18.600
  20491759.385    20491758.903    20491757.570   -24842845.445 6 -19358054.336 8
        41.200          48.400
  24271974.065    24271974.652    24271973.295    -4168587.410 3  -3248249.245 4
        23.400          26.200
  22436491.477    22436490.980    22436489.945   -11652894.200 5  -9080168.338 4
        32.400          29.000
  22989670.892    22989670.125    22989668.390   -11467428.202 4  -8935650.361 4
        28.800          25.300
  20814958.590    20814958.253    20814955.016   -21884250.398 7 -17052652.713 7
        43.600          43.700
 09  1 21  1 34 30.0000000  0 10G32G11G19G 5G12G14G31G 9G18G22
  24450966.120    24450965.445    24450966.393    -3052309.393 2  -2378421.979 3
        17.800          23.400
  23100079.896    23100079.583    23100077.620    -6585831.551 5  -5131814.701 4
        30.600          27.100
  24521268.212    24521266.892    24521265.179    -1485875.788 3  -1157822.190 3
        19.900          23.000
  24556257.861    24556258.826    24556258.099    -2870453.306 1  -2236715.320 2
         9.000          13.900
  24690149.799    24690149.747    24690149.644    -3003640.372 3  -2340496.716 3
        19.300          20.500
  20487033.349    20487032.895    20487031.490   -24867680.791 6 -19377406.547 8
        41.200          48.400
  24250183.312    24250182.950    24250181.098    -4283101.996 3  -3337481.375 4
        22.100          24.200
  22452164.045    22452163.685    22452162.491   -11570534.119 5  -9015991.650 4
        32.600          29.200
  23007078.530    23007077.851    23007076.511   -11375947.404 4  -8864366.631 4
        28.400          25.300
  20824234.666    20824234.367    20824231.123   -21835504.255 7 -17014668.707 7
        43.500          43.700
 09  1 21  1 35  0.0000000  0 10G32G11G19G 5G12G14G31G 9G18G22
  24432986.554    24432985.724    24432985.978    -3146798.900 2  -2452050.144 3
        16.100          23.400
  23089756.307    23089756.316    23089754.191    -6640080.618 5  -5174086.687 4
        31.600          26.800
  24537109.899    24537108.307    24537105.880    -1402628.301 3  -1092954.012 3
        19.300          21.100
  24539987.133    24539985.403    24539986.918    -2955961.238 1  -2303344.806 2
         9.000          13.900
  24676209.506    24676209.434    24676209.241    -3076897.707 3  -2397580.303 3
        19.300          20.500
  20482393.236    20482392.841    20482391.375   -24892064.274 6 -19396406.661 8
        41.300          48.400
  24228411.320    24228410.991    24228408.671    -4397515.406 3  -3426634.651 4
        21.600          24.200
  22467935.731    22467935.145    22467934.248   -11487653.503 5  -8951409.355 4
        32.400          29.000
  23024528.754    23024528.213    23024527.199   -11284244.038 4  -8792909.477 4
        28.400          24.900
  20833584.305    20833584.051    20833580.889   -21786371.180 7 -16976383.195 7
        43.600          43.700
 09  1 21  1 35 30.0000000  0 10G32G11G19G 5G12G14G31G 9G18G22
  24415017.754    24415017.348    24415017.812    -3241222.560 2  -2525627.004 3
        16.100          23.800
  23079528.069    23079528.065    23079525.966    -6693830.279 5  -5215969.546 4
        31.600          26.800
  24552996.028    24552995.841    24552993.794    -1319133.990 2  -1027893.560 3
        16.100          18.600
  24523772.702    24523771.847    24523770.854    -3041178.455 2  -2369747.830 2
        13.900          17.000
  24662334.977    24662334.434    24662330.670    -3149819.087 3  -2454402.158 2
        21.100          17.800
  20477839.565    20477838.989    20477837.454   -24915995.820 6 -19415054.617 8
        41.300          48.600
  24206658.798    24206659.119    24206656.392    -4511825.221 3  -3515707.212 3
        22.600          23.800
  22483805.709    22483805.387    22483804.164   -11404255.739 5  -8886424.090 4
        32.000          28.600
  23042021.806    23042021.263    23042019.910   -11192319.372 4  -8721279.876 4
        28.800          24.600
  20843007.789    20843007.507    20843004.224   -21736851.266 7 -16937796.247 7
        43.700          43.600
 09  1 21  1 36  0.0000000  0 10G32G11G19G 5G12G14G31G 9G18G22
  24397060.164    24397059.903    24397060.431    -3335587.210 2  -2599157.862 3
        17.000          23.800
  23069393.930    23069393.894    23069391.484    -6747086.406 5  -5257467.833 4
        31.600          26.500
  24568931.664    24568929.837    24568927.690    -1235403.546 2   -962649.025 3
        16.100          19.300
  24507610.530    24507609.666    24507609.916    -3126109.709 2  -2435927.988 3
        17.000          19.300
  24648519.498    24648519.814    24648516.824    -3222409.581 3  -2510966.200 2
        19.900          17.800
  20473369.941    20473369.474    20473367.777   -24939483.419 6 -19433356.638 8
        41.300          48.600
  24184924.644    24184924.919    24184923.035    -4626036.484 3  -3604702.984 4
        22.100          24.200
  22499772.180    22499771.591    22499771.055   -11320351.334 5  -8821044.030 4
        31.600          28.800
  23059555.181    23059554.530    23059553.133   -11100182.467 4  -8649484.895 4
        28.100          25.300
  20852503.102    20852502.831    20852499.461   -21686952.997 7 -16898914.479 7
        43.600          43.400
 09  1 21  1 36 30.0000000  0 10G32G11G19G 5G12G14G31G 9G18G22
  24379116.174    24379116.103    24379116.599    -3429881.459 3  -2672633.857 3
        18.600          23.400
  23059355.822    23059355.345    23059353.856    -6799837.067 5  -5298572.237 4
        30.800          27.400
  24584911.078    24584909.756    24584908.141    -1151429.856 3   -897215.007 3
        20.500          20.500
  24491504.568    24491504.490    24491504.627    -3210741.640 2  -2501874.901 3
        16.100          19.300
  24634771.579    24634770.538    24634769.820    -3294656.126 2  -2567262.222 3
        16.100          21.100
  20468986.943    20468986.376    20468984.708   -24962516.879 6 -19451304.782 8
        41.300          48.600
  24163211.276    24163211.624    24163210.029    -4740136.691 3  -3693612.206 4
        21.600          24.200
  22515835.540    22515835.300    22515835.099   -11235933.340 5  -8755263.782 4
        31.300          29.000
  23077129.882    23077129.523    23077128.411   -11007823.959 4  -8577517.242 4
        27.400          25.300
  20862072.162    20862071.889    20862068.654   -21636666.946 7 -16859730.544 7
        43.600          43.400
 09  1 21  1 37  0.0000000  0 10G32G11G19G 5G12G14G31G 9G18G22
  24361185.207    24361185.193    24361187.946    -3524099.284 2  -2746050.288 3
        17.000          23.000
  23049415.395    23049414.945    23049413.446    -6852075.712 5  -5339277.653 4
        31.300          27.600
  24600937.860    24600936.102    24600935.127    -1067210.871 3   -831589.828 3
        20.500          20.500
  24475458.221    24475457.778    24475457.889    -3295065.923 2  -2567582.128 3
        15.100          18.600
  24621089.357    24621089.615    24621088.492    -3366550.755 2  -2623283.962 3
        16.100          22.600
  20464691.077    20464690.571    20464689.038   -24985091.028 6 -19468895.026 8
        41.300          48.800
  24141522.365    24141522.172    24141520.389    -4854118.173 3  -3782428.912 4
        23.400          24.600
  22531998.499    22531998.212    22531997.663   -11150999.794 5  -8689081.800 4
        31.600          29.200
  23094748.156    23094747.692    23094746.611   -10915240.385 4  -8505374.216 4
        27.400          24.900
  20871715.975    20871715.746    20871712.482   -21585988.532 7 -16820240.870 7
        43.600          43.400
 09  1 21  1 37 30.0000000  0 10G32G11G19G 5G12G14G31G 9G18G22
  24343270.041    24343269.834    24343271.294    -3618249.616 3  -2819414.161 3
        18.600          23.400
  23039570.466    23039570.180    23039568.047    -6903810.651 5  -5379590.576 4
        31.100          27.100
  24617007.322    24617006.703    24617005.229     -982759.371 3   -765783.471 3
        19.900          19.900
  24459469.881    24459468.825    24459468.884    -3379089.601 2  -2633055.101 3
        13.900          19.300
  24607475.752    24607475.252    24607473.350    -3438100.535 3  -2679037.001 3
        19.300          23.000
  20460480.850    20460480.342    20460478.987   -25007215.848 6 -19486135.142 8
        41.300          48.900
  24119852.498    24119852.655    24119851.787    -4967988.590 3  -3871159.088 4
        22.600          24.200
  22548257.206    22548256.690    22548255.342   -11065563.724 5  -8622508.241 4
        31.800          28.600
  23112407.436    23112406.837    23112405.033   -10822442.871 4  -8433064.483 4
        27.600          24.600
  20881432.130    20881431.930    20881428.914   -21534928.695 7 -16780453.986 7
        43.400          43.400
 09  1 21  1 38  0.0000000  0 10G32G11G19G 5G12G14G31G 9G18G22
  24325368.565    24325366.919    24325367.238    -3712336.999 3  -2892729.004 3
        21.100          23.800
  23029820.362    23029820.297    23029818.333    -6955046.067 5  -5419514.267 4
        31.600          27.100
  24633121.833    24633120.635    24633117.764     -898084.201 3   -699802.826 3
        21.600          19.900
  24443537.623    24443536.986    24443537.501    -3462815.068 2  -2698295.662 3
        13.900          21.100
  24593925.071    24593925.058    24593923.190    -3509308.308 3  -2734523.600 3
        19.900          23.800
  20456355.130    20456354.590    20456353.048   -25028897.120 6 -19503029.633 8
        41.200          48.900
  24098205.273    24098204.908    24098203.914    -5081750.598 4  -3959804.781 4
        24.200          25.600
  22564608.298    22564607.822    22564607.345   -10979633.738 5  -8555549.818 4
        31.000          29.000
  23130105.633    23130104.821    23130103.052   -10729437.970 4  -8360593.146 3
        26.800          23.800
  20891220.103    20891219.743    20891216.612   -21483493.774 7 -16740374.829 7
        43.400          43.300
 09  1 21  1 38 30.0000000  0 10G32G11G19G 5G12G14G31G 9G18G22
  24307478.040    24307476.969    24307476.990    -3806351.651 3  -2965987.162 3
        22.100          23.800
  23020168.334    23020167.755    23020165.522    -7005771.078 5  -5459040.261 4
        32.000          26.800
  24649278.541    24649276.594    24649275.286     -813179.507 3   -633643.367 3
        22.100          21.600
  24427663.332    24427663.861    24427663.542    -3546230.225 2  -2763294.421 3
        15.100          20.500
  24580441.677    24580441.647    24580440.344    -3580162.772 3  -2789734.795 3
        20.500          23.800
  20452315.297    20452314.832    20452313.411   -25050125.945 6 -19519571.572 8
        41.200          49.000
  24076580.371    24076579.836    24076578.848    -5195393.303 4  -4048357.516 4
        24.900          26.200
  22581055.318    22581055.060    22581054.350   -10893204.225 5  -8488202.150 4
        31.100          28.400
  23147844.883    23147843.988    23147842.203   -10636217.998 4  -8287954.222 3
        26.500          23.000
  20901080.708    20901080.422    20901077.207   -21431675.508 7 -16699996.959 7
        43.500          43.100
 09  1 21  1 39  0.0000000  0 10G32G11G19G 5G12G14G31G 9G18G22
  24289601.439    24289600.714    24289601.101    -3900287.905 3  -3039184.237 3
        23.000          23.800
  23010613.554    23010613.294    23010611.215    -7055979.836 5  -5498163.973 4
        31.100          26.500
  24665479.670    24665478.236    24665476.845     -728043.710 3   -567303.811 3
        22.600          21.100
  24411852.718    24411852.558    24411850.757    -3629327.466 2  -2828045.517 3
        17.000          19.300
  24567027.626    24567026.794    24567024.672    -3650656.184 3  -2844664.742 3
        19.300          22.600
  20448362.522    20448362.027    20448360.389   -25070898.106 6 -19535757.669 8
        41.200          49.000
  24054978.597    24054978.333    24054977.313    -5308909.696 4  -4136811.814 4
        24.600          25.900
  22597597.423    22597596.996    22597596.431   -10806273.909 4  -8420464.228 4
        29.900          27.600
  23165625.385    23165624.860    23165622.813   -10542779.840 4  -8215145.273 3
        26.200          22.100
  20911015.240    20911014.856    20911011.586   -21379470.098 7 -16659317.421 7
        43.400          43.000
 09  1 21  1 39 30.0000000  0 10G32G11G19G 5G12G14G31G 9G18G22
  24271737.863    24271737.144    24271737.881    -3994157.188 3  -3112329.100 3
        23.400          23.400
  23001155.079    23001154.601    23001152.562    -7105683.253 5  -5536893.899 4
        30.200          26.500
  24681719.423    24681718.473    24681717.396     -642692.122 3   -500796.078 3
        19.900          19.900
  24396097.068    24396096.780    24396096.142    -3712116.076 2  -2892556.130 3
        15.100          19.300
  24553679.660    24553679.564    24553675.919    -3720798.540 3  -2899321.134 3
        21.100          21.600
  20444494.348    20444493.854    20444492.321   -25091225.841 6 -19551597.458 8
        41.200          49.100
  24033399.951    24033399.755    24033397.734    -5422309.438 4  -4225175.229 4
        25.600          26.500
  22614231.943    22614231.727    22614230.806   -10718858.478 4  -8352348.310 4
        29.700          27.900
  23183444.470    23183444.345    23183442.087   -10449137.089 4  -8142176.879 3
        26.500          22.100
  20921020.616    20921020.311    20921016.918   -21326891.013 7 -16618346.705 7
        43.400          42.900
 09  1 21  1 40  0.0000000  0 10G32G11G19G 5G12G14G31G 9G18G22
  24253890.202    24253889.875    24253889.972    -4087945.682 4  -3185411.006 3
        24.200          23.000
  22991796.361    22991795.774    22991793.329    -7154866.983 5  -5575218.886 4
        31.100          26.500
  24698005.239    24698003.725    24698002.225     -557115.250 3   -434112.820 3
        20.500          19.900
  24380403.731    24380403.173    24380403.288    -3794580.343 2  -2956813.943 3
        12.600          19.300
  24540401.505    24540401.925    24540400.001    -3790574.290 3  -2953691.819 3
        23.800          23.800
  20440713.111    20440712.551    20440710.872   -25111097.029 6 -19567081.500 8
        41.200          49.100
  24011845.757    24011845.503    24011843.252    -5535577.685 4  -4313436.165 4
        24.900          26.200
  22630960.963    22630960.785    22630959.986   -10630948.138 4  -8283846.763 4
        29.700          28.400
  23201305.237    23201304.996    23201302.664   -10355278.548 4  -8069040.353 3
        26.200          22.100
  20931099.261    20931099.016    20931095.850   -21273926.312 7 -16577075.513 7
        43.300          42.900
 09  1 21  1 40 30.0000000  0 10G32G11G19G 5G12G14G31G 9G18G22
  24236058.036    24236057.382    24236057.021    -4181658.385 4  -3258433.868 3
        25.600          22.100
  22982535.308    22982534.561    22982532.218    -7203535.487 5  -5613142.385 4
        31.300          26.800
  24714330.919    24714329.465    24714328.257     -471322.255 3   -367261.194 3
        21.100          19.900
  24364773.814    24364772.438    24364772.353    -3876723.012 2  -3020821.189 3
        15.100          21.100
  24527192.515    24527193.038    24527191.925    -3859986.593 3  -3007779.277 4
        22.100          25.300
  20437017.299    20437016.881    20437015.400   -25130517.302 6 -19582214.175 8
        41.100          49.000
  23990315.889    23990315.660    23990313.097    -5648717.587 4  -4401597.108 4
        25.300          25.600
  22647782.255    22647782.057    22647781.648   -10542551.983 4  -8214966.643 4
        29.900          28.100
  23219205.590    23219205.325    23219203.276   -10261211.033 4  -7995741.004 3
        25.900          22.600
  20941250.507    20941250.257    20941246.996   -21220581.854 7 -16535508.406 7
        43.500          42.800
 09  1 21  1 41  0.0000000  0 10G32G11G19G 5G12G14G31G 9G18G22
  24218240.815    24218240.362    24218239.522    -4275292.034 4  -3331395.136 3
        27.100          23.000
  22973371.848    22973371.473    22973369.136    -7251685.212 5  -5650661.647 4
        31.100          26.800
  24730698.401    24730698.126    24730694.258     -385313.793 3   -300241.647 3
        22.100          19.300
  24349203.876    24349203.050    24349204.119    -3958538.975 3  -3084573.851 3
        18.600          21.600
  24514052.926    24514053.391    24514051.131    -3929030.809 3  -3061579.930 3
        19.900          23.400
  20433408.116    20433407.588    20433405.823   -25149484.610 6 -19596993.894 8
        41.100          48.900
  23968810.568    23968810.596    23968808.878    -5761724.609 4  -4489654.509 4
        24.200          27.100
  22664695.917    22664695.398    22664694.790   -10453671.225 4  -8145708.916 4
        29.500          27.900
  23237146.500    23237146.072    23237143.716   -10166933.891 4  -7922278.332 3
        25.600          23.800
  20951474.034    20951473.771    20951470.453   -21166856.876 7 -16493644.783 7
        43.400          42.700
 09  1 21  1 41 30.0000000  0 10G32G11G19G 5G12G14G31G 9G18G22
  24200437.716    24200437.243    24200436.968    -4368848.254 4  -3404296.064 3
        27.400          23.800
  22964307.707    22964307.438    22964305.248    -7299317.222 5  -5687777.488 4
        31.300          26.800
  24747104.881    24747103.766    24747101.084     -299095.493 3   -233058.602 3
        18.600          21.100
  24333697.487    24333697.167    24333697.408    -4040027.744 3  -3148071.538 3
        21.100          21.100
  24500986.219    24500986.016    24500983.942    -3997706.564 3  -3115093.480 3
        21.100          23.800
  20429884.350    20429883.847    20429882.556   -25168001.978 6 -19611423.009 8
        41.100          48.700
  23947331.716    23947331.554    23947329.464    -5874598.617 4  -4577608.245 4
        24.900          26.500
  22681699.561    22681699.559    22681699.008   -10364311.430 4  -8076077.916 4
        29.500          27.600
  23255126.656    23255126.029    23255123.733   -10072450.869 4  -7848655.241 4
        26.500          24.200
  20961769.711    20961769.312    20961765.961   -21112754.312 7 -16451486.944 7
        43.400          42.700
 09  1 21  1 42  0.0000000  0 10G32G11G19G 5G12G14G31G 9G18G22
  24182648.908    24182648.554    24182648.854    -4462326.286 4  -3477136.056 3
        26.500          23.800
  22955342.341    22955342.189    22955340.041    -7346430.605 5  -5724489.212 4
        31.100          26.800
  24763551.533    24763549.571    24763549.588     -212670.757 2   -165714.648 4
        17.800          24.600
  24318254.452    24318253.168    24318252.411    -4121186.427 3  -3211312.053 3
        21.600          18.600
  24487988.145    24487987.668    24487986.259    -4066011.372 3  -3168318.022 3
        20.500          23.400
  20426446.059    20426445.603    20426443.745   -25186069.785 6 -19625501.815 8
        41.100          48.300
  23925877.397    23925877.370    23925875.727    -5987337.792 4  -4665456.949 4
        24.600          25.600
  22698795.248    22698795.051    22698794.425   -10274476.260 5  -8006076.476 4
        30.600          27.900
  23273144.957    23273144.607    23273142.112    -9977763.499 4  -7774872.889 3
        27.100          23.800
  20972136.654    20972136.317    20972132.955   -21058275.403 7 -16409035.846 7
        43.600          42.700
 09  1 21  1 42 30.0000000  0 10G22G32G11G19G 5G12G14G31G 9G18
  20982574.989    20982574.787    20982571.370   -21003420.510 7 -16366291.779 7
        43.500          42.600
  24164875.257    24164875.335    24164875.446    -4555724.517 4  -3549913.865 3
        25.600          23.000
  22946475.827    22946475.623    22946474.207    -7393023.108 5  -5760795.068 4
        31.000          26.800
  24780036.450    24780035.145    24780033.139     -126041.947 2    -98211.701 3
        17.000          23.000
  24302873.384    24302872.775    24302870.586    -4202011.414 3  -3274292.550 2
        19.900          17.000
  24475060.439    24475060.296    24475058.572    -4133942.193 3  -3221251.144 3
        19.900          23.000
  20423093.493    20423093.034    20423091.767   -25203687.567 6 -19639229.954 8
        41.000          48.000
  23904450.081    23904450.203    23904448.343    -6099939.414 4  -4753198.447 4
        24.900          25.900
  22715980.218    22715979.937    22715979.660   -10184168.098 5  -7935706.474 4
        30.400          27.600
  23291201.730    23291201.334    23291199.233    -9882872.486 4  -7700931.867 3
        26.800          23.000
 09  1 21  1 43  0.0000000  0 10G22G32G11G19G 5G12G14G31G 9G18
  20993086.120    20993085.722    20993082.359   -20948185.195 7 -16323251.275 7
        43.300          42.600
  24147119.022    24147118.175    24147118.387    -4649036.912 4  -3622624.790 3
        24.600          22.600
  22937711.022    22937710.389    22937708.114    -7439088.178 5  -5796689.914 4
        31.300          26.500
  24796560.322    24796559.147    24796556.644      -39207.203 3    -30548.252 3
        18.600          21.100
  24287556.194    24287555.957    24287556.675    -4282494.705 2  -3337006.766 3
        17.800          18.600
  24462206.375    24462205.953    24462203.506    -4201491.731 3  -3273887.128 3
        21.100          22.600
  20419827.638    20419827.116    20419825.180   -25220850.438 6 -19652603.618 8
        41.000          48.400
  23883050.430    23883050.433    23883048.768    -6212395.624 4  -4840826.665 4
        25.900          25.600
  22733255.461    22733255.316    22733255.037   -10093385.411 4  -7864966.717 4
        29.700          27.900
  23309298.271    23309297.969    23309295.891    -9787774.013 4  -7626829.163 3
        26.800          23.000
 09  1 21  1 43 30.0000000  0 10G22G32G11G19G 5G12G14G31G 9G18
  21003668.356    21003668.183    21003664.934   -20892573.429 7 -16279917.433 7
        43.200          42.400
  24129378.078    24129377.308    24129377.237    -4742265.435 4  -3695270.375 3
        24.200          21.100
  22929044.285    22929044.256    22929041.887    -7484627.622 5  -5832175.193 4
        31.100          26.200
  24813123.434    24813121.629    24813119.549       47827.209 3     37270.773 3
        18.600          22.100
  24272308.546    24272307.087    24272306.337    -4362636.336 3  -3399454.774 3
        19.900          19.900
  24449424.103    24449423.852    24449422.852    -4268659.566 3  -3326225.675 4
        21.600          24.600
  20416647.526    20416647.046    20416645.737   -25237561.942 6 -19665625.564 8
        41.000          48.500
  23861678.523    23861678.476    23861676.505    -6324706.590 4  -4928341.700 4
        25.900          25.900
  22750619.402    22750619.679    22750619.626   -10002134.403 4  -7793862.038 4
        28.600          27.600
  23327433.848    23327433.313    23327431.260    -9692472.589 4  -7552568.312 3
        26.200          23.000
 09  1 21  1 44  0.0000000  0 10G22G32G11G19G 5G12G14G31G 9G18
  21014322.645    21014322.363    21014319.103   -20836585.365 7 -16236290.377 7
        43.200          42.200
  24111654.132    24111653.336    24111652.461    -4835408.420 3  -3767849.309 3
        23.800          20.500
  22920478.594    22920478.602    22920476.617    -7529639.562 5  -5867249.434 4
        31.100          26.500
  24829720.552    24829719.401    24829718.574      135058.888 2    105243.478 3
        15.100          21.100
  24257121.609    24257121.272    24257121.110    -4442432.522 3  -3461633.633 3
        18.600          18.600
  24436715.540    24436716.115    24436715.448    -4335442.526 3  -3378264.325 4
        22.100          25.600
  20413553.483    20413552.928    20413551.027   -25253821.354 6 -19678295.237 8
        41.000          48.400
  23840334.682    23840334.195    23840333.081    -6436869.772 4  -5015741.558 4
        25.900          27.100
  22768072.725    22768072.623    22768072.725    -9910417.763 4  -7722394.526 4
        28.400          27.600
  23345607.189    23345606.378    23345605.105    -9596968.979 4  -7478149.925 3
        24.900          23.400
 09  1 21  1 44 30.0000000  0 10G22G32G11G19G 5G12G14G31G 9G18
  21025047.954    21025047.709    21025044.434   -20780223.322 7 -16192371.901 7
        43.200          42.200
  24093945.521    24093944.577    24093944.781    -4928465.952 3  -3840361.647 3
        23.400          19.900
  22912013.562    22912013.616    22912011.282    -7574123.557 5  -5901912.275 4
        31.000          26.800
  24846357.384    24846356.967    24846356.938      222483.703 2    173366.640 3
        15.100          19.900
  24242003.966    24242003.274    24242002.382    -4521881.559 3  -3523541.935 2
        18.600          17.800
  24424080.260    24424080.876    24424080.347    -4401839.519 3  -3430002.241 4
        22.100          24.900
  20410544.990    20410544.510    20410543.337   -25269630.276 6 -19690613.873 8
        40.900          48.000
  23819019.362    23819019.177    23819017.717    -6548883.779 4  -5103025.173 4
        27.100          27.400
  22785614.084    22785613.554    22785613.442    -9818240.003 4  -7650567.710 4
        28.400          27.900
  23363818.454    23363818.376    23363816.871    -9501265.534 4  -7403575.840 3
        24.600          23.000
 09  1 21  1 45  0.0000000  0 10G22G32G11G19G 5G12G14G31G 9G18
  21035844.240    21035844.012    21035840.764   -20723487.969 7 -16148162.541 7
        43.000          42.000
  24076252.995    24076252.875    24076253.129    -5021437.466 4  -3912806.966 3
        24.200          19.900
  22903649.069    22903648.805    22903647.084    -7618078.971 5  -5936163.247 4
        31.100          27.400
  24863030.868    24863029.570    24863028.817      310098.054 2    241637.507 3
        17.800          21.100
  24226951.696    24226951.099    24226951.210    -4600980.761 3  -3585177.677 2
        19.300          17.800
  24411519.450    24411519.876    24411518.427    -4467848.396 3  -3481437.696 4
        23.800          24.600
  20407622.069    20407621.674    20407619.830   -25284989.302 6 -19702581.944 7
        40.900          47.700
  23797732.210    23797732.346    23797730.107    -6660746.565 4  -5190190.981 4
        27.400          25.900
  22803241.801    22803241.441    22803241.102    -9725604.689 4  -7578384.365 4
        28.600          27.900
  23382068.209    23382067.906    23382066.290    -9405363.923 4  -7328847.319 3
        24.600          22.100
 09  1 21  1 45 30.0000000  0 10G22G32G11G19G 5G12G14G31G 9G18
  21046711.242    21046710.941    21046707.681   -20666382.361 7 -16103664.661 6
        43.000          41.900
  24058578.488    24058577.621    24058577.467    -5114323.644 4  -3985185.789 3
        24.200          19.900
  22895385.335    22895385.070    22895383.321    -7661506.134 5  -5970002.599 4
        31.500          28.100
  24879737.691    24879737.228    24879734.378      397897.001 3    310052.245 2
        19.300          17.000
  24211967.403    24211966.500    24211965.466    -4679728.940 3  -3646539.851 3
        20.500          19.300
  24399033.966    24399033.813    24399031.143    -4533468.130 4  -3532569.953 3
        25.300          23.400
  20404784.768    20404784.166    20404783.221   -25299900.659 6 -19714201.179 7
        40.800          47.700
  23776474.218    23776474.043    23776472.343    -6772457.418 4  -5277238.402 4
        26.800          26.800
  22820955.672    22820955.657    22820955.020    -9632517.257 4  -7505848.707 4
        29.200          27.100
  23400355.741    23400354.837    23400353.077    -9309267.176 4  -7253966.752 3
        24.600          22.100
 09  1 21  1 46  0.0000000  0 10G22G32G11G19G 5G12G14G31G 9G18
  21057649.614    21057649.324    21057646.187   -20608900.932 7 -16058873.942 7
        43.100          42.100
  24040920.221    24040919.385    24040919.715    -5207117.354 4  -4057492.533 3
        24.200          19.900
  22887223.565    22887223.295    22887221.663    -7704397.867 5  -6003424.709 4
        31.600          28.600
  24896481.861    24896479.752    24896478.629      485883.828 2    378613.338 2
        17.800          15.100
  24197049.896    24197049.319    24197049.125    -4758116.927 3  -3707621.337 3
        19.300          19.300
  24386621.396    24386621.466    24386619.955    -4598689.928 3  -3583392.161 3
        21.100          22.600
  20402033.592    20402033.062    20402031.145   -25314358.054 6 -19725466.680 7
        40.700          47.800
  23755246.528    23755246.280    23755245.109    -6884007.970 4  -5364160.882 4
        26.500          27.100
  22838756.490    22838756.318    22838755.797    -9538974.311 4  -7432958.091 4
        29.700          27.400
  23418680.111    23418679.342    23418677.692    -9212970.324 4  -7178930.262 3
        24.600          22.100
 09  1 21  1 46 30.0000000  0 10G22G32G11G19G 5G12G14G31G 9G18
  21068660.138    21068659.791    21068656.664   -20551040.374 7 -16013787.795 7
        42.900          42.000
  24023279.626    24023279.725    24023279.951    -5299813.188 4  -4129723.029 3
        24.200          19.300
  22879164.490    22879164.162    22879162.198    -7746748.238 5  -6036424.996 4
        32.000          28.400
  24913261.663    24913260.023    24913259.501      574059.851 3    447321.874 2
        19.300          17.000
  24182201.870    24182201.397    24182202.199    -4836137.552 2  -3768416.583 3
        17.000          18.600
  24374287.072    24374287.701    24374285.211    -4663507.065 3  -3633899.028 3
        21.100          22.600
  20399369.582    20399369.009    20399367.907   -25328357.873 6 -19736375.627 7
        40.700          47.700
  23734050.589    23734050.953    23734049.400    -6995391.484 4  -5450953.222 4
        27.100          27.100
  22856644.316    22856643.851    22856643.074    -9444975.169 4  -7359712.003 4
        28.100          26.800
  23437043.813    23437042.577    23437040.678    -9116470.887 4  -7103735.918 3
        24.600          21.600
 09  1 21  1 47  0.0000000  0 11G22G32G11G19G 5G12G14G31G30G 9G18
  21079742.344    21079742.027    21079738.839   -20492802.924 7 -15968407.972 6
        42.900          41.900
  24005659.050    24005658.674    24005659.435    -5392411.208 3  -4201877.310 3
        23.800          19.300
  22871209.390    22871208.889    22871206.607    -7788557.316 5  -6069003.498 4
        33.000          29.000
  24930076.082    24930075.215    24930072.281      662420.514 3    516174.340 2
        20.500          17.000
  24167426.482    24167425.339    24167424.340    -4913788.804 3  -3828924.034 2
        19.300          17.800
  24362031.115    24362030.644    24362028.925    -4727918.062 3  -3684089.388 3
        21.100          23.400
  20396792.277    20396791.799    20396789.797   -25341901.137 6 -19746928.817 7
        40.700          47.600
  23712887.078    23712887.684    23712885.937    -7106606.313 4  -5537614.112 4
        27.400          27.600
  25094758.659    25094757.465    25094755.289           -.9541          -.09211
                        11.000
  22874618.133    22874617.616    22874616.510    -9350524.264 4  -7286113.919 4
        28.100          26.500
  23455444.968    23455444.062    23455442.069    -9019770.718 4  -7028385.170 3
        24.200          21.600
 09  1 21  1 47 30.0000000  0 11G22G32G11G19G 5G12G14G31G30G 9G18
  21090891.803    21090891.589    21090888.413   -20434211.646 7 -15922752.433 6
        43.100          41.800
  23988053.532    23988053.076    23988052.944    -5484932.566 3  -4273971.872 3
        23.800          19.900
  22863351.672    22863351.180    22863349.665    -7829846.042 5  -6101176.537 4
        31.800          29.200
  24946920.683    24946919.135    24946917.012      750940.638 3    585151.068 2
        19.300          16.100
  24152715.965    24152715.379    24152715.133    -4991089.975 3  -3889158.720 2
        20.500          17.800
  24349847.338    24349847.261    24349845.838    -4791942.644 3  -3733978.655 3
        21.600          22.600
  20394297.723    20394297.203    20394296.118   -25355010.679 6 -19757144.042 7
        40.700          47.900
  23691752.200    23691752.420    23691750.486    -7217672.290 4  -5624159.016 4
        27.100          27.100
  25075312.046    25075316.001    25075313.199     -102177.774      -79618.373 1
                         9.000
  22892672.221    22892671.862    22892671.292    -9255646.922 4  -7212183.530 4
        28.400          25.900
  23473879.793    23473879.398    23473877.330    -8922893.914 4  -6952896.774 3
        24.900          21.600
 09  1 21  1 48  0.0000000  0 11G22G32G11G19G 5G12G14G31G30G 9G18
  21102110.665    21102110.385    21102107.107   -20375255.938 7 -15876812.923 6
        42.800          41.300
  23970463.581    23970462.988    23970463.907    -5577365.240 3  -4345997.322 3
        23.000          21.100
  22855595.455    22855595.540    22855593.632    -7870602.257 5  -6132934.606 4
        32.100          28.800
  24963797.400    24963795.357    24963794.424      839628.067 2    654258.195 2
        17.800          16.100
  24138075.694    24138074.775    24138074.901    -5068027.128 3  -3949109.719 3
        21.600          19.300
  24337738.900    24337739.381    24337736.888    -4855567.422 3  -3783556.429 3
        21.600          20.500
  20391887.527    20391887.050    20391885.119   -25367675.739 6 -19767012.920 7
        40.600          47.700
  23670648.612    23670648.437    23670646.073    -7328576.154 4  -5710577.602 4
        27.600          27.600
  25055885.593    25055886.266    25055880.194     -204267.025     -159166.920 1
                         6.500
  22910809.207    22910809.001    22910808.355    -9160335.471 4  -7137914.869 4
        28.800          25.600
  23492350.768    23492349.997    23492348.072    -8825830.637 4  -6877263.090 3
        24.600          21.100
 09  1 21  1 48 30.0000000  0 11G22G32G11G19G 5G12G14G31G30G 9G18
  21113399.541    21113399.289    21113395.974   -20315932.992 7 -15830587.253 6
        42.800          41.400
  23952891.247    23952891.063    23952892.120    -5669704.146 3  -4417949.684 3
        22.100          21.600
  22847942.481    22847942.261    22847940.323    -7910820.631 5  -6164273.606 4
        32.400          28.600
  24980705.860    24980704.330    24980702.100      928483.927 2    723496.503 2
        17.800          16.100
  24123505.506    24123504.892    24123504.276    -5144593.347 3  -4008771.690 3
        22.100          18.600
  24325710.439    24325710.178    24325707.054    -4918785.596 4  -3832817.310 3
        24.200          21.100
  20389562.669    20389562.152    20389561.188   -25379892.767 6 -19776532.677 7
        40.600          47.400
  23649576.157    23649576.264    23649574.126    -7439311.525 4  -5796864.884 4
        27.400          28.100
  25036477.254    25036478.866    25036474.585     -306261.589     -238643.559 1
                         6.500
  22929029.906    22929029.486    22929028.491    -9064589.192 4  -7063307.362 4
        29.700          25.600
  23510857.479    23510856.519    23510854.653    -8728578.132 4  -6801481.941 3
        24.200          21.100
 09  1 21  1 49  0.0000000  0 11G22G32G11G19G 5G12G14G31G30G 9G18
  21124758.162    21124757.944    21124754.722   -20256243.145 7 -15784075.685 6
        43.000          41.500
  23935337.550    23935337.699    23935338.364    -5761947.553 3  -4489827.648 3
        22.600          22.100
  22840392.003    22840391.640    22840389.605    -7950499.531 5  -6195192.228 4
        32.300          28.600
  24997647.092    24997645.383    24997642.417     1017505.481 3    792863.953 2
        18.600          17.000
  24109006.818    24109006.302    24109004.722    -5220785.037 3  -4068141.850 2
        22.600          17.000
  24313757.325    24313757.677    24313756.556    -4981593.787 4  -3881758.741 3
        24.200          22.600
  20387323.225    20387322.755    20387320.677   -25391661.390 6 -19785703.033 7
        40.500          47.400
  23628536.232    23628536.562    23628534.512    -7549875.260 4  -5883018.423 4
        27.100          28.100
  25017089.602    25017088.733    25017082.848     -408157.513     -318042.911 1
                         6.500
  22947331.693    22947331.285    22947330.980    -8968411.008 4  -6988363.314 4
        29.200          25.900
  23529399.617    23529398.956    23529397.417    -8631136.944 3  -6725553.772 3
        23.400          21.600
 09  1 21  1 49 30.0000000  0 11G22G32G11G19G 5G12G14G31G30G 9G18
  21136186.701    21136186.458    21136183.204   -20196185.100 7 -15737277.212 6
        42.700          41.200
  23917803.500    23917803.232    23917804.048    -5854091.893 3  -4561628.424 3
        23.400          23.000
  22832944.616    22832944.220    22832942.381    -7989635.385 5  -6225687.700 4
        31.500          28.800
  25014618.175    25014616.441    25014615.016     1106692.281 2    862360.156 2
        13.900          17.800
  24094580.742    24094579.704    24094578.888    -5296596.750 3  -4127215.917 2
        21.100          17.800
  24301885.185    24301885.168    24301883.907    -5043987.407 3  -3930377.138 4
        23.800          24.200
  20385169.361    20385168.916    20385167.966   -25402979.325 6 -19794522.199 7
        40.500          47.300
  23607530.210    23607530.469    23607528.947    -7660262.236 4  -5969034.237 4
        27.600          28.800
  24997715.463    24997715.090    24997716.509     -509949.773     -397361.527 1
                         6.500
  22965715.614    22965715.477    22965715.150    -8871801.642 4  -6913083.298 4
        28.600          25.900
  23547977.298    23547976.920    23547976.179    -8533506.193 3  -6649477.884 3
        22.600          22.100
 09  1 21  1 50  0.0000000  0 11G22G32G11G19G 5G12G14G31G30G 9G18
  21147685.945    21147685.793    21147682.349   -20135756.889 7 -15690190.293 6
        43.000          41.000
  23900289.589    23900288.185    23900289.202    -5946134.002 3  -4633349.528 3
        23.800          23.800
  22825601.108    22825600.769    22825598.965    -8028224.792 5  -6255757.353 4
        31.500          28.600
  25031619.963    25031619.969    25031618.265     1196043.295 2    931984.314 2
        12.600          17.000
  24080227.193    24080226.595    24080225.916    -5372023.463 3  -4185989.965 3
        21.100          18.600
  24290092.120    24290091.911    24290089.685    -5105961.594 4  -3978668.720 3
        24.200          23.400
  20383101.881    20383101.416    20383099.463   -25413844.904 6 -19802988.885 7
        40.600          47.700
  23586558.383    23586558.872    23586557.340    -7770468.182 4  -6054908.969 4
        27.600          29.000
  24978368.112    24978367.145    24978365.111     -611632.959     -476595.021 1
                         9.000
  22984182.559    22984181.869    22984180.906    -8774762.307 4  -6837468.249 4
        28.800          26.200
  23566591.807    23566591.142    23566590.877    -8435685.107 3  -6573253.697 3
        21.100          22.100
 09  1 21  1 50 30.0000000  0 11G22G32G11G19G 5G12G14G31G30G 9G18
  21159255.624    21159255.273    21159251.930   -20074958.901 7 -15642815.240 6
        42.900          41.100
  23882794.131    23882793.395    23882794.279    -6038071.917 4  -4704989.426 4
        24.200          24.600
  22818362.111    22818361.970    22818359.794    -8066265.674 5  -6285399.600 4
        32.100          28.600
  25048655.062    25048653.899    25048650.302     1285556.538 2   1001734.813 2
        15.100          16.100
  24065948.093    24065947.570    24065946.800    -5447061.362 3  -4244461.038 3
        19.900          18.600
  24278378.665    24278378.447    24278375.933    -5167513.267 3  -4026631.066 3
        21.600          23.000
  20381120.390    20381119.899    20381118.819   -25424257.571 6 -19811102.646 7
        40.500          47.300
  23565622.369    23565622.303    23565620.998    -7880489.653 4  -6140639.982 4
        28.100          28.600
  24959038.724    24959039.093    24959036.248     -713202.508 1   -555740.170 1
         9.000          11.000
  23002728.554    23002728.350    23002727.976    -8677295.267 4  -6761519.916 4
        27.900          25.900
  23585242.521    23585242.047    23585241.598    -8337674.005 3  -6496881.446 3
        21.600          21.100
 09  1 21  1 51  0.0000000  0 11G22G32G11G19G 5G12G14G31G30G 9G18
  21170892.810    21170892.593    21170889.240   -20013804.083 7 -15595162.143 6
        42.800          40.900
  23865316.654    23865316.288    23865316.870    -6129916.494 4  -4776556.612 4
        24.600          24.600
  22811225.810    22811225.467    22811223.361    -8103768.887 5  -6314622.887 4
        32.100          29.000
  25065714.863    25065714.596    25065713.403     1375216.638 2   1071599.817 3
        16.100          18.600
  24051741.269    24051739.899    24051739.821    -5521719.514 3  -4302636.211 3
        19.900          19.900
  24266742.931    24266742.711    24266742.263    -5228651.891 3  -4074271.520 3
        20.500          23.000
  20379222.683    20379222.189    20379220.224   -25434229.658 6 -19818873.104 7
        40.500          47.500
  23544719.302    23544719.227    23544717.828    -7990336.346 4  -6226234.784 4
        28.600          28.600
  24939729.834    24939729.856    24939731.461     -814667.930 1   -634804.132 1
         6.500          11.000
  23021354.557    23021354.248    23021353.565    -8579416.376 4  -6685250.643 4
        27.600          24.900
  23603927.374    23603926.456    23603925.525    -8239486.251 3  -6420371.522 3
        21.600          20.500
 09  1 21  1 51 30.0000000  0 11G22G32G11G19G 5G12G14G31G30G 9G18
  21182600.340    21182600.081    21182596.752   -19952280.259 7 -15547221.504 6
        42.800          40.700
  23847860.176    23847859.468    23847859.791    -6221653.439 4  -4848039.906 4
        24.600          24.200
  22804193.654    22804193.625    22804192.007    -8140720.520 5  -6343416.368 4
        32.000          29.700
  25082808.415    25082807.086    25082806.009     1465033.758 2   1141587.138 3
        13.900          19.300
  24037609.961    24037608.697    24037607.919    -5595981.841 3  -4360502.909 3
        22.600          19.900
  24255192.504    24255192.334    24255189.176    -5289361.604 4  -4121577.756 3
        24.600          23.000
  20377411.416    20377410.925    20377409.846   -25443748.353 6 -19826290.267 7
        40.500          47.400
  23523852.184    23523852.254    23523850.636    -8099992.669 4  -6311681.260 4
        28.600          28.400
  24920443.255    24920443.548    24920440.926     -916013.056     -713774.444 1
         3.000           9.000
  23040060.605    23040060.459    23040059.585    -8481115.514 4  -6608652.568 4
        27.100          24.600
  23622648.394    23622647.938    23622646.078    -8141110.129 3  -6343714.811 3
        22.600          20.500
 09  1 21  1 52  0.0000000  0 11G22G32G11G19G 5G12G14G31G30G 9G18
  21194377.940    21194377.599    21194374.317   -19890389.010 7 -15498994.559 6
        42.700          40.700
  23830424.301    23830423.490    23830422.992    -6313282.404 4  -4919439.071 3
        26.200          23.400
  22797267.513    22797267.144    22797265.582    -8177119.947 5  -6371779.547 5
        32.100          30.100
  25099927.242    25099926.178    25099926.244     1555003.973 1   1211693.815 2
        11.000          17.000
  24023553.774    24023552.891    24023551.179    -5669846.139 3  -4418059.519 3
        21.600          19.300
  24243720.962    24243721.209    24243718.457    -5349640.880 4  -4168548.646 3
        25.900          23.000
  20375686.059    20375685.570    20375683.382   -25452815.022 6 -19833355.203 7
        40.500          47.200
  23503021.585    23503021.567    23503020.410    -8209456.606 4  -6396977.822 4
        27.900          28.400
  24901184.718    24901183.524    24901179.797    -1017235.483     -792649.015 1
                         9.000
  23058846.694    23058846.529    23058845.259    -8382396.474 4  -6531728.642 4
        26.800          24.600
  23641405.052    23641404.231    23641402.147    -8042547.627 3  -6266912.883 3
        22.600          21.600
 09  1 21  1 52 30.0000000  0 10G22G32G11G19G 5G12G14G31G 9G18
  21206223.428    21206223.095    21206220.031   -19828139.976 7 -15450488.823 6
        42.300          40.900
  23813007.263    23813006.098    23813005.214    -6404810.797 4  -4990759.887 3
        27.400          23.000
  22790444.271    22790444.065    22790442.492    -8212974.812 5  -6399718.398 4
        32.100          29.200
  25117077.752    25117076.157    25117072.971     1645116.185 2   1281911.079 2
        13.900          15.100
  24009571.173    24009570.312    24009569.910    -5743318.203 3  -4475310.468 3
        19.900          20.500
  24232330.902    24232330.693    24232328.723    -5409495.749 4  -4215188.792 3
        24.600          23.400
  20374045.120    20374044.662    20374043.583   -25461438.439 6 -19840074.742 7
        40.500          47.300
  23482227.486    23482227.235    23482225.513    -8318734.444 4  -6482129.366 4
        28.600          28.400
  23077710.271    23077709.596    23077708.127    -8283271.347 4  -6454488.293 4
        27.400          25.300
  23660193.525    23660193.090    23660191.782    -7943808.697 3  -6189973.492 3
        22.100          22.100
 09  1 21  1 53  0.0000000  0 10G22G32G11G19G 5G12G14G31G 9G18
  21218135.378    21218135.094    21218132.100   -19765542.408 7 -15401711.504 6
        42.500          40.900
  23795606.767    23795606.277    23795605.386    -6496246.001 4  -5062008.094 3
        27.100          23.400
  22783723.502    22783723.400    22783721.559    -8248292.401 5  -6427238.598 4
        32.300          28.400
  25134251.524    25134249.098    25134247.611     1735358.580 2   1352229.785 2
        12.600          16.100
  23995665.048    23995664.169    23995663.350    -5816403.457 3  -4532259.998 3
        23.000          23.400
  24221021.932    24221021.245    24221018.058    -5468932.068 3  -4261502.781 3
        23.800          22.600
  20372486.864    20372486.316    20372484.333   -25469627.372 6 -19846455.728 7
        40.500          47.600
  23461466.602    23461466.665    23461464.564    -8427832.357 4  -6567140.717 4
        28.800          28.100
  23096646.745    23096646.983    23096645.689    -8183751.952 4  -6376940.730 4
        26.800          25.600
  23679014.774    23679014.247    23679012.930    -7844902.832 3  -6112904.038 3
        22.100          22.600
 09  1 21  1 53 30.0000000  0 10G22G32G11G19G 5G12G14G31G 9G18
  21230116.571    21230116.332    21230113.180   -19702580.391 7 -15352650.191 6
        42.400          40.600
  23778228.144    23778227.842    23778227.142    -6587569.925 4  -5133169.578 4
        25.900          24.200
  22777108.477    22777108.419    22777106.449    -8283054.386 5  -6454325.860 4
        32.600          28.400
  25151448.344    25151447.443    25151445.414     1825744.769 1   1422660.609 2
         6.500          13.900
  23981833.958    23981832.903    23981833.137    -5889082.162 3  -4588892.735 4
        22.600          24.200
  24209793.923    24209793.763    24209790.455    -5527930.774 3  -4307475.773 3
        23.400          22.100
  20371014.367    20371013.831    20371012.745   -25477365.416 6 -19852485.370 7
        40.400          47.500
  23440744.205    23440744.196    23440741.931    -8536730.940 4  -6651996.748 4
        29.500          28.400
  23115662.851    23115662.400    23115661.908    -8083824.632 4  -6299075.287 4
        25.600          25.900
  23697871.202    23697870.573    23697868.976    -7745814.843 3  -6035692.658 3
        23.000          22.100
 09  1 21  1 54  0.0000000  0 10G22G32G11G19G 5G12G14G31G 9G18
  21242169.105    21242168.931    21242165.889   -19639242.899 7 -15303296.308 6
        42.100          40.500
  23760873.662    23760872.481    23760872.816    -6678769.609 4  -5204234.226 4
        24.900          24.600
  22770601.801    22770601.447    22770599.328    -8317248.716 5  -6480970.796 4
        32.600          28.600
  25168678.125    25168675.691    25168672.562     1916283.563     1493210.356 1
         3.000          11.000
  23968083.835    23968082.851    23968082.838    -5961339.559 3  -4645197.144 4
        21.600          24.200
  24198652.742    24198652.440    24198649.648    -5586477.742 3  -4353096.809 3
        23.400          23.000
  20369629.884    20369629.323    20369627.214   -25484640.868 6 -19858154.555 7
        40.500          47.500
  23420062.107    23420061.824    23420059.777    -8645415.917 4  -6736686.326 4
        28.800          28.400
  23134757.733    23134757.001    23134756.919    -7983480.833 4  -6220885.338 4
        25.300          25.900
  23716763.898    23716763.342    23716760.960    -7646534.014 3  -5958330.998 3
        22.600          21.600
 09  1 21  1 54 30.0000000  0 11G22G32G11G19G 5G12G14G31G30G 9G18
  21254289.828    21254289.591    21254286.754   -19575548.441 7 -15253664.268 6
        42.000          40.700
  23743539.285    23743538.089    23743538.545    -6769861.362 4  -5275214.780 4
        24.600          24.600
  22764199.976    22764199.646    22764197.308    -8350891.567 5  -6507185.990 4
        33.100          28.400
  25185933.705    25185931.261    25185927.310     2006954.741 2   1563863.119 2
        12.600          12.600
  23954411.212    23954410.375    23954410.012    -6033190.231 3  -4701184.645 3
        21.600          23.800
  24187593.841    24187593.558    24187592.627    -5644587.770 3  -4398377.318 4
        21.600          24.200
  20368329.881    20368329.379    20368328.226   -25491472.068 6 -19863477.563 7
        40.500          47.400
  23399417.463    23399417.437    23399415.680    -8753902.342 4  -6821221.194 4
        29.200          29.000
  24805227.205    24805226.895    24805225.968          -1.20612         -.32912
        15.100          16.100
  23153926.784    23153927.095    23153926.904    -7882741.369 4  -6142387.070 4
        25.600          26.200
  23735688.375    23735687.792    23735686.375    -7547079.218 3  -5880833.793 3
        20.500          20.500
 09  1 21  1 55  0.0000000  0 11G22G32G11G19G 5G12G14G31G30G 9G18
  21266477.452    21266477.192    21266474.022   -19511503.274 7 -15203758.950 6
        42.200          40.600
  23726224.493    23726223.662    23726224.490    -6860849.198 3  -5346114.367 4
        23.800          25.300
  22757902.116    22757901.796    22757899.395    -8383987.288 5  -6532974.863 4
        33.200          28.600
  25203210.544    25203209.056    25203207.354     2097749.976 2   1634612.609 2
        15.100          13.900
  23940815.442    23940814.528    23940813.911    -6104636.504 3  -4756857.062 3
        23.000          23.000
  24176618.564    24176618.375    24176617.124    -5702263.474 3  -4443319.414 4
        21.600          24.900
  20367113.376    20367112.943    20367110.804   -25497864.444 6 -19868458.634 7
        40.400          47.400
  23378810.351    23378810.246    23378808.667    -8862192.711 4  -6905603.285 4
        29.500          29.700
  24786112.346    24786111.991    24786109.886     -100450.418 2    -78272.426 2
        15.100          13.900
  23173171.396    23173171.099    23173170.768    -7781614.982 4  -6063587.276 4
        26.800          25.600
  23754645.465    23754645.236    23754643.915    -7447456.967 3  -5803206.103 3
        20.500          19.300
 09  1 21  1 55 30.0000000  0 11G22G32G11G19G 5G12G14G31G30G 9G18
  21278732.985    21278732.794    21278729.793   -19447099.326 7 -15153574.059 6
        42.100          40.500
  23708931.982    23708931.158    23708931.711    -6951722.972 3  -5416925.073 4
        23.400          25.600
  22751710.238    22751710.225    22751707.927    -8416525.794 5  -6558329.532 4
        34.000          28.800
  25220512.120    25220510.531    25220508.268     2188675.088 2   1705463.349 2
        13.900          12.600
  23927298.790    23927297.909    23927297.239    -6175666.608 3  -4812205.182 3
        22.600          22.100
  24165728.847    24165728.838    24165726.071    -5759493.701 4  -4487914.378 4
        24.200          24.200
  20365982.249    20365981.744    20365980.637   -25503808.967 6 -19873090.730 7
        40.500          47.200
  23358242.428    23358242.545    23358241.130    -8970275.817 4  -6989823.866 4
        29.200          29.900
  24767023.432    24767023.625    24767022.131     -200756.613 2   -156433.094 2
        13.900          13.900
  23192490.639    23192489.721    23192489.179    -7680095.776 4  -5984481.407 4
        26.500          25.600
  23773637.320    23773636.655    23773634.977    -7347659.889 3  -5725442.163 3
        21.100          18.600
 09  1 21  1 56  0.0000000  0 11G22G32G11G19G 5G12G14G31G30G 9G18
  21291056.439    21291056.063    21291052.990   -19382341.036 7 -15103113.061 6
        42.200          40.500
  23691660.772    23691659.969    23691660.769    -7042484.966 3  -5487648.681 4
        23.800          25.600
  22745624.049    22745623.835    22745621.370    -8448509.508 5  -6583251.909 4
        33.600          28.400
  25237839.423    25237837.451    25237834.949     2279723.419 2   1776410.114 2
        16.100          12.600
  23913860.973    23913860.168    23913860.213    -6246281.157 3  -4867229.514 3
        22.600          23.800
  24154922.354    24154922.281    24154920.429    -5816279.588 3  -4532163.105 3
        23.800          23.800
  20364935.525    20364934.994    20364932.821   -25509309.940 6 -19877377.204 7
        40.500          47.500
  23337714.357    23337714.577    23337712.473    -9078152.735 4  -7073883.778 4
        29.900          29.500
  24747963.596    24747963.088    24747962.503     -300920.502 2   -234482.802 2
        13.900          17.800
  23211882.392    23211881.552    23211881.017    -7578190.650 4  -5905074.836 4
        26.800          24.900
  23792660.146    23792659.978    23792657.897    -7247692.674 3  -5647545.652 2
        22.100          17.800
 09  1 21  1 56 30.0000000  0 11G22G32G11G19G 5G12G14G31G30G 9G18
  21303445.576    21303445.337    21303442.001   -19317234.758 7 -15052380.897 6
        42.200          40.200
  23674409.157    23674408.218    23674409.726    -7133139.650 3  -5558288.653 4
        23.400          25.600
  22739642.452    22739642.148    22739639.548    -8479943.215 5  -6607745.706 4
        33.100          28.100
  25255185.582    25255185.128    25255183.001     2370886.727 2   1847446.439 2
        13.900          13.900
  23900502.151    23900501.657    23900501.925    -6316482.802 3  -4921932.088 4
        23.800          25.300
  24144200.706    24144200.431    24144198.144    -5872624.514 3  -4576068.225 4
        23.400          24.200
  20363971.894    20363971.415    20363970.227   -25514373.358 6 -19881322.720 7
        40.500          47.200
  23317224.763    23317224.957    23317222.908    -9185826.469 4  -7157785.380 4
        29.900          29.500
  24728927.909    24728929.373    24728929.725     -400943.847 2   -312423.021 3
        13.900          19.900
  23231346.044    23231345.257    23231344.113    -7475908.318 4  -5825374.318 4
        26.800          24.200
  23811714.903    23811714.396    23811711.572    -7147562.096 3  -5569521.856 2
        22.600          17.000
 09  1 21  1 57  0.0000000  0 11G22G32G11G19G 5G12G14G31G30G 9G18
  21315902.007    21315901.705    21315898.571   -19251775.111 6 -15001373.382 6
        41.900          40.100
  23657179.577    23657179.177    23657180.241    -7223679.662 4  -5628839.288 4
        25.300          25.600
  22733766.126    22733765.930    22733764.239    -8510819.827 5  -6631805.399 4
        32.800          28.100
  25272555.721    25272554.621    25272554.730     2462167.937 1   1918574.610 2
         9.000          15.100
  23887224.304    23887223.393    23887222.372    -6386262.656 4  -4976305.963 4
        25.900          24.900
  24133563.228    24133563.221    24133561.791    -5928519.873 3  -4619623.063 4
        23.000          24.900
  20363092.849    20363092.267    20363089.996   -25518993.617 6 -19884922.922 7
        40.500          47.500
  23296775.759    23296775.832    23296773.356    -9293288.701 5  -7241522.168 4
        30.200          29.500
  24709924.933    24709924.940    24709923.561     -500817.419 2   -390246.567 3
        12.600          18.600
  23250881.971    23250881.272    23250880.278    -7373246.248 4  -5745377.904 4
        27.100          24.600
  23830800.698    23830800.188    23830797.971    -7047263.442 3  -5491367.072 2
        21.600          17.800
 09  1 21  1 57 30.0000000  0 11G22G32G11G19G 5G12G14G31G30G 9G18
  21328427.400    21328427.102    21328424.001   -19185954.176 6 -14950084.354 6
        41.900          40.200
  23639974.103    23639974.220    23639974.294    -7314093.995 4  -5699292.005 4
        27.400          25.600
  22727998.675    22727998.443    22727996.729    -8541128.667 5  -6655422.690 4
        32.800          28.100
  25289949.768    25289948.569    25289947.395     2553573.758 1   1989799.886 2
         6.500          12.600
  23874027.930    23874026.944    23874026.902    -6455608.148 4  -5030341.368 4
        25.300          24.200
  24123014.933    24123014.958    24123013.533    -5983953.617 3  -4662818.166 4
        23.400          24.600
  20362299.600    20362299.128    20362297.933   -25523161.287 6 -19888170.455 7
        40.500          47.200
  23276368.777    23276368.964    23276366.593    -9400526.927 5  -7325084.410 4
        30.400          29.900
  24690950.401    24690949.573    24690948.461     -600528.718 1   -467943.598 2
         9.000          17.800
  23270491.722    23270490.980    23270489.567    -7270197.858 4  -5665080.457 4
        26.500          24.200
  23849920.574    23849919.674    23849918.562    -6946787.970 3  -5413074.533 3
        19.300          18.600
 09  1 21  1 58  0.0000000  0 11G22G32G11G19G 5G12G14G31G30G 9G18
  21341021.235    21341020.932    21341017.614   -19119773.619 7 -14898515.093 6
        42.000          39.900
  23622793.648    23622793.058    23622792.804    -7404382.605 4  -5769646.759 4
        28.400          25.600
  22722338.936    22722338.854    22722336.870    -8570869.916 5  -6678597.693 4
        32.800          28.400
  25307368.422    25307366.729    25307362.592     2645100.097 1   2061119.097 1
         9.000           9.000
  23860914.678    23860913.740    23860913.551    -6524517.504 3  -5084036.987 3
        23.800          23.400
  24112554.981    24112554.815    24112551.215    -6038924.228 4  -4705652.385 3
        24.900          23.000
  20361592.356    20361591.817    20361589.689   -25526878.091 6 -19891066.665 7
        40.400          47.400
  23256004.879    23256004.847    23256003.240    -9507539.790 4  -7408471.035 5
        29.900          30.200
  24672005.521    24672005.993    24672005.561     -700075.325 1   -545512.365 2
         6.500          16.100
  23290173.459    23290172.923    23290171.981    -7166767.652 4  -5584485.502 3
        25.900          23.800
  23869073.469    23869073.007    23869071.463    -6846138.665 3  -5334646.552 3
        18.600          19.300
 09  1 21  1 58 30.0000000  0 12G22G32G11G19G 5G12G14G31G30G 9G17G18
  21353682.895    21353682.807    21353679.579   -19053235.073 6 -14846666.879 6
        41.900          39.900
  23605635.684    23605635.253    23605635.406    -7494545.005 4  -5839903.149 4
        27.900          25.600
  22716788.287    22716787.853    22716785.405    -8600043.393 5  -6701330.268 4
        34.100          28.600
  25324806.449    25324804.222    25324803.617     2736743.276     2132529.296 2
         3.000          13.900
  23847884.005    23847883.326    23847884.397    -6592988.736 4  -5137391.173 4
        24.200          24.200
  24102183.177    24102182.519    24102179.490    -6093430.056 4  -4748124.455 3
        24.600          23.800
  20360970.845    20360970.226    20360969.134   -25530144.793 6 -19893612.144 7
        40.500          47.500
  23235684.357    23235684.273    23235682.600    -9614325.942 5  -7491680.998 5
        30.400          30.400
  24653094.229    24653095.518    24653093.827     -799454.675     -622950.771 2
         3.000          15.100
  23309927.455    23309926.704    23309926.096    -7062959.597 4  -5503596.131 3
        25.900          23.800
  25291260.653    25291260.948    25291261.111           -.74711          .35513
         9.000          18.600
  23888259.757    23888258.900    23888257.282    -6745317.454 3  -5256084.603 3
        19.300          19.900
 09  1 21  1 59  0.0000000  0 12G22G32G11G19G 5G12G14G31G30G 9G17G18
  21366409.017    21366408.673    21366405.423   -18986360.170 6 -14794556.572 6
        41.800          39.800
  23588499.344    23588498.523    23588498.287    -7584600.806 4  -5910076.471 4
        28.100          25.600
  22711341.101    22711340.756    22711338.244    -8628669.364 5  -6723636.218 4
        34.600          28.600
  25342262.285    25342261.428    25342264.335     2828479.385     2204011.982 2
                        13.900
  23834935.229    23834934.400    23834934.863    -6661039.845 4  -5190417.997 4
        26.200          24.900
  24091895.354    24091895.123    24091893.466    -6147489.890 3  -4790249.014 4
        23.800          24.900
  20360430.711    20360430.105    20360428.108   -25532982.904 6 -19895823.660 7
        40.500          47.500
  23215403.468    23215403.218    23215401.587    -9720903.455 5  -7574728.390 5
        31.000          30.600
  24634211.713    24634212.213    24634210.345     -898684.688 1   -700272.811 2
         6.500          15.100
  23329748.603    23329748.243    23329747.333    -6958798.053 4  -5422431.292 3
        26.500          23.000
  25282470.487    25282468.986    25282467.712      -46205.835 1    -36003.553 3
         9.000          18.600
  23907474.106    23907472.932    23907471.558    -6644346.241 3  -5177405.797 3
        18.600          19.900
 09  1 21  1 59 30.0000000  0 12G22G32G11G19G 5G12G14G31G30G 9G17G18
  21379200.421    21379200.071    21379196.714   -18919141.890 6 -14742178.698 6
        41.900          39.800
  23571384.805    23571383.920    23571383.262    -7674540.790 4  -5980159.546 4
        28.600          25.600
  22705999.034    22705998.851    22705996.663    -8656739.024 5  -6745508.679 4
        34.400          28.600
  25359737.965    25359739.153    25359736.728     2920313.419     2275570.975 1
                        11.000
  23822067.455    23822066.911    23822066.467    -6728659.958 4  -5243108.983 3
        26.500          23.400
  24081694.433    24081694.284    24081692.751    -6201093.636 3  -4832018.133 4
        23.000          25.300
  20359973.415    20359973.015    20359971.930   -25535385.093 6 -19897695.493 7
        40.500          47.200
  23195164.128    23195164.065    23195162.133    -9827261.886 5  -7657605.063 5
        31.600          30.400
  24615360.229    24615359.442    24615359.153     -997753.801 1   -777469.456 2
         9.000          16.100
  23349638.550    23349637.929    23349636.788    -6854278.343 4  -5340987.358 3
        25.600          22.100
  25273771.914    25273770.974    25273769.375      -91920.584 2    -71625.425 3
        13.900          18.600
  23926717.108    23926717.260    23926715.937    -6543218.571 3  -5098605.058 3
        18.600          19.900
                            4  1
other post-header comments skipped                          COMMENT
 09  1 21  2  0  0.0000000  0 11G22G32G11G 5G12G14G31G30G 9G17G18
  21392056.607    21392056.465    21392053.286   -18851580.182 6 -14689533.220 6
        41.800          39.700
  23554292.580    23554292.035    23554290.601    -7764362.368 4  -6050150.365 4
        29.500          25.900
  22700763.900    22700763.682    22700761.386    -8684250.355 5  -6766946.084 4
        34.800          28.800
  23809282.685    23809281.864    23809280.548    -6795845.016 4  -5295460.950 3
        25.600          22.100
  24071581.335    24071581.265    24071578.203    -6254237.776 3  -4873429.132 3
        23.400          23.000
  20359599.436    20359598.963    20359596.813   -25537350.335 6 -19899226.851 7
        40.500          47.200
  23174967.090    23174967.265    23174964.906    -9933397.553 5  -7740308.176 5
        32.100          30.200
  24596538.104    24596538.204    24596538.025    -1096657.611 1   -854537.306 2
         9.000          17.000
  23369595.457    23369594.695    23369594.330    -6749402.204 4  -5259265.700 3
        24.200          22.100
  25265165.696    25265164.750    25265164.968     -137142.039 2   -106863.007 2
        12.600          15.100
  23945990.667    23945990.902    23945989.673    -6441934.380 3  -5019682.332 3
        19.300          19.300
 09  1 21  2  0 30.0000000  0 11G22G32G11G 5G12G14G31G30G 9G17G18
  21404978.974    21404978.720    21404975.503   -18783673.800 6 -14636619.159 6
        41.800          39.700
  23537223.340    23537222.307    23537221.169    -7854062.266 4  -6120046.378 4
        29.700          25.600
  22695635.904    22695635.429    22695633.239    -8711200.100 5  -6787945.888 4
        34.500          29.200
  23796582.354    23796581.016    23796579.708    -6862590.219 4  -5347470.212 3
        27.100          22.600
  24061558.136    24061557.529    24061554.183    -6306917.874 4  -4914478.578 3
        24.900          23.800
  20359309.058    20359308.505    20359307.500   -25538876.838 6 -19900416.330 7
        40.500          47.400
  23154813.301    23154813.485    23154811.075   -10039306.043 5  -7822834.267 4
        32.300          29.900
  24577750.673    24577751.537    24577750.154    -1195390.827 2   -931472.249 2
        13.900          17.000
  23389619.362    23389619.151    23389618.759    -6644171.095 3  -5177267.435 3
        23.800          22.100
  25256655.321    25256654.400    25256652.534     -181866.570 2   -141713.272 1
        12.600          11.000
  23965295.183    23965294.256    23965292.788    -6340493.031 3  -4940637.144 2
        18.600          17.800
 09  1 21  2  1  0.0000000  0 11G22G32G11G 5G12G14G31G30G 9G17G18
  21417969.977    21417969.703    21417966.508   -18715405.768 6 -14583423.295 6
        41.700          39.700
  23520180.064    23520179.218    23520178.493    -7943621.202 4  -6189832.540 4
        29.200          25.300
  22690617.477    22690617.125    22690615.352    -8737569.666 5  -6808493.607 4
        34.300          29.700
  23783968.769    23783967.979    23783966.637    -6928874.746 4  -5399120.495 3
        27.900          23.000
  24051624.962    24051624.573    24051622.956    -6359113.164 4  -4955150.229 4
        24.600          25.600
  20359105.395    20359104.824    20359102.814   -25539947.399 6 -19901250.536 7
        40.600          47.500
  23134706.849    23134706.972    23134704.768   -10144966.697 5  -7905167.235 5
        32.100          30.400
  24558999.892    24558999.785    24558998.267    -1293932.168 2  -1008257.657 2
        15.100          13.900
  23409715.210    23409714.528    23409713.374    -6538569.989 3  -5094980.868 3
        23.400          22.100
  25248242.425    25248242.391    25248240.854     -226074.767 2   -176161.088 2
        16.100          12.600
  23984631.212    23984630.193    23984629.638    -6238877.811 3  -4861456.470 2
        18.600          17.000
 09  1 21  2  1 30.0000000  0 11G22G32G11G 5G12G14G31G30G 9G17G18
  21431026.524    21431026.177    21431022.868   -18646793.761 6 -14529959.402 6
        41.500          39.500
  23503161.142    23503160.727    23503160.000    -8033054.587 4  -6259520.883 4
        29.200          25.300
  22685707.178    22685706.875    22685704.299    -8763375.113 5  -6828601.737 4
        34.900          28.800
  23771439.407    23771438.228    23771437.954    -6994712.505 4  -5450422.638 3
        25.900          23.400
  24041781.056    24041781.339    24041779.125    -6410838.357 4  -4995455.552 4
        25.600          24.900
  20358985.171    20358984.712    20358983.537   -25540579.129 6 -19901742.790 7
        40.600          47.700
  23114644.525    23114644.728    23114642.791   -10250394.030 5  -7987318.382 5
        32.100          31.000
  24540281.049    24540281.102    24540279.811    -1392294.931 2  -1084903.983 2
        15.100          12.600
  23429876.802    23429876.624    23429875.433    -6432618.957 3  -5012421.637 3
        23.800          22.600
  25239923.600    25239923.482    25239920.711     -269781.794 2   -210218.481 2
        12.600          12.600
  24003998.548    24003997.523    24003996.061    -6137106.853 3  -4782154.451 2
        18.600          17.000
 09  1 21  2  2  0.0000000  0 11G22G32G11G 5G12G14G31G30G 9G17G18
  21444148.725    21444148.453    21444145.376   -18577834.826 6 -14476225.176 6
        41.500          39.400
  23486167.597    23486167.034    23486166.551    -8122357.257 4  -6329107.374 4
        29.500          25.900
  22680904.384    22680904.093    22680902.059    -8788611.572 5  -6848266.524 4
        34.600          28.800
  23758997.304    23758996.356    23758995.875    -7060096.847 4  -5501371.462 3
        25.900          23.800
  24032029.453    24032029.113    24032026.429    -6462087.653 4  -5035390.059 4
        26.800          24.900
  20358949.102    20358948.634    20358946.477   -25540768.556 6 -19901890.395 7
        40.600          47.600
  23094628.376    23094628.288    23094626.105   -10355581.434 5  -8069282.584 5
        32.400          31.300
  24521598.285    24521598.349    24521598.018    -1490472.126 2  -1161405.625 2
        12.600          12.600
  23450105.207    23450105.182    23450104.042    -6326317.232 3  -4929589.124 3
        23.400          22.100
  25231704.118    25231703.247    25231701.323     -312982.093 1   -243881.099 2
         6.500          12.600
  24023395.300    24023394.320    24023392.737    -6035177.498 3  -4702728.994 2
        19.900          17.000
 09  1 21  2  2 30.0000000  0 11G22G32G11G 5G12G14G31G30G 9G17G18
  21457337.142    21457336.813    21457333.771   -18508529.448 6 -14422220.988 6
        41.500          39.300
  23469199.540    23469198.567    23469198.198    -8211527.455 4  -6398590.627 4
        29.000          26.500
  22676211.068    22676210.737    22676208.582    -8813277.989 5  -6867487.103 4
        34.800          29.500
  23746642.452    23746641.629    23746640.334    -7125024.531 4  -5551964.457 3
        27.400          23.000
  24022368.420    24022368.145    24022365.635    -6512857.767 4  -5074951.175 4
        26.800          25.300
  20358997.208    20358996.697    20358995.466   -25540515.661 6 -19901693.332 7
        40.600          47.400
  23074657.599    23074657.945    23074655.756   -10460525.888 5  -8151057.468 5
        32.300          31.600
  24502953.050    24502952.442    24502951.713    -1588459.817 2  -1237759.640 2
        12.600          12.600
  23470400.490    23470399.728    23470398.878    -6219667.609 3  -4846485.524 3
        22.100          22.100
  25223579.004    25223579.169    25223577.972     -355673.720 1   -277147.267 2
         6.500          13.900
  24042821.560    24042820.539    24042818.831    -5933090.671 3  -4623180.822 2
        18.600          16.100
 09  1 21  2  3  0.0000000  0 11G22G32G11G 5G12G14G31G30G 9G17G18
  21470590.313    21470590.101    21470587.071   -18438882.806 6 -14367950.883 6
        41.300          39.300
  23452255.624    23452254.578    23452254.423    -8300567.737 4  -6467972.642 4
        29.000          27.600
  22671624.758    22671624.483    22671622.262    -8837377.678 5  -6886266.072 4
        34.500          29.700
  23734373.211    23734372.442    23734371.801    -7189496.705 4  -5602202.527 3
        26.500          23.000
  24012797.277    24012797.074    24012794.399    -6563150.567 4  -5114140.380 4
        26.200          24.600
  20359128.671    20359128.164    20359125.981   -25539824.723 6 -19901154.937 7
        40.600          47.600
  23054733.526    23054733.694    23054731.579   -10565228.756 5  -8232644.109 5
        33.000          31.800
  24484341.594    24484341.358    24484341.084    -1686258.735 2  -1313966.582 2
        13.900          13.900
  23490758.805    23490759.329    23490758.444    -6112677.361 3  -4763116.501 3
        21.100          21.600
  25215553.652    25215552.871    25215552.152     -397859.209 1   -310019.094 2
        11.000          17.000
  24062275.856    24062275.336    24062273.766    -5830851.527 2  -4543513.979 2
        17.800          16.100
 09  1 21  2  3 30.0000000  0 11G22G32G11G 5G12G14G31G30G 9G17G18
  21483908.295    21483908.063    21483905.152   -18368896.367 6 -14313415.999 6
        41.200          39.400
  23435336.030    23435335.441    23435335.515    -8389477.468 4  -6537252.925 4
        29.000          28.600
  22667146.381    22667146.158    22667143.975    -8860910.517 5  -6904603.359 4
        34.300          29.500
  23722190.392    23722189.879    23722190.493    -7253511.370 4  -5652084.074 3
        24.900          23.800
  24003318.067    24003317.722    24003315.971    -6612964.858 4  -5152956.695 4
        26.200          25.600
  20359343.175    20359342.733    20359341.647   -25538697.129 6 -19900276.291 7
        40.700          47.600
  23034855.117    23034855.445    23034853.717   -10669688.768 5  -8314041.506 5
        32.700          32.300
  24465767.032    24465767.577    24465766.819    -1783866.452 2  -1390024.489 2
        13.900          15.100
  23511183.470    23511182.837    23511182.114    -6005350.551 3  -4679485.228 3
        19.900          21.100
  25207620.806    25207620.480    25207620.150     -439537.030 1   -342495.334 2
         9.000          15.100
  24081759.645    24081759.383    24081758.117    -5728461.751 2  -4463729.782 2
        15.100          17.000
 09  1 21  2  4  0.0000000  0 11G22G32G11G 5G12G14G31G30G 9G17G18
  21497291.525    21497291.325    21497288.295   -18298566.981 6 -14258613.888 6
        41.000          39.200
  23418443.335    23418442.537    23418442.343    -8478251.309 4  -6606427.318 4
        29.700          28.800
  22662777.420    22662777.031    22662774.587    -8883871.522 5  -6922495.053 4
        34.400          29.700
  23710098.985    23710098.001    23710097.637    -7317061.667 4  -5701603.774 4
        27.100          24.200
  23993930.662    23993930.774    23993929.488    -6662293.852 4  -5191394.872 4
        25.900          26.200
  20359641.740    20359641.222    20359639.121   -25537128.836 6 -19899054.244 7
        40.700          47.700
  23015024.306    23015024.529    23015023.228   -10773898.903 5  -8395244.194 5
        32.400          32.600
  24447232.792    24447232.769    24447230.554    -1881275.259 2  -1465927.415 2
        15.100          15.100
  23531671.346    23531670.946    23531669.708    -5897686.234 3  -4595590.977 3
        19.300          21.100
  25199788.066    25199788.919    25199784.079     -480702.019 2   -374572.022 2
        12.600          12.600
  24101273.677    24101273.029    24101272.793    -5625918.633 2  -4383826.113 2
        15.100          17.800
 09  1 21  2  4 30.0000000  0 11G22G32G11G 5G12G14G31G30G 9G17G18
  21510739.499    21510739.172    21510735.809   -18227898.246 6 -14203547.349 6
        41.100          38.700
  23401576.476    23401575.395    23401574.773    -8566890.314 5  -6675496.653 4
        30.100          28.800
  22658516.396    22658516.053    22658514.108    -8906262.587 5  -6939942.627 5
        33.900          30.100
  23698093.855    23698092.777    23698091.689    -7380147.211 4  -5750761.338 3
        26.500          23.800
  23984635.499    23984635.486    23984633.719    -6711138.278 4  -5229455.452 4
        25.900          24.600
  20360023.287    20360022.825    20360021.689   -25535123.210 6 -19897491.418 7
        40.800          47.600
  22995241.397    22995241.541    22995239.841   -10877858.992 5  -8476252.039 5
        32.300          32.400
  24428728.155    24428730.491    24428730.768    -1978484.405    -1541674.760 1
         3.000          11.000
  23552222.332    23552222.071    23552220.422    -5789690.129 2  -4511438.173 3
        17.800          19.900
  25192051.666    25192050.641    25192051.612     -521355.307 1   -406249.913 2
        11.000          17.000
  24120814.713    24120814.739    24120813.840    -5523226.002 2  -4303805.941 2
        12.600          17.800
 09  1 21  2  5  0.0000000  0 11G22G32G11G 5G12G14G31G30G 9G17G18
  21524252.086    21524251.861    21524248.751   -18156888.441 6 -14148215.035 6
        41.100          39.000
  23384735.035    23384734.103    23384733.246    -8655390.663 4  -6744457.949 4
        29.900          27.900
  22654364.059    22654363.950    22654362.095    -8928080.631 5  -6956943.701 4
        33.600          29.700
  23686178.298    23686177.253    23686176.827    -7442762.978 4  -5799552.845 4
        26.800          24.200
  23975434.371    23975434.032    23975431.821    -6759493.240 4  -5267134.654 3
        24.600          23.400
  20360488.608    20360488.112    20360486.042   -25532678.184 6 -19895586.201 7
        40.800          47.700
  22975507.233    22975507.346    22975505.447   -10981564.836 5  -8557061.776 5
        32.700          32.600
  24410268.796    24410266.844    24410270.889    -2075488.651    -1617261.533 1
         3.000           9.000
  23572836.778    23572835.971    23572834.423    -5681363.301 2  -4427027.672 3
        17.800          18.600
  25184413.867    25184412.837    25184410.196     -561493.042 2   -437525.968 2
        13.900          15.100
  24140385.841    24140385.655    24140384.285    -5420383.083 2  -4223668.637 2
        12.600          17.800
 09  1 21  2  5 30.0000000  0 11G22G32G11G 5G12G14G31G30G 9G17G18
  21537828.773    21537828.584    21537825.571   -18085542.148 6 -14092620.533 6
        40.900          39.000
  23367919.942    23367919.118    23367918.054    -8743754.337 5  -6813312.745 4
        30.400          27.400
  22650320.996    22650320.755    22650318.727    -8949328.509 5  -6973500.493 4
        33.900          29.900
  23674351.756    23674351.150    23674350.999    -7504909.512 4  -5847978.715 4
        26.500          24.600
  23966325.122    23966325.392    23966323.674    -6807360.203 4  -5304433.579 4
        25.300          24.900
  20361036.712    20361036.293    20361035.063   -25529797.514 6 -19893341.524 7
        40.700          47.500
  22955821.430    22955821.153    22955819.199   -11085016.683 5  -8637673.591 5
        33.100          32.700
  24391852.779    24391851.682    24391851.137    -2172287.484 1  -1692689.100 1
         9.000          11.000
  23593512.172    23593511.961    23593510.465    -5572711.927 3  -4342364.274 2
        18.600          17.800
  25176872.835    25176872.733    25176870.388     -601116.765 2   -468401.518 2
        17.800          15.100
  24159984.107    24159983.577    24159983.200    -5317394.058 1  -4143417.505 2
        11.000          17.000
 09  1 21  2  6  0.0000000  0 11G22G32G11G 5G12G14G31G30G 9G17G18
  21551468.285    21551467.987    21551464.374   -18013868.130 6 -14036770.654 6
        41.000          38.400
  23351129.835    23351128.814    23351128.126    -8831988.026 5  -6882066.268 4
        31.000          27.600
  22646384.771    22646384.471    22646382.555    -8970013.452 5  -6989618.624 4
        33.600          29.700
  23662614.150    23662613.367    23662612.953    -7566592.274 4  -5896043.186 4
        25.600          24.600
  23957308.750    23957308.933    23957307.550    -6854744.632 4  -5341356.493 4
        25.900          25.900
  20361666.351    20361665.831    20361663.670   -25526489.662 6 -19890763.977 7
        40.800          47.900
  22936181.915    22936181.992    22936180.176   -11188220.313 5  -8718091.987 5
        33.100          32.800
  24373470.914    24373471.558    24373470.420    -2268885.412 2  -1767960.129 2
        13.900          12.600
  23614248.076    23614247.914    23614246.003    -5463747.236 2  -4257456.724 2
        17.800          17.800
  25169429.732    25169429.591    25169426.895     -640233.266 2   -498881.907 2
        17.800          16.100
  24179606.979    24179607.684    24179606.975    -5214268.571 2  -4063060.012 2
        13.900          16.100
 09  1 21  2  6 30.0000000  0 11G22G32G11G 5G12G14G31G30G 9G17G18
  21565171.855    21565171.609    21565168.207   -17941854.880 6 -13980656.433 6
        41.000          38.400
  23334365.860    23334365.488    23334365.416    -8920077.774 5  -6950707.621 4
        30.400          28.600
  22642558.091    22642557.603    22642556.066    -8990122.402 5  -7005287.934 4
        33.400          29.900
  23650967.288    23650966.743    23650967.284    -7627795.908 4  -5943734.332 4
        25.300          25.900
  23948386.607    23948386.013    23948384.456    -6901632.027 4  -5377892.098 4
        25.300          24.900
  20362379.431    20362378.937    20362377.579   -25522742.462 6 -19887844.079 7
        40.900          47.800
  22916592.822    22916593.062    22916591.370   -11291160.609 5  -8798305.195 5
        33.400          33.000
  24355129.318    24355129.964    24355129.519    -2365266.683 2  -1843062.354 2
        16.100          13.900
  23635044.795    23635044.528    23635042.711    -5354459.852 2  -4172297.733 2
        17.800          17.800
  25162086.350    25162085.402    25162083.810     -678828.622 2   -528956.213 2
        15.100          17.800
  24199262.927    24199261.950    24199257.961    -5110995.210 2  -3982587.278 2
        17.800          15.100
 09  1 21  2  7  0.0000000  0 11G22G32G11G 5G12G14G31G30G 9G17G18
  21578938.914    21578938.631    21578935.525   -17869508.490 6 -13924282.635 6
        40.800          38.600
  23317630.359    23317629.651    23317629.348    -9008027.001 4  -7019239.483 4
        29.900          29.700
  22638840.564    22638840.231    22638838.223    -9009659.470 5  -7020511.618 4
        33.400          29.700
  23639410.821    23639410.142    23639411.483    -7688522.482 4  -5991053.721 4
        24.600          25.900
  23939558.529    23939558.622    23939554.820    -6948024.872 4  -5414042.363 3
        26.500          23.800
  20363175.004    20363174.538    20363172.255   -25518561.275 6 -19884586.009 7
        40.800          47.800
  22897053.814    22897053.890    22897052.187   -11393839.806 5  -8878314.941 5
        33.400          33.100
  24336829.721    24336830.253    24336829.960    -2461432.826 2  -1917996.995 2
        16.100          13.900
  23655899.156    23655899.878    23655899.433    -5244857.870 2  -4086893.592 2
        16.100          17.000
  25154838.533    25154838.597    25154840.285     -716906.012 2   -558626.797 2
        13.900          17.800
  24218942.173    24218941.359    24218937.071    -5007580.026 3  -3902004.044 2
        18.600          16.100
 09  1 21  2  7 30.0000000  0 11G22G32G11G 5G12G14G31G30G 9G17G18
  21592770.554    21592770.255    21592766.763   -17796823.110 6 -13867644.686 6
        40.700          38.100
  23300922.879    23300921.658    23300921.578    -9095827.739 4  -7087655.616 5
        29.000          30.400
  22635232.584    22635232.357    22635230.709    -9028617.393 5  -7035284.026 4
        33.200          29.500
  23627948.650    23627947.600    23627947.326    -7748762.710 4  -6037994.159 4
        25.900          24.900
  23930826.087    23930825.924    23930823.453    -6993914.400 4  -5449800.459 4
        26.200          24.900
  20364054.278    20364053.840    20364052.567   -25513940.308 6 -19880985.256 7
        40.900          47.600
  22877565.801    22877566.103    22877564.128   -11496249.006 5  -8958114.306 5
        33.800          32.600
  24318572.656    24318573.335    24318572.416    -2557374.003 2  -1992756.352 2
        16.100          15.100
  23676815.803    23676815.953    23676816.527    -5134938.013 2  -4001241.730 2
        12.600          17.000
  25147694.265    25147694.448    25147688.961     -754457.440 2   -587887.725 1
        13.900          11.000
  24238645.686    24238646.482    24238645.684    -4904017.551 2  -3821306.046 2
        13.900          17.800
 09  1 21  2  8  0.0000000  0 11G22G32G11G 5G12G14G31G30G 9G17G18
  21606665.258    21606665.091    21606661.617   -17723804.601 6 -13810747.150 6
        40.700          38.000
  23284242.008    23284241.141    23284241.341    -9183483.386 4  -7155958.677 5
        29.500          30.200
  22631734.451    22631734.227    22631732.275    -9047000.736 5  -7049608.715 4
        33.500          29.500
  23616576.213    23616575.486    23616575.554    -7808518.867 4  -6084557.387 4
        24.900          24.600
  23922188.171    23922187.880    23922186.629    -7039303.649 4  -5485168.690 4
        24.600          25.900
  20365016.573    20365015.962    20365013.778   -25508884.687 6 -19877045.812 8
        40.900          48.200
  22858128.925    22858128.974    22858126.926   -11598390.534 5  -9037705.101 5
        33.800          32.300
  24300358.999    24300359.244    24300358.463    -2653091.687 2  -2067341.584 2
        15.100          17.000
  23697793.024    23697791.761    23697792.061    -5024708.322 2  -3915348.468 2
        12.600          17.000
  25140647.110    25140646.886    25140644.779     -791486.541 1   -616741.580 2
        11.000          12.600
  24258380.922    24258380.806    24258380.317    -4800314.191 2  -3740498.295 3
        12.600          19.300
 09  1 21  2  8 30.0000000  0 11G22G32G11G 5G12G14G31G30G 9G17G18
  21620624.475    21620624.270    21620620.893   -17650449.032 6 -13753586.971 6
        40.600          38.100
  23267589.979    23267589.666    23267589.850    -9270987.682 5  -7224143.823 4
        31.000          29.200
  22628346.412    22628346.209    22628344.710    -9064804.010 5  -7063481.396 5
        33.600          30.200
  23605299.668    23605298.612    23605298.840    -7867783.408 4  -6130737.544 4
        25.600          25.600
  23913647.133    23913647.046    23913645.657    -7084185.614 4  -5520141.625 4
        24.600          25.900
  20366062.027    20366061.533    20366060.232   -25503390.101 6 -19872764.312 7
        40.900          47.900
  22838744.170    22838744.342    22838742.519   -11700257.043 5  -9117081.584 5
        33.900          32.800
  24282187.124    24282187.738    24282188.841    -2748577.630 2  -2141746.141 3
        15.100          19.900
  23718828.878    23718828.948    23718828.484    -4914166.915 1  -3829212.335 3
        11.000          18.600
  25133699.702    25133699.920    25133700.130     -827987.028 1   -645183.461 2
         9.000          15.100
  24278144.794    24278144.123    24278141.835    -4696466.131 2  -3659577.828 3
        13.900          19.300
 09  1 21  2  9  0.0000000  0 11G22G32G11G 5G12G14G31G30G 9G17G18
  21634646.483    21634646.143    21634642.877   -17576762.907 6 -13696169.218 6
        40.100          38.000
  23250967.286    23250966.473    23250966.550    -9358344.690 5  -7292214.224 4
        31.500          29.000
  22625068.665    22625068.323    22625066.087    -9082032.062 5  -7076905.840 4
        34.600          29.500
  23594114.449    23594113.400    23594113.381    -7926559.087 4  -6176536.779 4
        24.900          25.300
  23905203.122    23905202.335    23905200.752    -7128563.587 4  -5554721.850 4
        24.900          25.300
  20367189.926    20367189.460    20367187.234   -25497462.433 6 -19868145.351 7
        40.900          47.700
  22819411.532    22819411.595    22819409.615   -11801851.523 5  -9196246.099 5
        33.900          32.700
  24264061.743    24264062.078    24264062.105    -2843833.838 2  -2215971.697 3
        17.800          21.100
  23739921.974    23739921.554    23739920.907    -4803322.505 1  -3742840.101 2
         9.000          17.800
  25126856.197    25126854.858    25126852.680     -863962.865 1   -673216.581 1
         6.500           9.000
  24297931.353    24297930.864    24297929.086    -4592480.155 2  -3578549.855 3
        16.100          19.300
 09  1 21  2  9 30.0000000  0 11G22G32G11G 5G12G14G31G30G 9G17G18
  21648730.889    21648730.660    21648727.431   -17502748.348 6 -13638495.552 6
        40.100          37.900
  23234371.627    23234370.890    23234371.004    -9445554.214 5  -7360169.688 4
        31.300          29.000
  22621898.978    22621899.015    22621897.158    -9098685.705 5  -7089882.717 4
        34.900          29.200
  23583023.950    23583022.764    23583022.085    -7984844.627 4  -6221954.063 4
        25.300          25.300
  23896854.449    23896854.063    23896851.375    -7172436.678 4  -5588908.679 4
        25.900          25.300
  20368400.100    20368399.519    20368398.377   -25491103.488 6 -19863190.328 7
        40.800          47.900
  22800130.712    22800131.066    22800128.912   -11903172.559 5  -9275197.539 5
        34.000          33.000
  24245978.951    24245979.562    24245978.483    -2938858.251 3  -2290016.636 3
        18.600          20.500
  23761071.706    23761071.058    23761070.275    -4692179.445 1  -3656235.140 2
         9.000          17.800
  25120109.809    25120109.035    25120106.400     -899414.154 1   -700840.848 1
        11.000          11.000
  24317746.328    24317745.721    24317742.924    -4488359.119 2  -3497416.590 2
        17.000          17.800
 09  1 21  2 10  0.0000000  0 11G22G32G11G 5G12G14G31G30G 9G17G18
  21662877.162    21662877.012    21662873.722   -17428409.528 6 -13580569.200 6
        40.400          37.900
  23217804.133    23217803.193    23217803.403    -9532617.545 5  -7428011.233 4
        31.300          29.700
  22618839.413    22618839.110    22618836.918    -9114767.084 5  -7102413.660 4
        35.500          29.200
  23572024.913    23572024.314    23572023.956    -8042640.104 4  -6266989.494 4
        25.600          25.300
  23888600.609    23888600.463    23888598.825    -7215805.845 4  -5622702.837 4
        25.300          26.200
  20369691.506    20369691.074    20369688.895   -25484316.215 6 -19857901.545 7
        40.800          47.600
  22780902.369    22780902.203    22780900.070   -12004220.468 5  -9353936.154 5
        34.300          33.100
  24227939.120    24227940.361    24227940.015    -3033650.424 2  -2363880.617 3
        17.000          19.900
  23782276.431    23782276.424    23782275.035    -4580743.712 1  -3569402.102 2
         6.500          17.800
  25113464.507    25113463.979    25113463.044     -934342.330 2   -728057.618 2
        17.800          15.100
  24337585.626    24337584.677    24337582.393    -4384106.630 2  -3416180.902 2
        17.000          16.100
 09  1 21  2 10 30.0000000  0 11G22G32G11G 5G12G14G31G30G 9G17G18
  21677084.370    21677084.127    21677081.093   -17353749.724 6 -13522392.739 6
        40.200          37.900
  23201263.383    23201262.585    23201263.406    -9619535.987 5  -7495739.874 5
        30.800          30.200
  22615888.052    22615887.470    22615885.214    -9130278.455 5  -7114500.446 4
        35.200          29.500
  23561120.722    23561119.796    23561118.743    -8099945.697 4  -6311643.190 4
        26.200          24.900
  23880444.524    23880444.133    23880442.489    -7258671.643 4  -5656104.719 4
        26.500          26.500
  20371063.900    20371063.516    20371062.281   -25477104.534 6 -19852282.052 7
        40.700          47.600
  22761725.118    22761725.419    22761723.465   -12104995.629 5  -9432462.245 5
        34.700          33.600
  24209946.533    24209946.532    24209946.376    -3128209.657 2  -2437563.099 3
        17.000          19.900
  23803538.759    23803537.107    23803535.415    -4469021.154 1  -3482345.595 2
         6.500          17.800
  25106915.933    25106913.845    25106915.457     -968748.885 2   -754867.962 2
        13.900          15.100
  24357446.345    24357445.883    24357444.584    -4279726.965 2  -3334846.106 2
        12.600          15.100
 09  1 21  2 11  0.0000000  0 11G22G32G11G 5G12G14G31G30G 9G17G18
  21691355.364    21691355.159    21691352.063   -17278754.964 6 -13463955.267 6
        39.900          37.700
  23184753.794    23184753.390    23184753.718    -9706292.804 5  -7563342.567 5
        31.100          30.100
  22613047.512    22613047.052    22613044.889    -9145204.589 5  -7126131.191 4
        35.100          29.700
  23550312.140    23550311.246    23550310.921    -8156743.452 4  -6355901.199 4
        26.500          25.300
  23872387.438    23872387.008    23872383.752    -7301016.585 4  -5689100.779 4
        28.100          26.200
  20372520.025    20372519.466    20372517.411   -25469453.336 6 -19846320.080 8
        40.800          48.100
  22742604.020    22742604.013    22742601.857   -12205480.285 5  -9510761.965 5
        35.400          33.800
  24192000.238    24192000.845    24191999.570    -3222517.025 2  -2511049.355 3
        17.000          19.300
  23824856.234    23824854.633    23824852.722    -4356999.691 1  -3395056.173 3
         9.000          18.600
  25100471.139    25100469.838    25100469.791    -1002617.091 2   -781258.747 2
        13.900          15.100
  24377335.591    24377336.486    24377333.906    -4175205.957 1  -3253401.177 2
         6.500          12.600
 09  1 21  2 11 30.0000000  0 11G22G32G11G 5G12G14G31G30G 9G17G18
  21705688.453    21705688.457    21705685.521   -17203432.912 6 -13405262.771 6
        39.900          37.600
  23168275.140    23168274.399    23168274.028    -9792893.333 5  -7630823.484 5
        32.100          30.200
  22610317.052    22610316.740    22610314.647    -9159551.512 5  -7137310.619 4
        35.300          29.500
  23539599.452    23539598.661    23539598.411    -8213037.713 4  -6399766.839 4
        26.500          25.300
  23864426.303    23864426.043    23864423.898    -7342845.876 4  -5721695.046 4
        27.400          26.200
  20374058.218    20374057.612    20374056.445   -25461369.833 6 -19840021.247 7
        40.700          47.800
  22723536.628    22723536.957    22723534.811   -12305678.737 5  -9588838.673 5
        35.500          33.900
  24174100.829    24174101.602    24174101.406    -3316576.268 2  -2584342.240 3
        17.000          21.100
  23846226.831    23846225.970    23846225.363    -4244688.838 1  -3307541.216 2
         9.000          17.800
  25094127.900    25094127.726    25094123.962    -1035952.532 2   -807234.384 2
        13.900          12.600
  24397249.428    24397250.011    24397248.752    -4070551.693    -3171852.486 1
                        11.000
 09  1 21  2 12  0.0000000  0 11G22G32G11G 5G12G14G31G30G 9G17G18
  21720084.490    21720084.160    21720081.061   -17127783.872 6 -13346315.469 6
        40.000          37.300
  23151825.714    23151825.133    23151824.547    -9879335.473 5  -7698180.986 5
        32.600          30.100
  22607697.259    22607696.916    22607694.850    -9173317.960 5  -7148037.730 4
        34.800          29.700
  23528983.890    23528983.041    23528982.192    -8268825.161 4  -6443237.569 4
        27.100          25.300
  23856565.319    23856565.290    23856563.231    -7384156.514 4  -5753885.159 4
        27.900          26.200
  20375678.709    20375678.251    20375676.164   -25452854.054 6 -19833385.573 8
        40.900          48.000
  22704524.585    22704524.728    22704522.739   -12405587.851 5  -9666689.921 5
        35.600          34.000
  24156252.447    24156251.949    24156250.756    -3410383.121 3  -2657438.464 3
        18.600          21.600
  23867653.405    23867652.434    23867653.026    -4132091.692 1  -3219803.168 3
         9.000          18.600
  25087882.228    25087882.391    25087881.280    -1068753.254 1   -832793.436 2
         6.500          13.900
  24417189.877    24417192.258    24417195.125    -3965764.961    -3090199.903 1
                         6.500
 09  1 21  2 12 30.0000000  0 11G22G32G11G 5G12G14G31G30G 9G17G18
  21734540.770    21734540.550    21734537.363   -17051814.441 6 -13287118.516 6
        39.600          37.200
  23135405.251    23135404.819    23135404.310    -9965623.145 5  -7765418.126 4
        31.800          29.700
  22605187.056    22605186.598    22605184.906    -9186509.245 5  -7158316.652 5
        34.400          30.200
  23518463.759    23518462.806    23518462.227    -8324108.735 4  -6486315.669 4
        26.500          25.300
  23848801.874    23848802.022    23848799.674    -7424951.985 4  -5785673.822 4
        27.400          25.300
  20377380.306    20377379.732    20377378.683   -25443911.914 6 -19826417.673 7
        40.900          47.800
  22685567.388    22685567.197    22685565.194   -12505210.531 5  -9744317.966 5
        35.600          34.100
  24138447.673    24138448.014    24138446.967    -3503939.727 2  -2730339.661 3
        17.000          21.600
  23889130.981    23889130.480    23889132.392    -4019216.439 1  -3131848.460 2
         6.500          17.800
  25081745.520    25081745.462    25081741.188    -1101023.354 2   -857938.957 2
        13.900          16.100
  24437155.429    24437156.064    24437153.371    -3860852.150    -3008444.385 1
                         9.000
 09  1 21  2 13  0.0000000  0 11G22G32G11G 5G12G14G31G30G 9G17G18
  21749057.816    21749057.579    21749054.335   -16975527.231 6 -13227673.943 6
        39.500          37.200
  23119014.740    23119014.006    23119013.825   -10051756.501 5  -7832535.027 4
        31.000          29.700
  22602786.244    22602785.904    22602783.935    -9199126.555 5  -7168148.328 5
        34.500          30.600
  23508039.557    23508038.756    23508038.382    -8378887.484 4  -6529000.396 4
        26.800          25.300
  23841137.388    23841137.018    23841134.745    -7465231.970 4  -5817060.811 4
        26.800          25.600
  20379162.738    20379162.228    20379160.200   -25434545.359 6 -19819119.058 8
        40.900          48.100
  22666664.419    22666664.351    22666662.075   -12604546.025 5  -9821722.241 5
        35.800          34.000
  24120691.626    24120692.345    24120691.672    -3597244.534 2  -2803044.640 3
        17.000          21.600
  23910662.944    23910662.937    23910663.424    -3906067.845 1  -3043680.739 2
         9.000          17.800
  25075704.241    25075703.917    25075700.442    -1132763.282 2   -882671.322 2
        12.600          15.100
  24457146.187    24457145.761    24457143.312    -3755816.381    -2926598.415 1
                        11.000
 09  1 21  2 13 30.0000000  0 11G22G32G11G 5G12G14G31G30G 9G17G18
  21763636.142    21763635.917    21763632.653   -16898918.040 6 -13167978.477 6
        39.700          37.400
  23102655.347    23102654.533    23102653.813   -10137728.974 5  -7899526.544 4
        31.500          29.700
  22600495.516    22600495.165    22600493.113    -9211164.505 5  -7177528.547 5
        34.600          30.400
  23497713.297    23497712.457    23497711.417    -8433153.832 4  -6571285.854 4
        27.600          24.900
  23833571.039    23833571.253    23833568.995    -7504989.662 4  -5848040.818 4
        26.500          25.900
  20381026.612    20381026.093    20381025.042   -25424749.981 6 -19811486.294 7
        40.900          47.900
  22647817.492    22647817.415    22647815.198   -12703586.763 5  -9898896.830 5
        35.800          34.100
  24102986.483    24102986.903    24102985.776    -3690289.038 2  -2875546.803 3
        17.800          21.100
  23932248.962    23932247.381    23932246.880    -3792644.182 1  -2955298.654 2
        11.000          17.800
  25069766.570    25069766.077    25069761.470    -1163967.076 2   -906985.974 2
        13.900          12.600
  24477155.330    24477155.571    24477154.018    -3650653.841    -2844653.563 1
                         9.000
 09  1 21  2 14  0.0000000  0 11G22G32G11G 5G12G14G31G30G 9G17G18
  21778274.785    21778274.538    21778271.465   -16821990.759 6 -13108035.153 6
        39.300          37.300
  23086326.117    23086325.019    23086324.346   -10223541.866 5  -7966393.724 5
        31.500          30.200
  22598314.016    22598313.936    22598311.786    -9222625.465 5  -7186459.172 4
        34.300          29.900
  23487484.050    23487483.200    23487482.492    -8486907.989 4  -6613172.215 4
        27.600          24.900
  23826104.912    23826104.560    23826102.703    -7544225.949 4  -5878614.559 4
        26.500          25.900
  20382971.561    20382971.051    20382969.179   -25414529.344 6 -19803522.161 8
        40.900          48.000
  22629026.895    22629026.809    22629024.468   -12802333.104 6  -9975842.022 5
        36.100          34.400
  24085330.227    24085329.831    24085329.022    -3783072.376 2  -2947845.490 3
        17.800          20.500
  23953883.481    23953881.692    23953881.238    -3678950.969 1  -2866706.556 2
         9.000          16.100
  25063928.756    25063928.626    25063930.014    -1194636.109 2   -930883.911 2
        12.600          13.900
  24497190.083    24497187.959    24497189.870    -3545368.433    -2762612.961 1
         3.000          11.000
