     2.11           OBSERVATION DATA    G (GPS)             RINEX VERSION / TYPE
teqc  2008Oct2      WCDA Operator       20090124 00:18:44UTCPGM / RUN BY / DATE
Solaris x86 5.10|AMD64|cc SC5.8 -xarch=amd64|=+|=+          COMMENT
teqc  2008Oct2      WCDA Operator       20090123 01:18:22UTCCOMMENT
flin  WCDA-ACP   965000   CFS Flin Flon SASK Canada         MARKER NAME
40135M001                                                   MARKER NUMBER
PGC-WCDA            GEOL. SURV. CANADA                      OBSERVER / AGENCY
1115                AOA BENCHMARK ACT   3.3.32.4            REC # / TYPE / VERS
231                 AOAD/M_T        SCIS                    ANT # / TYPE
  -766174.4630 -3611375.3160  5184056.2210                  APPROX POSITION XYZ
        0.1500        0.0000        0.0000                  ANTENNA: DELTA H/E/N
     1     1                                                WAVELENGTH FACT L1/2
     7    C1    P1    P2    L1    L2    S1    S2            # / TYPES OF OBSERV
STATION INFORMATION EFFECTIVE FROM: 2001/01/13 18:20:00     COMMENT
                                TO: CURRENT DATE (above)    COMMENT
BIT 2 OF LLI FLAGS (+4) DATA COLLECTED UNDER 'AS' CONDITION COMMENT
L1 PHASE CENTRE 0.110m ABOVE ARP                            COMMENT
L2 PHASE CENTRE 0.128m ABOVE ARP                            COMMENT
where ARP is the Antenna Reference Point for HI measurement COMMENT
CONTACT gps@pgc.nrcan.gc.ca FOR ADDITIONAL INFORMATION      COMMENT
    P1 =    P1  TurboRogue; =    Y1  Benchmark              COMMENT
    L1 = L1(CA)                                             COMMENT
    P2 =    P2  TurboRogue; =    Y2  Benchmark              COMMENT
    L2 = L2(P2) TurboRogue; = L2(Y2) Benchmark              COMMENT
 SNR is mapped to RINEX snr flag value [0-9]                COMMENT
  L1 & L2: min(max(int(snr_dBHz/6), 0), 9)                  COMMENT
  2009     1    23     0     0    0.0000000     GPS         TIME OF FIRST OBS
                                                            END OF HEADER
 09  1 23  0  0  0.0000000  0 10G 9G 6G18G21G28G15G14G 3G19G22
  21571175.932    21571175.415    21571175.099   -17425643.314 6 -13578416.122 5
        36.600          35.800
  23630448.024    23630447.906    23630448.142    -5565167.459 3  -4336490.630 3
        23.000          23.000
  20788165.173    20788164.520    20788162.899   -24106991.022 6 -18784659.565 7
        41.500          43.400
  22829544.794    22829544.273    22829542.802   -14370773.861 4 -11198000.040 3
        27.100          22.600
  25444596.311    25444596.292    25444593.219    -1027984.379 1   -801024.839 1
        11.000           9.000
  24509243.120    24509242.867    24509240.910    -3580775.162 3  -2790194.108 3
        19.300          19.900
  22487727.682    22487727.148    22487726.207   -13685483.004 5 -10664007.651 4
        31.800          29.500
  23559674.536    23559674.064    23559674.188    -5169188.510 3  -4027935.605 3
        21.600          22.100
  22925631.068    22925629.849    22925628.018   -10718603.178 5  -8352155.433 5
        33.400          31.300
  20361844.057    20361843.709    20361840.751   -25178008.489 7 -19619217.900 8
        44.000          49.300
 09  1 23  0  0 30.0000000  0 10G 9G 6G18G21G28G15G14G 3G19G22
  21564708.381    21564707.907    21564707.331   -17459630.333 6 -13604899.503 5
        36.600          35.600
  23645516.068    23645515.801    23645516.107    -5485985.147 3  -4274790.139 3
        22.600          22.100
  20795618.974    20795618.340    20795616.706   -24067821.444 6 -18754137.815 7
        41.600          43.400
  22849256.392    22849255.854    22849254.133   -14267190.089 4 -11117285.436 3
        27.100          22.600
  25444472.095    25444471.448    25444469.946    -1028638.763 1   -801534.764 1
        11.000           6.500
  24529427.741    24529428.399    24529426.555    -3474698.987 3  -2707537.349 3
        19.300          19.300
  22470067.800    22470067.333    22470066.412   -13778285.726 5 -10736321.446 4
        31.800          29.500
  23574401.737    23574401.297    23574401.928    -5091795.554 3  -3967629.419 3
        21.100          22.600
  22926409.138    22926407.743    22926406.095   -10714515.382 5  -8348970.134 5
        33.100          31.800
  20357918.624    20357918.248    20357915.228   -25198637.062 7 -19635292.107 8
        44.000          49.300
 09  1 23  0  1  0.0000000  0 10G 9G 6G18G21G28G15G14G 3G19G22
  21558373.915    21558373.425    21558373.016   -17492917.926 6 -13630837.875 5
        36.600          35.700
  23660640.822    23660640.618    23660641.135    -5406501.622 3  -4212854.918 3
        22.100          22.100
  20803143.046    20803142.384    20803140.682   -24028282.685 6 -18723328.391 7
        41.700          43.400
  22869018.649    22869018.111    22869016.246   -14163339.165 4 -11036362.656 3
        26.800          22.600
  25444442.868    25444443.566    25444443.005    -1028776.928     -801642.380 1
                         6.500
  24549633.508    24549634.280    24549631.828    -3368515.286 3  -2624796.790 3
        19.300          18.600
  22452464.828    22452464.489    22452463.740   -13870788.877 5 -10808401.812 4
        32.300          29.900
  23589196.606    23589195.921    23589196.066    -5014049.672 3  -3907048.216 3
        21.100          22.100
  22927300.172    22927298.636    22927296.872   -10709833.663 5  -8345322.032 5
        32.800          31.500
  20354067.826    20354067.514    20354064.549   -25218872.598 7 -19651060.052 8
        44.000          49.300
 09  1 23  0  1 30.0000000  0 10G 9G 6G18G21G28G15G14G 3G19G22
  21552171.331    21552170.846    21552170.560   -17525512.083 6 -13656235.914 5
        36.600          35.600
  23675821.848    23675821.224    23675821.640    -5326727.169 3  -4150693.010 3
        21.600          21.600
  20810735.634    20810735.023    20810733.379   -23988382.470 6 -18692237.312 7
        41.600          43.100
  22888830.187    22888829.231    22888827.169   -14059230.939 4 -10955239.377 3
        26.800          22.600
  25444513.499    25444513.031    25444512.629    -1028406.325     -801353.638 1
                         6.500
  24569858.950    24569859.091    24569856.560    -3262233.300 3  -2541979.656 3
        19.900          19.300
  22434918.150    22434917.826    22434916.926   -13962998.407 5 -10880253.385 4
        32.400          29.900
  23604056.137    23604055.682    23604055.830    -4935961.401 3  -3846200.232 3
        21.600          22.600
  22928302.270    22928300.845    22928299.078   -10704566.036 5  -8341217.382 5
        32.400          30.800
  20350290.711    20350290.345    20350287.263   -25238722.149 7 -19666527.228 8
        44.000          49.300
 09  1 23  0  2  0.0000000  0 10G 9G 6G18G21G28G15G14G 3G19G22
  21546101.761    21546101.151    21546100.671   -17557409.613 6 -13681091.127 5
        36.800          35.800
  23691057.985    23691057.376    23691056.721    -5246663.110 3  -4088305.450 3
        21.600          20.500
  20818397.511    20818396.813    20818395.173   -23948119.669 6 -18660863.698 7
        41.500          43.100
  22908690.038    22908689.296    22908687.469   -13954865.770 4 -10873915.881 3
        26.800          22.100
  25444685.579    25444684.572    25444680.176    -1027525.400 1   -800667.168 1
         6.500           9.000
  24590103.224    24590102.893    24590099.920    -3155853.820 3  -2459086.546 3
        20.500          19.900
  22417427.865    22417427.526    22417426.460   -14054911.184 5 -10951873.727 4
        32.600          29.900
  23618980.292    23618980.065    23618980.227    -4857532.665 3  -3785086.947 3
        22.600          21.600
  22929416.283    22929414.903    22929412.975   -10698711.524 5  -8336655.431 5
        32.300          30.600
  20346587.181    20346586.856    20346583.852   -25258183.800 7 -19681692.149 8
        44.000          49.400
 09  1 23  0  2 30.0000000  0 10G 9G 6G18G21G28G15G14G 3G19G22
  21540165.750    21540165.302    21540164.937   -17588601.626 6 -13705396.583 5
        36.600          35.600
  23706349.261    23706349.023    23706349.140    -5166304.612 3  -4025688.441 3
        21.600          21.100
  20826129.411    20826128.772    20826127.217   -23907487.515 6 -18629202.281 7
        41.600          43.000
  22928599.586    22928599.092    22928597.861   -13850238.205 4 -10792387.925 3
        25.900          23.000
  25444949.634    25444948.582    25444947.268    -1026126.687 1   -799577.271 1
         9.000           9.000
  24610366.955    24610365.976    24610363.030    -3049370.991 3  -2376112.911 3
        21.100          21.600
  22399995.606    22399995.169    22399994.199   -14146518.213 5 -11023255.825 5
        32.600          30.100
  23633970.962    23633970.114    23633970.590    -4778758.314 3  -3723704.353 3
        23.000          22.100
  22930643.420    22930641.968    22930640.574   -10692262.691 5  -8331630.356 5
        32.400          31.000
  20342959.065    20342958.712    20342955.799   -25277249.555 7 -19696548.577 8
        44.000          49.500
 09  1 23  0  3  0.0000000  0 10G 9G 6G18G21G28G15G14G 3G19G22
  21534364.058    21534363.606    21534362.769   -17619090.993 6 -13729154.521 5
        36.900          35.300
  23721695.951    23721695.455    23721695.460    -5085658.874 3  -3962847.641 3
        20.500          21.600
  20833930.928    20833930.264    20833928.586   -23866490.814 6 -18597256.795 7
        41.600          42.800
  22948558.638    22948557.964    22948556.670   -13745354.716 4 -10710660.564 3
        26.200          22.600
  25445313.822    25445313.570    25445311.509    -1024214.631     -798087.357 1
                        11.000
  24630647.977    24630647.043    24630644.848    -2942791.052 3  -2293063.608 3
        20.500          22.100
  22382621.210    22382620.580    22382619.562   -14237821.987 5 -11094401.609 5
        32.700          30.200
  23649025.858    23649025.074    23649025.052    -4699645.834 3  -3662058.273 3
        23.800          21.600
  22931982.976    22931981.575    22931979.898   -10685224.487 5  -8326146.033 5
        32.600          31.000
  20339405.824    20339405.411    20339402.265   -25295923.090 7 -19711099.377 8
        44.100          49.400
 09  1 23  0  3 30.0000000  0 10G 9G 6G18G21G28G15G14G 3G19G22
  21528695.963    21528695.518    21528695.026   -17648876.447 6 -13752363.957 5
        37.000          35.500
  23737096.135    23737095.695    23737095.653    -5004728.930 3  -3899785.357 3
        20.500          21.100
  20841801.461    20841800.797    20841799.173   -23825130.453 6 -18565027.939 7
        41.500          42.700
  22968565.004    22968564.681    22968563.486   -13640218.154 4 -10628735.993 3
        26.500          22.100
  25445772.454    25445773.215    25445773.162    -1021789.560     -796197.679 1
         3.000          11.000
  24650946.648    24650946.973    24650944.893    -2836116.402 3  -2209940.513 3
        18.600          23.400
  22365304.718    22365304.141    22365302.946   -14328821.412 5 -11165310.238 5
        33.100          30.400
  23664144.392    23664143.768    23664143.480    -4620198.120 4  -3600150.977 3
        24.200          21.100
  22933434.666    22933433.156    22933431.293   -10677597.625 5  -8320203.022 5
        32.700          31.100
  20335926.776    20335926.481    20335923.503   -25314204.125 7 -19725344.334 8
        44.000          49.400
 09  1 23  0  4  0.0000000  0 10G 9G 6G18G21G28G15G14G 3G19G22
  21523162.400    21523161.970    21523161.581   -17677955.115 6 -13775022.654 5
        36.800          35.600
  23752550.199    23752549.737    23752549.774    -4923516.412 3  -3836502.899 3
        21.600          21.600
  20849741.313    20849740.670    20849739.128   -23783405.783 6 -18532515.209 7
        41.600          42.600
  22988619.825    22988619.723    22988618.111   -13534829.224 4 -10546614.776 3
        26.500          22.100
  25446334.840    25446334.393    25446331.640    -1018850.190 1   -793907.268 1
        11.000           9.000
  24671264.668    24671264.583    24671262.534    -2729347.694 3  -2126744.122 3
        19.300          23.400
  22348046.516    22348045.919    22348044.699   -14419513.470 5 -11235979.357 5
        33.100          30.400
  23679326.330    23679325.530    23679325.818    -4540417.030 3  -3537983.908 3
        23.400          21.600
  22934997.788    22934996.165    22934994.709   -10669381.363 5  -8313800.738 5
        32.400          31.100
  20332523.023    20332522.657    20332519.708   -25332091.270 7 -19739282.362 8
        44.100          49.500
 09  1 23  0  4 30.0000000  0 10G 9G 6G18G21G28G15G14G 3G19G22
  21517762.900    21517762.487    21517761.785   -17706330.142 6 -13797133.057 5
        37.000          35.500
  23768056.807    23768056.784    23768056.793    -4842028.492 3  -3773005.840 3
        20.500          21.600
  20857749.752    20857749.114    20857747.518   -23741321.653 6 -18499722.375 7
        41.600          42.500
  23008721.545    23008721.354    23008719.567   -13429194.609 4 -10464302.120 3
        26.200          21.600
  25446991.005    25446989.567    25446986.448    -1015401.169 1   -791219.734 1
         6.500           9.000
  24691599.436    24691599.248    24691596.957    -2622491.329 3  -2043479.413 4
        20.500          24.200
  22330846.501    22330845.878    22330844.628   -14509900.987 5 -11306411.173 5
        33.500          30.400
  23694569.787    23694569.125    23694569.666    -4460310.082 4  -3475562.925 3
        24.200          22.100
  22936672.522    22936670.919    22936669.393   -10660580.795 5  -8306943.165 5
        32.100          31.000
  20329193.497    20329193.111    20329190.047   -25349588.463 7 -19752916.535 8
        44.100          49.500
 09  1 23  0  5  0.0000000  0 10G 9G 6G18G21G28G15G14G 3G19G22
  21512499.282    21512498.637    21512498.176   -17733991.228 6 -13818687.143 5
        36.900          35.500
  23783617.444    23783616.988    23783617.121    -4760258.918 3  -3709289.299 3
        21.100          22.100
  20865828.239    20865827.530    20865825.927   -23698869.434 6 -18466642.722 7
        41.500          42.400
  23028871.557    23028870.990    23028869.135   -13323307.371 4 -10381792.608 3
        25.600          21.100
  25447743.360    25447743.595    25447744.979    -1011433.456     -788128.028 1
         3.000          11.000
  24711951.220    24711950.983    24711949.255    -2515540.029 3  -1960140.719 4
        19.300          24.200
  22313706.240    22313705.577    22313704.368   -14599973.358 5 -11376597.421 5
        33.600          30.800
  23709876.881    23709876.200    23709876.219    -4379871.049 3  -3412883.148 3
        23.000          21.100
  22938459.899    22938458.694    22938456.658   -10651187.228 5  -8299623.488 5
        32.400          30.800
  20325939.892    20325939.510    20325936.444   -25366686.192 7 -19766239.433 8
        44.200          49.500
 09  1 23  0  5 30.0000000  0 10G 9G 6G18G21G28G15G14G 3G19G22
  21507371.078    21507370.551    21507369.907   -17760940.211 6 -13839686.341 5
        36.900          35.400
  23799229.909    23799229.552    23799230.322    -4678213.718 3  -3645357.971 3
        21.600          22.100
  20873975.994    20873975.388    20873973.616   -23656052.641 6 -18433278.983 7
        41.700          42.200
  23049068.281    23049067.532    23049066.011   -13217172.882 4 -10299090.425 3
        25.300          20.500
  25448599.612    25448598.662    25448595.776    -1006950.513 1   -784634.782
         9.000           3.000
  24732320.612    24732319.865    24732318.904    -2408499.130 3  -1876732.229 4
        18.600          24.900
  22296625.423    22296624.741    22296623.956   -14689732.110 5 -11446539.286 5
        33.400          31.000
  23725246.192    23725245.722    23725245.168    -4299106.353 3  -3349949.649 3
        23.000          20.500
  22940359.410    22940358.429    22940356.710   -10641204.403 5  -8291844.665 5
        32.600          31.100
  20322761.692    20322761.380    20322758.367   -25383387.220 7 -19779253.217 8
        44.200          49.600
 09  1 23  0  6  0.0000000  0 10G 9G 6G18G21G28G15G14G 3G19G22
  21502377.043    21502376.538    21502376.230   -17787182.234 6 -13860134.666 5
        36.600          35.400
  23814893.088    23814892.669    23814893.317    -4595902.291 3  -3581219.200 3
        21.100          22.100
  20882191.763    20882191.130    20882189.390   -23612878.289 6 -18399636.631 7
        41.600          42.100
  23069310.238    23069309.601    23069308.123   -13110800.067 4 -10216202.529 3
        25.900          20.500
  25449549.445    25449549.318    25449546.462    -1001959.008     -780745.250
         3.000           3.000
  24752706.555    24752705.736    24752703.365    -2301376.852 3  -1793260.324 4
        18.600          25.300
  22279603.163    22279602.949    22279601.986   -14779182.526 5 -11516240.890 5
        33.500          31.100
  23740675.581    23740674.710    23740674.843    -4218025.196 3  -3286769.530 3
        21.600          21.600
  22942370.230    22942368.803    22942366.819   -10630639.664 5  -8283612.398 5
        33.000          30.600
  20319657.999    20319657.651    20319654.565   -25399697.778 7 -19791962.738 8
        44.300          49.600
 09  1 23  0  6 30.0000000  0 10G 9G 6G18G21G28G15G14G 3G19G22
  21497519.145    21497518.609    21497517.811   -17812712.563 6 -13880028.423 5
        37.100          35.300
  23830607.582    23830607.155    23830606.773    -4513323.706 3  -3516872.280 3
        22.100          22.100
  20890476.102    20890475.442    20890473.671   -23569343.992 6 -18365713.799 7
        41.600          42.000
  23089598.312    23089597.544    23089595.770   -13004187.326 4 -10133127.674 3
        25.900          19.900
  25450598.425    25450598.406    25450595.448     -996455.265 1   -776456.695 1
         6.500          11.000
  24773106.234    24773105.351    24773103.565    -2194171.507 2  -1709723.690 4
        17.800          25.600
  22262641.557    22262640.953    22262639.784   -14868319.225 5 -11585698.034 5
        33.900          31.100
  23756165.330    23756164.597    23756164.461    -4136626.435 3  -3223341.931 3
        21.600          22.100
  22944491.853    22944490.432    22944488.789   -10619489.754 5  -8274924.158 5
        32.800          31.000
  20316629.239    20316628.918    20316625.907   -25415613.500 7 -19804364.595 8
        44.300          49.600
 09  1 23  0  7  0.0000000  0 10G 9G 6G18G21G28G15G14G 3G19G22
  21492796.745    21492796.182    21492795.144   -17837529.595 6 -13899366.361 5
        37.200          35.300
  23846371.942    23846371.674    23846372.144    -4430480.487 3  -3452319.122 3
        21.100          22.600
  20898828.939    20898828.241    20898826.549   -23525449.753 6 -18331510.492 7
        41.700          42.000
  23109931.240    23109930.602    23109928.957   -12897336.407 4 -10049867.227 3
        25.300          20.500
  25451738.332    25451739.107    25451738.417     -990439.217     -771768.807 1
                         9.000
  24793521.516    24793520.900    24793519.269    -2086884.857 2  -1626123.705 4
        17.800          24.900
  22245739.357    22245738.807    22245737.768   -14957139.922 5 -11654908.951 5
        33.800          31.100
  23771713.895    23771713.181    23771714.358    -4054913.711 3  -3159669.700 3
        21.100          23.000
  22946725.211    22946723.741    22946721.832   -10607755.112 5  -8265780.273 5
        33.400          31.000
  20313675.974    20313675.642    20313672.627   -25431133.243 7 -19816457.894 8
        44.300          49.600
 09  1 23  0  7 30.0000000  0 10G 9G 6G18G21G28G15G14G 3G19G22
  21488210.435    21488209.970    21488209.249   -17861629.564 6 -13918145.554 5
        37.200          35.400
  23862186.113    23862186.330    23862187.264    -4347372.731 3  -3387559.843 3
        19.900          23.000
  20907250.589    20907249.960    20907248.290   -23481193.077 6 -18297024.768 6
        41.600          41.900
  23130309.585    23130308.829    23130307.489   -12790246.951 4  -9966420.910 3
        24.600          20.500
  25452983.868    25452984.084    25452979.840     -983908.396     -766679.885 1
         3.000           9.000
  24813952.389    24813952.749    24813950.496    -1979515.814 2  -1542459.501 4
        17.800          24.200
  22228898.214    22228897.756    22228896.619   -15045640.650 5 -11723870.536 5
        33.900          31.300
  23787323.517    23787322.799    23787323.327    -3972886.796 3  -3095752.624 3
        20.500          22.600
  22949069.993    22949068.517    22949066.400   -10595433.753 5  -8256179.203 5
        33.400          31.000
  20310798.546    20310798.204    20310795.084   -25446254.508 7 -19828240.693 8
        44.400          49.600
 09  1 23  0  8  0.0000000  0 10G 9G 6G18G21G28G15G14G 3G19G22
  21483760.269    21483759.767    21483759.071   -17885015.721 6 -13936368.518 5
        37.200          35.400
  23878050.371    23878050.136    23878050.574    -4264007.879 3  -3322600.226 3
        20.500          22.600
  20915740.410    20915739.720    20915738.019   -23436578.995 6 -18262260.546 6
        41.600          41.700
  23150732.037    23150731.243    23150730.454   -12682925.481 3  -9882793.822 3
        23.800          21.100
  25454323.070    25454322.889    25454319.870     -976867.750 1   -761193.706 1
         9.000           6.500
  24834398.869    24834399.410    24834396.909    -1872070.978 2  -1458736.229 3
        17.000          23.800
  22212117.406    22212116.924    22212115.876   -15133824.465 5 -11792585.179 5
        34.100          31.600
  23802991.277    23802990.988    23802990.390    -3890552.762 3  -3031596.273 3
        21.600          22.600
  22951525.209    22951523.703    22951521.731   -10582530.567 5  -8246124.767 5
        32.800          31.300
  20307996.140    20307995.811    20307992.590   -25460981.240 7 -19839716.064 8
        44.400          49.500
 09  1 23  0  8 30.0000000  0 10G 9G 6G18G21G28G15G14G 3G19G22
  21479446.572    21479446.039    21479445.022   -17907684.504 6 -13954032.497 5
        37.400          34.900
  23893963.571    23893963.139    23893963.429    -4180386.231 3  -3257440.511 3
        20.500          22.600
  20924298.486    20924297.805    20924296.106   -23391605.797 6 -18227216.493 6
        41.600          41.600
  23171198.995    23171198.340    23171197.156   -12575371.868 4  -9798985.819 3
        24.200          21.600
  25455758.580    25455757.970    25455758.607     -969314.869     -755308.372 1
                        11.000
  24854859.785    24854859.811    24854857.651    -1764549.496 2  -1374953.233 3
        16.100          22.600
  22195397.724    22195397.125    22195396.157   -15221687.216 5 -11861049.643 5
        34.400          31.800
  23818717.184    23818716.382    23818716.529    -3807912.272 3  -2967201.102 3
        21.100          22.600
  22954091.516    22954089.780    22954088.136   -10569044.193 5  -8235615.903 5
        33.000          31.500
  20305269.243    20305268.920    20305265.750   -25475310.699 7 -19850881.872 8
        44.400          49.500
 09  1 23  0  9  0.0000000  0 10G 9G 6G18G21G28G15G14G 3G19G22
  21475268.713    21475268.262    21475267.543   -17929638.680 6 -13971139.639 5
        37.500          35.300
  23909923.844    23909923.276    23909923.680    -4096514.742 3  -3192086.126 3
        21.100          23.000
  20932924.088    20932923.430    20932921.668   -23346278.210 6 -18191896.291 6
        41.800          41.500
  23191708.857    23191708.031    23191706.834   -12467592.450 4  -9715001.876 3
        24.600          20.500
  25457295.790    25457294.538    25457291.106     -961254.471 1   -749027.478 1
         6.500           9.000
  24875334.198    24875333.701    24875331.604    -1656957.446 2  -1291115.263 3
        15.100          21.600
  22178738.368    22178737.978    22178736.914   -15309231.714 5 -11929266.118 5
        34.500          31.800
  23834500.589    23834499.926    23834499.872    -3724972.417 3  -2902572.653 3
        21.600          23.400
  22956767.815    22956766.316    22956764.516   -10554979.494 5  -8224656.384 5
        33.200          31.100
  20302617.378    20302617.000    20302613.874   -25489246.675 7 -19861741.069 8
        44.400          49.600
 09  1 23  0  9 30.0000000  0 10G 9G 6G18G21G28G15G14G 3G19G22
  21471228.281    21471227.807    21471227.191   -17950871.689 6 -13987684.834 5
        37.400          35.600
  23925932.252    23925931.557    23925931.956    -4012390.877 3  -3126535.061 3
        21.100          23.400
  20941618.028    20941617.384    20941615.585   -23300591.393 6 -18156296.172 6
        41.700          41.500
  23212262.247    23212261.706    23212260.180   -12359584.030 4  -9630839.473 3
        24.600          20.500
  25458925.159    25458924.245    25458923.585     -952680.891     -742346.850 1
                         6.500
  24895821.158    24895821.268    24895819.372    -1549291.507 2  -1207219.708 3
        13.900          20.500
  22162141.399    22162140.794    22162139.795   -15396450.689 5 -11997228.946 5
        34.600          32.100
  23850340.554    23850339.796    23850340.274    -3641731.271 3  -2837709.443 3
        21.600          23.800
  22959555.417    22959553.874    22959551.986   -10540331.815 5  -8213242.601 5
        33.400          31.600
  20300041.411    20300041.051    20300037.984   -25502783.119 7 -19872288.943 8
        44.400          49.700
 09  1 23  0 10  0.0000000  0 10G 9G 6G18G21G28G15G14G 3G19G22
  21467325.538    21467325.093    21467324.539   -17971379.869 6 -14003665.226 5
        37.400          35.700
  23941988.299    23941987.806    23941988.200    -3928014.478 3  -3060787.228 3
        19.900          23.400
  20950380.636    20950379.994    20950378.305   -23254542.944 6 -18120414.261 6
        41.700          41.300
  23232859.032    23232858.743    23232857.425   -12251345.717 4  -9546497.944 3
        24.200          20.500
  25460655.108    25460652.264    25460653.755     -943591.971     -735264.509 1
                         6.500
  24916322.488    24916323.862    24916322.685    -1441549.885 2  -1123265.189 3
        12.600          19.300
  22145606.853    22145606.277    22145605.115   -15483339.820 5 -12064934.748 5
        34.600          32.100
  23866238.005    23866237.807    23866237.851    -3558188.467 3  -2772611.171 3
        21.600          23.400
  22962453.694    22962452.400    22962450.958   -10525098.508 5  -8201372.477 5
        33.100          32.000
  20297542.126    20297541.791    20297538.721   -25515916.884 7 -19882523.042 8
        44.500          49.700
 09  1 23  0 10 30.0000000  0 10G 9G 6G18G21G28G15G14G 3G19G22
  21463560.130    21463559.553    21463559.093   -17991167.408 6 -14019084.080 5
        37.200          35.700
  23958090.825    23958090.644    23958090.954    -3843393.604 3  -2994848.914 3
        19.900          23.400
  20959211.151    20959210.551    20959208.660   -23208138.706 6 -18084255.112 6
        41.800          41.100
  23253498.799    23253498.261    23253496.576   -12142885.323 3  -9461983.379 3
        23.800          20.500
  25462483.134    25462482.052    25462479.612     -933992.784     -727784.572 1
         3.000           9.000
  24936838.870    24936838.843    24936837.917    -1333740.101 2  -1039257.559 3
        12.600          19.900
  22129134.304    22129133.819    22129132.613   -15569903.078 5 -12132386.625 5
        34.900          32.300
  23882191.985    23882191.241    23882191.476    -3474352.272 3  -2707284.274 3
        21.100          23.000
  22965462.926    22965461.537    22965459.783   -10509285.992 5  -8189051.019 5
        33.400          31.800
  20295118.776    20295118.376    20295115.261   -25528652.342 7 -19892446.771 8
        44.500          49.700
 09  1 23  0 11  0.0000000  0 10G 9G 6G18G21G28G15G14G 3G19G22
  21459931.300    21459930.839    21459930.386   -18010236.396 6 -14033943.018 5
        37.300          35.600
  23974240.087    23974239.345    23974238.950    -3758534.390 3  -2928724.876 3
        19.900          22.600
  20968108.480    20968107.814    20968106.116   -23161382.443 6 -18047821.653 6
        41.600          41.000
  23274179.580    23274178.678    23274177.404   -12034207.871 3  -9377299.673 3
        23.800          19.900
  25464406.581    25464405.882    25464404.341     -923887.363 1   -719910.209 1
         6.500          11.000
  24957368.364    24957367.862    24957365.247    -1225867.234 1   -955200.797 3
        11.000          19.300
  22112723.658    22112723.087    22112721.919   -15656141.906 5 -12199585.702 5
        35.100          32.600
  23898199.425    23898198.775    23898199.511    -3390228.912 3  -2641733.623 3
        20.500          22.600
  22968581.511    22968580.010    22968578.201   -10492898.098 5  -8176281.227 5
        33.400          31.300
  20292770.380    20292770.103    20292766.929   -25540992.611 7 -19902062.560 8
        44.600          49.800
 09  1 23  0 11 30.0000000  0 10G 9G 6G18G21G28G15G14G 3G19G22
  21456440.368    21456439.965    21456439.467   -18028581.188 6 -14048237.651 5
        37.500          35.600
  23990432.736    23990432.808    23990433.346    -3673434.874 3  -2862413.589 3
        19.900          22.100
  20977073.696    20977073.034    20977071.313   -23114269.844 6 -18011110.537 6
        41.600          41.000
  23294901.638    23294901.118    23294899.678   -11925311.151 3  -9292445.112 3
        23.000          19.900
  25466425.188    25466425.872    25466424.431     -913270.882     -711637.693 1
                        11.000
  24977908.828    24977907.822    24977905.476    -1117928.576 1   -871092.754 3
        11.000          18.600
  22096375.810    22096375.280    22096374.197   -15742049.984 5 -12266527.049 5
        35.200          32.700
  23914262.837    23914262.092    23914262.455    -3305817.028 3  -2575958.153 3
        21.100          21.600
  22971809.931    22971808.359    22971806.931   -10475931.153 5  -8163060.213 5
        32.700          31.000
  20290498.211    20290497.897    20290494.901   -25552932.565 7 -19911366.415 8
        44.500          49.800
 09  1 23  0 12  0.0000000  0 10G 6G 9G18G21G28G15G14G 3G19G22
  24006670.936    24006671.035    24006671.800    -3588103.325 3  -2795921.476 3
        19.900          22.100
  21453086.759    21453086.215    21453085.281   -18046206.404 6 -14061971.579 5
        37.700          35.500
  20986105.641    20986105.034    20986103.216   -23066806.998 6 -17974126.499 6
        41.800          41.000
  23315664.392    23315663.675    23315662.509   -11816202.461 3  -9207425.383 3
        23.000          20.500
  25468540.096    25468539.455    25468539.898     -902149.467     -702972.483 1
                         6.500
  24998459.627    24998459.219    24998456.867    -1009931.134 2   -786938.901 3
        13.900          18.600
  22080090.066    22080089.720    22080088.476   -15827631.362 5 -12333213.828 5
        35.200          32.600
  23930379.199    23930378.513    23930378.857    -3221124.667 3  -2509964.126 3
        21.100          21.100
  22975147.764    22975146.205    22975144.297   -10458391.007 5  -8149392.563 5
        32.300          30.400
  20288301.493    20288301.101    20288297.997   -25564477.108 7 -19920362.158 8
        44.500          49.900
 09  1 23  0 12 30.0000000  0 10G 6G 9G18G21G28G15G14G 3G19G22
  24022953.929    24022953.515    24022954.159    -3502536.403 3  -2729245.964 3
        19.300          21.600
  21449870.756    21449870.327    21449869.771   -18063104.787 6 -14075139.146 5
        37.600          35.400
  20995205.208    20995204.600    20995202.809   -23018988.246 6 -17936865.130 6
        41.800          40.800
  23336467.714    23336467.534    23336466.273   -11706878.051 3  -9122237.537 3
        23.000          19.900
  25470753.588    25470753.276    25470751.740     -890517.510     -693908.761 1
                         6.500
  25019021.581    25019021.695    25019020.323     -901870.390 2   -702735.701 3
        13.900          18.600
  22063868.369    22063867.789    22063866.617   -15912878.126 5 -12399639.872 5
        35.200          32.700
  23946549.685    23946549.115    23946549.550    -3136148.298 3  -2443748.768 3
        20.500          20.500
  22978595.782    22978594.018    22978592.079   -10440272.883 5  -8135274.535 5
        32.100          30.400
  20286180.985    20286180.643    20286177.593   -25575619.841 7 -19929044.804 8
        44.500          49.900
 09  1 23  0 13  0.0000000  0 10G 6G 9G18G21G28G15G14G 3G19G22
  24039280.136    24039280.384    24039281.098    -3416736.618 2  -2662389.027 3
        17.800          19.900
  21446793.771    21446793.237    21446792.548   -18079275.104 6 -14087739.387 5
        37.400          35.400
  21004372.491    21004371.910    21004370.129   -22970813.836 6 -17899326.623 6
        41.800          40.800
  23357312.367    23357311.764    23357310.694   -11597339.974 3  -9036883.217 3
        22.100          19.900
  25473064.897    25473063.880    25473062.525     -878374.855     -684446.950 1
         3.000          11.000
  25039596.995    25039596.855    25039595.398     -793748.012 2   -618484.490 3
        13.900          18.600
  22047710.534    22047709.931    22047708.751   -15997788.513 5 -12465803.796 5
        35.400          32.800
  23962773.791    23962773.340    23962773.425    -3050891.027 3  -2377314.542 3
        19.900          19.900
  22982153.039    22982151.809    22982149.935   -10421577.263 5  -8120706.505 5
        32.300          30.400
  20284137.268    20284136.894    20284133.807   -25586360.130 7 -19937413.854 8
        44.600          49.900
 09  1 23  0 13 30.0000000  0 10G 6G 9G18G21G28G15G14G 3G19G22
  24055652.879    24055652.002    24055651.890    -3330707.784 3  -2595353.578 3
        19.900          19.300
  21443855.089    21443854.630    21443853.998   -18094717.614 6 -14099772.502 5
        37.600          35.600
  21013607.053    21013606.438    21013604.827   -22922285.393 6 -17861512.248 6
        41.600          40.800
  23378197.181    23378196.294    23378195.124   -11487591.116 3  -8951364.656 3
        21.600          19.900
  25475473.893    25475473.215    25475471.182     -865722.963 1   -674588.257 1
         9.000          11.000
  25060185.143    25060184.301    25060181.193     -685566.623 2   -534187.290 2
        12.600          17.800
  22031616.671    22031616.130    22031615.011   -16082361.934 5 -12531705.155 5
        35.700          33.100
  23979050.121    23979049.339    23979050.201    -2965356.554 3  -2310664.322 3
        19.900          20.500
  22985820.562    22985819.063    22985816.938   -10402305.881 5  -8105689.844 5
        32.400          30.600
  20282169.907    20282169.569    20282166.508   -25596698.277 7 -19945469.548 8
        44.500          49.900
 09  1 23  0 14  0.0000000  0 10G 6G 9G18G21G28G15G14G 3G19G22
  24072064.422    24072064.392    24072064.153    -3244460.068 3  -2528147.558 3
        19.900          19.300
  21441053.681    21441053.191    21441052.922   -18109438.772 6 -14111243.528 5
        37.600          35.800
  21022907.558    21022906.997    21022905.352   -22873410.789 6 -17823428.136 6
        41.600          40.700
  23399119.388    23399118.780    23399117.781   -11377641.299 3  -8865689.519 3
        21.100          19.300
  25477975.376    25477974.729    25477972.443     -852569.373     -664338.778 1
         3.000           9.000
  25080779.797    25080779.390    25080777.103     -577335.215 2   -449851.118 2
        12.600          17.000
  22015585.848    22015585.205    22015584.124   -16166604.465 5 -12597348.677 5
        35.800          33.000
  23995377.462    23995376.874    23995377.892    -2879555.194 3  -2243806.141 3
        20.500          21.600
  22989595.520    22989594.001    22989592.502   -10382466.887 5  -8090230.886 5
        32.000          31.000
  20280277.823    20280277.483    20280274.381   -25606641.404 7 -19953217.434 8
        44.600          49.900
 09  1 23  0 14 30.0000000  0 10G 6G 9G18G21G28G15G14G 3G19G22
  24088518.627    24088518.419    24088519.273    -3157989.213 3  -2460767.700 3
        18.600          19.300
  21438390.974    21438390.593    21438390.205   -18123430.852 6 -14122146.444 5
        37.700          35.700
  21032275.455    21032274.735    21032272.931   -22824183.651 6 -17785069.324 6
        41.600          40.600
  23420081.907    23420081.197    23420079.600   -11267485.416 3  -8779853.797 3
        21.100          18.600
  25480575.204    25480573.183    25480575.194     -838907.734     -653693.327 2
                        12.600
  25101386.358    25101385.965    25101382.868     -469048.537 1   -365471.891 2
        11.000          16.100
  21999619.640    21999619.022    21999617.959   -16250507.386 5 -12662727.569 5
        35.900          33.200
  24011756.222    24011756.248    24011756.428    -2793483.070 3  -2176736.967 3
        19.900          21.600
  22993480.240    22993478.674    22993476.822   -10362054.277 5  -8074324.956 5
        31.800          30.800
  20278462.204    20278461.895    20278458.815   -25616182.097 7 -19960651.737 8
        44.500          49.900
 09  1 23  0 15  0.0000000  0 10G 6G 9G18G21G28G15G14G 3G19G22
  24105015.862    24105015.560    24105016.183    -3071298.040 3  -2393216.150 3
        19.300          18.600
  21435867.522    21435867.074    21435866.549   -18136692.831 6 -14132480.446 5
        37.700          35.700
  21041709.972    21041709.408    21041707.718   -22774604.219 6 -17746435.997 6
        41.600          40.600
  23441082.450    23441081.866    23441080.700   -11157125.594 3  -8693859.157 3
        21.100          19.300
  25483273.083    25483272.531    25483270.706     -824738.547     -642652.333 1
         3.000           9.000
  25122002.275    25122002.618    25121999.932     -360708.146 1   -281050.807 2
         6.500          15.100
  21983718.382    21983717.860    21983716.581   -16334069.153 6 -12727840.623 5
        36.300          33.200
  24028186.616    24028186.020    24028186.341    -2707142.794 3  -2109458.839 3
        19.300          21.100
  22997473.570    22997471.960    22997470.202   -10341069.149 5  -8057972.914 5
        32.000          30.400
  20276723.554    20276723.178    20276719.977   -25625319.727 7 -19967771.963 8
        44.600          49.900
 09  1 23  0 15 30.0000000  0 10G 6G 9G18G21G28G15G14G 3G19G22
  24121553.851    24121553.320    24121553.921    -2984390.783 3  -2325496.212 3
        18.600          19.300
  21433482.599    21433482.078    21433481.490   -18149225.490 6 -14142246.148 5
        37.700          35.500
  21051211.428    21051210.765    21051209.007   -22724674.526 6 -17707529.741 6
        41.700          40.500
  23462121.829    23462121.177    23462119.307   -11046565.262 3  -8607708.284 3
        21.100          19.300
  25486064.702    25486064.004    25486061.045     -810063.595     -631217.396 1
         3.000           6.500
  25142628.846    25142628.824    25142626.905     -252317.244     -196590.372 2
         3.000          15.100
  21967881.914    21967881.456    21967880.201   -16417289.767 6 -12792687.844 5
        36.500          33.400
  24044667.279    24044666.852    24044667.001    -2620538.800 3  -2041975.230 3
        19.300          20.500
  23001575.230    23001573.851    23001572.222   -10319513.750 5  -8041176.494 5
        32.000          30.600
  20275061.105    20275060.763    20275057.650   -25634055.326 7 -19974578.920 8
        44.500          50.000
 09  1 23  0 16  0.0000000  0 10G 6G 9G18G21G28G15G14G 3G19G22
  24138132.452    24138132.568    24138132.579    -2897269.119 3  -2257609.215 3
        19.300          18.600
  21431236.577    21431236.277    21431235.565   -18161027.108 6 -14151442.208 5
        37.700          35.300
  21060779.167    21060778.534    21060776.937   -22674394.427 6 -17668350.436 6
        41.400          40.300
  23483198.004    23483197.716    23483196.381   -10935805.946 3  -8521402.326 3
        21.100          18.600
  25488952.520    25488952.410    25488952.191     -794882.060     -619387.705 1
                         6.500
  25163264.385    25163263.561    25163262.468     -143876.381     -112091.012 2
                        13.900
  21952111.008    21952110.525    21952109.408   -16500166.468 6 -12857267.077 5
        36.500          33.600
  24061197.825    24061196.564    24061196.593    -2533673.035 3  -1974287.645 3
        19.900          19.900
  23005785.807    23005784.401    23005782.339   -10297388.142 5  -8023935.758 4
        32.600          29.900
  20273475.392    20273475.098    20273472.026   -25642387.592 7 -19981071.590 8
        44.500          50.000
 09  1 23  0 16 30.0000000  0 10G 6G 9G18G21G28G15G14G 3G19G22
  24154752.036    24154751.184    24154751.234    -2809936.864 3  -2189558.113 3
        19.900          18.600
  21429130.297    21429129.721    21429129.107   -18172097.858 6 -14160068.764 5
        37.700          35.500
  21070413.563    21070412.986    21070411.306   -22623765.182 6 -17628899.075 6
        41.300          40.200
  23504312.690    23504312.009    23504310.496   -10824850.980 3  -8434943.937 2
        21.100          17.800
  25491939.612    25491939.734    25491938.561     -779195.862 1   -607164.515 1
         9.000           9.000
  25183908.312    25183907.961    25183906.265      -35388.619      -27555.073 2
                        12.600
  21936405.792    21936405.182    21936403.859   -16582699.080 6 -12921578.190 5
        36.500          33.600
  24077776.295    24077775.590    24077775.798    -2446549.837 3  -1906399.441 3
        19.900          19.900
  23010104.476    23010103.057    23010100.776   -10274694.131 5  -8006252.112 5
        33.200          30.100
  20271966.499    20271966.156    20271963.149   -25650317.176 7 -19987250.484 8
        44.500          50.100
 09  1 23  0 17  0.0000000  0 10G 6G 9G18G21G28G15G14G 3G19G22
  24171407.843    24171407.378    24171407.716    -2722407.544 2  -2121353.458 3
        17.800          19.300
  21427160.675    21427160.196    21427159.450   -18182447.983 6 -14168133.795 5
        37.700          35.600
  21080112.388    21080111.749    21080109.920   -22572798.049 6 -17589184.421 6
        41.400          39.900
  23525461.456    23525460.814    23525459.278   -10713713.033 3  -8348342.965 2
        19.300          17.800
  25495018.534    25495017.839    25495015.955     -763015.671 1   -594556.644 1
         6.500          11.000
  25204559.155    25204559.805    25204557.739       73134.204       57008.145 2
                        13.900
  21920763.974    21920763.366    21920762.172   -16664896.647 6 -12985628.229 5
        36.500          33.800
  24094401.124    24094400.268    24094400.970    -2359182.201 3  -1838320.798 3
        19.300          19.900
  23014529.040    23014527.537    23014525.430   -10251443.524 5  -7988134.755 5
        33.100          30.600
  20270532.242    20270531.906    20270528.906   -25657854.296 7 -19993123.558 8
        44.500          50.100
 09  1 23  0 17 30.0000000  0 10G 6G 9G18G21G28G15G14G 3G19G22
  24188105.520    24188105.219    24188105.020    -2634662.136 2  -2052980.452 3
        17.000          18.600
  21425332.387    21425331.906    21425331.405   -18192054.853 6 -14175619.658 5
        37.700          35.500
  21089879.504    21089878.870    21089877.108   -22521471.636 6 -17549189.809 6
        41.400          39.800
  23546648.845    23546648.169    23546646.731   -10602372.362 3  -8261584.036 2
        19.300          17.800
  25498194.352    25498194.230    25498192.619     -746321.102     -581547.877 2
         3.000          12.600
  25225219.570    25225221.498    25225219.383      181712.147      141614.358 2
         3.000          12.600
  21905190.263    21905189.835    21905188.737   -16746735.868 6 -13049399.034 5
        36.500          33.900
  24111076.957    24111076.528    24111076.990    -2271551.509 3  -1770037.175 3
        20.500          19.300
  23019062.995    23019061.637    23019059.788   -10227615.554 5  -7969567.495 5
        32.800          30.800
  20269177.107    20269176.692    20269173.493   -25664976.501 7 -19998673.325 8
        44.600          50.100
 09  1 23  0 18  0.0000000  0 10G 6G 9G18G21G28G15G14G 3G19G22
  24204842.365    24204841.601    24204841.411    -2546709.912 2  -1984446.269 2
        16.100          17.800
  21423644.821    21423644.309    21423643.491   -18200924.327 6 -14182530.929 5
        37.900          35.500
  21099713.487    21099712.892    21099711.181   -22469793.271 6 -17508920.952 6
        41.300          39.800
  23567873.871    23567872.962    23567871.144   -10490837.515 3  -8174673.800 2
        20.500          17.800
  25501466.971    25501466.075    25501465.858     -729118.650     -568143.274 1
         3.000          11.000
  25245891.750    25245892.925    25245889.692      290336.828 1    226256.983 1
         6.500          11.000
  21889684.032    21889683.562    21889682.579   -16828221.634 6 -13112894.422 5
        36.700          34.000
  24127801.814    24127800.872    24127800.333    -2183667.295 3  -1701555.981 3
        20.500          18.600
  23023706.151    23023704.651    23023702.311   -10203217.752 5  -7950556.227 5
        32.800          30.400
  20267899.479    20267899.144    20267895.970   -25671689.950 7 -20003904.578 8
        44.600          50.000
 09  1 23  0 18 30.0000000  0 10G 6G 9G18G21G28G15G14G 3G19G22
  24221615.881    24221615.198    24221614.610    -2458563.701 2  -1915760.920 2
        15.100          17.800
  21422095.469    21422094.873    21422094.143   -18209065.864 6 -14188874.979 5
        37.700          35.300
  21109612.666    21109611.988    21109610.106   -22417773.495 6 -17468386.058 6
        41.200          39.500
  23589132.943    23589132.161    23589129.927   -10379120.993 3  -8087621.997 2
        21.100          17.800
  25504835.919    25504835.756    25504833.673     -711418.663     -554351.071 1
                        11.000
  25266569.163    25266569.345    25266567.814      398996.911 1    310927.191 1
         6.500          11.000
  21874243.554    21874243.034    21874241.924   -16909362.519 6 -13176121.067 5
        36.900          34.300
  24144571.450    24144570.458    24144569.678    -2095542.310 3  -1632887.163 3
        19.300          18.600
  23028454.633    23028453.089    23028451.527   -10178261.131 5  -7931109.510 5
        31.800          30.400
  20266697.888    20266697.548    20266694.373   -25678004.464 7 -20008824.975 8
        44.700          50.100
 09  1 23  0 19  0.0000000  0 10G 6G 9G18G21G28G15G14G 3G19G22
  24238426.879    24238425.930    24238425.722    -2370221.783 2  -1846923.072 2
        16.100          17.800
  21420685.447    21420685.125    21420684.366   -18216474.823 6 -14194648.195 5
        38.000          35.400
  21119577.303    21119576.678    21119574.992   -22365408.268 6 -17427581.981 6
        41.100          39.500
  23610426.912    23610425.864    23610424.008   -10267220.324 3  -8000426.686 3
        22.100          18.600
  25508300.480    25508298.622    25508297.986     -693217.627     -540168.471 1
                         6.500
  25287253.978    25287253.399    25287254.159      507695.139 1    395627.140 1
         6.500          11.000
  21858869.525    21858869.146    21858868.001   -16990152.739 6 -13239074.471 5
        37.200          34.400
  24161385.908    24161385.719    24161386.075    -2007175.053 2  -1564029.589 3
        17.800          19.300
  23033310.847    23033309.164    23033307.632   -10152742.457 5  -7911224.833 5
        31.300          30.800
  20265573.092    20265572.745    20265569.595   -25683915.072 7 -20013430.639 8
        44.700          50.100
 09  1 23  0 19 30.0000000  0 10G 6G 9G18G21G28G15G14G 3G19G22
  24255274.848    24255275.186    24255273.822    -2281684.941 2  -1777933.359 2
        17.800          17.800
  21419415.592    21419415.135    21419414.483   -18223148.390 6 -14199848.369 5
        37.800          35.500
  21129608.161    21129607.545    21129605.805   -22312696.110 6 -17386507.571 6
        41.100          39.400
  23631755.571    23631754.718    23631752.991   -10155135.699 3  -7913088.039 2
        21.600          17.800
  25511859.300    25511858.839    25511856.698     -674514.010     -525594.274 1
         3.000           9.000
  25307948.275    25307947.463    25307944.724      616431.852 1    480357.015 1
         9.000          11.000
  21843563.193    21843562.690    21843561.529   -17070588.730 6 -13301751.851 5
        37.200          34.400
  24178246.751    24178247.137    24178247.694    -1918566.915 2  -1494984.285 3
        17.000          18.600
  23038274.130    23038272.434    23038270.915   -10126661.082 5  -7890901.682 5
        31.600          30.800
  20264525.667    20264525.319    20264522.111   -25689419.641 7 -20017719.908 8
        44.700          50.100
 09  1 23  0 20  0.0000000  0 10G 6G 9G18G21G28G15G14G 3G19G22
  24272158.440    24272158.227    24272158.826    -2192958.197 2  -1708795.664 3
        17.000          19.300
  21418285.341    21418284.920    21418283.953   -18229088.298 6 -14204476.858 5
        37.800          35.300
  21139704.426    21139703.780    21139702.017   -22259639.503 6 -17345164.760 6
        41.000          39.200
  23653119.088    23653118.171    23653116.106   -10042871.519 3  -7825609.475 2
        20.500          17.000
  25515512.951    25515512.960    25515510.612     -655310.624 1   -510630.585 1
         6.500           9.000
  25328646.258    25328646.478    25328642.757      725203.289 1    565113.986 1
        11.000           6.500
  21828324.035    21828323.584    21828322.415   -17150671.105 6 -13364153.685 5
        37.300          34.700
  24195154.556    24195153.877    24195154.456    -1829722.443 2  -1425754.857 2
        17.800          17.800
  23043343.287    23043341.959    23043340.365   -10100019.973 5  -7870142.374 5
        31.500          30.400
  20263555.140    20263554.810    20263551.667   -25694519.279 7 -20021693.649 8
        44.700          50.100
 09  1 23  0 20 30.0000000  0 10G 6G 9G18G21G28G15G14G 3G19G22
  24289077.375    24289076.756    24289077.148    -2104051.268 2  -1639517.569 3
        16.100          19.300
  21417293.258    21417292.821    21417291.927   -18234301.185 6 -14208538.847 5
        38.100          35.300
  21149864.749    21149864.185    21149862.312   -22206246.723 6 -17303559.991 6
        41.100          39.100
  23674513.891    23674513.274    23674511.944    -9930437.024 3  -7737998.191 2
        18.600          16.100
  25519258.836    25519259.770    25519259.150     -635615.276     -495283.505 1
         3.000           6.500
  25349347.485    25349347.411    25349346.011      834000.794 1    649891.250 1
         9.000          11.000
  21813151.153    21813150.617    21813149.383   -17230405.336 6 -13426284.236 5
        37.400          34.800
  24212104.080    24212103.783    24212103.997    -1740651.827 2  -1356349.178 2
        17.800          17.000
  23048518.018    23048516.745    23048514.740   -10072827.228 5  -7848953.221 4
        32.000          29.900
  20262660.453    20262660.094    20262656.931   -25699221.355 7 -20025357.600 8
        44.700          50.100
 09  1 23  0 21  0.0000000  0 10G 6G 9G18G21G28G15G14G 3G19G22
  24306030.458    24306030.421    24306030.648    -2014959.331 2  -1570095.287 3
        17.000          18.600
  21416441.403    21416440.875    21416439.818   -18238778.938 6 -14212027.999 5
        38.100          35.200
  21160090.393    21160089.725    21160088.071   -22152510.431 6 -17261687.552 6
        41.000          39.100
  23695942.416    23695941.960    23695941.002    -9817826.646 2  -7650249.855 2
        15.100          16.100
  25523103.849    25523104.788    25523103.789     -615420.572 1   -479547.421 1
         6.500           9.000
  25370055.144    25370053.778    25370056.753      942830.491      734693.618 2
         3.000          12.600
  21798046.251    21798045.776    21798044.347   -17309782.422 6 -13488136.496 5
        37.700          34.900
  24229098.019    24229098.051    24229096.728    -1651350.362 3  -1286763.665 2
        18.600          17.000
  23053799.103    23053797.568    23053795.744   -10045076.578 5  -7827329.341 5
        31.800          30.100
  20261842.772    20261842.489    20261839.470   -25703517.488 7 -20028705.231 8
        44.700          50.200
 09  1 23  0 21 30.0000000  0  9G 6G 9G18G21G28G14G 3G19G22
  24323018.961    24323019.384    24323018.414    -1925685.780 2  -1500531.506 2
        17.800          17.000
  21415728.955    21415728.460    21415727.599   -18242521.750 6 -14214944.472 5
        37.800          35.100
  21170381.503    21170380.745    21170378.878   -22098431.566 6 -17219548.178 6
        41.000          38.900
  23717404.296    23717403.458    23717403.098    -9705043.203 2  -7562366.699 2
        15.100          17.000
  25527036.787    25527034.239    25527043.439     -594728.037     -463423.416 1
                         6.500
  21783009.458    21783008.829    21783007.736   -17388801.478 6 -13549709.767 5
        37.700          35.300
  24246134.495    24246133.860    24246133.637    -1561821.669 2  -1217001.064 2
        17.000          17.000
  23059185.706    23059184.203    23059182.506   -10016769.780 5  -7805272.095 5
        31.800          30.200
  20261102.536    20261102.214    20261099.104   -25707407.901 7 -20031736.718 8
        44.700          50.100
 09  1 23  0 22  0.0000000  0  9G 6G 9G18G21G28G14G 3G19G22
  24340041.492    24340041.273    24340040.507    -1836236.402 3  -1430830.706 2
        19.300          17.000
  21415156.009    21415155.480    21415154.486   -18245532.788 6 -14217290.732 5
        37.900          35.100
  21180736.650    21180736.038    21180734.219   -22044013.756 6 -17177144.686 6
        41.000          38.700
  23738898.306    23738897.976    23738896.975    -9592091.868 2  -7474352.711 2
        15.100          15.100
  25531073.492    25531074.429    25531069.049     -573541.403     -446915.237 1
         3.000           6.500
  21768040.275    21768039.800    21768038.643   -17467463.917 6 -13611005.154 5
        37.700          35.400
  24263213.760    24263212.739    24263213.121    -1472071.483 2  -1147065.870 2
        16.100          17.800
  23064677.082    23064675.550    23064674.024    -9987911.136 5  -7782784.836 5
        31.500          30.100
  20260438.929    20260438.585    20260435.472   -25710895.147 7 -20034454.049 8
        44.700          50.100
 09  1 23  0 22 30.0000000  0  9G 6G 9G18G21G28G14G 3G19G22
  24357097.986    24357097.540    24357098.017    -1746600.418 2  -1360984.495 2
        17.000          17.000
  21414724.821    21414724.375    21414723.911   -18247797.583 6 -14219055.501 5
        37.700          35.600
  21191158.881    21191158.305    21191156.597   -21989243.905 6 -17134466.876 6
        40.900          38.600
  23760426.336    23760426.092    23760425.138    -9478961.117 2  -7386198.901 2
        17.000          15.100
  25535201.366    25535200.609    25535200.067     -551847.687     -430011.066 1
         3.000           9.000
  21753141.962    21753141.398    21753140.267   -17545755.195 6 -13672011.325 5
        37.800          35.400
  24280336.461    24280335.808    24280335.590    -1382089.264 2  -1076949.871 2
        15.100          17.800
  23070276.325    23070274.473    23070272.977    -9958488.385 5  -7759858.011 5
        31.500          30.100
  20259854.699    20259854.330    20259851.187   -25713965.488 7 -20036846.519 8
        44.700          50.100
 09  1 23  0 23  0.0000000  0  9G 6G 9G18G21G28G14G 3G19G22
  24374187.498    24374187.491    24374188.146    -1656788.497 2  -1291001.211 2
        15.100          17.000
  21414434.415    21414434.009    21414433.501   -18249323.598 6 -14220244.598 5
        37.900          35.500
  21201646.804    21201646.146    21201644.273   -21934130.552 6 -17091521.403 6
        40.900          38.500
  23781986.504    23781986.429    23781985.186    -9365661.234 2  -7297913.297 2
        17.000          15.100
  25539425.996    25539424.963    25539424.092     -529655.738 1   -412718.690 1
         6.500          11.000
  21738313.046    21738312.426    21738311.412   -17623681.350 6 -13732732.988 5
        37.800          35.500
  24297501.640    24297501.043    24297501.174    -1291885.845 2  -1006661.490 3
        17.000          18.600
  23075980.760    23075979.268    23075977.653    -9928510.233 5  -7736498.410 5
        31.800          30.200
  20259348.204    20259347.969    20259344.865   -25716626.336 7 -20038919.905 8
        44.700          50.100
 09  1 23  0 23 30.0000000  0  9G 6G 9G18G21G28G14G 3G19G22
  24391312.043    24391312.145    24391311.758    -1566803.700 2  -1220883.201 2
        16.100          17.000
  21414284.859    21414284.234    21414283.583   -18250111.031 6 -14220858.175 5
        37.900          35.400
  21212199.564    21212198.956    21212197.289   -21878674.304 6 -17048308.741 6
        40.800          38.500
  23803578.912    23803578.297    23803577.311    -9252194.460 2  -7209497.666 2
        17.800          13.900
  25543739.680    25543738.990    25543736.033     -506966.387     -395038.607 1
                         6.500
  21723553.657    21723553.207    21723552.150   -17701241.381 6 -13793169.356 5
        37.700          35.500
  24314708.152    24314707.982    24314707.661    -1201464.158 3   -936203.032 3
        18.600          18.600
  23081790.800    23081789.561    23081787.364    -9897978.310 5  -7712707.295 5
        32.000          30.100
  20258919.962    20258919.604    20258916.380   -25718877.656 7 -20040674.177 8
        44.700          50.100
 09  1 23  0 24  0.0000000  0  9G 6G 9G18G21G28G14G 3G19G22
  24408468.169    24408468.474    24408466.817    -1476651.102 3  -1150634.410 2
        18.600          17.000
  21414274.863    21414274.397    21414273.798   -18250161.967 6 -14220897.862 5
        37.700          35.400
  21222817.273    21222816.609    21222814.887   -21822878.887 6 -17004831.792 6
        41.000          38.400
  23825202.071    23825201.522    23825199.565    -9138565.514 3  -7120955.633 2
        18.600          13.900
  25548152.735    25548152.137    25548151.633     -483782.772     -376973.435 1
         3.000           9.000
  21708864.059    21708863.525    21708862.561   -17778436.110 6 -13853321.076 5
        37.900          35.800
  24331954.197    24331954.282    24331954.991    -1110829.781 2   -865578.885 3
        16.100          18.600
  23087705.623    23087703.937    23087702.042    -9866896.740 5  -7688487.898 5
        31.800          30.200
  20258569.132    20258568.753    20258565.529   -25720721.385 7 -20042110.844 8
        44.800          50.000
 09  1 23  0 24 30.0000000  0  9G 6G 9G18G21G28G14G 3G19G22
  24425651.446    24425651.416    24425651.213    -1386348.807 2  -1080269.009 2
        17.000          17.000
  21414402.362    21414401.996    21414401.432   -18249491.790 6 -14220375.635 5
        37.800          35.400
  21233496.351    21233495.748    21233493.974   -21766759.857 6 -16961102.674 6
        41.000          38.300
  23846852.500    23846852.342    23846850.283    -9024791.951 3  -7032300.921 2
        18.600          13.900
  25552656.491    25552654.578    25552654.918     -460120.996     -358535.714 2
                        13.900
  21694241.065    21694240.633    21694239.679   -17855279.948 6 -13913199.372 6
        38.000          36.000
  24349239.633    24349239.207    24349239.764    -1020000.902 2   -794803.132 3
        17.000          19.900
  23093721.686    23093720.271    23093718.052    -9835282.083 5  -7663853.090 5
        32.100          30.400
  20258292.951    20258292.592    20258289.409   -25722172.567 7 -20043241.634 8
        44.700          50.100
 09  1 23  0 25  0.0000000  0  9G 9G 6G18G21G28G14G 3G19G22
  21414672.115    21414671.559    21414671.093   -18248074.151 6 -14219270.985 5
        37.600          35.300
  24442867.913    24442867.010    24442868.136    -1295873.516 2  -1009768.813 2
        16.100          16.100
  21244241.980    21244241.293    21244239.373   -21710291.454 6 -16917101.314 6
        40.900          38.100
  23868535.022    23868534.352    23868532.952    -8910849.586 2  -6943514.672 2
        17.000          13.900
  25557254.648    25557254.556    25557254.262     -435955.849     -339705.744 2
         3.000          13.900
  21679690.444    21679689.877    21679688.804   -17931744.883 6 -13972782.414 6
        38.100          36.100
  24366565.088    24366564.300    24366564.890     -928954.579 2   -723857.952 3
        16.100          18.600
  23099843.862    23099842.394    23099840.475    -9803109.237 5  -7638783.335 5
        31.600          30.200
  20258096.499    20258096.144    20258093.023   -25723204.666 7 -20044045.865 8
        44.700          50.100
 09  1 23  0 25 30.0000000  0  9G 9G 6G18G21G28G14G 3G19G22
  21415081.447    21415080.920    21415079.969   -18245924.982 6 -14217596.299 5
        38.000          35.400
  24460114.371    24460114.213    24460114.827    -1205243.981 2   -939148.405 2
        15.100          15.100
  21255050.888    21255050.247    21255048.409   -21653490.304 6 -16872840.676 6
        40.900          38.100
  23890246.523    23890245.778    23890244.158    -8796756.772 2  -6854611.205 2
        17.000          15.100
  25561944.374    25561943.436    25561942.821     -411304.026     -320496.531 1
                         6.500
  21665209.023    21665208.493    21665207.240   -18007845.468 6 -14032081.557 6
        38.300          36.200
  24383928.358    24383927.706    24383927.217     -837709.549 2   -652757.962 2
        15.100          17.800
  23106068.822    23106067.456    23106065.767    -9770395.422 5  -7613292.054 5
        31.000          30.600
  20257976.868    20257976.517    20257973.396   -25723833.334 7 -20044535.732 8
        44.700          50.000
 09  1 23  0 26  0.0000000  0  9G 9G 6G18G21G28G14G 3G19G22
  21415628.818    21415628.333    21415627.658   -18243047.486 6 -14215354.089 5
        38.000          35.400
  24477388.941    24477388.885    24477388.793    -1114466.446 2   -868412.647 2
        16.100          16.100
  21265922.101    21265921.605    21265919.911   -21596360.355 6 -16828323.829 6
        40.800          38.100
  23911985.481    23911984.753    23911982.263    -8682519.235 2  -6765594.967 2
        17.800          15.100
  25566730.528    25566729.681    25566727.956     -386169.877     -300911.328 1
                         6.500
  21650796.362    21650795.947    21650794.714   -18083583.980 6 -14091098.565 6
        38.400          36.300
  24401329.095    24401327.849    24401328.150     -746271.861 2   -581507.843 2
        17.000          17.000
  23112396.308    23112394.767    23112393.116    -9737146.028 5  -7587383.443 5
        31.500          30.400
  20257933.416    20257933.118    20257929.934   -25724061.611 7 -20044713.607 8
        44.800          50.000
 09  1 23  0 26 30.0000000  0  9G 9G 6G18G21G28G14G 3G19G22
  21416317.987    21416317.529    21416316.764   -18239425.136 6 -14212531.472 5
        37.800          35.200
  24494694.937    24494694.218    24494694.282    -1023526.997 2   -797550.765 2
        16.100          16.100
  21276859.337    21276858.611    21276856.871   -21538885.716 6 -16783538.396 6
        40.600          37.800
  23933754.288    23933753.926    23933751.347    -8568122.435 2  -6676454.631 2
        16.100          13.900
  25571606.889    25571606.769    25571604.901     -360537.626     -280938.208 1
         3.000          11.000
  21636456.292    21636455.721    21636454.629   -18158942.319 6 -14149819.333 6
        38.400          36.500
  24418768.251    24418767.221    24418767.461     -654627.987 2   -510097.052 2
        16.100          17.800
  23118828.252    23118826.814    23118824.767    -9703345.747 5  -7561045.551 4
        31.300          29.900
  20257969.383    20257969.052    20257965.833   -25723872.760 7 -20044566.446 8
        44.800          50.000
 09  1 23  0 27  0.0000000  0  9G 6G 9G18G21G28G14G 3G19G22
  24512029.743    24512028.731    24512028.509     -932432.529 2   -726568.073 2
        13.900          17.800
  21417148.421    21417147.935    21417147.112   -18235061.953 6 -14209131.586 5
        38.000          35.100
  21287861.036    21287860.394    21287858.560   -21481071.192 6 -16738488.119 6
        40.600          37.700
  23955552.395    23955552.083    23955549.854    -8453572.454 2  -6587194.947 2
        15.100          13.900
  25576576.556    25576577.361    25576575.230     -334412.261     -260580.814 1
                        11.000
  21622187.823    21622187.296    21622186.127   -18233923.151 6 -14208245.937 6
        38.500          36.500
  24436244.396    24436244.457    24436243.959     -562784.990 2   -438531.088 2
        17.800          17.800
  23125363.997    23125362.395    23125360.579    -9669000.126 5  -7534282.725 4
        31.300          29.700
  20258083.967    20258083.651    20258080.507   -25723270.415 7 -20044097.086 8
        44.800          50.000
 09  1 23  0 27 30.0000000  0  9G 9G 6G11G18G21G14G 3G19G22
  21418118.444    21418117.972    21418117.066   -18229964.073 6 -14205159.205 5
        37.900          34.900
  24529391.982    24529391.206    24529391.355     -841192.058 2   -655471.637 3
        13.900          18.600
  24866180.187    24866178.920    24866175.234           -.85511         -.90111
         9.000           9.000
  21298926.010    21298925.467    21298923.770   -21422923.743 6 -16693178.412 6
        40.500          37.700
  23977378.129    23977377.548    23977375.261    -8338878.106 2  -6497822.750 2
        13.900          12.600
  21607990.289    21607989.750    21607988.674   -18308531.662 6 -14266382.423 6
        38.500          36.900
  24453758.307    24453757.647    24453757.676     -470752.103 2   -366817.152 3
        17.000          18.600
  23132002.166    23132000.919    23131998.857    -9634116.601 5  -7507100.747 5
        31.800          30.100
  20258276.257    20258275.882    20258272.614   -25722260.568 7 -20043310.187 8
        44.800          50.000
 09  1 23  0 28  0.0000000  0  9G 9G 6G11G18G21G14G 3G19G22
  21419225.110    21419224.686    21419224.011   -18224148.094 6 -14200627.268 5
        37.800          35.100
  24546779.216    24546778.140    24546778.617     -749825.137 2   -584276.639 3
        12.600          18.600
  24847509.548    24847508.980    24847506.601      -98101.941 1    -76443.246 1
         9.000          11.000
  21310051.332    21310050.649    21310048.903   -21364460.381 6 -16647622.549 6
        40.400          37.500
  23999227.371    23999226.648    23999225.067    -8224057.918 2  -6408352.504 2
        13.900          12.600
  21593860.617    21593860.162    21593859.084   -18382783.034 6 -14324240.620 6
        38.600          36.900
  24471303.935    24471303.410    24471303.278     -378548.976 2   -294970.571 2
        17.000          17.000
  23138739.083    23138737.628    23138735.893    -9598713.141 5  -7479513.636 5
        31.500          30.100
  20258542.767    20258542.433    20258539.224   -25720859.516 7 -20042218.456 8
        44.700          49.900
 09  1 23  0 28 30.0000000  0  9G 9G 6G11G18G21G14G 3G19G22
  21420474.151    21420473.797    21420473.213   -18217583.554 6 -14195512.041 5
        37.800          35.300
  24564193.547    24564193.640    24564194.070     -658303.641 1   -512961.198 2
         9.000          16.100
  24828888.717    24828888.411    24828886.811     -195954.907 1   -152692.297 2
         6.500          12.600
  21321242.514    21321241.841    21321239.938   -21305650.928 6 -16601797.000 6
        40.500          37.300
  24021106.691    24021106.061    24021103.720    -8109083.410 2  -6318762.028 2
        13.900          12.600
  21579805.149    21579804.692    21579803.466   -18456645.110 6 -14381795.471 6
        38.800          36.800
  24488886.502    24488885.535    24488886.737     -286147.280 2   -222969.248 2
        15.100          17.000
  23145580.400    23145579.029    23145577.268    -9562760.810 5  -7451498.838 4
        31.500          29.900
  20258889.701    20258889.340    20258886.233   -25719036.193 7 -20040797.680 8
        44.700          50.000
 09  1 23  0 29  0.0000000  0  9G 9G 6G11G18G21G14G 3G19G22
  21421864.282    21421863.862    21421863.152   -18210279.451 6 -14189820.529 5
        38.100          35.300
  24581636.151    24581635.691    24581636.544     -566639.133 1   -441534.295 2
         6.500          13.900
  24810313.646    24810312.999    24810312.702     -293565.997 1   -228752.860 2
         6.500          12.600
  21332497.560    21332496.966    21332495.140   -21246504.786 6 -16555709.098 6
        40.500          37.400
  24043013.305    24043012.281    24043009.993    -7993965.635 2  -6229059.901 1
        15.100           9.000
  21565822.458    21565821.897    21565820.675   -18530125.238 6 -14439052.703 6
        38.900          37.000
  24506504.993    24506505.229    24506506.102     -193559.402 2   -150822.848 2
        15.100          16.100
  23152524.870    23152523.535    23152521.507    -9526269.384 5  -7423063.957 4
        32.000          29.900
  20259315.424    20259315.131    20259311.928   -25716798.963 7 -20039054.380 8
        44.700          50.000
 09  1 23  0 29 30.0000000  0  9G 9G 6G11G18G21G14G 3G19G22
  21423394.109    21423393.693    21423392.829   -18202240.646 6 -14183556.517 5
        38.200          35.200
  24599106.932    24599106.403    24599105.647     -474839.543 1   -370002.165 2
        11.000          13.900
  24791783.883    24791784.032    24791784.322     -390937.551 1   -304626.821 1
         6.500          11.000
  21343815.588    21343814.945    21343813.303   -21187027.811 6 -16509363.407 6
        40.200          37.200
  24064945.597    24064944.238    24064941.407    -7878711.511 2  -6139251.494 1
        15.100           9.000
  21551911.664    21551911.107    21551909.789   -18603227.137 6 -14496015.210 6
        39.000          37.100
  24524159.184    24524158.967    24524159.106     -100792.997 2    -78537.340 2
        17.800          16.100
  23159570.246    23159568.926    23159566.571    -9489245.912 5  -7394214.510 4
        31.800          29.500
  20259818.996    20259818.596    20259815.532   -25714152.643 7 -20036992.309 8
        44.600          50.000
 09  1 23  0 30  0.0000000  0  9G 9G 6G11G18G21G14G 3G19G22
  21425064.211    21425063.639    21425062.651   -18193465.012 6 -14176718.357 5
        38.000          34.900
  24616601.011    24616601.043    24616600.346     -382904.934 1   -298364.866 2
        11.000          16.100
  24773302.251    24773302.658    24773303.395     -488064.440 1   -380310.109 2
         9.000          12.600
  21355197.056    21355196.488    21355194.753   -21127218.098 6 -16462758.437 6
        40.300          37.200
  24086902.469    24086901.950    24086900.773    -7763320.844 2  -6049336.704 1
        15.100           6.500
  21538073.621    21538073.067    21538071.708   -18675946.966 6 -14552680.005 6
        39.200          37.200
  24541845.947    24541845.128    24541844.904       -7848.446 2     -6113.043 2
        17.800          15.100
  23166717.049    23166715.419    23166713.440    -9451689.305 5  -7364949.611 4
        31.500          29.200
  20260400.884    20260400.556    20260397.407   -25711094.684 7 -20034609.479 8
        44.600          49.900
 09  1 23  0 30 30.0000000  0  9G 9G 6G11G18G21G14G 3G19G22
  21426873.885    21426873.511    21426872.714   -18183952.860 6 -14169306.287 5
        37.800          34.900
  24634118.817    24634120.543    24634121.620     -290838.102 1   -226624.524 2
         6.500          17.000
  24754867.598    24754866.000    24754867.099     -584944.263 1   -455800.867 2
        11.000          12.600
  21366641.615    21366640.985    21366639.323   -21067076.054 6 -16415894.509 6
        40.100          37.000
  24108887.164    24108886.267    24108884.481    -7647795.738 2  -5959317.107 1
        17.000           9.000
  21524308.164    21524307.674    21524306.487   -18748283.690 6 -14609046.272 6
        39.300          37.300
  24559565.655    24559565.323    24559565.363       85271.078 2     66447.611 2
        15.100          15.100
  23173964.769    23173963.190    23173961.285    -9413601.164 5  -7335270.531 4
        31.300          29.000
  20261061.327    20261060.990    20261057.764   -25707624.487 7 -20031905.424 8
        44.700          49.900
 09  1 23  0 31  0.0000000  0  9G 9G 6G11G18G21G14G 3G19G22
  21428822.689    21428822.144    21428821.399   -18173713.724 6 -14161327.741 5
        38.200          35.200
  24651661.629    24651661.276    24651663.145     -198651.266 1   -154790.616 2
         9.000          17.000
  24736476.764    24736476.282    24736475.782     -681583.757 1   -531104.356 1
         9.000          11.000
  21378147.728    21378147.164    21378145.236   -21006611.652 6 -16368779.389 6
        40.300          36.800
  24130894.077    24130893.036    24130891.400    -7532148.236 3  -5869202.157 1
        18.600           9.000
  21510614.204    21510613.825    21510612.716   -18820245.191 6 -14665120.163 6
        39.300          37.500
  24577316.469    24577315.661    24577316.311      178553.614 2    139135.288 2
        12.600          15.100
  23181312.024    23181310.384    23181308.404    -9374992.365 5  -7305185.757 4
        31.000          28.800
  20261798.515    20261798.125    20261794.840   -25703751.091 7 -20028887.190 8
        44.600          49.900
 09  1 23  0 31 30.0000000  0  9G 9G 6G11G18G21G14G 3G19G22
  21430910.365    21430909.862    21430909.053   -18162742.275 6 -14152778.550 5
        37.900          34.900
  24669229.092    24669229.290    24669229.443     -106341.319 2    -82860.778 2
        12.600          15.100
  24718133.554    24718133.415    24718131.652     -777974.890 1   -606214.276 1
         6.500          11.000
  21389715.999    21389715.391    21389713.613   -20945819.865 6 -16321409.166 6
        40.100          36.800
  24152923.746    24152923.291    24152922.878    -7416374.431 2  -5778988.859 1
        17.800          11.000
  21496993.257    21496992.692    21496991.639   -18891824.503 6 -14720896.242 6
        39.300          37.600
  24595099.573    24595099.360    24595099.433      272001.628 2    211951.909 2
        12.600          16.100
  23188758.721    23188757.270    23188755.399    -9335858.605 5  -7274691.909 4
        31.000          29.200
  20262613.226    20262612.906    20262609.771   -25699468.662 7 -20025550.230 8
        44.600          49.900
 09  1 23  0 32  0.0000000  0  9G 9G 6G11G18G21G14G 3G19G22
  21433137.598    21433137.239    21433136.525   -18151037.210 6 -14143657.721 5
        37.700          34.900
  24686819.181    24686819.042    24686817.400      -13909.533 1    -10836.069 2
        11.000          12.600
  24699840.344    24699839.508    24699835.826     -874113.360 1   -681127.335 1
         6.500          11.000
  21401346.808    21401346.166    21401344.234   -20884699.951 6 -16273783.258 6
        40.100          36.600
  24174978.148    24174978.112    24174977.646    -7300475.142 3  -5688677.773 1
        19.300           9.000
  21483445.593    21483444.941    21483443.783   -18963018.535 6 -14776372.106 6
        39.300          37.700
  24612913.701    24612913.526    24612913.073      365614.045 2    284896.681 2
        12.600          16.100
  23196305.217    23196304.010    23196301.813    -9296200.152 5  -7243789.203 4
        30.800          28.800
  20263506.342    20263505.954    20263502.840   -25694775.643 7 -20021893.327 8
        44.600          49.900
 09  1 23  0 32 30.0000000  0  9G 9G 6G11G18G21G14G 3G19G22
  21435504.261    21435503.773    21435503.054   -18138601.215 6 -14133967.334 5
        38.000          34.900
  24704429.230    24704428.506    24704428.509       78639.046 1     61279.670 2
        11.000          12.600
  24681593.145    24681591.950    24681590.046     -969998.711 1   -755843.157 1
         9.000           9.000
  21413039.370    21413038.705    21413037.030   -20823254.557 6 -16225903.734 6
        39.800          36.800
  24197056.347    24197056.150    24197055.907    -7184454.561 3  -5598272.130 1
        19.300           9.000
  21469970.741    21469970.215    21469969.041   -19033828.402 6 -14831548.617 6
        39.300          37.700
  24630758.250    24630757.408    24630757.026      459385.538 2    357965.396 2
        15.100          16.100
  23203951.269    23203949.720    23203947.809    -9256020.923 5  -7212480.721 4
        30.800          28.800
  20264477.183    20264476.871    20264473.700   -25689673.711 7 -20017917.790 8
        44.600          49.900
 09  1 23  0 33  0.0000000  0  9G 9G 6G11G18G21G14G 3G19G22
  21438010.875    21438010.384    21438009.404   -18125430.317 6 -14123704.295 5
        38.300          35.100
  24722064.533    24722063.630    24722062.983      171305.623 2    133487.379 2
        12.600          13.900
  24663397.228    24663396.862    24663393.536    -1065624.399 1   -830356.684 2
        11.000          12.600
  21424794.558    21424793.941    21424792.281   -20761480.500 6 -16177768.107 6
        39.800          36.700
  24219158.332    24219157.562    24219157.459    -7068311.197 3  -5507770.826 1
        18.600           9.000
  21456570.077    21456569.572    21456568.568   -19104248.968 6 -14886421.781 6
        39.300          38.000
  24648631.881    24648631.400    24648631.842      553317.672 2    431159.248 2
        13.900          13.900
  23211696.668    23211695.073    23211693.313    -9215318.796 5  -7180764.786 4
        30.400          29.200
  20265526.769    20265526.419    20265523.133   -25684158.415 7 -20013620.154 8
        44.600          49.800
 09  1 23  0 33 30.0000000  0  9G 9G 6G11G18G21G14G 3G19G22
  21440657.365    21440656.978    21440656.267   -18111521.355 6 -14112866.138 5
        38.100          35.200
  24739720.676    24739720.381    24739720.778      264091.325 2    205787.899 2
        13.900          15.100
  24645251.654    24645250.913    24645248.040    -1160984.233 2   -904663.029 2
        13.900          13.900
  21436612.936    21436612.398    21436610.589   -20699374.504 6 -16129373.822 6
        39.800          36.500
  24241284.302    24241283.010    24241283.003    -6952043.176 3  -5417172.421 1
        19.300           9.000
  21443244.633    21443244.095    21443243.084   -19174275.222 6 -14940987.685 6
        39.500          38.100
  24666537.242    24666537.724    24666537.525      647410.968 2    504478.653 2
        13.900          13.900
  23219542.154    23219540.663    23219538.466    -9174091.337 5  -7148639.485 4
        30.800          28.800
  20266655.705    20266655.344    20266652.122   -25678225.994 7 -20008997.483 8
        44.600          49.900
 09  1 23  0 34  0.0000000  0  9G 9G18G 6G11G21G14G 3G19G22
  21443442.668    21443442.193    21443441.637   -18096884.096 6 -14101460.483 5
        38.000          35.200
  21448492.557    21448491.947    21448490.260   -20636946.646 6 -16080728.740 6
        39.600          36.400
  24757397.325    24757397.358    24757398.132      356984.097 2    278171.863 2
        13.900          16.100
  24627154.595    24627154.200    24627151.683    -1256084.743 2   -978767.307 2
        16.100          13.900
  24263430.923    24263430.222    24263429.586    -6835661.928 3  -5326485.792 1
        19.300           6.500
  21429992.652    21429992.085    21429990.953   -19243914.884 6 -14995252.348 6
        39.500          38.100
  24684471.817    24684471.072    24684470.781      741653.551 2    577914.413 2
        13.900          13.900
  23227485.061    23227483.650    23227481.498    -9132349.221 5  -7116113.154 4
        30.800          28.400
  20267862.262    20267861.892    20267858.724   -25671885.422 7 -20004056.774 8
        44.500          49.900
 09  1 23  0 34 30.0000000  0  9G 9G18G 6G11G21G14G 3G19G22
  21446366.165    21446365.752    21446365.076   -18081521.587 6 -14089489.690 5
        38.100          35.200
  21460432.747    21460432.140    21460430.355   -20574200.483 6 -16031835.625 6
        39.400          36.100
  24775092.757    24775091.784    24775093.130      449978.445 1    350634.929 2
         9.000          13.900
  24609106.167    24609105.704    24609103.510    -1350926.312 2  -1052669.793 2
        16.100          13.900
  24285598.299    24285597.701    24285597.055    -6719172.689 3  -5235714.994 1
        19.900          11.000
  21416813.846    21416813.276    21416812.114   -19313169.814 6 -15049217.225 6
        39.500          38.200
  24702432.002    24702431.547    24702432.057      836039.235 1    651461.704 2
        11.000          16.100
  23235525.382    23235524.120    23235522.274    -9090097.561 5  -7083189.790 4
        31.100          28.800
  20269145.949    20269145.617    20269142.473   -25665139.149 7 -19998799.933 8
        44.500          49.900
 09  1 23  0 35  0.0000000  0  9G 9G18G 6G11G21G14G 3G19G22
  21449428.410    21449427.983    21449427.386   -18065429.180 6 -14076950.150 5
        38.100          34.900
  21472434.506    21472433.876    21472431.900   -20511131.435 6 -15982690.914 5
        39.500          35.900
  24792809.518    24792809.562    24792809.075      543076.776      423179.031 2
         3.000          12.600
  24591108.629    24591108.588    24591105.787    -1445501.019 2  -1126364.325 2
        13.900          12.600
  24307786.207    24307785.570    24307784.669    -6602572.021 3  -5144857.316 1
        19.300          11.000
  21403709.519    21403708.960    21403707.836   -19382033.899 6 -15102877.542 6
        39.500          38.500
  24720421.115    24720420.309    24720421.588      930570.722 1    725122.587 2
        11.000          17.000
  23243663.707    23243662.328    23243660.258    -9047332.546 5  -7049866.392 4
        31.500          29.200
  20270507.940    20270507.638    20270504.508   -25657981.887 7 -19993222.842 8
        44.500          49.800
 09  1 23  0 35 30.0000000  0  9G 9G18G14G 6G11G21G 3G19G22
  21452629.651    21452629.151    21452628.482   -18048606.684 6 -14063841.700 5
        38.000          34.900
  21484497.544    21484496.955    21484495.198   -20447739.232 6 -15933294.388 6
        39.300          36.000
  21390680.043    21390679.502    21390678.331   -19450504.356 6 -15156231.138 6
        39.700          38.600
  24810546.435    24810546.681    24810545.137      636277.281      495802.709 2
         3.000          12.600
  24573163.969    24573163.427    24573161.393    -1539805.499 2  -1199848.289 1
        12.600           9.000
  24329995.429    24329994.931    24329993.351    -6485861.412 3  -5053914.005 2
        19.300          12.600
  24738436.424    24738436.702    24738436.957     1025245.909 1    798895.454 2
        11.000          16.100
  23251898.691    23251897.358    23251895.018    -9004055.209 5  -7016143.789 4
        31.300          28.600
  20271948.372    20271948.047    20271944.731   -25650412.619 7 -19987324.706 8
        44.500          49.700
 09  1 23  0 36  0.0000000  0  9G 9G18G14G 6G11G21G 3G19G22
  21455968.897    21455968.464    21455967.732   -18031058.315 6 -14050167.646 5
        38.100          34.900
  21496621.305    21496620.770    21496619.070   -20384027.973 6 -15883649.255 5
        39.200          35.900
  21377725.103    21377724.519    21377723.226   -19518583.761 6 -15209280.019 6
        39.800          38.700
  24828297.136    24828298.598    24828297.841      729573.330      568500.914 1
                         9.000
  24555269.605    24555268.797    24555266.720    -1633840.609 1  -1273122.380 1
        11.000           9.000
  24352225.251    24352224.433    24352223.161    -6369046.831 3  -4962889.666 2
        18.600          13.900
  24756480.497    24756479.815    24756478.171     1120058.069 2    872775.055 2
        12.600          13.900
  23260230.492    23260229.000    23260227.021    -8960270.916 5  -6982026.163 4
        30.400          28.400
  20273466.562    20273466.208    20273462.936   -25642434.587 7 -19981108.053 8
        44.500          49.700
 09  1 23  0 36 30.0000000  0  9G 9G18G14G 6G11G21G 3G19G22
  21459446.440    21459445.847    21459445.062   -18012784.930 6 -14035928.642 5
        38.100          34.700
  21508805.672    21508805.078    21508803.434   -20319998.670 6 -15833756.286 5
        39.000          35.700
  21364844.547    21364843.961    21364842.648   -19586271.263 6 -15262023.518 6
        39.800          38.800
  24846070.571    24846070.389    24846068.218      822962.175 1    641271.439 1
         6.500           9.000
  24537426.005    24537425.336    24537423.745    -1727604.307 1  -1346184.959 1
         9.000           6.500
  24374473.945    24374472.998    24374471.445    -6252130.847 2  -4871786.318 2
        17.800          12.600
  24774546.595    24774546.821    24774547.051     1215004.046 2    946758.904 2
        13.900          15.100
  23268658.394    23268657.123    23268655.334    -8915981.625 5  -6947515.017 4
        30.100          28.600
  20275062.497    20275062.114    20275058.936   -25634047.806 7 -19974572.897 8
        44.500          49.800
 09  1 23  0 37  0.0000000  0  9G 9G18G14G 6G11G21G 3G19G22
  21463062.871    21463062.454    21463061.597   -17993779.161 6 -14021118.951 5
        38.300          34.600
  21521052.061    21521051.341    21521049.717   -20255644.064 6 -15783609.840 5
        38.900          35.700
  21352040.202    21352039.660    21352038.476   -19653557.669 6 -15314454.472 6
        39.700          38.900
  24863860.622    24863860.991    24863861.215      916449.031      714118.280 1
         3.000          11.000
  24519635.728    24519636.234    24519634.725    -1821085.759 1  -1419027.612 1
         6.500           9.000
  24396742.939    24396741.711    24396739.552    -6135107.464 2  -4780599.273 1
        17.800          11.000
  24792641.526    24792641.425    24792640.865     1310089.233 2   1020851.227 2
        13.900          13.900
  23277184.009    23277182.579    23277180.719    -8871181.299 5  -6912605.675 4
        30.400          28.400
  20276737.725    20276737.366    20276734.196   -25625244.213 7 -19967712.948 8
        44.400          49.700
 09  1 23  0 37 30.0000000  0  9G 9G18G14G 6G11G21G 3G19G22
  21466818.194    21466817.654    21466816.801   -17974046.658 6 -14005742.966 5
        38.400          34.600
  21533359.254    21533358.612    21533356.887   -20190969.971 6 -15733214.441 5
        39.100          35.700
  21339311.554    21339311.002    21339309.785   -19720447.030 6 -15366576.043 6
        39.700          38.900
  24881666.495    24881667.686    24881666.847     1010025.971      787035.373 1
                        11.000
  24501898.849    24501900.906    24501898.423    -1914287.792    -1491652.525 1
         3.000           9.000
  24419029.822    24419028.945    24419027.581    -6017983.850 2  -4689334.109 1
        17.800           9.000
  24810759.841    24810759.505    24810759.816     1405305.790 2   1095045.942 2
        12.600          12.600
  23285805.188    23285803.593    23285801.449    -8825876.501 5  -6877303.241 4
        30.400          28.400
  20278491.329    20278491.017    20278487.966   -25616028.371 7 -19960531.769 8
        44.300          49.700
 09  1 23  0 38  0.0000000  0  9G 9G18G14G 6G11G21G 3G19G22
  21470709.401    21470708.839    21470707.931   -17953598.392 6 -13989809.246 5
        38.400          34.600
  21545724.921    21545724.294    21545722.499   -20125987.381 6 -15682578.653 5
        38.900          35.300
  21326656.691    21326656.152    21326655.089   -19786948.186 6 -15418395.117 6
        39.700          39.100
  24899490.435    24899490.039    24899489.415     1103680.267      860012.748 2
         3.000          12.600
  24484214.911    24484214.569    24484215.543    -2007217.950    -1564065.630 1
                         9.000
  24441333.236    24441333.383    24441332.271    -5900772.618 2  -4598000.655 1
        17.800           9.000
  24828901.795    24828900.424    24828901.346     1500640.137 1   1169332.424 2
        11.000          12.600
  23294519.566    23294518.209    23294516.354    -8780079.625 4  -6841617.368 4
        29.900          28.400
  20280321.615    20280321.288    20280318.096   -25606410.782 7 -19953037.540 8
        44.400          49.700
 09  1 23  0 38 30.0000000  0  9G 9G18G14G19G 6G11G21G 3G22
  21474737.779    21474737.296    21474736.408   -17932428.262 6 -13973313.041 5
        38.100          34.500
  21558150.552    21558149.924    21558148.121   -20060689.892 6 -15631697.491 5
        38.900          35.100
  21314077.408    21314076.925    21314075.640   -19853053.172 6 -15469905.485 6
        39.900          39.200
  23303329.190    23303328.050    23303326.109    -8733785.455 5  -6805543.995 4
        30.100          28.600
  24917326.947    24917326.513    24917326.385     1197416.187 1    933053.663 2
         6.500          13.900
  24466586.122    24466586.445    24466585.201    -2099866.569    -1636259.313 1
                        11.000
  24463655.818    24463655.745    24463654.054    -5783469.045 2  -4506595.302 1
        17.000          11.000
  24847067.075    24847066.786    24847066.632     1596096.826 2   1243714.216 2
        12.600          13.900
  20282229.664    20282229.286    20282226.147   -25596383.991 7 -19945224.454 8
        44.400          49.700
 09  1 23  0 39  0.0000000  0  9G 9G18G14G19G 6G11G21G 3G22
  21478906.008    21478905.448    21478904.643   -17910523.740 6 -13956244.577 5
        37.900          34.500
  21570638.706    21570638.047    21570636.218   -19995064.811 6 -15580561.062 5
        38.900          35.100
  21301576.118    21301575.569    21301574.408   -19918747.671 6 -15521095.994 6
        39.800          39.300
  23312235.661    23312234.134    23312232.202    -8686982.739 4  -6769074.350 4
        29.900          28.600
  24935180.489    24935180.096    24935181.185     1291243.965 1   1006166.193 1
         9.000          11.000
  24449015.687    24449015.848    24449010.576    -2192217.725    -1708221.240 1
                        11.000
  24485998.055    24485997.593    24485995.708    -5666061.936 2  -4415109.297 1
        15.100           9.000
  24865258.266    24865257.142    24865256.083     1691686.015 2   1318199.259 2
        12.600          13.900
  20284218.122    20284217.800    20284214.607   -25585934.607 7 -19937082.074 8
        44.400          49.700
 09  1 23  0 39 30.0000000  0  9G 9G18G14G19G 6G11G21G 3G22
  21483211.972    21483211.428    21483210.746   -17887895.948 6 -13938612.522 5
        37.700          34.600
  21583186.869    21583186.218    21583184.403   -19929123.386 6 -15529178.132 5
        38.700          34.700
  21289151.256    21289150.806    21289149.633   -19984040.781 6 -15571973.735 6
        40.100          39.500
  23321236.555    23321234.915    23321233.216    -8639683.687 4  -6732217.951 4
        29.200          29.200
  24953050.373    24953050.110    24953049.746     1385150.716 1   1079340.249 1
        11.000           6.500
  24431498.301    24431496.917    24431492.035    -2284279.534    -1779957.699 2
                        12.600
  24508356.776    24508356.573    24508354.613    -5548564.094 2  -4323552.594 1
        12.600           9.000
  24883468.945    24883468.025    24883469.137     1787394.076 2   1392776.960 2
        16.100          12.600
  20286284.938    20286284.583    20286281.478   -25575072.907 7 -19928618.409 8
        44.300          49.700
 09  1 23  0 40  0.0000000  0  9G 9G18G14G19G 6G11G21G 3G22
  21487654.052    21487653.678    21487653.044   -17864551.382 6 -13920421.948 5
        37.700          34.500
  21595794.327    21595793.657    21595791.562   -19862872.019 6 -15477553.693 5
        39.000          34.700
  21276801.962    21276801.425    21276800.199   -20048937.256 6 -15622542.408 6
        40.200          39.600
  23330329.924    23330328.372    23330326.888    -8591895.971 4  -6694980.773 4
        28.800          29.500
  24970932.642    24970932.740    24970933.875     1479127.818 2   1152569.111 1
        12.600           6.500
  24414032.659    24414029.807    24414028.105    -2376055.079    -1851471.081 1
                        11.000
  24530732.911    24530731.638    24530729.577    -5430982.998 1  -4231930.990 1
        11.000           9.000
  24901703.484    24901702.971    24901703.217     1883212.645 2   1467440.791 1
        17.800          11.000
  20288429.121    20288428.844    20288425.844   -25563804.463 7 -19919837.802 8
        44.200          49.700
 09  1 23  0 40 30.0000000  0  9G 9G18G14G 6G11G21G 3G19G22
  21492233.856    21492233.389    21492232.377   -17840485.643 6 -13901669.424 5
        37.900          34.300
  21608461.406    21608460.674    21608458.850   -19796306.054 6 -15425684.104 5
        38.900          34.800
  21264529.207    21264528.738    21264527.657   -20113430.338 6 -15672796.747 6
        40.200          39.700
  24988831.571    24988831.649    24988832.733     1573177.844 1   1225854.845 1
        11.000           9.000
  24396620.734    24396621.301    24396618.134    -2467536.228    -1922755.082 1
                         9.000
  24553124.476    24553123.548    24553122.594    -5313315.803 1  -4140242.316
        11.000           3.000
  24919958.494    24919957.597    24919957.783     1979144.413 2   1542192.804 1
        16.100           9.000
  23339517.156    23339515.824    23339514.287    -8543616.077 4  -6657360.087 4
        29.000          29.500
  20290652.020    20290651.647    20290648.533   -25552123.844 7 -19910736.017 8
        44.200          49.600
 09  1 23  0 41  0.0000000  0  9G 9G18G14G 6G11G21G 3G19G22
  21496950.188    21496949.881    21496949.096   -17815699.799 6 -13882355.779 5
        38.000          34.400
  21621188.032    21621187.396    21621185.650   -19729426.400 6 -15373570.091 5
        38.600          34.800
  21252333.401    21252332.997    21252331.868   -20177519.199 6 -15722736.111 6
        40.200          39.800
  25006742.227    25006741.513    25006743.181     1667298.351 1   1299195.457 1
         9.000           6.500
  24379268.266    24379269.693    24379267.709    -2558720.780    -1993807.912 1
                         9.000
  24575531.384    24575530.336    24575530.399    -5195564.606 2  -4048488.148
        12.600
  24938233.099    24938233.817    24938233.524     2075186.005 1   1617030.453 1
        11.000          11.000
  23348797.935    23348796.697    23348794.708    -8494846.027 4  -6619357.462 4
        29.900          29.000
  20292953.392    20292953.015    20292949.765   -25540030.797 7 -19901312.860 8
        44.300          49.500
 09  1 23  0 41 30.0000000  0  8G 9G18G14G 6G11G 3G19G22
  21501803.558    21501803.091    21501802.121   -17790196.783 6 -13862483.289 5
        37.900          34.100
  21633973.933    21633973.307    21633971.616   -19662235.902 6 -15321213.861 5
        38.500          34.700
  21240214.476    21240213.955    21240212.798   -20241205.132 6 -15772361.503 6
        40.300          39.800
  25024666.151    25024665.148    25024665.284     1761484.149 2   1372586.960 1
        12.600           6.500
  24361973.995    24361974.432    24361971.120    -2649608.269    -2064629.289 1
         3.000           9.000
  24956528.776    24956528.190    24956530.745     2171332.621 1   1691949.887 2
         9.000          12.600
  23358170.927    23358169.515    23358168.125    -8445590.157 4  -6580976.266 4
        29.500          29.200
  20295332.581    20295332.230    20295329.048   -25527527.565 7 -19891570.080 8
        44.200          49.500
 09  1 23  0 42  0.0000000  0  9G 9G18G14G 6G11G21G 3G19G22
  21506794.011    21506793.620    21506792.846   -17763970.631 6 -13842047.327 5
        37.700          34.300
  21646820.264    21646819.576    21646817.805   -19594728.128 6 -15268610.398 5
        38.400          34.500
  21228173.785    21228173.350    21228172.148   -20304479.269 6 -15821666.017 6
        40.500          39.900
  25042601.815    25042601.386    25042600.528     1855739.916 1   1446032.931 1
        11.000           6.500
  24344737.317    24344738.553    24344735.634    -2740188.874 1  -2135211.598 1
         6.500           9.000
  24620392.255    24620392.125    24620390.166           -.72012          .0061
        12.600           3.000
  24974846.262    24974845.697    24974847.869     2267588.690 1   1766954.606 2
        11.000          12.600
  23367637.827    23367636.541    23367634.199    -8395843.007 5  -6542212.263 4
        30.100          28.400
  20297791.213    20297790.892    20297787.739   -25514606.740 7 -19881501.901 8
        44.100          49.400
 09  1 23  0 42 30.0000000  0  9G 9G18G14G 6G11G21G 3G19G22
  21511920.590    21511920.125    21511919.553   -17737029.756 6 -13821054.437 5
        37.300          34.100
  21659725.327    21659724.789    21659722.901   -19526911.065 6 -15215765.933 5
        38.400          34.100
  21216210.201    21216209.705    21216208.511   -20367348.365 6 -15870654.915 6
        40.500          40.000
  25060546.446    25060547.908    25060549.372     1950055.299     1519525.397 1
         3.000           6.500
  24327559.417    24327558.745    24327557.000    -2830467.581 2  -2205558.654 2
        12.600          12.600
  24642844.979    24642844.122    24642843.050      117989.247 1     91940.228 1
         9.000           6.500
  24993185.515    24993184.722    24993183.689     2363944.046 2   1842036.671 2
        15.100          13.900
  23377196.181    23377194.567    23377192.874    -8345614.164 5  -6503072.902 4
        30.100          28.600
  20300328.155    20300327.842    20300324.617   -25501275.559 7 -19871113.966 8
        44.200          49.300
 09  1 23  0 43  0.0000000  0  9G 9G18G14G 6G11G21G 3G19G22
  21517181.659    21517181.200    21517180.471   -17709383.257 6 -13799511.708 5
        37.400          34.000
  21672687.668    21672687.040    21672685.123   -19458793.738 6 -15162687.492 5
        38.100          34.000
  21204322.418    21204321.974    21204320.681   -20429819.299 6 -15919333.559 6
        40.600          40.200
  25078506.637    25078504.278    25078505.969     2044419.514     1593055.866 1
                         9.000
  24310435.833    24310435.398    24310434.258    -2920449.932 1  -2275674.768 2
        11.000          13.900
  24665308.436    24665310.199    24665306.551      236044.011      183930.901 1
         3.000           9.000
  25011535.700    25011535.147    25011537.123     2460387.644 2   1917187.501 2
        13.900          13.900
  23386843.967    23386842.447    23386840.460    -8294913.786 4  -6463566.115 4
        29.700          28.400
  20302941.569    20302941.234    20302937.941   -25487541.984 7 -19860412.475 8
        44.100          49.200
 09  1 23  0 43 30.0000000  0  9G 9G18G14G 6G11G21G 3G19G22
  21522578.699    21522578.154    21522577.192   -17681021.998 6 -13777412.023 5
        37.300          33.800
  21685708.849    21685708.259    21685706.396   -19390366.618 6 -15109367.660 5
        38.000          34.000
  21192512.537    21192512.008    21192510.760   -20491880.780 6 -15967693.148 6
        40.700          40.300
  25096474.430    25096472.090    25096472.558     2138839.958     1666630.260 1
                        11.000
  24293370.347    24293370.866    24293368.533    -3010123.365 1  -2345550.138 1
         6.500          11.000
  24687789.055    24687789.048    24687786.010      354171.363      275978.148 1
         3.000          11.000
  25029904.344    25029903.090    25029905.094     2556926.863     1992412.786 2
         3.000          12.600
  23396582.642    23396581.608    23396579.678    -8243733.515 4  -6423685.392 4
        28.400          27.900
  20305633.456    20305633.127    20305629.906   -25473395.887 7 -19849389.539 8
        44.100          49.200
 09  1 23  0 44  0.0000000  0  9G 9G18G14G 6G11G21G 3G19G22
  21528111.704    21528111.160    21528110.080   -17651946.188 6 -13754755.550 5
        37.200          33.600
  21698789.322    21698788.610    21698786.677   -19321629.669 6 -15055806.398 5
        38.100          34.100
  21180780.733    21180780.223    21180779.097   -20553531.450 6 -16015732.619 6
        40.700          40.400
  25114454.579    25114453.070    25114450.516     2233314.966     1740247.135 1
                         9.000
  24276363.991    24276363.042    24276361.274    -3099484.309 1  -2415182.034 1
         6.500           9.000
  24710282.257    24710281.631    24710278.043      472369.949      368080.907 1
         3.000          11.000
  25048294.075    25048293.889    25048294.547     2653559.142 1   2067710.698 1
         6.500          11.000
  23406413.387    23406411.892    23406410.215    -8192074.752 4  -6383431.804 4
        28.100          28.400
  20308403.928    20308403.644    20308400.566   -25458836.326 7 -19838044.423 8
        44.000          49.200
 09  1 23  0 44 30.0000000  0  9G 9G18G14G 6G11G21G 3G19G22
  21533780.688    21533780.475    21533779.644   -17622154.023 6 -13731540.869 5
        37.300          34.100
  21711928.746    21711928.033    21711926.237   -19252581.176 6 -15002002.382 5
        37.900          34.100
  21169127.679    21169127.287    21169126.145   -20614767.709 6 -16063449.173 6
        40.700          40.500
  25132440.311    25132440.190    25132440.158     2327844.101     1813906.238 1
                         9.000
  24259419.554    24259419.549    24259417.240    -3188527.666 1  -2484566.487 1
         9.000          11.000
  24732788.295    24732786.586    24732784.912      590640.269 1    460239.529 2
         6.500          13.900
  25066703.497    25066703.034    25066703.527     2750284.740 2   2143081.248 2
        12.600          13.900
  23416334.880    23416333.259    23416331.834    -8139937.335 4  -6342805.257 4
        28.100          28.800
  20311253.847    20311253.474    20311250.280   -25443860.667 7 -19826375.077 8
        44.000          49.100
 09  1 23  0 45  0.0000000  0  9G 9G18G 6G11G21G14G 3G19G22
  21539584.913    21539584.331    21539583.477   -17591654.433 6 -13707774.955 5
        37.400          34.000
  21725125.897    21725125.251    21725123.218   -19183229.175 6 -14947961.861 5
        37.700          33.500
  25150435.760    25150435.772    25150439.856     2422417.699     1887598.464 1
                         9.000
  24242535.339    24242534.576    24242533.036    -3277258.404 2  -2553707.310 2
        12.600          12.600
  24755306.805    24755306.023    24755302.888      708972.816 1    552446.669 2
        11.000          13.900
  21157552.713    21157552.227    21157550.937   -20675595.457 6 -16110847.407 6
        40.700          40.500
  25085120.891    25085121.522    25085123.505     2847093.102     2218516.358 2
         3.000          12.600
  23426346.010    23426344.387    23426342.558    -8087330.102 4  -6301812.608 4
        29.000          28.600
  20314181.375    20314181.101    20314177.973   -25428475.898 7 -19814386.940 8
        44.000          49.100
 09  1 23  0 45 30.0000000  0  9G 9G18G14G 6G11G21G 3G19G22
  21545522.978    21545522.455    21545521.736   -17560448.825 6 -13683458.888 5
        37.200          34.000
  21738380.711    21738380.089    21738378.203   -19113574.505 6 -14893685.496 5
        37.800          33.500
  21146055.438    21146054.937    21146053.659   -20736013.966 6 -16157926.752 6
        40.700          40.600
  25168440.125    25168443.081    25168444.318     2517032.757     1961325.021 1
                         6.500
  24225711.071    24225710.907    24225709.095    -3365673.646 2  -2622602.255 2
        12.600          15.100
  24777835.668    24777835.180    24777832.292      827364.953 2    644700.242 2
        12.600          13.900
  25103560.713    25103560.490    25103560.569     2943981.314     2294013.698 1
                         9.000
  23436445.793    23436444.485    23436442.524    -8034255.556 4  -6260455.830 4
        29.500          29.000
  20317186.776    20317186.464    20317183.303   -25412682.382 7 -19802080.304 8
        43.900          49.000
 09  1 23  0 46  0.0000000  0  9G 9G18G14G 6G11G21G 3G19G22
  21551596.010    21551595.594    21551594.819   -17528533.431 6 -13658589.754 5
        37.000          33.800
  21751693.808    21751693.199    21751691.353   -19043613.321 6 -14839170.288 5
        37.600          33.500
  21134637.101    21134636.569    21134635.354   -20796017.646 6 -16204682.854 6
        40.700          40.700
  25186455.744    25186455.272    25186454.483     2611691.341     2035084.966 1
                        11.000
  24208946.571    24208947.184    24208945.549    -3453766.638 2  -2691246.102 2
        12.600          16.100
  24800377.194    24800377.003    24800373.888      945819.137 2    737002.166 2
        12.600          12.600
  25122015.568    25122014.244    25122013.108     3040951.483     2369574.787 1
         3.000           9.000
  23446634.364    23446633.216    23446631.303    -7980711.386 4  -6218733.121 4
        29.500          28.800
  20320270.957    20320270.657    20320267.399   -25396475.146 7 -19789451.287 8
        43.900          48.900
 09  1 23  0 46 30.0000000  0  9G 9G18G14G 6G11G21G 3G19G22
  21557804.114    21557803.646    21557802.988   -17495909.737 6 -13633168.691 5
        37.000          33.800
  21765065.455    21765064.726    21765062.759   -18973346.285 6 -14784416.752 5
        37.500          33.400
  21123298.004    21123297.477    21123296.219   -20855605.227 6 -16251114.725 6
        40.700          40.700
  25204475.474    25204476.717    25204473.237     2706390.671     2108876.647 1
         3.000           9.000
  24192245.511    24192245.771    24192244.043    -3541534.752 2  -2759636.841 2
        13.900          16.100
  24822930.417    24822929.023    24822926.668     1064333.612 2    829351.073 1
        12.600           9.000
  25140481.044    25140481.193    25140480.774     3138000.706 1   2445197.533 1
         6.500           9.000
  23456912.832    23456911.370    23456909.846    -7926699.245 4  -6176645.757 4
        29.500          29.000
  20323433.853    20323433.513    20323430.321   -25379854.171 7 -19776499.874 8
        43.800          48.900
 09  1 23  0 47  0.0000000  0  7G 9G18G14G11G19G 3G22
  21564143.467    21564143.070    21564142.255   -17462597.351 6 -13607210.978 5
        37.300          33.800
  21778491.258    21778490.684    21778488.826   -18902792.371 6 -14729439.679 5
        37.400          33.500
  21112034.653    21112034.195    21112033.045   -20914793.796 6 -16297235.675 6
        40.700          40.900
  24175603.541    24175603.423    24175601.621    -3628993.387 2  -2827786.429 2
        17.000          17.800
  23467276.284    23467274.656    23467272.856    -7872239.638 4  -6134209.700 4
        29.200          28.600
  25158959.996    25158959.651    25158960.941     3235107.777 1   2520865.417 1
         6.500          11.000
  20326672.031    20326671.673    20326668.427   -25362837.566 7 -19763240.179 8
        43.800          48.800
 09  1 23  0 47 30.0000000  0  7G 9G18G14G11G19G 3G22
  21570615.348    21570614.785    21570613.797   -17428588.290 6 -13580710.412 5
        37.000          33.600
  21791973.295    21791972.744    21791970.999   -18831943.439 6 -14674232.719 5
        37.300          33.500
  21100849.302    21100848.774    21100847.482   -20973573.815 6 -16343038.279 6
        40.700          40.900
  24159021.946    24159021.796    24159020.497    -3716131.444 3  -2895686.201 3
        18.600          19.300
  23477725.990    23477724.631    23477722.491    -7817325.779 4  -6091419.681 4
        29.000          28.400
  25177453.723    25177453.045    25177452.531     3332279.064     2596583.341 1
         3.000           9.000
  20329987.116    20329986.819    20329983.620   -25345416.144 7 -19749665.044 8
        43.800          48.700
 09  1 23  0 48  0.0000000  0  6G 9G18G14G11G19G22
  21577225.490    21577225.050    21577224.381   -17393849.947 6 -13553641.573 5
        36.900          33.600
  21805517.951    21805517.309    21805515.561   -18760766.139 6 -14618769.893 5
        37.200          33.400
  21089748.175    21089747.757    21089746.517   -21031910.125 6 -16388495.135 6
        40.700          41.100
  24142507.549    24142507.665    24142506.486    -3802912.077 3  -2963307.444 3
        19.900          19.900
  23488268.330    23488267.014    23488264.871    -7761925.829 4  -6048250.901 4
        29.000          28.400
  20333385.770    20333385.458    20333382.255   -25327556.160 7 -19735748.169 8
        43.700          48.700
 09  1 23  0 48 30.0000000  0  6G 9G18G14G11G19G22
  21583970.176    21583969.670    21583968.792   -17358407.752 6 -13526024.271 5
        36.800          33.800
  21819120.266    21819119.677    21819117.975   -18689285.517 6 -14563070.701 5
        37.300          33.400
  21078727.144    21078726.568    21078725.383   -21089826.216 6 -16433624.545 6
        40.600          41.100
  24126057.456    24126057.035    24126055.566    -3889357.083 3  -3030667.167 3
        19.300          19.300
  23498897.814    23498896.334    23498894.649    -7706066.245 4  -6004723.955 4
        28.800          28.100
  20336863.337    20336863.052    20336859.825   -25309281.487 7 -19721508.165 8
        43.800          48.700
 09  1 23  0 49  0.0000000  0  6G 9G18G14G11G19G22
  21590848.481    21590848.145    21590847.388   -17322260.716 6 -13497857.747 5
        36.700          33.900
  21832780.481    21832779.782    21832778.322   -18617500.082 6 -14507134.000 5
        36.900          33.400
  21067786.732    21067786.164    21067784.935   -21147318.651 6 -16478423.837 6
        40.600          41.200
  24109672.846    24109672.438    24109670.260    -3975461.591 3  -3097761.555 3
        19.300          18.600
  23509615.187    23509614.119    23509612.186    -7649746.786 4  -5960838.668 4
        29.000          28.100
  20340420.278    20340419.984    20340416.757   -25290589.977 7 -19706943.349 8
        43.800          48.600
 09  1 23  0 49 30.0000000  0  6G 9G18G14G11G19G22
  21597859.500    21597859.149    21597858.592   -17285416.890 6 -13469148.273 5
        36.600          33.900
  21846497.672    21846496.930    21846495.078   -18545416.874 6 -14450965.272 5
        36.700          33.000
  21056925.761    21056925.227    21056924.009   -21204392.913 6 -16522897.279 6
        40.500          41.300
  24093351.020    24093350.884    24093349.197    -4061229.521 3  -3164593.680 3
        19.900          19.300
  23520418.337    23520416.944    23520414.871    -7592976.210 4  -5916601.867 4
        28.800          27.400
  20344055.238    20344054.954    20344051.740   -25271487.978 7 -19692058.673 8
        43.700          48.500
 09  1 23  0 50  0.0000000  0  6G 9G18G14G11G19G22
  21605003.452    21605002.849    21605001.769   -17247878.474 6 -13439897.556 5
        37.100          33.600
  21860270.733    21860270.221    21860268.352   -18473037.406 6 -14394565.688 5
        36.700          32.700
  21046144.423    21046143.967    21046142.779   -21261048.920 6 -16567044.809 6
        40.500          41.400
  24077093.825    24077093.653    24077092.575    -4146659.314 3  -3231162.343 3
        19.300          19.900
  23531306.481    23531305.306    23531303.104    -7535757.512 4  -5872015.870 4
        28.600          27.100
  20347768.075    20347767.738    20347764.564   -25251976.504 7 -19676854.926 8
        43.600          48.400
 09  1 23  0 50 30.0000000  0  6G 9G18G14G11G19G22
  21612278.665    21612278.249    21612277.511   -17209644.698 6 -13410104.999 5
        36.700          33.600
  21874100.828    21874100.210    21874098.463   -18400360.438 6 -14337934.283 5
        36.500          32.800
  21035443.404    21035442.977    21035441.655   -21317283.481 6 -16610863.941 6
        40.500          41.600
  24060903.626    24060902.643    24060901.295    -4231745.959 3  -3297463.611 3
        19.300          19.300
  23542280.035    23542278.684    23542276.945    -7478090.774 4  -5827080.755 4
        28.600          26.800
  20351559.514    20351559.176    20351555.979   -25232052.577 7 -19661329.785 8
        43.600          48.300
 09  1 23  0 51  0.0000000  0  7G 9G18G14G11G19G 3G22
  21619685.884    21619685.350    21619684.900   -17170718.914 6 -13379773.219 5
        36.400          33.600
  21887987.200    21887986.510    21887984.323   -18327388.567 6 -14281073.085 5
        36.800          32.400
  21024822.618    21024822.058    21024820.677   -21373097.159 6 -16654355.109 6
        40.600          41.700
  24044776.812    24044776.556    24044775.209    -4316488.796 3  -3363496.967 3
        19.300          19.300
  23553338.167    23553336.744    23553334.683    -7419979.666 4  -5781799.376 4
        27.600          26.200
  25307263.313    25307263.128    25307262.297           -.1341           .03711
                        11.000
  20355428.877    20355428.562    20355425.383   -25211718.688 7 -19645485.193 8
        43.500          48.300
 09  1 23  0 51 30.0000000  0  7G 9G18G14G11G19G 3G22
  21627223.489    21627223.033    21627222.195   -17131109.503 6 -13348908.738 5
        36.500          33.500
  21901927.698    21901927.063    21901925.049   -18254129.684 6 -14223988.238 5
        36.500          32.400
  21014280.323    21014279.864    21014278.607   -21428496.470 6 -16697523.395 6
        40.500          41.900
  24028714.856    24028714.556    24028713.176    -4400892.600 3  -3429266.158 3
        20.500          18.600
  23564479.419    23564477.823    23564475.955    -7361433.964 4  -5736179.353 4
        27.400          26.500
  25325850.119    25325849.214    25325848.672       97660.580 1     76099.253 1
         6.500          11.000
  20359375.129    20359374.800    20359371.540   -25190981.683 7 -19629326.487 8
        43.500          48.300
 09  1 23  0 52  0.0000000  0  7G 9G18G14G11G19G 3G22
  21634891.221    21634890.813    21634890.112   -17090815.077 6 -13317510.484 5
        36.400          33.500
  21915923.348    21915922.730    21915920.991   -18180581.427 6 -14166677.907 5
        36.300          32.400
  21003817.725    21003817.215    21003816.040   -21483477.522 6 -16740365.767 7
        40.500          42.000
  24012719.748    24012719.076    24012717.167    -4484951.681 3  -3494766.720 3
        20.500          20.500
  23575703.109    23575701.761    23575699.633    -7302452.772 4  -5690219.989 4
        27.600          26.500
  25344441.124    25344439.277    25344442.501      195361.672      152229.921 1
         3.000          11.000
  20363398.524    20363398.152    20363394.930   -25169838.495 7 -19612851.273 8
        43.400          48.200
 09  1 23  0 52 30.0000000  0  7G 9G18G14G11G19G 3G22
  21642691.007    21642690.410    21642689.848   -17049827.326 6 -13285571.975 5
        36.400          33.500
  21929975.916    21929975.252    21929973.554   -18106734.619 6 -14109134.942 5
        36.100          32.300
  20993436.851    20993436.289    20993435.133   -21538029.448 6 -16782873.756 7
        40.500          42.000
  23996791.551    23996791.128    23996789.480    -4568653.643 3  -3559989.013 3
        20.500          21.100
  23587011.664    23587009.811    23587007.769    -7243028.408 4  -5643915.298 4
        27.900          26.200
  25363042.237    25363040.766    25363041.898      293110.367      228397.669 1
                         9.000
  20367501.069    20367500.740    20367497.566   -25148279.000 7 -19596051.663 8
        43.400          48.100
 09  1 23  0 53  0.0000000  0  6G 9G18G11G19G14G22
  21650620.902    21650620.477    21650619.884   -17008154.675 6 -13253099.775 5
        36.300          33.500
  21944084.088    21944083.326    21944081.468   -18032596.942 6 -14051365.324 5
        36.200          32.100
  23980931.014    23980930.314    23980928.808    -4652002.887 3  -3624936.443 3
        20.500          21.100
  23598402.149    23598400.401    23598398.245    -7183170.126 4  -5597272.500 4
        28.400          26.200
  20983136.477    20983135.923    20983134.736   -21592158.297 6 -16825052.073 7
        40.500          42.100
  20371681.565    20371681.267    20371678.178   -25126309.992 7 -19578932.955 8
        43.300          48.100
 09  1 23  0 53 30.0000000  0  6G 9G18G11G19G14G22
  21658678.784    21658678.284    21658677.824   -16965810.523 6 -13220104.333 5
        36.400          33.500
  21958244.793    21958244.160    21958242.253   -17958181.171 6 -13993379.016 5
        36.300          31.800
  23965135.385    23965134.773    23965133.382    -4735008.433 3  -3689616.064 3
        20.500          20.500
  23609872.865    23609871.130    23609869.010    -7122891.952 4  -5550302.500 4
        28.100          26.500
  20972914.495    20972914.006    20972912.763   -21645874.870 6 -16866909.133 7
        40.600          42.100
  20375937.903    20375937.534    20375934.341   -25103943.614 7 -19561504.605 8
        43.300          48.000
 09  1 23  0 54  0.0000000  0  6G 9G18G11G19G14G22
  21666869.179    21666868.728    21666867.914   -16922769.752 6 -13186566.065 5
        36.400          33.400
  21972463.366    21972462.842    21972461.025   -17883461.157 6 -13935155.628 5
        36.000          31.600
  23949409.922    23949410.102    23949408.942    -4817641.065 3  -3754005.116 3
        19.900          20.500
  23621427.240    23621425.733    23621424.146    -7062169.314 4  -5502986.170 4
        27.100          26.500
  20962776.325    20962775.809    20962774.502   -21699151.495 6 -16908423.379 7
        40.700          42.200
  20380274.702    20380274.379    20380271.225   -25081152.772 7 -19543745.505 7
        43.200          47.900
 09  1 23  0 54 30.0000000  0  6G 9G18G11G19G14G22
  21675190.465    21675190.183    21675189.442   -16879040.409 6 -13152491.248 5
        36.400          33.200
  21986738.558    21986738.021    21986736.419   -17808444.452 5 -13876701.053 5
        35.800          31.600
  23933756.069    23933755.881    23933754.590    -4899904.936 3  -3818106.814 3
        19.300          21.600
  23633065.683    23633064.076    23633062.250    -7001010.942 4  -5455330.305 4
        27.400          26.500
  20952720.763    20952720.261    20952718.995   -21751993.985 6 -16949599.336 7
        40.700          42.400
  20384691.252    20384690.888    20384687.698   -25057944.169 7 -19525660.879 7
        43.100          47.900
 09  1 23  0 55  0.0000000  0  6G 9G18G11G19G14G22
  21683642.833    21683642.421    21683641.773   -16834623.899 6 -13117880.977 5
        36.200          33.500
  22001070.467    22001069.726    22001067.836   -17733130.986 5 -13818015.237 5
        35.700          31.100
  23918172.259    23918172.225    23918170.759    -4981797.014 2  -3881918.775 3
        17.800          22.600
  23644786.118    23644784.731    23644783.047    -6939418.950 4  -5407336.562 4
        26.800          26.800
  20942748.021    20942747.563    20942746.241   -21804400.829 6 -16990435.833 7
        40.800          42.400
  20389187.250    20389186.955    20389183.700   -25034317.383 7 -19507250.395 7
        43.100          47.800
 09  1 23  0 55 30.0000000  0  6G 9G18G11G19G14G22
  21692222.844    21692222.444    21692222.056   -16789534.492 6 -13082746.374 5
        36.000          33.600
  22015455.944    22015455.317    22015453.483   -17657534.197 5 -13759108.648 5
        35.700          31.300
  23902657.197    23902657.207    23902656.331    -5063327.207 2  -3945448.785 3
        17.000          22.600
  23656586.608    23656584.947    23656583.104    -6877408.236 4  -5359016.528 4
        26.200          26.500
  20932856.094    20932855.545    20932854.220   -21856383.873 6 -17030942.095 7
        40.800          42.600
  20393760.496    20393760.138    20393756.888   -25010285.203 7 -19488524.019 7
        43.100          47.800
 09  1 23  0 56  0.0000000  0  6G 9G18G11G19G14G22
  21700930.889    21700930.442    21700929.650   -16743774.682 5 -13047089.375 5
        35.900          33.200
  22029895.031    22029894.530    22029892.759   -17581655.899 5 -13699982.706 5
        35.500          31.300
  23887212.102    23887211.501    23887210.730    -5144494.337 2  -4008695.886 3
        16.100          22.100
  23668465.842    23668464.428    23668462.411    -6814982.037 4  -5310372.747 4
        26.200          26.500
  20923044.597    20923044.101    20923042.893   -21907943.264 6 -17071118.239 7
        40.900          42.700
  20398410.669    20398410.290    20398407.110   -24985848.286 7 -19469482.261 7
        43.000          47.800
 09  1 23  0 56 30.0000000  0  6G 9G18G11G19G14G22
  21709767.183    21709766.522    21709765.875   -16697339.493 5 -13010906.112 5
        35.600          33.000
  22044389.026    22044388.463    22044386.606   -17505490.074 5 -13640632.719 5
        35.500          31.100
  23871837.011    23871836.846    23871835.862    -5225288.967 2  -4071652.717 3
        15.100          21.600
  23680424.787    23680423.385    23680421.854    -6752135.972 4  -5261401.791 4
        26.500          26.200
  20913315.245    20913314.741    20913313.534   -21959071.357 6 -17110958.306 7
        40.900          42.800
  20403139.097    20403138.778    20403135.618   -24960999.919 7 -19450119.896 7
        43.000          47.700
 09  1 23  0 57  0.0000000  0  6G 9G18G11G19G14G22
  21718730.682    21718730.192    21718729.502   -16650235.844 5 -12974201.974 5
        35.600          33.000
  22058936.731    22058936.079    22058934.052   -17429042.588 5 -13581063.247 5
        35.600          31.000
  23856533.607    23856532.878    23856531.134    -5305713.293 2  -4134320.997 3
        16.100          21.100
  23692462.417    23692461.146    23692458.932    -6688877.378 4  -5212109.387 4
        26.500          24.900
  20903667.340    20903666.784    20903665.433   -22009772.032 6 -17150465.319 7
        40.900          42.900
  20407944.889    20407944.571    20407941.456   -24935745.184 7 -19430440.880 7
        42.900          47.700
 09  1 23  0 57 30.0000000  0  6G 9G18G11G19G14G22
  21727820.913    21727820.435    21727819.911   -16602465.695 5 -12936978.477 5
        35.400          33.000
  22073537.398    22073536.842    22073534.657   -17352314.371 5 -13521275.023 5
        35.200          30.600
  23841299.920    23841300.055    23841297.718    -5385765.313 2  -4196699.157 3
        17.800          20.500
  23704578.424    23704577.001    23704574.657    -6625208.950 4  -5162497.637 4
        27.100          24.600
  20894100.687    20894100.118    20894098.703   -22060045.157 6 -17189639.177 7
        41.000          43.000
  20412828.102    20412827.715    20412824.523   -24910084.170 7 -19410445.283 7
        42.900          47.600
 09  1 23  0 58  0.0000000  0  6G 9G18G11G19G14G22
  21737039.567    21737039.072    21737038.599   -16554021.838 5 -12899230.013 5
        35.300          33.200
  22088193.021    22088192.468    22088190.873   -17275297.743 5 -13461262.071 5
        34.700          30.800
  23826140.270    23826139.932    23826136.946    -5465434.141 3  -4258778.744 3
        19.900          19.300
  23716772.686    23716771.555    23716769.909    -6561124.182 4  -5112561.459 4
        25.900          25.300
  20884617.109    20884616.606    20884615.263   -22109881.131 6 -17228472.403 7
        40.900          43.100
  20417790.031    20417789.684    20417786.560   -24884008.402 7 -19390126.501 7
        42.900          47.500
 09  1 23  0 58 30.0000000  0  6G 9G18G11G19G14G22
  21746384.899    21746384.526    21746383.784   -16504911.778 5 -12860962.434 5
        35.600          33.100
  22102902.849    22102902.237    22102900.449   -17197998.472 5 -13401028.877 5
        34.900          31.000
  23811052.425    23811052.052    23811049.373    -5544722.551 3  -4320561.901 3
        19.300          19.300
  23729045.897    23729044.275    23729042.914    -6496630.791 4  -5062306.870 4
        24.900          25.600
  20875216.162    20875215.620    20875214.238   -22159284.119 6 -17266968.230 7
        40.900          43.300
  20422830.087    20422829.764    20422826.524   -24857523.230 7 -19369488.705 7
        42.900          47.500
 09  1 23  0 59  0.0000000  0  6G 9G18G11G19G14G22
  21755856.380    21755855.957    21755855.127   -16455138.942 5 -12822178.404 5
        35.500          32.600
  22117665.569    22117664.871    22117663.149   -17120419.389 5 -13340577.650 5
        34.300          30.600
  23796034.706    23796035.187    23796033.783    -5623629.554 2  -4382047.840 3
        17.800          19.300
  23741395.273    23741394.046    23741392.700    -6431733.276 4  -5011737.397 4
        25.300          25.600
  20865897.232    20865896.738    20865895.272   -22208255.369 6 -17305127.640 7
        40.900          43.400
  20427947.667    20427947.343    20427944.180   -24830630.171 7 -19348533.072 7
        42.800          47.500
 09  1 23  0 59 30.0000000  0  6G 9G18G11G19G14G22
  21765454.892    21765454.413    21765453.463   -16404699.274 5 -12782874.767 5
        35.500          32.600
  22132482.753    22132482.026    22132480.372   -17042554.980 5 -13279904.089 5
        34.500          31.000
  23781094.160    23781094.087    23781091.800    -5702146.236 3  -4443229.649 3
        19.300          18.600
  23753822.918    23753821.273    23753819.309    -6366427.491 4  -4960849.775 4
        24.600          25.300
  20856661.668    20856661.141    20856659.854   -22256788.033 6 -17342945.296 7
        40.900          43.500
  20433143.905    20433143.545    20433140.453   -24803323.327 7 -19327255.012 7
        42.700          47.500
                            4 15
RINEX FILE SPLICE                                           COMMENT
teqc  2008Oct2      WCDA Operator       20090123 02:18:35UTCCOMMENT
STATION INFORMATION EFFECTIVE FROM: 2001/01/13 18:20:00     COMMENT
                                TO: CURRENT DATE (above)    COMMENT
BIT 2 OF LLI FLAGS (+4) DATA COLLECTED UNDER 'AS' CONDITION COMMENT
L1 PHASE CENTRE 0.110m ABOVE ARP                            COMMENT
L2 PHASE CENTRE 0.128m ABOVE ARP                            COMMENT
where ARP is the Antenna Reference Point for HI measurement COMMENT
CONTACT gps@pgc.nrcan.gc.ca FOR ADDITIONAL INFORMATION      COMMENT
    P1 =    P1  TurboRogue; =    Y1  Benchmark              COMMENT
    L1 = L1(CA)                                             COMMENT
    P2 =    P2  TurboRogue; =    Y2  Benchmark              COMMENT
    L2 = L2(P2) TurboRogue; = L2(Y2) Benchmark              COMMENT
 SNR is mapped to RINEX snr flag value [0-9]                COMMENT
  L1 & L2: min(max(int(snr_dBHz/6), 0), 9)                  COMMENT
 09  1 23  1  0  0.0000000  0  6G 9G18G11G19G14G22
  21775178.841    21775178.274    21775177.447   -16353599.558 5 -12743056.798 5
        35.300          32.700
  22147353.157    22147352.372    22147350.714   -16964410.770 5 -13219012.501 5
        34.400          30.600
  23766227.590    23766227.255    23766224.682    -5780275.325 3  -4504109.451 3
        21.600          18.600
  23766326.133    23766325.058    23766323.178    -6300720.762 4  -4909649.735 4
        24.900          25.900
  20847509.113    20847508.489    20847507.089   -22304885.919 6 -17380424.164 7
        40.900          43.600
  20438418.037    20438417.748    20438414.633   -24775607.326 7 -19305658.125 7
        42.800          47.400
 09  1 23  1  0 30.0000000  0  6G 9G18G11G19G14G22
  21785026.036    21785025.706    21785025.348   -16301849.955 5 -12702732.432 5
        35.100          32.800
  22162274.667    22162273.966    22162272.221   -16885996.435 5 -13157910.420 5
        34.100          30.200
  23751432.842    23751432.508    23751430.135    -5858022.881 3  -4564691.971 3
        21.600          18.600
  23778903.803    23778902.754    23778900.952    -6234624.288 4  -4858146.016 4
        25.600          25.900
  20838437.555    20838436.906    20838435.534   -22352557.068 6 -17417570.509 7
        40.700          43.600
  20443768.449    20443768.143    20443765.074   -24747490.939 7 -19283749.253 7
        42.700          47.400
 09  1 23  1  1  0.0000000  0  6G 9G18G11G19G14G22
  21794998.049    21794997.637    21794996.830   -16249448.477 5 -12661900.106 5
        35.400          32.700
  22177248.503    22177247.806    22177245.912   -16807308.530 5 -13096595.186 4
        33.900          29.700
  23736711.377    23736710.883    23736709.455    -5935382.328 3  -4624972.050 3
        19.900          19.900
  23791556.464    23791555.082    23791552.886    -6168136.370 4  -4806337.243 4
        25.300          25.300
  20829448.066    20829447.546    20829446.151   -22399796.623 6 -17454380.550 7
        40.700          43.700
  20449195.838    20449195.472    20449192.279   -24718970.535 7 -19261525.562 7
        42.800          47.300
 09  1 23  1  1 30.0000000  0  6G 9G18G11G19G14G22
  21805094.435    21805093.995    21805093.289   -16196391.492 5 -12620557.001 5
        35.300          32.600
  22192275.616    22192274.882    22192272.875   -16728342.125 5 -13035062.920 4
        34.300          29.900
  23722065.004    23722065.006    23722063.756    -6012345.301 3  -4684943.196 3
        20.500          21.100
  23804283.699    23804282.344    23804280.975    -6101253.688 4  -4754220.874 4
        24.600          25.900
  20820541.890    20820541.437    20820540.206   -22446598.093 6 -17490849.224 7
        40.600          43.900
  20454701.056    20454700.713    20454697.540   -24690040.070 7 -19238982.340 7
        42.700          47.200
 09  1 23  1  2  0.0000000  0  6G 9G18G11G19G14G22
  21815315.569    21815315.024    21815314.314   -16142678.857 5 -12578702.993 5
        34.900          32.100
  22207355.435    22207354.709    22207352.926   -16649095.535 5 -12973312.330 4
        33.800          29.900
  23707496.448    23707495.814    23707494.589    -6088907.562 3  -4744602.099 3
        20.500          21.600
  23817085.546    23817084.606    23817083.002    -6033976.270 4  -4701796.924 4
        25.300          25.600
  20811719.946    20811719.424    20811718.114   -22492958.273 6 -17526974.034 7
        40.600          44.000
  20460284.919    20460284.588    20460281.373   -24660697.100 7 -19216117.687 7
        42.800          47.200
 09  1 23  1  2 30.0000000  0  6G 9G18G11G19G14G22
  21825660.421    21825659.882    21825659.040   -16088316.011 5 -12536342.332 5
        34.600          32.000
  22222487.980    22222487.398    22222485.423   -16569573.498 5 -12911347.118 4
        33.800          29.900
  23693003.551    23693003.215    23693001.130    -6165069.709 3  -4803949.207 3
        22.100          21.100
  23829962.841    23829961.454    23829959.200    -5966309.906 4  -4649069.906 4
        25.600          24.200
  20802981.245    20802980.783    20802979.482   -22538880.060 6 -17562757.237 7
        40.500          44.100
  20465946.325    20465946.017    20465942.917   -24630945.663 7 -19192934.749 7
        42.800          47.200
 09  1 23  1  3  0.0000000  0  6G 9G18G11G19G14G22
  21836128.734    21836128.167    21836127.204   -16033306.245 5 -12493477.574 5
        34.900          32.100
  22237672.476    22237671.927    22237670.007   -16489778.212 5 -12849168.979 4
        33.400          29.700
  23678586.191    23678586.121    23678584.402    -6240830.938 3  -4862983.915 3
        23.000          21.600
  23842913.132    23842911.425    23842909.562    -5898258.700 4  -4596043.010 4
        26.800          24.200
  20794326.056    20794325.469    20794324.170   -22584364.088 6 -17598199.331 7
        40.500          44.200
  20471685.415    20471685.079    20471681.934   -24600787.003 7 -19169434.495 7
        42.700          47.100
 09  1 23  1  3 30.0000000  0  6G 9G18G11G19G14G22
  21846719.646    21846719.143    21846718.331   -15977650.374 5 -12450109.357 5
        34.600          32.400
  22252909.204    22252908.570    22252906.925   -16409708.977 5 -12786777.375 4
        33.400          29.700
  23664246.360    23664246.327    23664244.168    -6316187.548 4  -4921703.345 3
        24.200          21.600
  23855935.175    23855933.993    23855932.330    -5829824.209 4  -4542717.425 4
        25.900          24.200
  20785754.315    20785753.775    20785752.604   -22629408.121 6 -17633298.570 7
        40.400          44.300
  20477502.033    20477501.703    20477498.556   -24570220.162 7 -19145616.178 7
        42.700          47.000
 09  1 23  1  4  0.0000000  0  6G 9G18G11G19G14G22
  21857432.004    21857431.769    21857431.068   -15921353.816 5 -12406241.920 5
        34.100          32.100
  22268197.216    22268196.711    22268194.898   -16329369.831 5 -12724175.450 4
        33.400          29.500
  23649984.115    23649983.744    23649981.201    -6391139.989 4  -4980107.838 3
        24.600          21.100
  23869029.733    23869028.410    23869026.556    -5761011.571 4  -4489097.183 3
        25.300          23.800
  20777265.857    20777265.330    20777264.122   -22674015.022 6 -17668057.186 7
        40.300          44.400
  20483395.805    20483395.461    20483392.320   -24539247.934 7 -19121481.971 7
        42.700          46.900
 09  1 23  1  4 30.0000000  0  6G 9G18G11G19G14G22
  21868267.058    21868266.693    21868265.988   -15864415.444 5 -12361874.344 5
        34.000          31.600
  22283536.892    22283536.385    22283534.554   -16248758.477 5 -12661361.416 4
        33.100          29.000
  23635798.593    23635798.329    23635796.709    -6465682.890 3  -5038193.204 3
        23.800          22.600
  23882196.749    23882195.718    23882193.099    -5691820.235 4  -4435181.870 3
        25.900          23.800
  20768861.430    20768860.929    20768859.652   -22718180.775 6 -17702472.052 7
        40.300          44.400
  20489367.192    20489366.891    20489363.825   -24507867.735 7 -19097029.867 7
        42.700          46.900
 09  1 23  1  5  0.0000000  0  6G 9G18G11G19G14G22
  21879223.658    21879223.229    21879222.618   -15806838.567 5 -12317009.246 5
        34.000          31.800
  22298928.075    22298927.602    22298925.695   -16167877.097 5 -12598336.967 4
        33.100          29.000
  23621691.205    23621691.204    23621689.540    -6539815.348 3  -5095958.734 3
        23.400          22.600
  23895433.618    23895432.420    23895430.778    -5622254.453 4  -4380974.787 3
        24.200          23.000
  20760540.729    20760540.219    20760538.917   -22761906.361 6 -17736543.931 7
        40.300          44.500
  20495416.146    20495415.770    20495412.577   -24476081.136 7 -19072261.088 7
        42.700          46.800
 09  1 23  1  5 30.0000000  0  6G 9G18G11G19G14G22
  21890302.034    21890301.440    21890300.739   -15748623.234 5 -12271646.647 5
        33.900          32.100
  22314371.037    22314370.358    22314368.651   -16086724.777 5 -12535101.394 4
        33.000          29.000
  23607663.629    23607663.399    23607661.444    -6613532.822 3  -5153400.902 3
        23.000          22.100
  23908743.373    23908741.936    23908739.815    -5552314.514 3  -4326476.132 3
        23.800          23.000
  20752304.396    20752303.841    20752302.515   -22805188.872 6 -17770270.556 7
        40.300          44.600
  20501542.648    20501542.267    20501539.086   -24443886.269 7 -19047174.177 7
        42.700          46.700
 09  1 23  1  6  0.0000000  0  6G 9G18G11G19G14G22
  21901500.067    21901499.692    21901498.913   -15689774.785 5 -12225790.714 5
        33.900          31.600
  22329865.064    22329864.363    22329862.340   -16005304.760 5 -12471657.234 4
        33.100          29.000
  23593714.941    23593714.207    23593712.378    -6686836.004 3  -5210520.262 3
        23.000          22.100
  23922122.854    23922121.272    23922119.795    -5482005.906 3  -4271690.234 3
        23.400          23.400
  20744151.970    20744151.421    20744150.006   -22848030.646 6 -17803653.748 7
        40.300          44.700
  20507746.154    20507745.832    20507742.735   -24411286.140 7 -19021771.479 7
        42.600          46.600
 09  1 23  1  6 30.0000000  0  6G 9G18G11G19G14G22
  21912820.290    21912819.608    21912818.751   -15630289.210 5 -12179438.315 5
        33.900          31.500
  22345410.644    22345409.935    22345407.880   -15923611.891 5 -12408000.454 4
        32.700          29.000
  23579845.912    23579845.616    23579843.714    -6759716.092 3  -5267309.924 3
        22.600          22.100
  23935572.900    23935571.129    23935569.751    -5411325.255 3  -4216614.412 3
        23.400          23.400
  20736084.501    20736083.980    20736082.629   -22890424.755 6 -17836688.114 7
        40.200          44.700
  20514028.162    20514027.796    20514024.608   -24378274.472 7 -18996048.099 7
        42.700          46.500
 09  1 23  1  7  0.0000000  0  7G 9G18G11G12G14G19G22
  21924259.263    21924258.857    21924258.085   -15570174.650 5 -12132595.797 5
        33.900          31.500
  22361007.290    22361006.405    22361004.305   -15841653.113 5 -12344136.478 4
        32.800          29.000
  23566057.221    23566056.768    23566054.676    -6832176.884 3  -5323772.860 3
        22.600          22.600
  25273470.478    25273470.844    25273469.119          -1.02811         -.48512
         9.000          15.100
  20728101.414    20728100.847    20728099.493   -22932376.589 6 -17869377.848 7
        40.300          44.700
  23949092.183    23949091.052    23949089.141    -5340280.677 3  -4161255.012 4
        23.800          24.600
  20520387.083    20520386.836    20520383.703   -24344857.093 7 -18970008.581 7
        42.600          46.400
 09  1 23  1  7 30.0000000  0  8G 9G11G18G12G31G14G19G22
  21935817.056    21935816.637    21935815.813   -15509438.973 5 -12085269.301 5
        34.100          31.300
  23552347.351    23552347.166    23552345.413    -6904221.524 3  -5379911.512 3
        22.600          23.400
  22376652.643    22376651.891    22376649.917   -15759434.783 5 -12280070.256 4
        32.800          28.600
  25257483.187    25257483.800    25257482.475      -84013.592 1    -65464.797 2
         9.000          13.900
  25076156.354    25076157.254    25076153.933           -.73911          .15713
        11.000          21.100
  20720201.407    20720200.884    20720199.418   -22973891.379 6 -17901727.026 7
        40.300          44.800
  23962679.396    23962677.895    23962676.047    -5268880.352 3  -4105618.412 4
        23.400          25.300
  20526822.376    20526822.079    20526818.923   -24311039.796 7 -18943657.439 7
        42.500          46.300
 09  1 23  1  8  0.0000000  0  8G 9G18G11G12G31G14G19G22
  21947489.932    21947489.433    21947488.458   -15448098.396 5 -12037471.438 5
        34.100          31.300
  22392344.897    22392344.069    22392341.995   -15676971.743 5 -12215813.347 4
        32.400          28.400
  23538715.059    23538714.642    23538712.604    -6975861.435 3  -5435734.799 3
        23.000          23.000
  25241536.889    25241536.859    25241532.464     -167825.086 2   -130772.420 2
        12.600          15.100
  25053991.147    25053990.138    25053987.568     -116489.776 2    -90770.474 3
        12.600          21.100
  20712382.062    20712381.560    20712380.092   -23014981.995 6 -17933745.683 7
        40.300          44.800
  23976330.048    23976328.764    23976327.664    -5197140.858 3  -4049717.505 4
        22.600          25.600
  20533331.000    20533330.620    20533327.441   -24276837.063 7 -18917005.957 7
        42.500          46.200
 09  1 23  1  8 30.0000000  0  8G 9G18G11G12G31G14G19G22
  21959282.765    21959282.206    21959281.651   -15386125.288 5 -11989180.700 5
        33.100          31.600
  22408088.952    22408088.408    22408086.415   -15594234.698 5 -12151342.926 4
        32.400          28.400
  23525165.240    23525165.084    23525163.479    -7047064.359 3  -5491217.581 3
        23.400          23.400
  25225629.982    25225630.712    25225628.157     -251402.165 1   -195897.383 2
         6.500          13.900
  25031828.165    25031827.464    25031824.816     -232958.007 2   -181524.895 3
        16.100          20.500
  20704649.315    20704648.790    20704647.367   -23055617.985 6 -17965410.085 7
        40.300          44.900
  23990052.459    23990051.003    23990049.560    -5125034.759 3  -3993530.954 4
        23.000          26.200
  20539918.574    20539918.234    20539915.038   -24242219.301 7 -18890031.077 7
        42.500          46.100
 09  1 23  1  9  0.0000000  0  9G 9G11G18G32G12G31G14G19G22
  21971193.285    21971192.822    21971192.215   -15323534.577 5 -11940408.723 5
        33.000          31.600
  23511696.524    23511696.264    23511694.891    -7117840.643 3  -5546367.915 3
        23.400          23.000
  22423882.477    22423881.898    22423880.343   -15511237.286 5 -12086669.633 4
        31.800          28.400
  25078784.419    25078783.517    25078783.130           -.03111          .07212
         9.000          12.600
  25209769.562    25209769.335    25209769.302     -334754.439 1   -260847.203 2
         6.500          16.100
  25009667.075    25009666.415    25009663.919     -349415.455 2   -272270.932 3
        17.800          19.900
  20697000.785    20697000.191    20696998.851   -23095811.424 6 -17996729.642 7
        40.300          45.000
  24003840.094    24003838.609    24003837.353    -5052577.176 3  -3937070.504 4
        21.600          24.900
  20546582.774    20546582.447    20546579.236   -24207198.629 7 -18862742.239 7
        42.400          46.000
 09  1 23  1  9 30.0000000  0  9G 9G11G18G32G12G31G14G19G22
  21983223.564    21983223.045    21983222.316   -15260316.165 5 -11891147.624 5
        33.500          31.500
  23498313.078    23498312.231    23498310.625    -7188175.655 3  -5601174.406 3
        23.800          23.400
  22439728.693    22439728.030    22439725.853   -15427968.101 5 -12021784.574 4
        32.000          27.600
  25060488.803    25060488.421    25060490.413      -96137.671 1    -74912.317 2
         6.500          13.900
  25193953.566    25193953.858    25193953.227     -417866.537     -325609.853 2
         3.000          13.900
  24987511.105    24987510.035    24987508.076     -465847.168 3   -362996.908 3
        18.600          18.600
  20689438.744    20689438.300    20689436.950   -23135549.620 6 -18027694.466 7
        40.300          45.200
  24017696.706    24017695.812    24017694.031    -4979758.350 3  -3880328.540 4
        22.100          24.600
  20553325.866    20553325.566    20553322.367   -24171762.883 7 -18835129.970 7
        42.300          45.900
 09  1 23  1 10  0.0000000  0 10G 9G11G 5G18G32G12G31G14G19G22
  21995369.317    21995368.861    21995368.011   -15196489.865 5 -11841412.835 5
        33.500          31.500
  23485008.960    23485008.705    23485007.719    -7258084.617 3  -5655648.909 3
        23.400          23.400
  25115189.492    25115188.273    25115187.984            .1101          -.18111
         3.000           6.500
  22455622.394    22455621.826    22455619.781   -15344445.540 5 -11956702.062 4
        32.000          27.900
  25042197.952    25042198.052    25042199.157     -192249.705     -149804.843 2
         3.000          12.600
  25178182.594    25178181.966    25178175.240     -500752.471     -390196.253 1
                         6.500
  24965355.776    24965355.376    24965353.820     -582267.925 3   -453714.368 2
        18.600          16.100
  20681960.337    20681959.858    20681958.445   -23174849.304 6 -18058317.591 7
        40.300          45.300
  24031618.976    24031617.744    24031615.984    -4906598.704 3  -3823321.054 4
        22.600          24.600
  20560144.470    20560144.227    20560141.049   -24135930.708 7 -18807208.791 7
        42.300          45.800
 09  1 23  1 10 30.0000000  0  9G 9G11G 5G18G32G31G14G19G22
  22007628.114    22007627.778    22007627.157   -15132067.128 5 -11791213.303 5
        32.700          31.300
  23471785.382    23471785.391    23471784.164    -7327574.048 3  -5709796.501 3
        23.800          23.000
  25097450.625    25097448.771    25097448.687      -93214.622      -72635.081 1
                         9.000
  22471562.458    22471561.876    22471560.037   -15260679.251 5 -11891429.633 4
        31.600          27.600
  25023912.716    25023912.098    25023912.880     -288344.152     -224683.657 1
         3.000          11.000
  24943200.694    24943201.198    24943200.908     -698684.180 2   -544428.344 2
        17.800          15.100
  20674563.753    20674563.173    20674561.826   -23213718.882 6 -18088605.571 7
        40.300          45.300
  24045603.572    24045602.199    24045600.987    -4833109.663 3  -3766056.875 4
        22.100          25.300
  20567036.983    20567036.647    20567033.534   -24099710.676 7 -18778985.388 7
        42.100          45.800
 09  1 23  1 11  0.0000000  0  9G 9G11G 5G18G32G31G14G19G22
  22020002.757    22020002.220    22020001.503   -15067039.294 5 -11740542.261 5
        32.700          31.300
  23458645.054    23458644.701    23458642.536    -7396631.013 4  -5763607.120 3
        24.600          22.100
  25079747.592    25079745.738    25079745.226     -186247.900     -145128.469 1
         3.000           9.000
  22487550.873    22487550.213    22487548.540   -15176659.321 5 -11825959.563 4
        31.300          27.900
  25005631.850    25005631.669    25005633.356     -384409.025 1   -299539.388 1
         9.000          11.000
  24921050.881    24921051.706    24921050.834     -815082.609 2   -635128.438 2
        17.800          16.100
  20667251.022    20667250.499    20667249.165   -23252147.077 6 -18118549.614 7
        40.300          45.300
  24059651.980    24059650.659    24059649.369    -4759282.977 3  -3708529.616 4
        21.100          24.200
  20574005.325    20574004.942    20574001.729   -24063091.965 7 -18750451.329 7
        42.100          45.600
 09  1 23  1 11 30.0000000  0  9G 9G11G 5G18G32G31G14G19G22
  22032496.000    22032495.572    22032494.583   -15001387.435 5 -11689384.967 5
        32.800          31.300
  23445590.642    23445590.056    23445588.148    -7465231.829 4  -5817062.303 3
        24.600          21.600
  25062081.953    25062080.047    25062080.884     -279074.865     -217461.076 1
         3.000           9.000
  22503591.652    22503590.978    22503589.107   -15092365.627 5 -11760276.180 4
        31.000          27.900
  24987362.351    24987361.482    24987361.766     -480421.980 1   -374354.637 1
        11.000          11.000
  24898909.062    24898909.530    24898909.159     -931439.254 2   -725795.960 2
        16.100          17.000
  20660026.676    20660026.150    20660024.599   -23290111.949 6 -18148132.627 7
        40.300          45.300
  24073769.203    24073767.443    24073765.965    -4685100.114 3  -3650724.800 3
        21.600          23.000
  20581053.472    20581053.118    20581049.961   -24026053.587 7 -18721590.253 7
        42.000          45.500
 09  1 23  1 12  0.0000000  0 10G 9G11G 5G18G32G12G31G14G19G22
  22045104.380    22045103.948    22045102.968   -14935130.188 5 -11637755.944 5
        32.700          31.500
  23432620.351    23432619.971    23432618.530    -7533390.223 4  -5870172.726 3
        24.900          21.600
  25044454.411    25044453.586    25044455.025     -371707.894 1   -289642.682 1
         6.500          11.000
  22519680.793    22519680.200    22519678.611   -15007814.532 5 -11694392.220 4
        30.800          27.900
  24969098.413    24969097.997    24969098.043     -576397.816 2   -449140.983 1
        12.600          11.000
  25115535.739    25115536.047    25115532.975           -.8731          -.00611
         3.000           6.500
  24876772.009    24876771.625    24876772.402    -1047767.039 2   -816440.958 2
        15.100          17.000
  20652887.374    20652886.814    20652885.335   -23327628.869 6 -18177366.586 7
        40.200          45.300
  24087948.694    24087947.904    24087946.555    -4610579.579 3  -3592656.855 3
        22.100          22.100
  20588178.373    20588178.066    20588174.918   -23988611.710 7 -18692414.763 7
        42.000          45.500
 09  1 23  1 12 30.0000000  0 10G 9G 5G11G18G32G12G31G14G19G22
  22057826.074    22057825.656    22057825.079   -14868276.967 5 -11585662.528 5
        32.700          31.800
  25026863.609    25026862.598    25026862.630     -464150.778 1   -361676.060 2
         6.500          12.600
  23419733.677    23419733.222    23419731.013    -7601111.125 4  -5922942.246 3
        24.600          21.100
  22535817.688    22535817.141    22535815.685   -14923014.154 5 -11628314.016 4
        30.600          27.100
  24950841.575    24950840.184    24950840.289     -672342.457 2   -523903.000 2
        13.900          12.600
  25099994.203    25099993.525    25099990.155      -81684.725 2    -63649.748 1
        12.600          11.000
  24854640.460    24854639.936    24854640.297    -1164070.724 2   -907067.187 2
        17.000          15.100
  20645831.987    20645831.499    20645830.049   -23364704.600 6 -18206256.763 7
        40.100          45.400
  24102193.174    24102192.419    24102190.075    -4535730.863 4  -3534333.167 3
        24.200          22.100
  20595378.759    20595378.377    20595375.228   -23950773.623 6 -18662930.539 7
        41.900          45.400
 09  1 23  1 13  0.0000000  0 10G 9G 5G11G18G32G12G31G14G19G22
  22070662.022    22070661.487    22070660.603   -14800824.392 5 -11533102.075 5
        32.400          31.100
  25009307.671    25009307.550    25009309.357     -556394.634 1   -433554.337 1
         6.500          11.000
  23406930.915    23406931.134    23406928.521    -7668386.527 4  -5975364.632 3
        24.600          21.100
  22552003.096    22552002.529    22552000.465   -14837959.866 5 -11562037.952 4
        30.400          26.200
  24932590.226    24932589.523    24932589.756     -768249.330 2   -598635.544 2
        15.100          12.600
  25084497.281    25084497.100    25084494.673     -163117.708 2   -127104.001 2
        12.600          13.900
  24832515.053    24832514.468    24832513.953    -1280342.134 2   -997668.273 2
        17.000          13.900
  20638861.943    20638861.383    20638859.980   -23401332.906 6 -18234798.298 7
        40.100          45.500
  24116499.664    24116497.967    24116495.686    -4460551.270 3  -3475751.720 3
        23.000          21.100
  20602655.405    20602655.103    20602652.006   -23912534.037 6 -18633133.460 7
        41.900          45.300
 09  1 23  1 13 30.0000000  0 10G 9G 5G11G18G32G12G31G14G19G22
  22083610.732    22083610.291    22083609.479   -14732777.641 5 -11480078.636 5
        32.100          31.100
  24991794.579    24991793.654    24991793.325     -648438.555 2   -505276.797 1
        12.600          11.000
  23394213.780    23394213.719    23394211.404    -7735216.498 4  -6027439.919 3
        24.200          21.600
  22568236.210    22568235.692    22568233.467   -14752654.845 5 -11495566.519 4
        30.400          26.200
  24914347.634    24914346.459    24914346.199     -864119.849 2   -673339.752 2
        15.100          13.900
  25069049.099    25069048.824    25069048.075     -244298.899 2   -190361.978 2
        12.600          17.000
  24810395.115    24810395.051    24810393.855    -1396580.993 3  -1088244.012 2
        18.600          13.900
  20631976.626    20631976.129    20631974.556   -23437515.866 6 -18262992.810 7
        40.000          45.500
  24130866.921    24130865.495    24130864.330    -4385045.852 3  -3416916.337 3
        22.100          21.600
  20610008.152    20610007.832    20610004.642   -23873895.830 7 -18603025.768 7
        42.000          45.300
 09  1 23  1 14  0.0000000  0 10G 9G 5G11G18G32G12G31G14G19G22
  22096673.033    22096672.550    22096672.044   -14664134.217 5 -11426590.254 5
        32.100          31.000
  24974319.128    24974317.928    24974317.684     -740274.010 2   -576836.841 2
        15.100          12.600
  23381582.565    23381582.477    23381580.620    -7801593.850 3  -6079162.530 3
        23.800          22.100
  22584517.912    22584517.298    22584515.119   -14667095.188 5 -11428896.658 4
        30.600          26.200
  24896112.367    24896111.019    24896111.526     -959947.742 2   -748010.795 2
        16.100          15.100
  25053648.860    25053648.462    25053648.857     -325220.119 1   -253417.405 2
         9.000          17.800
  24788283.767    24788283.701    24788281.898    -1512779.593 3  -1178788.378 2
        18.600          16.100
  20625177.010    20625176.451    20625174.974   -23473247.977 6 -18290836.008 7
        40.000          45.600
  24145298.388    24145296.912    24145294.781    -4309212.125 3  -3357825.125 3
        22.100          21.600
  20617437.575    20617437.257    20617434.140   -23834853.593 6 -18572603.244 7
        41.900          45.100
 09  1 23  1 14 30.0000000  0 10G 9G 5G11G18G32G12G31G14G19G22
  22109847.877    22109847.494    22109846.875   -14594899.808 5 -11372641.358 5
        32.300          30.600
  24956883.131    24956882.758    24956882.840     -831900.930 2   -648234.448 2
        16.100          15.100
  23369037.621    23369037.566    23369035.689    -7867519.779 4  -6130533.381 3
        25.300          22.600
  22600846.852    22600846.234    22600844.500   -14581285.051 4 -11362031.621 4
        29.900          26.500
  24877884.727    24877883.343    24877884.245    -1055735.324 2   -822650.447 2
        12.600          16.100
  25038303.043    25038302.263    25038299.323     -405881.597 2   -316270.501 2
        12.600          16.100
  24766180.339    24766179.732    24766177.074    -1628938.586 3  -1269301.848 2
        18.600          17.000
  20618462.555    20618462.049    20618460.672   -23508532.019 6 -18318330.065 7
        39.900          45.600
  24159790.284    24159788.265    24159786.807    -4233056.362 3  -3298482.971 3
        21.600          20.500
  20624942.989    20624942.738    20624939.644   -23795411.660 6 -18541869.270 7
        41.900          45.000
 09  1 23  1 15  0.0000000  0 10G 5G 9G11G18G32G12G31G14G19G22
  24939487.458    24939486.635    24939487.480     -923316.052 2   -719466.979 2
        13.900          15.100
  22123134.840    22123134.365    22123133.666   -14525076.963 5 -11318233.940 5
        32.100          30.200
  23356578.996    23356578.346    23356576.642    -7932992.217 4  -6181550.860 3
        24.900          22.600
  22617223.728    22617223.083    22617220.769   -14495225.511 4 -11294972.258 4
        29.900          26.200
  24859664.853    24859662.714    24859663.081    -1151481.528 1   -897257.846 2
        11.000          15.100
  25023001.359    25023001.058    25022996.926     -486279.982 2   -378918.614 1
        12.600          11.000
  24744083.999    24744083.842    24744080.760    -1745055.346 2  -1359782.416 3
        16.100          19.300
  20611833.527    20611833.032    20611831.559   -23543367.638 6 -18345474.701 7
        39.800          45.700
  24174342.753    24174341.761    24174339.330    -4156581.262 3  -3238891.991 3
        22.100          19.900
  20632524.555    20632524.272    20632521.119   -23755570.309 6 -18510824.061 7
        41.900          44.800
 09  1 23  1 15 30.0000000  0 10G 9G 5G11G18G32G12G31G14G19G22
  22136532.570    22136532.030    22136531.132   -14454671.639 5 -11263372.650 5
        32.000          30.100
  24922129.866    24922129.593    24922131.638    -1014519.132 1   -790534.282 2
         6.500          13.900
  23344205.728    23344205.195    23344203.634    -7998012.113 4  -6232215.700 3
        24.900          22.100
  22633647.125    22633646.293    22633644.219   -14408920.478 5 -11227721.588 4
        30.100          26.200
  24841448.031    24841449.437    24841450.535    -1247188.466 1   -971834.664 2
         9.000          13.900
  25007751.025    25007750.717    25007748.565     -566415.645 1   -441362.064 2
         9.000          13.900
  24721994.353    24721994.356    24721993.388    -1861130.424 2  -1450230.460 3
        15.100          22.600
  20605289.410    20605288.888    20605287.424   -23577757.528 6 -18372272.015 7
        39.800          45.800
  24188954.793    24188953.257    24188951.693    -4079792.472 3  -3179056.597 3
        21.100          19.900
  20640181.682    20640181.358    20640178.156   -23715332.785 7 -18479470.145 7
        42.000          44.800
 09  1 23  1 16  0.0000000  0 10G 9G 5G11G18G32G12G31G14G19G22
  22150040.327    22150039.968    22150039.265   -14383686.533 5 -11208059.583 5
        31.800          30.100
  24904816.350    24904815.105    24904815.979    -1105506.893 1   -861433.819 1
         6.500          11.000
  23331919.402    23331918.963    23331917.197    -8062577.076 4  -6282526.065 3
        25.600          22.100
  22650116.551    22650116.025    22650114.216   -14322371.001 4 -11160280.451 4
        29.700          26.500
  24823245.048    24823244.053    24823245.703    -1342854.980 1  -1046379.968 2
         9.000          12.600
  24992553.755    24992553.678    24992552.729     -646285.280 1   -503598.083 3
        11.000          20.500
  24699913.057    24699914.928    24699911.804    -1977161.200 1  -1540643.981 3
        11.000          19.300
  20598830.164    20598829.610    20598828.103   -23611701.432 6 -18398721.805 7
        39.800          45.900
  24203627.098    24203625.418    24203623.641    -4002692.775 3  -3118978.921 3
        21.100          20.500
  20647913.868    20647913.576    20647910.472   -23674699.266 6 -18447807.663 7
        41.900          44.800
 09  1 23  1 16 30.0000000  0 10G 5G 9G11G18G32G12G31G14G19G22
  24887545.632    24887544.391    24887544.353    -1196266.879 1   -932155.829 2
         6.500          12.600
  22163660.157    22163659.754    22163658.990   -14312115.011 5 -11152289.563 5
        31.800          30.200
  23319721.927    23319721.714    23319719.626    -8126676.259 4  -6332473.472 3
        25.600          23.400
  22666634.292    22666633.929    22666632.193   -14235568.887 4 -11092642.451 4
        29.500          26.800
  24805051.604    24805050.972    24805049.415    -1438470.965 1  -1120885.870 1
        11.000          11.000
  24977406.040    24977406.491    24977405.741     -725876.501 1   -565617.153 3
        11.000          19.300
  24677844.175    24677844.395    24677843.553    -2093136.026 1  -1631013.930 3
        11.000          20.500
  20592457.445    20592456.884    20592455.489   -23645189.938 6 -18424816.742 7
        39.700          46.000
  24218358.723    24218357.272    24218355.553    -3925276.093 3  -3058654.236 3
        21.600          21.100
  20655723.320    20655722.995    20655719.681   -23633661.128 7 -18415829.894 7
        42.000          44.600
 09  1 23  1 17  0.0000000  0 10G 5G 9G11G18G32G12G31G14G19G22
  24870315.010    24870314.034    24870315.410    -1286811.475    -1002710.021 2
         3.000          15.100
  22177387.990    22177387.520    22177386.804   -14239975.374 5 -11096076.865 5
        31.800          30.600
  23307609.964    23307609.898    23307607.932    -8190323.168 4  -6382068.450 3
        26.200          23.800
  22683196.919    22683196.391    22683195.027   -14148531.374 4 -11024821.032 4
        29.200          26.200
  24786862.887    24786861.776    24786860.783    -1534051.253 1  -1195363.922 1
        11.000          11.000
  24962312.897    24962312.619    24962310.115     -805202.267 2   -627429.372 3
        16.100          19.300
  24655782.706    24655783.470    24655781.523    -2209068.117 1  -1721350.605 2
         9.000          17.000
  20586168.467    20586167.964    20586166.625   -23678238.362 6 -18450568.756 7
        39.600          46.100
  24233147.531    24233145.443    24233144.650    -3847560.810 3  -2998096.890 3
        21.600          21.600
  20663606.370    20663606.043    20663602.887   -23592234.695 6 -18383549.555 7
        41.900          44.600
 09  1 23  1 17 30.0000000  0 10G 9G 5G11G18G32G12G31G14G19G22
  22191226.929    22191226.331    22191225.779   -14167250.976 5 -11039408.495 5
        31.300          30.200
  24853131.276    24853130.852    24853130.757    -1377118.240 1  -1073078.849 2
         9.000          17.000
  23295588.360    23295588.319    23295586.638    -8253496.400 4  -6431294.337 3
        26.500          23.800
  22699808.246    22699807.511    22699806.008   -14061239.696 4 -10956801.560 4
        29.000          25.900
  24768683.974    24768682.737    24768684.054    -1629575.323 1  -1269798.234 2
         6.500          12.600
  24947272.245    24947272.117    24947270.050     -884240.296 2   -689017.458 2
        17.000          17.800
  24633733.636    24633734.053    24633732.608    -2324935.616 1  -1811636.935 2
         6.500          17.000
  20579967.110    20579966.665    20579965.130   -23710827.202 6 -18475962.651 7
        39.600          46.200
  24247996.055    24247994.421    24247992.788    -3769530.478 3  -2937294.027 3
        21.600          20.500
  20671567.200    20671566.824    20671563.542   -23550400.963 6 -18350951.845 7
        41.900          44.400
 09  1 23  1 18  0.0000000  0 10G 9G 5G11G18G32G12G31G14G19G22
  22205173.784    22205173.524    22205173.081   -14093957.455 5 -10982296.660 4
        30.600          29.900
  24835990.958    24835989.495    24835989.287    -1467196.271 2  -1143269.468 2
        12.600          16.100
  23283655.198    23283654.755    23283653.649    -8316206.742 4  -6480159.534 4
        26.500          24.200
  22716464.745    22716464.304    22716462.905   -13973707.476 4 -10888594.644 4
        28.600          25.900
  24750514.327    24750513.619    24750515.608    -1725054.820 1  -1344197.804 2
         6.500          15.100
  24932284.122    24932283.807    24932281.707     -963000.111 2   -750388.766 2
        16.100          16.100
  24611697.715    24611696.265    24611695.012    -2440748.582 1  -1901880.818 2
         6.500          17.800
  20573850.694    20573850.180    20573848.829   -23742968.616 6 -18501007.907 7
        39.400          46.400
  24262901.628    24262899.853    24262898.130    -3691200.401 3  -2876257.635 3
        21.100          18.600
  20679602.857    20679602.538    20679599.274   -23508172.964 6 -18318046.907 7
        41.900          44.300
 09  1 23  1 18 30.0000000  0 10G 9G 5G11G18G32G12G31G14G19G22
  22219228.791    22219228.178    22219227.027   -14020101.906 5 -10924746.882 4
        31.300          29.700
  24818891.380    24818890.261    24818890.207    -1557046.901 1  -1213282.922 2
        11.000          15.100
  23271808.842    23271808.848    23271807.476    -8378456.539 4  -6528665.865 3
        26.200          23.800
  22733166.484    22733165.794    22733164.253   -13885940.345 4 -10820204.687 4
        28.600          25.900
  24732354.825    24732353.189    24732354.318    -1820493.254 1  -1418565.368 2
         9.000          16.100
  24917350.560    24917349.967    24917347.100    -1041483.061 2   -811544.267 2
        13.900          17.000
  24589668.567    24589668.520    24589666.279    -2556508.768 1  -1992083.545 2
         9.000          17.000
  20567818.624    20567818.164    20567816.815   -23774667.013 6 -18525707.952 7
        39.300          46.400
  24277863.668    24277862.055    24277859.837    -3612577.991 3  -2814993.408 3
        21.100          18.600
  20687712.718    20687712.396    20687709.113   -23465555.793 6 -18284838.723 7
        41.900          44.400
 09  1 23  1 19  0.0000000  0 10G 9G 5G11G18G32G12G31G14G19G22
  22233390.481    22233390.150    22233389.278   -13945679.467 5 -10866755.367 4
        31.300          29.900
  24801838.651    24801839.182    24801838.041    -1646659.487 1  -1283110.896 2
         6.500          15.100
  23260053.050    23260052.879    23260051.116    -8440236.280 4  -6576805.924 4
        25.900          24.200
  22749914.205    22749913.563    22749911.570   -13797932.034 4 -10751626.791 4
        29.200          25.600
  24714202.965    24714201.894    24714201.608    -1915882.058 1  -1492894.293 2
        11.000          17.000
  24902466.488    24902466.877    24902468.159    -1119678.832 1   -872475.976 2
         9.000          17.800
  24567651.806    24567652.083    24567649.677    -2672206.403 1  -2082237.541 2
        11.000          17.800
  20561872.528    20561872.025    20561870.610   -23805914.625 6 -18550056.735 7
        39.300          46.500
  24292880.912    24292879.040    24292878.122    -3533658.611 3  -2753497.800 3
        20.500          19.300
  20695897.900    20695897.589    20695894.467   -23422541.795 6 -18251321.321 7
        41.900          44.300
 09  1 23  1 19 30.0000000  0 10G 9G 5G11G18G32G12G31G14G19G22
  22247660.195    22247659.696    22247659.003   -13870691.669 5 -10808323.320 4
        31.500          29.700
  24784830.551    24784832.437    24784831.064    -1736029.323    -1352749.687 2
                        13.900
  23248386.473    23248386.473    23248384.843    -8501542.699 4  -6624577.137 3
        25.600          23.800
  22766707.481    22766706.822    22766705.158   -13709682.127 4 -10682860.634 4
        28.800          25.900
  24696060.982    24696059.692    24696059.492    -2011218.844 2  -1567182.676 2
        13.900          17.800
  24887643.869    24887644.060    24887643.402    -1197582.846 2   -933180.365 3
        15.100          18.600
  24545648.023    24545647.968    24545645.877    -2787837.462 2  -2172339.647 3
        13.900          18.600
  20556012.255    20556011.788    20556010.579   -23836709.706 6 -18574052.899 7
        39.300          46.700
  24307955.488    24307953.748    24307951.744    -3454443.899 3  -2691772.067 3
        19.900          18.600
  20704158.921    20704158.588    20704155.359   -23379130.492 6 -18217494.333 7
        41.900          44.200
 09  1 23  1 20  0.0000000  0 10G 9G 5G11G18G32G12G31G14G19G22
  22262036.315    22262035.815    22262035.223   -13795144.997 5 -10749455.779 4
        31.100          29.500
  24767870.549    24767869.804    24767871.254    -1825156.601    -1422199.450 1
         3.000          11.000
  23236810.443    23236810.126    23236808.464    -8562377.434 4  -6671980.821 3
        25.600          23.800
  22783545.739    22783545.158    22783543.826   -13621195.248 4 -10613909.840 4
        28.100          25.900
  24677928.706    24677926.886    24677927.465    -2106506.154 2  -1641432.476 3
        13.900          18.600
  24872877.705    24872877.114    24872872.228    -1275195.416 2   -993657.675 3
        17.800          18.600
  24523657.183    24523657.149    24523654.439    -2903402.885 2  -2262390.583 3
        17.800          19.300
  20550237.777    20550237.215    20550235.966   -23867055.595 6 -18597699.043 7
        39.200          46.800
  24323084.425    24323083.039    24323080.909    -3374939.996 3  -2629820.979 3
        19.300          18.600
  20712494.670    20712494.319    20712491.097   -23335325.811 6 -18183360.818 7
        41.900          44.100
 09  1 23  1 20 30.0000000  0 10G 9G 5G11G18G32G12G31G14G19G22
  22276518.508    22276518.182    22276517.556   -13719039.085 5 -10690152.456 4
        31.000          29.700
  24750959.374    24750958.882    24750956.035    -1914034.855 1  -1491455.173 1
        11.000          11.000
  23225325.100    23225324.549    23225322.934    -8622735.445 4  -6719013.028 4
        25.600          24.600
  22800430.274    22800429.467    22800427.522   -13532469.192 4 -10544772.673 4
        28.400          24.900
  24659805.086    24659804.233    24659805.793    -2201739.582 2  -1715640.312 3
        13.900          19.300
  24858161.124    24858160.989    24858159.013    -1352510.484 1  -1053903.130 2
        11.000          17.800
  24501679.186    24501678.937    24501676.833    -3018896.961 3  -2352385.940 3
        19.300          18.600
  20544549.252    20544548.712    20544547.333   -23896948.941 6 -18620992.556 7
        39.300          46.900
  24338268.376    24338266.950    24338264.985    -3295146.693 3  -2567644.382 3
        19.300          19.300
  20720905.655    20720905.384    20720902.143   -23291124.954 6 -18148918.593 7
        41.900          44.000
 09  1 23  1 21  0.0000000  0 10G 9G 5G11G18G32G12G31G14G19G22
  22291106.801    22291106.470    22291105.870   -13642377.042 5 -10630415.805 4
        30.600          29.700
  24734093.866    24734093.230    24734094.418    -2002661.199 1  -1560514.658 2
         9.000          12.600
  23213930.343    23213929.767    23213928.206    -8682614.753 4  -6765672.229 4
        25.300          24.600
  22817359.307    22817358.852    22817356.618   -13443505.383 4 -10475450.231 4
        28.800          24.900
  24641691.933    24641691.877    24641693.912    -2296918.586 2  -1789805.741 3
        12.600          20.500
  24843505.656    24843505.029    24843506.721    -1429525.600 1  -1113914.884 3
         6.500          18.600
  24479715.232    24479715.462    24479713.138    -3134317.477 3  -2442323.982 2
        19.900          17.800
  20538946.813    20538946.312    20538945.100   -23926389.817 6 -18643933.493 7
        39.300          46.900
  24353507.227    24353505.664    24353502.901    -3215067.322 3  -2505244.903 3
        19.900          19.300
  20729392.014    20729391.683    20729388.526   -23246529.021 6 -18114168.517 7
        41.800          43.800
 09  1 23  1 21 30.0000000  0 10G 9G 5G11G18G32G12G31G14G19G22
  22305800.490    22305799.864    22305799.316   -13565163.136 5 -10570249.129 4
        30.200          29.200
  24717277.782    24717277.275    24717275.807    -2091034.009 1  -1629376.554 2
         9.000          12.600
  23202626.034    23202625.723    23202624.247    -8742015.275 4  -6811958.345 4
        24.200          24.200
  22834333.657    22834332.784    22834330.806   -13354306.623 4 -10405944.704 4
        28.100          24.900
  24623590.435    24623590.298    24623591.889    -2392043.782 2  -1863929.258 3
        15.100          20.500
  24828910.016    24828909.583    24828906.945    -1506239.444 2  -1173691.884 3
        13.900          19.900
  24457765.019    24457765.768    24457763.870    -3249663.477 3  -2532203.988 2
        19.300          17.800
  20533430.184    20533429.609    20533428.192   -23955379.844 6 -18666523.121 7
        39.200          46.800
  24368799.743    24368798.433    24368796.179    -3134706.106 3  -2442625.776 3
        21.100          21.100
  20737953.151    20737952.821    20737949.556   -23201540.327 6 -18079112.390 7
        41.800          43.700
 09  1 23  1 22  0.0000000  0 10G 9G 5G11G18G32G12G31G14G19G22
  22320598.215    22320597.574    22320596.609   -13487401.856 5 -10509655.917 4
        30.400          29.000
  24700508.641    24700507.271    24700506.516    -2179151.492 1  -1698039.489 1
         6.500          11.000
  23191413.963    23191413.466    23191412.085    -8800936.742 4  -6857871.167 4
        24.600          24.600
  22851351.661    22851350.968    22851349.115   -13264875.315 4 -10336257.987 4
        27.600          24.900
  24605499.719    24605499.329    24605499.887    -2487115.542 2  -1938011.126 3
        17.000          19.900
  24814368.301    24814367.595    24814365.452    -1582650.448 2  -1233232.853 3
        13.900          19.300
  24435829.901    24435830.439    24435828.488    -3364934.048 3  -2622025.217 3
        18.600          19.900
  20527999.142    20527998.577    20527997.694   -23983920.261 6 -18688762.401 7
        39.200          46.500
  24384143.101    24384142.552    24384141.801    -3054067.437 3  -2379790.460 3
        19.900          21.100
  20746588.718    20746588.388    20746585.144   -23156160.047 6 -18043751.134 7
        41.800          43.600
 09  1 23  1 22 30.0000000  0 10G 9G 5G11G18G32G12G31G14G19G22
  22335497.249    22335496.893    22335496.233   -13409103.223 5 -10448644.000 4
        30.200          28.600
  24683787.183    24683786.385    24683787.927    -2267017.465 1  -1766506.449 2
         9.000          16.100
  23180291.902    23180291.701    23180289.873    -8859383.814 4  -6903414.321 4
        25.600          24.600
  22868412.455    22868411.831    22868409.853   -13175219.928 4 -10266396.650 4
        27.600          24.900
  24587417.780    24587417.300    24587417.118    -2582139.948 3  -2012056.077 3
        18.600          19.300
  24799885.635    24799885.088    24799884.915    -1658762.430 2  -1292540.922 3
        16.100          22.100
  24413908.019    24413908.115    24413906.783    -3480133.436 3  -2711790.913 3
        18.600          21.600
  20522652.332    20522651.770    20522650.232   -24012018.077 6 -18710656.800 7
        39.100          46.500
  24399539.712    24399538.369    24399536.727    -2973161.433 3  -2316746.831 3
        21.100          21.100
  20755297.229    20755296.931    20755293.738   -23110396.341 6 -18008091.102 7
        41.800          43.600
 09  1 23  1 23  0.0000000  0 10G 9G 5G11G18G32G12G31G14G19G22
  22350501.791    22350501.172    22350500.267   -13330256.332 4 -10387204.853 4
        29.900          28.400
  24667120.169    24667119.611    24667118.928    -2354615.154 2  -1834764.304 2
        12.600          17.000
  23169263.553    23169263.157    23169261.272    -8917341.389 4  -6948576.062 4
        26.500          24.900
  22885518.016    22885517.428    22885515.592   -13085327.735 4 -10196350.793 4
        27.100          24.600
  24569348.145    24569347.433    24569345.738    -2677102.300 2  -2086052.663 3
        17.800          19.300
  24785462.785    24785462.311    24785460.256    -1734559.113 3  -1351603.253 3
        19.900          20.500
  24392002.812    24392002.909    24392001.302    -3595245.393 3  -2801488.508 3
        19.300          22.100
  20517392.382    20517391.919    20517390.828   -24039659.236 6 -18732195.363 7
        39.200          46.500
  24414990.345    24414988.537    24414986.021    -2891977.507 3  -2253486.647 3
        22.100          23.000
  20764081.257    20764080.929    20764077.642   -23064235.963 6 -17972121.976 7
        41.600          43.400
 09  1 23  1 23 30.0000000  0 10G 5G 9G11G18G32G12G31G14G19G22
  24650501.562    24650500.560    24650500.191    -2441942.517 2  -1902811.573 2
        13.900          15.100
  22365609.414    22365608.861    22365608.037   -13250865.679 4 -10325342.007 4
        29.700          28.400
  23158327.312    23158327.011    23158325.231    -8974809.094 4  -6993356.090 4
        26.200          24.600
  22902668.437    22902667.926    22902666.239   -12995201.073 4 -10126122.231 4
        27.100          24.600
  24551287.963    24551287.253    24551286.938    -2772002.873 2  -2160001.123 3
        17.800          19.900
  24771096.809    24771096.310    24771093.736    -1810038.804 2  -1410418.546 2
        16.100          17.800
  24370114.451    24370114.159    24370113.288    -3710268.848 2  -2891117.137 3
        17.800          22.600
  20512219.118    20512218.550    20512216.885   -24066845.188 6 -18753379.217 7
        39.200          46.400
  24430489.448    24430488.084    24430487.258    -2810519.692 3  -2190013.057 3
        21.600          23.400
  20772940.503    20772940.176    20772936.932   -23017680.594 6 -17935845.066 7
        41.600          43.400
 09  1 23  1 24  0.0000000  0 10G 5G 9G11G18G32G12G31G14G19G22
  24633933.547    24633933.549    24633933.383    -2529003.460 2  -1970651.268 2
        12.600          15.100
  22380818.191    22380817.808    22380817.135   -13170941.241 4 -10263063.235 4
        29.900          28.800
  23147483.789    23147483.419    23147481.660    -9031791.767 4  -7037758.174 4
        26.200          24.900
  22919862.427    22919861.721    22919859.958   -12904848.112 4 -10055717.334 4
        27.100          24.900
  24533238.825    24533238.417    24533239.182    -2866847.635 2  -2233906.080 3
        16.100          20.500
  24756794.231    24756793.940    24756792.441    -1885205.390 2  -1468989.903 3
        15.100          19.300
  24348241.232    24348241.538    24348241.281    -3825208.459 2  -2980680.419 3
        17.000          22.600
  20507131.070    20507130.601    20507129.620   -24093582.798 6 -18774213.714 7
        39.200          46.300
  24446041.065    24446039.711    24446037.831    -2728797.956 3  -2126333.798 3
        22.600          22.600
  20781873.438    20781873.047    20781869.767   -22970737.878 6 -17899266.325 7
        41.500          43.300
 09  1 23  1 24 30.0000000  0 10G 5G 9G11G18G32G12G31G14G19G22
  24617419.061    24617418.492    24617417.622    -2615790.181 2  -2038277.232 2
        12.600          13.900
  22396129.324    22396128.772    22396128.369   -13090481.214 4 -10200367.099 4
        29.900          28.800
  23136733.380    23136733.095    23136731.841    -9088283.096 4  -7081777.386 4
        26.200          24.600
  22937100.004    22937099.158    22937097.381   -12814265.260 4  -9985133.305 4
        26.800          24.600
  24515201.348    24515201.019    24515202.895    -2961631.009 2  -2307763.215 3
        17.000          21.600
  24742551.339    24742551.098    24742550.552    -1960051.542 2  -1527311.610 3
        15.100          21.600
  24326386.183    24326386.449    24326385.821    -3940057.034 2  -3070172.777 3
        17.000          22.600
  20502129.358    20502128.805    20502127.035   -24119867.358 6 -18794695.186 7
        39.200          46.400
  24461642.647    24461641.132    24461639.826    -2646810.499 3  -2062447.474 3
        22.600          23.000
  20790880.632    20790880.342    20790877.218   -22923404.029 6 -17862382.808 7
        41.400          43.300
 09  1 23  1 25  0.0000000  0 10G 5G 9G11G18G32G12G31G14G19G22
  24600956.985    24600956.625    24600955.979    -2702295.504 2  -2105683.980 2
        13.900          12.600
  22411542.051    22411541.796    22411541.402   -13009484.701 4 -10137252.938 4
        29.900          28.400
  23126078.226    23126078.168    23126075.904    -9144277.560 4  -7125409.428 4
        27.100          24.200
  22954381.553    22954380.645    22954378.987   -12723450.074 4  -9914368.237 4
        26.800          24.900
  24497178.463    24497177.525    24497178.188    -3056348.091 2  -2381568.717 3
        17.800          22.100
  24728371.216    24728371.195    24728368.868    -2034570.578 3  -1585378.371 3
        18.600          19.300
  24304550.092    24304551.014    24304548.908    -4054808.074 3  -3159589.153 3
        18.600          22.600
  20497214.387    20497213.888    20497213.003   -24145694.829 6 -18814820.484 7
        39.100          46.000
  24477294.510    24477293.316    24477291.990    -2564556.594 3  -1998353.549 3
        21.600          23.000
  20799962.896    20799962.638    20799959.518   -22875675.945 6 -17825192.098 7
        41.300          43.100
 09  1 23  1 25 30.0000000  0 10G 5G 9G11G18G32G12G31G14G19G22
  24584550.329    24584549.701    24584548.760    -2788518.652 2  -2172870.794 2
        15.100          15.100
  22427056.490    22427056.128    22427055.274   -12927956.974 5 -10073724.839 4
        30.100          27.600
  23115517.968    23115517.629    23115515.123    -9199775.731 4  -7168654.755 4
        28.100          24.600
  22971706.080    22971705.521    22971703.922   -12632406.022 4  -9843424.821 4
        25.900          24.200
  24479167.032    24479166.342    24479166.363    -3151000.118 2  -2455323.531 3
        17.800          22.100
  24714252.746    24714252.375    24714250.123    -2108761.738 2  -1643189.619 2
        17.000          17.000
  24282732.689    24282732.669    24282731.775    -4169461.449 3  -3248929.419 4
        19.900          24.200
  20492386.209    20492385.682    20492383.935   -24171067.442 6 -18834591.348 7
        39.200          46.100
  24492997.338    24492995.758    24492994.684    -2482041.530 3  -1934056.102 3
        21.100          23.000
  20809119.973    20809119.651    20809116.439   -22827556.000 6 -17787696.036 7
        41.400          43.100
 09  1 23  1 26  0.0000000  0 10G 5G 9G11G18G32G12G31G14G19G22
  24568195.150    24568194.039    24568194.254    -2874464.713 2  -2239841.724 2
        13.900          15.100
  22442670.069    22442669.600    22442668.387   -12845909.590 5 -10009791.801 4
        30.100          27.600
  23105049.948    23105049.792    23105047.391    -9254784.283 4  -7211518.554 4
        28.100          24.600
  22989073.210    22989072.286    22989070.764   -12541142.662 4  -9772310.522 3
        25.300          23.800
  24461166.390    24461165.198    24461166.255    -3245594.494 2  -2529033.414 3
        17.800          23.400
  24700194.784    24700194.406    24700194.131    -2182630.722 2  -1700749.872 2
        16.100          17.800
  24260933.060    24260932.353    24260931.598    -4284022.887 3  -3338198.036 3
        18.600          23.400
  20487642.924    20487642.399    20487641.496   -24195993.855 6 -18854014.522 7
        39.200          46.200
  24508746.817    24508745.230    24508743.931    -2399276.777 3  -1869564.089 3
        19.900          23.000
  20818349.737    20818349.404    20818346.096   -22779053.434 6 -17749901.828 7
        41.300          42.900
 09  1 23  1 26 30.0000000  0 10G 5G 9G11G18G32G12G31G14G19G22
  24551893.077    24551892.574    24551892.578    -2960129.128 2  -2306593.164 2
        12.600          15.100
  22458381.251    22458381.086    22458380.385   -12763344.069 4  -9945455.028 4
        29.500          28.100
  23094675.509    23094675.566    23094673.616    -9309299.908 4  -7253998.256 4
        28.100          25.300
  23006481.590    23006480.834    23006479.407   -12449659.729 4  -9701025.136 3
        24.600          23.800
  24443177.536    24443176.479    24443176.999    -3340128.688 2  -2602696.396 3
        17.800          23.000
  24686202.654    24686202.369    24686199.422    -2256173.209 3  -1758055.736 3
        20.500          19.300
  24239151.076    24239150.636    24239149.047    -4398488.513 3  -3427392.008 3
        19.300          22.600
  20482984.626    20482984.189    20482982.411   -24220472.483 6 -18873088.776 7
        39.100          45.900
  24524544.301    24524542.409    24524540.254    -2316263.652 3  -1804878.531 3
        18.600          21.600
  20827652.319    20827651.996    20827648.826   -22730167.300 6 -17711808.736 7
        41.200          42.800
 09  1 23  1 27  0.0000000  0 10G 5G 9G11G18G32G12G31G14G19G22
  24535647.564    24535646.215    24535645.635    -3045502.819 1  -2373118.092 2
        11.000          15.100
  22474192.459    22474191.995    22474191.251   -12680257.394 4  -9880712.171 4
        29.700          27.900
  23084397.099    23084396.873    23084394.930    -9363314.781 4  -7296087.761 4
        28.400          24.900
  23023933.287    23023932.515    23023930.937   -12357952.415 4  -9629564.902 3
        25.900          23.400
  24425201.099    24425200.036    24425200.370    -3434595.843 3  -2676307.157 3
        18.600          23.000
  24672269.869    24672269.649    24672269.350    -2329380.156 3  -1815100.045 3
        18.600          21.100
  24217389.388    24217388.910    24217386.647    -4512850.104 3  -3516504.932 3
        20.500          22.600
  20478412.982    20478412.462    20478411.483   -24244497.186 6 -18891809.319 7
        39.100          46.000
  24540389.121    24540387.652    24540385.621    -2232999.093 3  -1739997.051 3
        19.300          21.600
  20837029.059    20837028.729    20837025.654   -22680892.348 6 -17673412.674 7
        41.200          42.900
 09  1 23  1 27 30.0000000  0 10G 5G 9G11G18G32G12G31G14G19G22
  24519455.347    24519455.485    24519456.052    -3130584.929 1  -2439415.788 2
        11.000          17.000
  22490101.262    22490100.952    22490100.181   -12596655.104 4  -9815567.524 4
        29.200          27.600
  23074213.564    23074213.270    23074211.230    -9416829.855 4  -7337787.823 4
        28.600          24.900
  23041426.636    23041426.025    23041424.468   -12266023.942 4  -9557932.336 3
        26.200          23.000
  24407235.975    24407235.408    24407236.365    -3528997.137 3  -2749866.578 3
        18.600          23.400
  24658404.511    24658403.973    24658402.114    -2402251.179 3  -1871882.616 3
        18.600          21.600
  24195646.446    24195646.487    24195644.358    -4627107.411 3  -3605536.604 3
        20.500          23.000
  20473927.345    20473926.736    20473924.840   -24268070.279 6 -18910177.961 7
        39.100          46.300
  24556279.998    24556279.008    24556277.092    -2149488.557 3  -1674923.926 3
        19.900          21.100
  20846479.238    20846478.934    20846475.709   -22631231.445 6 -17634715.869 7
        41.200          42.700
 09  1 23  1 28  0.0000000  0 10G 5G 9G11G18G32G12G31G14G19G22
  24503323.287    24503322.560    24503322.021    -3215370.101 2  -2505482.123 2
        16.100          17.000
  22506107.909    22506107.338    22506107.017   -12512537.925 4  -9750021.671 4
        28.600          27.600
  23064125.983    23064125.627    23064123.452    -9469841.039 4  -7379095.245 4
        28.600          25.300
  23058962.167    23058961.419    23058959.973   -12173873.731 4  -9486126.996 3
        25.600          23.400
  24389285.119    24389284.631    24389285.939    -3623329.435 3  -2823372.222 3
        18.600          23.400
  24644602.001    24644601.254    24644599.250    -2474781.129 3  -1928399.522 3
        19.300          19.300
  24173925.086    24173925.039    24173922.820    -4741255.604 3  -3694483.239 3
        20.500          23.400
  20469527.851    20469527.300    20469526.276   -24291189.645 6 -18928193.046 7
        39.200          46.400
  24572217.666    24572216.274    24572214.647    -2065732.930 2  -1609659.819 3
        17.800          19.300
  20856003.029    20856002.734    20855999.560   -22581183.330 6 -17595717.338 7
        41.200          42.600
 09  1 23  1 28 30.0000000  0 10G 5G 9G11G18G32G12G31G14G19G22
  24487247.154    24487246.398    24487244.731    -3299852.433 2  -2571312.490 2
        17.000          15.100
  22522213.452    22522212.856    22522212.153   -12427906.419 4  -9684075.042 4
        29.000          28.400
  23054134.777    23054134.568    23054132.804    -9522344.133 4  -7420006.731 4
        27.600          24.900
  23076540.618    23076539.868    23076537.936   -12081499.999 4  -9414147.477 3
        25.900          23.400
  24371348.858    24371348.081    24371348.216    -3717589.071 3  -2896821.246 3
        19.900          22.100
  24630866.061    24630865.837    24630862.366    -2546964.694 3  -1984646.448 3
        18.600          19.300
  24152225.610    24152225.138    24152223.011    -4855289.446 3  -3783340.761 4
        21.100          24.200
  20465215.071    20465214.583    20465212.623   -24313852.873 6 -18945852.703 7
        39.200          46.100
  24588204.083    24588202.596    24588199.903    -1981732.385 3  -1544204.872 3
        19.300          20.500
  20865600.954    20865600.677    20865597.582   -22530745.676 6 -17556415.275 7
        41.100          42.600
 09  1 23  1 29  0.0000000  0 10G 5G 9G11G18G32G12G31G14G19G22
  24471226.798    24471226.133    24471226.104    -3384031.805 2  -2636906.800 2
        15.100          16.100
  22538414.544    22538414.107    22538413.509   -12342766.452 4  -9617732.218 4
        28.800          27.900
  23044240.055    23044239.819    23044238.450    -9574340.557 4  -7460523.423 4
        27.600          25.300
  23094160.378    23094159.748    23094158.264   -11988907.032 4  -9341997.123 3
        25.300          23.400
  24353424.625    24353424.090    24353424.111    -3811777.854 3  -2970215.066 3
        19.300          20.500
  24617193.709    24617194.099    24617193.245    -2618802.146 2  -2040623.631 3
        12.600          19.900
  24130547.263    24130547.205    24130544.988    -4969209.403 3  -3872109.540 3
        22.100          23.800
  20460988.695    20460988.162    20460987.215   -24336062.806 6 -18963159.139 7
        39.200          46.000
  24604233.770    24604231.995    24604230.508    -1897493.020 2  -1478563.787 3
        17.800          21.100
  20875272.363    20875272.056    20875268.995   -22479922.364 6 -17516812.692 7
        41.100          42.600
 09  1 23  1 29 30.0000000  0 10G 5G 9G11G18G32G12G31G14G19G22
  24455266.310    24455265.670    24455265.381    -3467909.869 2  -2702266.286 2
        12.600          17.800
  22554711.266    22554710.931    22554710.217   -12257126.234 4  -9550999.579 4
        28.800          27.100
  23034441.570    23034440.963    23034439.480    -9625833.253 4  -7500647.597 4
        27.400          25.600
  23111820.510    23111819.935    23111818.841   -11896100.871 4  -9269680.655 3
        24.900          23.400
  24335514.388    24335513.502    24335512.663    -3905899.551 2  -3043556.625 3
        17.800          18.600
  24603591.278    24603590.431    24603588.676    -2690295.185 2  -2096332.488 3
        17.000          20.500
  24108889.972    24108890.023    24108887.537    -5083017.916 3  -3960791.503 3
        22.600          23.400
  20456847.722    20456847.202    20456845.168   -24357824.041 6 -18980115.944 7
        39.200          46.100
  24620307.432    24620306.643    24620305.029    -1813022.353 2  -1412742.508 3
        17.000          21.600
  20885016.149    20885015.804    20885012.742   -22428718.579 6 -17476913.642 7
        41.100          42.500
 09  1 23  1 30  0.0000000  0 10G 5G 9G11G18G32G12G31G14G19G22
  24439362.068    24439361.185    24439362.481    -3551480.409 2  -2767386.130 2
        12.600          17.800
  22571103.572    22571103.200    22571102.158   -12170985.809 4  -9483877.168 4
        28.800          27.100
  23024738.987    23024738.685    23024737.383    -9676817.513 4  -7540375.579 4
        27.400          25.300
  23129521.916    23129521.322    23129519.903   -11803079.416 4  -9197196.416 3
        24.600          23.000
  24317617.174    24317615.427    24317615.698    -3999950.168 2  -3116842.794 2
        16.100          17.000
  24590053.168    24590053.239    24590050.294    -2761437.855 3  -2151768.322 3
        19.300          21.100
  24087255.953    24087255.388    24087252.923    -5196709.358 3  -4049382.211 3
        21.600          23.800
  20452792.616    20452792.026    20452791.162   -24379133.951 6 -18996721.064 7
        39.100          46.100
  24636425.570    24636424.566    24636422.990    -1728320.712 2  -1346741.237 3
        16.100          21.600
  20894832.723    20894832.423    20894829.300   -22377132.200 6 -17436716.466 7
        41.100          42.400
 09  1 23  1 30 30.0000000  0 10G 5G 9G11G18G32G12G31G14G19G22
  24423519.130    24423518.671    24423518.334    -3634740.965 2  -2832264.451 2
        12.600          16.100
  22587589.641    22587589.509    22587588.777   -12084348.612 4  -9416367.659 4
        28.400          27.100
  23015133.837    23015133.901    23015132.268    -9727292.689 4  -7579706.888 4
        27.600          25.300
  23147264.188    23147263.106    23147261.652   -11709844.670 3  -9124545.980 3
        23.800          22.100
  24299733.233    24299732.364    24299732.026    -4093929.121 2  -3190073.148 2
        17.000          17.000
  24576580.846    24576581.222    24576580.396    -2832228.334 2  -2206929.669 3
        17.800          22.100
  24065642.679    24065643.052    24065640.633    -5310281.725 3  -4137880.147 3
        21.100          23.000
  20448823.194    20448822.650    20448820.677   -24399993.125 6 -19012974.964 7
        39.200          46.100
  24652587.060    24652585.661    24652584.188    -1643391.451 2  -1280562.596 3
        15.100          21.600
  20904721.775    20904721.496    20904718.318   -22325164.560 6 -17396222.200 7
        41.100          42.200
 09  1 23  1 31  0.0000000  0 10G 5G 9G11G18G32G12G31G14G19G22
  24407735.904    24407734.278    24407733.147    -3717685.922 1  -2896896.907 2
        11.000          13.900
  22604170.961    22604170.372    22604169.513   -11997215.476 4  -9348471.705 4
        27.400          26.800
  23005626.736    23005626.442    23005624.634    -9777254.729 4  -7618638.333 4
        27.600          24.600
  23165047.026    23165046.273    23165044.462   -11616395.652 3  -9051728.587 3
        23.800          21.600
  24281864.343    24281863.349    24281862.249    -4187833.154 2  -3263245.108 2
        17.000          17.000
  24563179.355    24563178.909    24563176.814    -2902661.191 3  -2261812.408 3
        18.600          19.900
  24044053.910    24044054.154    24044051.920    -5423730.163 3  -4226281.500 3
        21.600          23.000
  20444940.043    20444939.516    20444938.540   -24420399.157 6 -19028875.765 7
        39.100          46.000
  24668791.848    24668790.020    24668789.136    -1558235.273 2  -1214207.128 3
        16.100          21.100
  20914683.866    20914683.526    20914680.357   -22272813.704 6 -17355429.325 7
        41.000          42.100
 09  1 23  1 31 30.0000000  0 10G 5G 9G11G18G32G12G31G14G19G22
  24392010.474    24392008.811    24392010.898    -3800313.384 1  -2961281.926 2
         6.500          16.100
  22620845.513    22620844.885    22620844.130   -11909590.775 4  -9280192.720 4
        27.600          27.600
  22996217.056    22996216.890    22996214.586    -9826703.160 4  -7657169.575 4
        28.400          24.600
  23182870.220    23182869.486    23182867.523   -11522734.502 4  -8978745.887 3
        24.600          21.100
  24264008.453    24264007.713    24264006.945    -4281662.357 3  -3336358.727 2
        18.600          17.000
  24549843.213    24549842.957    24549840.273    -2972734.863 2  -2316415.252 2
        17.800          17.800
  24022489.132    24022489.246    24022487.391    -5537053.557 3  -4314585.424 3
        22.100          23.800
  20441142.852    20441142.334    20441140.346   -24440353.361 6 -19044424.494 7
        39.100          45.800
  24685038.489    24685037.144    24685036.645    -1472856.324 2  -1147678.111 3
        16.100          20.500
  20924718.539    20924718.254    20924715.027   -22220081.061 6 -17314338.956 7
        41.000          42.100
 09  1 23  1 32  0.0000000  0 10G 5G 9G11G18G32G12G31G14G19G22
  24376348.797    24376347.552    24376348.433    -3882619.369 1  -3025416.413 2
        11.000          16.100
  22637612.929    22637612.391    22637611.721   -11821476.859 4  -9211532.532 4
        27.900          27.600
  22986905.913    22986905.559    22986903.361    -9875635.644 4  -7695298.786 4
        28.600          25.300
  23200733.866    23200732.789    23200730.775   -11428861.328 4  -8905597.970 3
        24.200          21.100
  24246168.741    24246168.040    24246167.514    -4375414.578 3  -3409412.380 3
        18.600          18.600
  24536578.187    24536578.404    24536576.025    -3042446.185 2  -2370735.743 3
        17.000          20.500
  24000948.703    24000948.534    24000946.789    -5650248.442 3  -4402789.203 3
        22.100          23.400
  20437431.838    20437431.301    20437430.395   -24459854.893 6 -19059620.488 7
        39.000          45.700
  24701328.295    24701327.136    24701325.277    -1387256.703 2  -1080977.162 3
        17.000          19.900
  20934825.674    20934825.372    20934822.273   -22166967.584 6 -17272951.834 7
        41.100          42.100
 09  1 23  1 32 30.0000000  0 10G 5G 9G11G18G32G12G31G14G19G22
  24360747.936    24360747.547    24360746.906    -3964605.492 2  -3089301.666 2
        13.900          17.000
  22654472.157    22654471.355    22654470.992   -11732881.550 4  -9142497.233 4
        27.600          27.400
  22977691.777    22977691.479    22977689.635    -9924055.188 4  -7733028.294 4
        28.400          25.600
  23218635.970    23218635.057    23218633.495   -11334782.549 3  -8832289.850 3
        23.400          20.500
  24228341.898    24228340.966    24228341.094    -4469093.758 3  -3482409.110 3
        19.300          18.600
  24523382.146    24523381.498    24523380.951    -3111796.285 2  -2424774.760 3
        16.100          23.000
  23979432.401    23979432.371    23979430.777    -5763316.829 3  -4490894.411 3
        22.100          23.400
  20433806.026    20433805.501    20433803.388   -24478908.912 6 -19074467.774 7
        39.000          45.800
  24717657.072    24717654.544    24717654.505    -1301444.393 2  -1014110.455 2
        16.100          17.800
  20945004.345    20945004.094    20945000.971   -22113478.193 6 -17231271.791 7
        41.100          42.000
 09  1 23  1 33  0.0000000  0 10G 5G 9G11G18G32G12G31G14G19G22
  24345209.579    24345207.900    24345208.921    -4046260.448 2  -3152928.863 2
        13.900          17.800
  22671422.840    22671422.760    22671422.360   -11643799.955 4  -9073083.002 4
        27.600          26.800
  22968577.016    22968576.824    22968575.056    -9971952.258 4  -7770350.685 4
        28.800          25.600
  23236578.852    23236578.461    23236576.294   -11240491.361 3  -8758816.216 3
        23.000          21.100
  24210531.258    24210529.833    24210530.260    -4562690.491 3  -3555341.612 3
        20.500          19.900
  24510254.084    24510253.782    24510253.393    -3180774.769 2  -2478524.189 3
        13.900          21.600
  23957941.540    23957941.672    23957941.222    -5876248.310 3  -4578892.924 4
        22.100          24.900
  20430266.958    20430266.416    20430265.304   -24497507.162 6 -19088959.914 7
        39.100          45.800
  24734029.512    24734027.976    24734025.450    -1215414.054 2   -947073.817 2
        15.100          16.100
  20955256.019    20955255.774    20955252.581   -22059605.295 6 -17189292.909 6
        41.100          41.900
 09  1 23  1 33 30.0000000  0 10G 5G 9G11G18G32G12G31G14G19G22
  24329733.720    24329732.984    24329733.223    -4127584.026 2  -3216297.834 2
        13.900          16.100
  22688467.154    22688466.555    22688465.345   -11554238.272 4  -9003294.675 4
        28.400          26.200
  22959562.021    22959561.624    22959559.465   -10019328.490 4  -7807267.215 4
        28.800          25.600
  23254562.374    23254561.450    23254559.344   -11145991.407 3  -8685179.922 3
        23.800          21.600
  24192734.716    24192734.423    24192735.210    -4656206.652 3  -3628211.317 3
        21.100          21.600
  24497200.481    24497200.284    24497197.814    -3249381.696 2  -2531984.072 3
        16.100          20.500
  23936477.549    23936477.739    23936476.314    -5989043.099 3  -4666784.936 3
        23.000          23.800
  20426814.070    20426813.500    20426811.360   -24515652.470 6 -19103099.113 7
        39.000          45.900
  24750441.970    24750439.498    24750436.721    -1129171.782 2   -879872.082 2
        16.100          15.100
  20965580.000    20965579.744    20965576.502   -22005352.973 6 -17147018.375 6
        41.100          41.800
 09  1 23  1 34  0.0000000  0 10G 5G 9G11G18G32G12G31G14G19G22
  24314320.973    24314320.399    24314319.607    -4208580.536 2  -3279411.971 2
        13.900          15.100
  22705599.197    22705598.819    22705597.574   -11464206.782 4  -8933140.259 4
        28.100          26.200
  22950644.339    22950644.003    22950642.216   -10066189.542 4  -7843782.325 4
        28.600          25.600
  23272583.081    23272582.381    23272580.127   -11051291.405 3  -8611387.727 3
        23.800          21.600
  24174953.728    24174953.235    24174953.729    -4749648.523 3  -3701023.145 3
        21.100          21.600
  24484214.395    24484214.606    24484211.933    -3317621.556 2  -2585157.997 3
        17.000          19.300
  23915037.871    23915038.824    23915037.613    -6101706.162 3  -4754574.306 3
        22.600          23.800
  20423445.686    20423445.190    20423444.187   -24533352.526 6 -19116891.360 7
        38.900          45.600
  24766889.531    24766888.265    24766886.378    -1042727.956 2   -812513.329 2
        16.100          17.800
  20975974.532    20975974.283    20975971.020   -21950729.020 6 -17104454.258 6
        41.000          41.700
 09  1 23  1 34 30.0000000  0 10G22G 5G 9G11G18G32G12G31G14G19
  20986440.646    20986440.297    20986437.087   -21895730.023 6 -17061597.899 6
        41.100          41.800
  24298970.692    24298969.827    24298970.370    -4289242.466 2  -3342265.420 2
        12.600          17.000
  22722821.436    22722820.902    22722820.106   -11373704.064 4  -8862618.663 4
        27.600          25.900
  22941826.127    22941825.850    22941824.123   -10112529.286 4  -7879891.219 4
        28.800          25.900
  23290641.974    23290641.543    23290639.819   -10956388.657 3  -8537437.550 3
        22.600          21.100
  24157187.203    24157186.501    24157187.428    -4843010.571 3  -3773772.761 3
        19.300          20.500
  24471298.723    24471297.670    24471297.812    -3385487.531 2  -2638040.589 3
        16.100          19.900
  23893625.401    23893626.048    23893625.287    -6214230.735 3  -4842255.771 4
        23.000          24.600
  20420163.106    20420162.521    20420160.444   -24550603.121 6 -19130333.381 7
        38.900          45.700
  24783377.454    24783375.814    24783376.405     -956080.754 2   -744996.032 3
        13.900          20.500
 09  1 23  1 35  0.0000000  0 10G22G 5G 9G11G18G32G12G31G14G19
  20996979.103    20996978.907    20996975.636   -21840349.018 6 -17018443.871 6
        40.900          41.600
  24283688.275    24283686.532    24283686.865    -4369559.348 2  -3404849.997 2
        16.100          16.100
  22740133.833    22740133.328    22740132.569   -11282726.227 4  -8791726.836 4
        27.400          25.900
  22933109.218    22933108.776    22933106.714   -10158339.293 4  -7915587.324 4
        29.200          26.200
  23308741.666    23308740.950    23308738.978   -10861276.140 3  -8463323.928 3
        22.600          21.100
  24139437.706    24139437.183    24139437.690    -4936284.461 3  -3846453.685 3
        19.300          19.300
  24458459.245    24458458.286    24458455.844    -3452969.475 3  -2690623.903 3
        19.300          19.900
  23872240.900    23872241.591    23872240.693    -6326606.840 3  -4929821.527 4
        22.600          24.600
  20416967.402    20416966.786    20416965.778   -24567397.104 6 -19143419.598 7
        38.900          45.700
  24799905.880    24799904.545    24799903.301     -869226.553 2   -677317.398 3
        13.900          19.900
 09  1 23  1 35 30.0000000  0 10G22G 5G 9G11G18G32G12G31G14G19
  21007589.611    21007589.344    21007586.167   -21784590.534 6 -16974995.704 6
        40.900          41.600
  24268469.598    24268468.586    24268467.912    -4449531.625 2  -3467166.071 2
        17.800          15.100
  22757535.425    22757534.913    22757534.523   -11191279.776 4  -8720469.872 4
        26.800          26.500
  22924492.076    22924491.685    22924489.785   -10203621.406 4  -7950872.088 4
        29.000          26.200
  23326880.246    23326879.343    23326877.310   -10765959.137 3  -8389050.966 3
        23.000          21.100
  24121705.086    24121704.293    24121704.018    -5029472.571 3  -3919067.776 2
        20.500          17.800
  24445689.098    24445689.007    24445687.730    -3520068.124 2  -2742908.542 3
        17.000          21.100
  23850885.140    23850885.138    23850883.934    -6438835.323 3  -5017272.264 4
        22.600          24.900
  20413857.790    20413857.268    20413855.048   -24583737.826 6 -19156152.627 7
        38.900          45.800
  24816470.731    24816469.457    24816469.640     -782171.232 1   -609482.062 2
        11.000          17.800
 09  1 23  1 36  0.0000000  0 10G22G 5G 9G11G18G32G12G31G14G19
  21018270.581    21018270.328    21018267.135   -21728461.614 6 -16931258.885 6
        40.700          41.400
  24253315.119    24253314.391    24253314.703    -4529162.699 2  -3529216.230 2
        16.100          15.100
  22775023.877    22775023.589    22775023.504   -11099374.559 4  -8648855.411 4
        26.200          26.800
  22915974.792    22915974.310    22915972.249   -10248380.861 4  -7985749.579 4
        29.700          26.200
  23345055.529    23345054.830    23345052.707   -10670445.551 3  -8314624.819 3
        22.600          21.600
  24103987.302    24103986.554    24103985.899    -5122580.235 3  -3991619.202 3
        22.100          18.600
  24432993.176    24432993.491    24432992.118    -3586787.144 2  -2794897.378 3
        17.800          22.600
  23829556.155    23829556.218    23829554.913    -6550920.197 3  -5104611.098 4
        23.400          25.300
  20410833.078    20410832.546    20410831.527   -24599632.354 6 -19168537.971 7
        38.800          45.500
  24833075.969    24833074.414    24833071.679     -694924.438 2   -541497.576 3
        13.900          19.900
 09  1 23  1 36 30.0000000  0 10G22G 5G 9G11G18G32G12G31G14G19
  21029022.205    21029021.915    21029018.803   -21671961.357 6 -16887232.717 6
        40.600          41.300
  24238229.310    24238228.008    24238227.427    -4608448.114 2  -3590997.072 2
        17.800          16.100
  22792599.670    22792599.445    22792599.379   -11007012.479 4  -8576884.964 4
        25.900          26.800
  22907556.768    22907556.667    22907554.994   -10292615.144 4  -8020217.852 4
        29.900          27.100
  23363268.718    23363267.984    23363266.216   -10574734.853 3  -8240045.079 3
        23.000          21.600
  24086284.665    24086284.122    24086284.524    -5215605.096 3  -4064106.105 3
        21.600          19.300
  24420370.874    24420370.727    24420368.328    -3653122.798 3  -2846587.466 3
        19.300          22.100
  23808254.752    23808255.159    23808253.933    -6662857.619 3  -5191835.037 4
        23.800          25.300
  20407893.569    20407893.049    20407890.877   -24615079.359 6 -19180574.597 7
        38.700          45.300
  24849712.744    24849711.852    24849710.521     -607488.214 2   -473365.498 3
        13.900          19.900
 09  1 23  1 37  0.0000000  0 10G22G 5G 9G11G18G32G12G31G14G19
  21039844.227    21039843.957    21039840.737   -21615091.516 6 -16842918.553 6
        40.700          41.100
  24223206.698    24223205.914    24223206.386    -4687385.263 2  -3652506.523 2
        17.000          16.100
  22810262.444    22810261.852    22810261.197   -10914197.286 4  -8504561.443 4
        26.200          26.200
  22899239.727    22899239.356    22899237.748   -10336322.965 4  -8054275.890 4
        29.900          27.600
  23381518.763    23381518.042    23381516.867   -10478829.098 3  -8165313.334 3
        22.600          21.100
  24068598.923    24068598.455    24068598.823    -5308546.493 3  -4136527.945 3
        22.100          19.900
  24407820.518    24407820.199    24407818.251    -3719072.764 3  -2897977.041 3
        19.900          21.600
  23786982.250    23786982.637    23786980.945    -6774645.563 3  -5278942.508 4
        23.400          25.300
  20405039.200    20405038.709    20405037.711   -24630079.439 6 -19192262.968 7
        38.700          45.400
  24866386.894    24866385.601    24866384.528     -519865.757 2   -405088.271 2
        16.100          17.800
 09  1 23  1 37 30.0000000  0 10G22G 5G 9G11G18G32G12G31G14G19
  21050737.036    21050736.732    21050733.618   -21557849.501 6 -16798314.388 6
        40.600          41.200
  24208253.275    24208252.534    24208252.808    -4765967.947 2  -3713739.738 2
        15.100          17.000
  22828010.845    22828010.208    22828009.784   -10820928.835 4  -8431884.727 4
        26.500          25.900
  22891023.587    22891023.195    22891021.516   -10379499.988 4  -8087920.323 4
        29.900          27.600
  23399806.455    23399805.812    23399804.369   -10382726.348 3  -8090428.097 3
        22.100          21.100
  24050929.539    24050929.032    24050929.587    -5401400.006 3  -4208881.302 3
        20.500          20.500
  24395344.882    24395345.059    24395342.949    -3784630.837 3  -2949061.239 3
        19.300          21.100
  23765738.762    23765739.095    23765738.011    -6886278.446 3  -5365929.132 4
        23.000          25.600
  20402270.328    20402269.791    20402267.528   -24644629.870 6 -19203600.964 7
        38.600          45.200
  24883097.702    24883095.906    24883093.373     -432056.778 3   -336665.688 2
        19.300          15.100
 09  1 23  1 38  0.0000000  0 10G22G 5G 9G11G18G32G12G31G14G19
  21061702.931    21061702.611    21061699.633   -21500223.218 6 -16753410.791 6
        40.600          41.300
  24193370.176    24193368.881    24193369.244    -4844179.899 2  -3774684.106 2
        16.100          17.000
  22845846.945    22845846.526    22845846.274   -10727197.170 4  -8358847.064 4
        26.200          25.600
  22882911.108    22882910.693    22882909.206   -10422131.381 4  -8121139.579 4
        29.700          27.400
  23418133.606    23418132.984    23418131.777   -10286414.397 3  -8015379.857 3
        21.600          20.500
  24033279.267    24033278.641    24033279.637    -5494151.413 3  -4281155.104 3
        19.900          20.500
  24382947.139    24382946.709    24382944.508    -3849781.552 3  -2999828.027 3
        18.600          19.900
  23744528.568    23744528.722    23744527.471    -6997740.703 3  -5452782.798 4
        23.000          25.300
  20399589.628    20399589.133    20399588.078   -24658717.245 6 -19214578.135 7
        38.600          45.200
  24899843.664    24899842.177    24899840.683     -344051.392 3   -268090.044 2
        20.500          13.900
 09  1 23  1 38 30.0000000  0 10G22G 5G 9G11G18G32G12G31G14G19
  21072738.547    21072738.204    21072735.224   -21442230.682 6 -16708221.806 6
        40.400          41.200
  24178554.920    24178554.046    24178553.118    -4922035.519 2  -3835350.799 2
        17.800          17.000
  22863767.958    22863767.703    22863766.937   -10633022.898 4  -8285464.524 4
        26.200          25.600
  22874899.320    22874899.057    22874897.149   -10464233.420 5  -8153946.362 4
        30.100          27.100
  23436497.573    23436496.712    23436495.723   -10189911.982 3  -7940183.191 3
        21.100          19.300
  24015645.615    24015644.937    24015645.645    -5586816.959 3  -4353361.995 3
        19.300          19.900
  24370624.172    24370624.636    24370622.187    -3914539.548 3  -3050288.825 3
        19.900          21.600
  23723348.406    23723348.432    23723346.608    -7109047.017 4  -5539514.969 4
        24.200          25.300
  20396993.555    20396992.935    20396990.682   -24672359.490 6 -19225208.456 7
        38.500          45.100
  24916623.807    24916622.580    24916621.338     -255869.856 3   -199377.211 1
        22.100          11.000
 09  1 23  1 39  0.0000000  0 11G22G 5G 9G11G18G32G12G31G14G30G19
  21083842.882    21083842.576    21083839.643   -21383877.026 6 -16662751.429 6
        40.500          41.200
  24163806.286    24163805.821    24163805.024    -4999536.444 2  -3895741.121 2
        17.800          17.000
  22881771.802    22881771.252    22881769.972   -10538414.175 4  -8211743.440 4
        25.900          24.600
  22866987.735    22866987.395    22866985.609   -10505809.717 5  -8186343.489 4
        30.200          27.100
  23454896.762    23454896.243    23454894.610   -10093225.334 3  -7864842.973 3
        20.500          20.500
  23998027.106    23998026.750    23998027.775    -5679400.412 3  -4425504.908 3
        19.300          21.100
  24358375.431    24358375.471    24358373.912    -3978906.918 3  -3100445.185 3
        19.900          22.100
  23702196.945    23702196.844    23702195.171    -7220199.767 4  -5626127.478 4
        24.600          25.600
  20394481.252    20394480.729    20394479.715   -24685561.531 6 -19235495.756 7
        38.400          45.000
  25086782.604    25086782.776    25086781.224           -.6171          -.57112
                        12.600
  24933437.279    24933435.728    24933433.368     -167519.958 3   -130533.215 1
        22.100           9.000
 09  1 23  1 39 30.0000000  0 10G22G 5G 9G11G18G32G12G31G14G19
  21095017.337    21095017.039    21095013.926   -21325155.204 6 -16616994.172 6
        40.500          41.000
  24149128.665    24149127.628    24149127.796    -5076671.438 3  -3955846.299 3
        19.300          19.300
  22899858.159    22899857.864    22899857.516   -10443365.786 4  -8137679.769 4
        25.600          24.900
  22859177.922    22859177.418    22859175.798   -10546850.432 4  -8218323.269 4
        29.700          27.400
  23473331.927    23473331.425    23473330.074    -9996347.293 3  -7789353.616 3
        21.600          20.500
  23980427.255    23980426.560    23980426.516    -5771892.245 3  -4497576.452 3
        19.900          20.500
  24346203.154    24346202.958    24346200.778    -4042872.984 3  -3150288.850 3
        19.900          20.500
  23681076.434    23681076.371    23681074.563    -7331188.072 4  -5712611.848 4
        25.600          25.900
  20392054.227    20392053.713    20392051.380   -24698315.526 6 -19245433.933 7
        38.400          45.000
  24950281.966    24950280.780    24950278.205      -78996.681 3    -61554.034 2
        20.500          12.600
 09  1 23  1 40  0.0000000  0 10G22G 5G 9G11G18G32G12G31G14G19
  21106260.892    21106260.606    21106257.410   -21266069.660 6 -16570953.490 6
        40.400          40.600
  24134519.797    24134518.930    24134519.162    -5153440.985 3  -4015666.702 3
        20.500          19.900
  22918028.046    22918027.547    22918027.224   -10347884.750 4  -8063278.950 4
        26.500          24.900
  22851469.535    22851469.259    22851467.172   -10587357.992 4  -8249887.588 4
        29.900          26.800
  23491802.436    23491802.011    23491800.659    -9899282.510 3  -7713718.744 3
        20.500          19.900
  23962843.374    23962842.429    23962842.710    -5864294.782 3  -4569578.420 3
        19.300          21.100
  24334107.263    24334107.435    24334103.846    -4106438.586 3  -3199820.471 3
        22.100          19.900
  23659987.186    23659987.403    23659985.241    -7442012.938 4  -5798968.872 4
        25.900          26.200
  20389711.769    20389711.251    20389710.218   -24710625.061 6 -19255025.776 7
        38.400          44.800
  24967158.249    24967157.112    24967157.207        9693.721 2      7555.421 2
        16.100          15.100
 09  1 23  1 40 30.0000000  0 10G22G 5G 9G11G18G32G12G31G14G19
  21117574.691    21117574.404    21117571.079   -21206616.163 6 -16524626.092 6
        40.600          40.700
  24119981.773    24119981.087    24119979.612    -5229836.690 3  -4075195.816 2
        19.900          17.000
  22936280.581    22936280.190    22936279.444   -10251968.871 4  -7988539.299 4
        26.200          25.300
  22843863.909    22843863.584    22843861.282   -10627326.090 4  -8281031.565 4
        29.900          26.200
  23510310.175    23510309.170    23510307.563    -9802027.136 3  -7637935.359 3
        21.100          19.300
  23945277.144    23945276.688    23945277.447    -5956601.752 3  -4641505.903 3
        19.900          22.100
  24322088.735    24322088.641    24322087.187    -4169596.123 3  -3249034.124 3
        21.100          22.100
  23638930.547    23638930.249    23638928.438    -7552666.853 4  -5885192.688 4
        25.600          26.200
  20387455.045    20387454.476    20387452.135   -24722485.052 6 -19264267.326 7
        38.400          45.100
  24984069.411    24984067.664    24984066.030       98553.110 2     76796.522 2
        16.100          16.100
 09  1 23  1 41  0.0000000  0 10G22G 5G 9G11G18G32G12G31G14G19
  21128959.635    21128959.339    21128956.077   -21146787.168 6 -16478006.100 6
        40.400          40.600
  24105517.603    24105516.844    24105515.803    -5305847.910 3  -4134425.344 2
        19.900          17.000
  22954615.918    22954615.568    22954614.997   -10155613.692 4  -7913457.341 4
        25.300          25.300
  22836362.506    22836362.240    22836360.068   -10666745.244 4  -8311747.794 4
        29.500          26.200
  23528854.981    23528854.362    23528852.041    -9704574.762 3  -7561998.454 3
        22.100          19.300
  23927732.082    23927731.311    23927731.857    -6048804.195 3  -4713351.953 3
        19.900          22.100
  24310149.019    24310148.764    24310147.789    -4232334.665 3  -3297921.275 3
        19.900          22.100
  23617908.739    23617908.461    23617906.317    -7663139.170 4  -5971274.997 4
        26.200          26.800
  20385285.065    20385284.526    20385283.453   -24733888.065 6 -19273152.788 7
        38.500          44.900
  25001010.931    25001009.941    25001008.432      187587.070 2    146173.601 2
        17.000          17.000
 09  1 23  1 41 30.0000000  0 10G22G 5G 9G11G18G32G12G31G14G19
  21140414.692    21140414.393    21140411.238   -21086590.142 6 -16431099.330 6
        40.300          40.400
  24091125.497    24091124.439    24091124.510    -5381477.929 3  -4193357.812 3
        18.600          18.600
  22973034.040    22973033.375    22973032.857   -10058828.651 4  -7838040.440 4
        24.900          25.600
  22828964.230    22828964.272    22828962.674   -10705620.840 4  -8342040.459 4
        28.800          26.800
  23547435.412    23547434.819    23547433.095    -9606932.735 3  -7485913.783 3
        20.500          19.900
  23910206.071    23910205.136    23910205.531    -6140907.200 3  -4785120.516 3
        20.500          23.000
  24298290.567    24298290.249    24298288.036    -4294658.128 3  -3346485.001 3
        21.100          22.100
  23596919.690    23596919.850    23596918.032    -7773433.664 4  -6057218.745 4
        25.900          27.600
  20383200.819    20383200.381    20383197.999   -24744840.646 6 -19281687.265 7
        38.500          45.100
  25017985.680    25017984.003    25017981.821      276785.631 2    215678.971 3
        15.100          18.600
 09  1 23  1 42  0.0000000  0 10G22G 5G 9G11G18G32G12G31G14G19
  21151939.012    21151938.731    21151935.592   -21026029.501 6 -16383909.224 6
        40.300          40.300
  24076806.175    24076805.152    24076805.317    -5456727.287 2  -4251993.647 3
        17.000          19.900
  22991531.845    22991531.289    22991530.676    -9961620.784 4  -7762294.056 4
        24.900          24.900
  22821669.711    22821669.382    22821667.471   -10743955.173 4  -8371911.358 4
        28.600          26.500
  23566050.633    23566050.181    23566048.938    -9509105.909 3  -7409685.119 3
        19.900          19.300
  23892697.749    23892697.133    23892697.162    -6232913.263 3  -4856813.530 3
        21.100          22.600
  24286509.700    24286509.453    24286506.683    -4356567.577 3  -3394726.157 3
        22.100          22.100
  23575965.064    23575965.239    23575963.064    -7883551.666 4  -6143024.956 4
        25.600          27.100
  20381201.603    20381201.160    20381199.967   -24755346.789 6 -19289873.866 7
        38.500          45.100
  25034989.751    25034988.384    25034985.425      366142.281 2    285307.491 3
        13.900          18.600
 09  1 23  1 42 30.0000000  0 10G22G 5G 9G11G18G32G12G31G14G19
  21163534.508    21163534.235    21163531.154   -20965094.826 6 -16336427.663 6
        40.400          40.300
  24062562.027    24062561.197    24062561.081    -5531581.709 3  -4310321.739 3
        18.600          19.900
  23010111.235    23010111.087    23010110.360    -9863981.717 4  -7686211.665 3
        25.300          23.800
  22814480.279    22814480.107    22814478.201   -10781735.811 4  -8401350.813 4
        29.000          26.200
  23584703.615    23584703.321    23584701.866    -9411084.452 3  -7333304.788 3
        20.500          18.600
  23875210.916    23875209.907    23875209.720    -6324809.985 3  -4928421.335 3
        21.600          22.600
  24274808.783    24274808.816    24274807.344    -4418049.124 3  -3442633.846 3
        19.300          23.000
  23555046.374    23555046.378    23555044.614    -7993479.261 4  -6228682.814 4
        25.900          27.100
  20379289.317    20379288.799    20379286.461   -24765395.232 6 -19297703.819 7
        38.400          44.800
  25052024.771    25052023.347    25052022.142      455665.244 2    355065.655 3
        13.900          19.900
 09  1 23  1 43  0.0000000  0 11G22G 5G 9G11G18G32G12G31G14G30G19
  21175199.715    21175199.337    21175196.211   -20903794.263 6 -16288660.995 6
        40.300          40.100
  24048391.685    24048391.140    24048390.553    -5606045.487 3  -4368345.416 3
        18.600          19.300
  23028771.392    23028771.217    23028770.364    -9765922.198 4  -7609801.639 3
        24.200          23.800
  22807395.365    22807395.161    22807392.851   -10818968.900 4  -8430363.612 4
        29.700          26.500
  23603392.684    23603391.909    23603389.846    -9312876.739 3  -7256779.298 3
        19.900          18.600
  23857742.595    23857741.931    23857742.169    -6416603.309 3  -4999948.583 3
        21.100          23.000
  24263189.870    24263189.396    24263188.630    -4479107.665 3  -3490211.884 3
        20.500          23.400
  23534163.167    23534163.272    23534161.531    -8103221.311 4  -6314196.087 4
        25.600          27.100
  20377462.845    20377462.322    20377461.226   -24774993.810 6 -19305183.226 7
        38.400          44.800
  24931814.861    24931816.036    24931814.863           -.32411         -.06411
         9.000          11.000
  25069090.838    25069089.438    25069087.053      545344.263 2    424945.386 3
        13.900          20.500
 09  1 23  1 43 30.0000000  0 11G22G 5G 9G11G18G32G12G31G14G30G19
  21186932.127    21186931.903    21186928.818   -20842139.288 6 -16240618.154 6
        40.300          40.000
  24034295.361    24034294.060    24034293.656    -5680126.463 2  -4426070.841 3
        17.800          19.300
  23047509.221    23047508.918    23047507.957    -9667456.382 4  -7533075.039 3
        24.600          23.800
  22800412.369    22800411.993    22800410.427   -10855663.900 4  -8458957.116 4
        29.500          27.100
  23622113.719    23622113.252    23622111.524    -9214494.873 3  -7180118.125 3
        18.600          19.300
  23840292.402    23840291.784    23840292.274    -6508302.825 3  -5071402.713 3
        21.100          22.600
  24251651.117    24251650.859    24251648.383    -4539751.113 3  -3537466.493 3
        23.000          23.000
  23513313.315    23513313.444    23513311.961    -8212785.945 4  -6399571.118 4
        25.300          26.800
  20375719.928    20375719.372    20375716.871   -24784153.265 6 -19312320.464 7
        38.400          45.000
  24912537.733    24912537.326    24912536.276     -101302.777      -78937.004 1
         3.000           6.500
  25086183.553    25086181.247    25086180.780      635165.553 2    494935.966 3
        13.900          20.500
 09  1 23  1 44  0.0000000  0 11G22G 5G 9G11G18G32G12G31G14G30G19
  21198733.961    21198733.653    21198730.535   -20780120.655 6 -16192291.945 6
        40.200          39.900
  24020271.915    24020271.332    24020271.459    -5753811.203 2  -4483487.517 3
        17.000          19.300
  23066326.299    23066325.381    23066323.875    -9568577.286 4  -7456026.390 3
        24.600          23.800
  22793534.382    22793534.059    22793531.961   -10891809.532 4  -8487122.538 4
        29.900          27.100
  23640869.887    23640869.060    23640868.269    -9115929.825 2  -7103314.225 3
        17.800          19.900
  23822863.192    23822862.461    23822862.080    -6599897.091 3  -5142774.846 3
        22.600          22.100
  24240192.180    24240192.106    24240188.859    -4599966.991 3  -3584387.977 3
        23.000          21.600
  23492500.132    23492499.940    23492498.959    -8322160.587 4  -6484798.094 4
        25.600          27.400
  20374062.234    20374061.743    20374060.696   -24792864.277 6 -19319108.260 7
        38.400          44.800
  24893281.959    24893282.134    24893282.849     -202484.308     -157779.778 1
         3.000           6.500
  25103303.125    25103302.008    25103300.595      725136.429 1    565043.100 2
         9.000          17.000
 09  1 23  1 44 30.0000000  0 11G22G 5G 9G11G18G32G12G31G14G30G19
  21210603.632    21210603.261    21210600.238   -20717745.257 6 -16143687.738 6
        40.000          40.000
  24006326.728    24006325.724    24006324.922    -5827103.058 3  -4540598.014 3
        18.600          20.500
  23085218.258    23085217.967    23085216.988    -9469294.142 4  -7378662.908 4
        25.300          24.200
  22786759.177    22786759.024    22786757.234   -10927410.604 4  -8514863.629 4
        29.700          26.800
  23659659.059    23659658.530    23659657.943    -9017188.930 3  -7026373.324 3
        18.600          19.900
  23805452.038    23805451.532    23805451.206    -6691390.984 3  -5214068.782 3
        23.400          22.600
  24228813.814    24228813.430    24228811.710    -4659758.775 3  -3630978.961 3
        21.100          22.600
  23471722.292    23471722.446    23471721.057    -8431348.803 4  -6569879.810 4
        26.200          27.900
  20372488.851    20372488.278    20372485.893   -24801132.766 6 -19325551.237 7
        38.400          45.000
  24874049.119    24874051.636    24874051.855     -303547.582     -236530.327 1
                        11.000
  25120452.342    25120449.801    25120447.222      815247.942 2    635259.879 2
        12.600          15.100
 09  1 23  1 45  0.0000000  0 11G22G 5G 9G11G18G32G12G31G14G30G19
  21222542.305    21222541.941    21222538.834   -20655007.508 6 -16094801.186 6
        40.000          39.800
  23992455.219    23992454.072    23992454.660    -5899992.611 2  -4597395.078 3
        17.800          21.600
  23104188.770    23104188.270    23104187.391    -9369603.897 4  -7300982.191 3
        24.900          23.800
  22780089.724    22780089.570    22780087.437   -10962459.891 5  -8542174.759 4
        30.200          26.200
  23678484.893    23678484.248    23678481.709    -8918267.186 3  -6949291.490 3
        20.500          19.300
  23788062.195    23788061.379    23788061.211    -6782777.103 3  -5285278.731 3
        23.400          23.000
  24217518.319    24217518.180    24217516.010    -4719117.568 3  -3677232.554 3
        21.100          23.000
  23450981.612    23450981.494    23450980.307    -8540341.662 4  -6654809.298 4
        26.200          27.900
  20371000.686    20371000.098    20370998.955   -24808952.937 6 -19331644.874 7
        38.300          44.800
  24854843.969    24854843.176    24854844.025     -404483.421     -315181.546 1
         3.000           9.000
  25137627.091    25137625.479    25137623.338      905503.385 1    705588.779 2
        11.000          13.900
 09  1 23  1 45 30.0000000  0 11G22G 5G 9G11G18G32G12G31G14G30G19
  21234549.859    21234549.528    21234546.365   -20591906.885 6 -16045631.870 6
        39.800          39.600
  23978662.050    23978660.864    23978661.494    -5972475.544 3  -4653875.253 3
        18.600          21.600
  23123236.425    23123235.904    23123234.823    -9269508.337 4  -7222985.661 3
        24.600          23.400
  22773525.637    22773525.350    22773523.193   -10996955.136 5  -8569054.172 4
        30.200          26.200
  23697343.446    23697343.144    23697340.686    -8819164.622 3  -6872068.727 3
        22.600          18.600
  23770692.634    23770692.053    23770692.542    -6874052.797 3  -5356402.629 3
        22.600          23.400
  24206305.996    24206305.714    24206303.638    -4778039.515 3  -3723145.723 3
        21.600          23.400
  23430278.847    23430279.008    23430277.159    -8649135.016 4  -6739583.328 4
        26.500          27.400
  20369598.175    20369597.630    20369595.189   -24816323.337 6 -19337388.041 7
        38.400          45.000
  24835663.357    24835663.028    24835662.355     -505287.180 2   -393729.903 1
        15.100           9.000
  25154827.581    25154825.714    25154824.970      995901.005 1    776028.430 2
         6.500          13.900
 09  1 23  1 46  0.0000000  0 11G22G 5G 9G11G18G32G12G31G14G30G19
  21246626.089    21246625.735    21246622.717   -20528445.860 6 -15996181.731 6
        39.800          39.600
  23964947.113    23964945.880    23964946.050    -6044550.616 2  -4710037.643 3
        17.800          21.600
  23142358.891    23142359.134    23142358.724    -9169012.281 3  -7144677.048 3
        23.000          23.400
  22767066.679    22767066.427    22767064.366   -11030896.431 5  -8595501.929 4
        30.200          26.200
  23716235.788    23716234.827    23716233.219    -8719884.349 3  -6794707.482 3
        21.100          19.300
  23753344.316    23753343.792    23753344.231    -6965218.520 3  -5427440.826 4
        23.000          24.200
  24195176.520    24195176.157    24195173.988    -4836523.768 3  -3768717.882 3
        20.500          23.000
  23409614.002    23409614.134    23409612.479    -8757728.475 4  -6824201.602 4
        26.200          27.400
  20368280.729    20368280.214    20368279.093   -24823246.373 6 -19342782.610 7
        38.400          44.900
  24816504.512    24816505.426    24816505.363     -605957.165 2   -472174.015 1
        15.100          11.000
  25172054.401    25172055.073    25172052.468     1086436.154      846575.342 2
                        12.600
 09  1 23  1 46 30.0000000  0 11G22G 5G 9G11G18G32G12G31G14G30G19
  21258771.423    21258771.133    21258767.888   -20464621.965 6 -15946448.830 6
        39.800          39.400
  23951310.253    23951309.612    23951308.941    -6116211.334 3  -4765877.130 3
        18.600          22.100
  23161559.879    23161559.635    23161559.359    -9068115.665 3  -7066056.306 3
        23.400          23.800
  22760714.590    22760714.269    22760711.636   -11064279.372 5  -8621514.607 4
        31.100          26.200
  23735161.472    23735161.102    23735160.150    -8620423.471 3  -6717205.536 3
        19.900          18.600
  23736017.986    23736017.150    23736017.600    -7056269.507 3  -5498389.626 3
        23.400          23.800
  24184132.026    24184131.640    24184130.134    -4894564.389 3  -3813944.323 4
        21.100          24.200
  23388988.620    23388988.636    23388987.299    -8866115.976 4  -6908659.392 4
        26.500          27.900
  20367048.994    20367048.462    20367045.964   -24829718.925 6 -19347826.158 7
        38.300          44.800
  24797375.402    24797375.068    24797374.952     -706486.371 2   -550508.442 1
        16.100          11.000
  25189311.642    25189309.568    25189307.587     1177109.525 1    917229.882 1
         6.500          11.000
 09  1 23  1 47  0.0000000  0 11G22G 5G 9G11G18G32G12G31G14G30G19
  21270983.579    21270983.234    21270980.228   -20400446.121 6 -15896441.680 6
        39.600          39.400
  23937751.595    23937750.458    23937750.259    -6187464.612 3  -4821399.140 3
        19.900          22.100
  23180833.865    23180833.457    23180833.031    -8966831.717 3  -6987133.748 4
        23.400          24.200
  22754466.479    22754466.123    22754463.715   -11097112.672 5  -8647098.997 4
        31.500          26.200
  23754120.099    23754119.671    23754118.661    -8520793.474 3  -6639571.795 2
        18.600          17.800
  23718711.341    23718711.054    23718711.136    -7147214.357 3  -5569255.729 3
        23.000          23.800
  24173169.470    24173169.013    24173167.873    -4952168.890 3  -3858830.940 3
        20.500          23.800
  23368401.053    23368401.001    23368399.950    -8974304.475 4  -6992962.107 4
        26.200          28.600
  20365901.200    20365900.634    20365899.529   -24835750.896 6 -19352526.392 7
        38.400          44.800
  24778271.221    24778271.157    24778269.245     -806881.670 2   -628738.535 2
        17.000          12.600
  25206591.357    25206589.165    25206585.192     1267908.222 1    987982.096 1
        11.000           9.000
 09  1 23  1 47 30.0000000  0 11G22G 5G 9G11G18G32G12G31G14G30G19
  21283262.947    21283262.671    21283259.530   -20335917.953 6 -15846159.997 6
        39.700          39.400
  23924270.389    23924269.243    23924269.918    -6258306.416 3  -4876600.527 3
        18.600          22.100
  23200180.600    23200180.231    23200180.046    -8865162.215 3  -6907910.768 3
        23.800          23.800
  22748323.510    22748323.303    22748320.749   -11129394.483 5  -8672253.655 4
        32.000          26.500
  23773112.002    23773111.044    23773109.351    -8420994.806 2  -6561806.631 2
        17.800          17.000
  23701425.601    23701425.313    23701425.638    -7238050.726 3  -5640037.311 3
        22.600          23.400
  24162291.669    24162291.804    24162289.538    -5009333.599 3  -3903374.860 3
        22.100          23.000
  23347852.082    23347851.860    23347850.654    -9082290.607 4  -7077107.118 4
        26.800          28.600
  20364837.336    20364836.754    20364834.252   -24841341.758 6 -19356882.909 7
        38.400          44.900
  24759191.991    24759191.866    24759192.440     -907138.858 2   -706860.974 2
        13.900          16.100
  25223891.998    25223890.263    25223889.073     1358830.196 2   1058830.394 2
        13.900          12.600
 09  1 23  1 48  0.0000000  0 11G22G 5G 9G11G18G32G12G31G14G30G19
  21295609.687    21295609.326    21295606.145   -20271036.055 6 -15795602.672 6
        39.700          39.400
  23910869.226    23910868.557    23910867.984    -6328731.700 3  -4931477.371 3
        20.500          21.100
  23219601.339    23219600.685    23219599.746    -8763108.545 3  -6828388.428 3
        23.800          23.000
  22742286.039    22742285.773    22742283.479   -11161121.493 5  -8696976.003 4
        31.600          26.800
  23792135.832    23792134.922    23792132.858    -8321026.069 2  -6483908.942 2
        17.800          17.000
  23684161.769    23684160.951    23684161.637    -7328775.280 3  -5710731.770 3
        22.100          23.800
  24151498.341    24151498.155    24151495.924    -5066053.870 3  -3947572.464 3
        22.100          23.000
  23327342.419    23327342.508    23327340.724    -9190069.709 4  -7161090.828 4
        27.100          27.900
  20363857.738    20363857.167    20363855.934   -24846489.526 6 -19360894.153 7
        38.400          44.800
  24740140.725    24740140.589    24740141.498    -1007252.207 1   -784871.339 2
        11.000          17.800
  25241217.084    25241215.218    25241215.054     1449874.919 2   1129774.346 2
        13.900          12.600
 09  1 23  1 48 30.0000000  0 11G22G 5G 9G11G18G32G12G31G14G30G19
  21308024.419    21308024.096    21308020.880   -20205795.882 6 -15744766.179 6
        39.600          39.200
  23897549.160    23897548.369    23897547.218    -6398732.123 3  -4986023.135 3
        22.100          21.600
  23239095.477    23239094.855    23239093.366    -8660668.612 4  -6748565.108 3
        24.200          22.600
  22736355.236    22736354.872    22736352.618   -11192287.422 5  -8721261.149 4
        31.300          26.800
  23811192.201    23811191.526    23811189.767    -8220883.300 2  -6405875.628 2
        17.000          17.800
  23666919.201    23666918.846    23666919.787    -7419381.351 3  -5781333.873 3
        21.600          23.800
  24140790.761    24140790.399    24140788.338    -5122321.866 3  -3991417.657 3
        21.600          23.400
  23306873.535    23306873.838    23306871.850    -9297633.675 4  -7244906.911 4
        27.600          28.100
  20362963.326    20362962.820    20362960.238   -24851189.356 6 -19364556.358 7
        38.400          44.800
  24721119.050    24721119.020    24721119.255    -1107213.471 1   -862763.154 2
         9.000          17.800
  25258566.615    25258565.152    25258561.743     1541044.658 1   1200815.671 2
        11.000          12.600
 09  1 23  1 49  0.0000000  0 11G22G 5G 9G11G18G32G12G31G14G30G19
  21320507.031    21320506.777    21320503.726   -20140198.266 6 -15693651.158 6
        39.500          39.100
  23884309.023    23884308.401    23884308.743    -6468304.195 3  -5040235.108 3
        21.100          22.600
  23258661.493    23258660.824    23258659.888    -8557845.194 3  -6668442.958 3
        23.400          22.600
  22730531.279    22730531.126    22730529.226   -11222890.795 5  -8745107.922 4
        31.300          27.100
  23830281.023    23830280.822    23830279.449    -8120567.099 2  -6327707.200 2
        17.000          17.000
  23649700.817    23649700.330    23649700.637    -7509866.881 3  -5851842.064 3
        22.600          23.800
  24130169.093    24130169.081    24130168.459    -5178134.519 3  -4034908.032 3
        21.100          23.400
  23286446.196    23286446.514    23286444.294    -9404979.689 4  -7328553.154 4
        27.900          28.100
  20362154.408    20362153.853    20362152.743   -24855440.767 6 -19367869.141 7
        38.400          44.900
  24702127.798    24702127.590    24702126.205    -1207018.635 1   -940533.368 2
         6.500          16.100
  25275936.748    25275936.569    25275935.264     1632337.025 1   1271952.548 2
         9.000          13.900
 09  1 23  1 49 30.0000000  0 11G22G 5G 9G11G18G32G12G31G14G30G19
  21333057.526    21333057.170    21333054.034   -20074246.263 6 -15642259.997 6
        39.500          39.100
  23871151.747    23871151.097    23871150.745    -6537447.822 3  -5094113.228 3
        21.100          21.600
  23278299.357    23278299.294    23278298.330    -8454643.915 3  -6588026.376 3
        22.600          22.100
  22724814.539    22724814.446    22724812.076   -11252933.200 5  -8768517.598 4
        31.600          26.800
  23849403.552    23849402.912    23849401.251    -8020081.776 2  -6249406.996 2
        17.800          17.000
  23632505.000    23632504.400    23632504.201    -7600233.613 4  -5922257.679 3
        24.200          23.800
  24119636.747    24119636.130    24119633.066    -5233492.426 3  -4078044.040 3
        22.600          22.600
  23266060.410    23266060.293    23266058.817    -9512107.875 4  -7412029.642 4
        27.100          28.400
  20361430.017    20361429.513    20361426.939   -24859247.098 6 -19370835.112 7
        38.400          44.900
  24683165.249    24683165.723    24683162.893    -1306666.731    -1018181.209 2
         3.000          13.900
  25293332.574    25293330.555    25293331.462     1723746.635     1343180.736 2
         3.000          13.900
 09  1 23  1 50  0.0000000  0 11G22G 5G 9G11G18G32G12G31G14G30G19
  21345676.518    21345676.217    21345672.909   -20007933.303 6 -15590587.564 6
        39.700          39.000
  23858077.664    23858076.592    23858076.081    -6606152.354 3  -5147649.233 3
        20.500          21.100
  23298011.689    23298010.904    23298009.908    -8351060.164 3  -6507311.762 3
        22.600          22.600
  22719206.220    22719205.976    22719203.789   -11282406.074 5  -8791483.464 4
        31.300          27.400
  23868559.526    23868558.889    23868556.044    -7919420.819 3  -6170969.905 2
        18.600          17.800
  23615332.856    23615332.413    23615332.157    -7690472.473 4  -5992573.663 4
        25.300          24.200
  24109190.311    24109190.228    24109186.987    -5288385.321 3  -4120817.738 3
        22.100          22.600
  23245717.923    23245718.176    23245716.638    -9619007.966 4  -7495328.386 4
        27.900          28.800
  20360791.873    20360791.329    20360790.134   -24862600.923 6 -19373448.479 7
        38.400          45.000
  24664233.654    24664233.650    24664232.631    -1406147.255    -1095698.417 2
                        13.900
  25310751.767    25310750.159    25310748.256     1815277.880     1414503.874 1
         3.000          11.000
 09  1 23  1 50 30.0000000  0 12G22G 5G 9G11G18G32G12G31G14G30G17G19
  21358360.549    21358360.328    21358357.193   -19941276.999 6 -15538647.588 6
        39.300          38.900
  23845084.712    23845083.974    23845083.823    -6674431.599 3  -5200853.820 3
        21.600          21.600
  23317791.957    23317791.701    23317790.701    -8247113.938 3  -6426314.720 3
        23.000          22.600
  22713703.406    22713703.042    22713700.593   -11311325.012 5  -8814017.698 4
        32.000          27.400
  23887743.610    23887743.290    23887741.316    -7818601.848 2  -6092409.703 2
        17.000          17.800
  23598182.396    23598182.050    23598181.630    -7780598.737 4  -6062801.917 4
        25.600          24.200
  24098829.801    24098829.710    24098827.784    -5342827.653 3  -4163240.325 3
        21.600          23.400
  23225416.464    23225416.528    23225414.853    -9725693.948 4  -7578460.290 4
        28.100          29.200
  20360236.449    20360235.969    20360233.351   -24865519.157 6 -19375722.427 7
        38.400          44.900
  24645332.301    24645333.512    24645332.256    -1505473.638    -1173095.522 2
         3.000          12.600
  25286437.752    25286436.684    25286436.562           -.3401          -.29912
         3.000          16.100
  25328189.102    25328188.087    25328182.813     1906911.328     1485906.492
                         3.000
 09  1 23  1 51  0.0000000  0 12G22G 5G 9G11G18G32G12G31G14G30G17G19
  21371109.228    21371108.863    21371105.667   -19874283.676 6 -15486445.004 6
        39.500          38.900
  23832171.635    23832170.818    23832171.123    -6742288.029 3  -5253728.925 3
        22.600          21.600
  23337638.749    23337638.812    23337638.227    -8142814.045 3  -6345042.079 3
        22.600          22.100
  22708304.735    22708304.360    22708302.142   -11339694.759 5  -8836123.989 4
        32.100          27.600
  23906957.455    23906956.672    23906955.008    -7717631.670 2  -6013731.680 2
        16.100          17.000
  23581053.142    23581052.302    23581051.549    -7870616.568 4  -6132945.678 3
        25.900          23.800
  24088555.687    24088555.417    24088552.865    -5396822.023 3  -4205313.854 3
        22.600          23.400
  23205155.167    23205155.284    23205153.433    -9832168.848 4  -7661427.722 4
        28.800          29.000
  20359762.854    20359762.330    20359761.126   -24868007.851 6 -19377661.666 7
        38.400          44.800
  24626462.209    24626460.530    24626459.229    -1604647.691    -1250373.961 2
                        13.900
  25277690.107    25277688.887    25277687.446      -45979.299 1    -35828.045 2
         6.500          17.000
  25345639.612    25345641.720    25345644.280     1998638.963     1557380.341 1
         3.000           9.000
 09  1 23  1 51 30.0000000  0 12G22G 5G 9G11G18G32G12G31G14G30G17G19
  21383925.230    21383924.933    21383921.821   -19806934.541 6 -15433965.163 6
        39.300          38.900
  23819343.958    23819343.006    23819342.016    -6809699.396 3  -5306257.251 3
        22.100          19.300
  23357556.517    23357556.528    23357556.743    -8038144.549 3  -6263481.428 3
        21.600          21.600
  22703014.413    22703014.015    22703012.257   -11367494.842 5  -8857786.394 4
        31.800          28.100
  23926204.552    23926203.654    23926201.495    -7616492.542 2  -5934922.006 2
        15.100          17.000
  23563947.767    23563946.909    23563946.518    -7960505.294 4  -6202988.840 4
        25.600          24.200
  24078369.492    24078369.393    24078367.702    -5450346.831 3  -4247021.477 3
        22.100          23.800
  23184937.982    23184938.127    23184936.197    -9938410.808 4  -7744213.640 4
        29.200          29.000
  20359374.618    20359374.134    20359371.549   -24870047.936 6 -19379251.343 7
        38.400          44.900
  24607618.995    24607618.565    24607620.752    -1703647.255    -1327516.427 2
                        12.600
  25269031.978    25269032.650    25269032.505      -91454.369      -71263.240 2
         3.000          12.600
  25363119.451    25363118.537    25363120.252     2090476.986 1   1628942.573 1
        11.000          11.000
 09  1 23  1 52  0.0000000  0 11G22G 5G 9G11G18G32G12G31G14G30G17
  21396806.302    21396805.988    21396802.826   -19739243.895 6 -15381219.209 6
        39.100          38.600
  23806598.512    23806597.661    23806597.291    -6876676.100 3  -5358446.882 3
        22.100          20.500
  23377542.127    23377541.447    23377541.472    -7933121.644 3  -6181645.395 3
        20.500          21.600
  22697829.972    22697829.944    22697827.957   -11394737.824 5  -8879014.693 4
        31.800          28.400
  23945479.588    23945479.229    23945477.302    -7515198.631 2  -5855991.738 2
        16.100          17.000
  23546864.659    23546863.747    23546863.906    -8050276.773 4  -6272940.625 4
        25.300          24.900
  24068270.922    24068271.082    24068268.710    -5503413.153 3  -4288371.852 3
        21.600          22.600
  23164763.215    23164763.071    23164761.151   -10044430.509 4  -7826826.363 4
        29.500          29.200
  20359069.227    20359068.655    20359067.542   -24871653.118 6 -19380502.130 7
        38.400          45.000
  24588810.929    24588814.076    24588812.596    -1802481.823    -1404530.276 2
                        12.600
  25260473.271    25260474.806    25260471.972     -136437.456 1   -106314.905 1
         9.000           6.500
 09  1 23  1 52 30.0000000  0 11G22G 5G 9G11G18G32G12G31G14G30G17
  21409753.080    21409752.695    21409749.518   -19671208.916 6 -15328204.943 6
        39.100          38.700
  23793937.630    23793936.611    23793936.260    -6943211.521 3  -5410292.647 3
        23.000          19.900
  23397594.506    23397593.885    23397593.591    -7827744.680 3  -6099533.482 3
        20.500          20.500
  22692752.683    22692752.382    22692750.762   -11421418.863 5  -8899805.110 4
        31.300          28.800
  23964784.673    23964784.168    23964783.096    -7413747.129 2  -5776938.658 2
        15.100          17.000
  23529804.716    23529803.954    23529803.865    -8139925.935 4  -6342797.107 4
        25.300          24.200
  24058262.382    24058261.749    24058259.338    -5556014.789 3  -4329360.153 3
        22.600          23.400
  23144631.777    23144631.777    23144629.718   -10150221.568 4  -7909260.930 4
        29.700          28.800
  20358847.135    20358846.635    20358844.121   -24872819.982 6 -19381411.375 7
        38.400          45.100
  24570039.789    24570039.612    24570039.274    -1901144.166 1  -1481409.920 2
         9.000          16.100
  25252009.772    25252009.048    25252009.391     -180922.841 1   -140978.783 2
        11.000          12.600
 09  1 23  1 53  0.0000000  0 11G22G 5G 9G11G18G32G12G31G14G30G17
  21422768.435    21422768.090    21422765.005   -19602812.430 6 -15274908.983 6
        39.100          38.600
  23781364.101    23781363.469    23781362.323    -7009284.700 3  -5461778.241 3
        23.400          19.900
  23417717.125    23417716.685    23417716.125    -7721998.842 3  -6017134.127 3
        20.500          20.500
  22687785.848    22687785.682    22687784.087   -11447519.018 5  -8920142.882 4
        31.300          28.800
  23984122.875    23984123.104    23984121.971    -7312121.494 2  -5697749.894 2
        15.100          17.000
  23512771.849    23512771.252    23512771.335    -8229433.410 4  -6412543.180 4
        24.900          24.600
  24048344.885    24048344.496    24048342.422    -5608131.248 3  -4369970.374 3
        23.000          23.400
  23124547.502    23124547.695    23124545.986   -10255763.531 4  -7991501.402 5
        29.500          30.100
  20358711.889    20358711.387    20358710.341   -24873530.676 6 -19381965.162 7
        38.500          44.900
  24551302.440    24551301.535    24551300.080    -1999612.815 2  -1558138.705 1
        12.600          11.000
  25243641.954    25243642.050    25243639.132     -224890.928 1   -175239.633 2
         6.500          13.900
 09  1 23  1 53 30.0000000  0 11G22G 5G 9G11G18G32G12G31G14G30G17
  21435849.742    21435849.422    21435846.251   -19534069.468 6 -15221343.045 6
        39.000          38.400
  23768875.982    23768874.961    23768875.435    -7074906.946 3  -5512912.458 3
        22.100          21.100
  23437907.416    23437906.928    23437905.682    -7615901.383 3  -5934460.780 3
        21.100          20.500
  22682927.770    22682927.410    22682925.081   -11473051.714 5  -8940038.484 4
        32.000          28.100
  24003492.037    24003491.397    24003491.342    -7210337.312 2  -5618437.561 2
        16.100          17.000
  23495764.063    23495763.295    23495763.323    -8318811.869 4  -6482188.719 4
        26.200          24.900
  24038516.543    24038516.489    24038514.725    -5659774.298 3  -4410211.690 3
        23.000          23.000
  23104508.528    23104508.711    23104507.041   -10361067.864 4  -8073556.709 4
        29.000          29.900
  20358660.662    20358660.137    20358657.772   -24873799.739 6 -19382174.820 7
        38.500          44.800
  24532595.016    24532594.825    24532596.261    -2097898.771 1  -1634725.117 1
         6.500           9.000
  25235371.362    25235370.083    25235370.985     -268353.876     -209106.930 2
                        16.100
 09  1 23  1 54  0.0000000  0 11G22G 5G 9G11G18G32G12G31G14G30G17
  21448996.837    21448996.470    21448993.267   -19464981.782 6 -15167508.486 6
        38.900          38.500
  23756475.348    23756474.534    23756474.140    -7140076.356 3  -5563693.781 3
        23.800          21.600
  23458163.813    23458162.783    23458161.565    -7509456.629 3  -5851516.821 3
        19.900          20.500
  22678177.220    22678176.791    22678174.568   -11498016.834 5  -8959491.825 4
        32.100          28.100
  24022892.479    24022891.563    24022889.459    -7108396.206 2  -5539002.962 2
        15.100          16.100
  23478780.778    23478779.816    23478779.936    -8408060.807 4  -6551733.340 4
        26.800          25.300
  24028780.057    24028780.179    24028777.707    -5710942.524 3  -4450083.015 3
        23.400          23.400
  23084515.500    23084515.375    23084513.805   -10466132.885 4  -8155425.537 5
        28.800          30.200
  20358693.293    20358692.758    20358691.568   -24873628.498 6 -19382041.382 7
        38.400          45.000
  24513927.458    24513927.853    24513928.650    -2195999.582 1  -1711167.251 1
         6.500          11.000
  25227196.517    25227199.080    25227193.339     -311311.164     -242580.085 2
                        12.600
 09  1 23  1 54 30.0000000  0 11G22G 5G 9G11G18G32G12G31G14G30G17
  21462208.653    21462208.416    21462205.300   -19395551.971 6 -15113407.337 6
        38.900          38.200
  23744160.070    23744159.457    23744159.018    -7204791.409 3  -5614121.101 3
        23.400          21.100
  23478483.809    23478483.579    23478483.018    -7402669.166 3  -5768305.815 3
        19.300          19.900
  22673534.103    22673533.693    22673531.655   -11522415.324 5  -8978503.630 4
        32.100          28.800
  24042320.946    24042319.613    24042317.028    -7006300.990 2  -5459448.270 2
        15.100          13.900
  23461821.652    23461821.161    23461821.398    -8497180.438 4  -6621177.204 4
        26.500          26.200
  24019133.585    24019133.525    24019131.264    -5761635.197 4  -4489583.809 3
        24.200          23.400
  23064567.668    23064567.782    23064566.184   -10570957.683 4  -8237107.171 5
        29.200          30.200
  20358809.328    20358808.800    20358806.214   -24873018.889 6 -19381566.362 7
        38.500          45.100
  24495298.261    24495298.311    24495297.838    -2293913.284 2  -1787463.629 2
        15.100          15.100
  25219119.415    25219118.070    25219116.475     -353762.643     -275659.118 2
                        12.600
 09  1 23  1 55  0.0000000  0 11G22G 5G 9G11G18G32G12G31G14G30G17
  21475485.072    21475484.746    21475481.554   -19325784.979 6 -15059043.446 6
        39.000          38.300
  23731930.609    23731929.951    23731930.220    -7269053.789 3  -5664195.671 3
        21.100          21.600
  23498867.901    23498868.435    23498867.341    -7295546.606 2  -5684833.680 3
        17.800          19.900
  22668998.171    22668997.858    22668996.005   -11546250.796 5  -8997076.718 4
        31.800          29.000
  24061776.688    24061775.827    24061773.348    -6904057.539 2  -5379778.066 2
        13.900          13.900
  23444886.570    23444886.002    23444886.565    -8586173.632 4  -6690522.536 4
        25.900          26.800
  24009576.979    24009576.684    24009574.876    -5811854.300 3  -4528715.570 3
        23.400          23.400
  23044665.747    23044666.062    23044664.114   -10675543.730 4  -8318602.782 5
        29.700          30.400
  20359007.780    20359007.322    20359006.081   -24871975.638 6 -19380753.436 7
        38.600          44.900
  24476700.061    24476699.895    24476700.182    -2391640.857 2  -1863614.962 2
        15.100          16.100
  25211136.148    25211136.360    25211135.976     -395711.049 1   -308346.283 2
         6.500          15.100
 09  1 23  1 55 30.0000000  0 11G22G 5G 9G11G18G32G12G31G14G30G17
  21488826.756    21488826.488    21488823.406   -19255673.099 6 -15004410.823 6
        38.800          38.400
  23719791.301    23719790.651    23719790.046    -7332851.750 3  -5713908.357 3
        22.600          21.600
  23519318.295    23519317.913    23519317.217    -7188083.179 3  -5601095.953 3
        18.600          21.100
  22664571.181    22664571.104    22664569.296   -11569513.312 5  -9015203.353 4
        31.500          28.800
  24081261.763    24081260.950    24081259.902    -6801658.170 2  -5299986.393 2
        12.600          15.100
  23427978.036    23427977.152    23427977.452    -8675030.219 4  -6759761.416 4
        26.800          26.800
  24000112.919    24000112.750    24000110.636    -5861588.615 3  -4567469.590 4
        23.000          24.200
  23024811.514    23024811.554    23024809.804   -10779879.974 4  -8399903.727 5
        29.900          31.000
  20359290.621    20359290.058    20359287.533   -24870490.311 6 -19379596.039 7
        38.600          45.400
  24458141.572    24458141.831    24458141.123    -2489170.368 2  -1939611.948 2
        16.100          17.000
  25203251.515    25203252.671    25203249.424     -437146.181 1   -340633.335 2
         6.500          15.100
 09  1 23  1 56  0.0000000  0 11G22G 5G 9G11G18G32G12G31G14G30G17
  21502234.496    21502234.148    21502231.046   -19185215.090 6 -14949508.484 6
        38.500          38.100
  23707740.645    23707739.485    23707738.853    -7396180.514 3  -5763255.433 3
        23.000          21.600
  23539832.836    23539832.096    23539831.080    -7080280.147 2  -5517093.600 3
        17.800          19.900
  22660254.108    22660253.853    22660252.115   -11592200.267 5  -9032881.501 4
        31.000          29.000
  24100777.678    24100777.612    24100775.748    -6699102.123 2  -5220072.644 2
        13.900          15.100
  23411096.030    23411095.208    23411095.002    -8763746.750 4  -6828891.162 4
        27.400          26.800
  23990740.941    23990741.271    23990739.801    -5910833.987 3  -4605842.603 4
        23.000          24.200
  23005005.376    23005005.483    23005003.371   -10883961.792 5  -8481006.417 5
        30.100          30.600
  20359657.548    20359657.074    20359655.847   -24868561.524 6 -19378093.085 7
        38.600          45.200
  24439620.298    24439620.226    24439619.456    -2586496.260 2  -2015450.290 2
        12.600          13.900
  25195461.312    25195463.686    25195463.793     -478064.447     -372517.702 1
                        11.000
 09  1 23  1 56 30.0000000  0 11G22G 5G 9G11G18G32G12G31G14G30G17
  21515706.106    21515705.816    21515702.617   -19114421.211 6 -14894344.425 6
        38.600          37.900
  23695776.781    23695776.063    23695775.573    -7459046.523 3  -5812241.920 3
        23.000          21.100
  23560409.510    23560408.764    23560407.747    -6972149.541 2  -5432835.987 3
        17.800          19.900
  22656044.802    22656044.559    22656042.716   -11614320.383 5  -9050117.943 4
        30.600          29.000
  24120321.251    24120321.585    24120319.044    -6596399.968 2  -5140045.034 2
        13.900          15.100
  23394238.783    23394238.032    23394237.789    -8852331.064 4  -6897917.887 4
        27.100          26.500
  23981462.758    23981462.315    23981460.095    -5959597.472 3  -4643840.095 3
        23.000          23.000
  22985246.412    22985246.187    22985244.370   -10987795.844 4  -8561916.037 5
        29.900          30.600
  20360107.342    20360106.771    20360104.217   -24866198.558 6 -19376251.814 7
        38.600          45.500
  24421136.079    24421135.506    24421135.491    -2683624.480 1  -2091134.604 2
         6.500          12.600
  25187774.186    25187775.139    25187773.335     -518473.407 1   -404005.164 2
         9.000          15.100
 09  1 23  1 57  0.0000000  0 11G22G 5G 9G11G18G32G12G31G14G30G17
  21529241.214    21529240.906    21529237.826   -19043294.104 6 -14838920.710 6
        38.600          37.900
  23683902.747    23683901.790    23683901.220    -7521448.603 3  -5860866.915 3
        23.800          22.100
  23581047.526    23581047.209    23581046.046    -6863696.478 2  -5348327.094 3
        17.800          19.900
  22651943.370    22651942.918    22651941.111   -11635874.342 5  -9066913.241 4
        30.600          28.800
  24139892.180    24139891.578    24139890.472    -6493554.162 2  -5059905.484 2
        12.600          13.900
  23377406.579    23377405.980    23377405.719    -8940783.362 4  -6966841.739 4
        27.400          26.200
  23972275.061    23972274.578    23972272.238    -6007878.338 3  -4681461.571 3
        23.000          22.600
  22965534.877    22965534.906    22965532.875   -11091380.964 5  -8642631.690 5
        30.800          31.100
  20360639.072    20360638.524    20360637.329   -24863403.633 6 -19374073.947 7
        38.600          45.200
  24402691.446    24402691.778    24402692.725    -2780553.129 1  -2166663.318 2
         9.000          13.900
  25180183.135    25180182.047    25180181.481     -558373.166 2   -435095.915 2
        12.600          17.000
 09  1 23  1 57 30.0000000  0 11G22G 5G 9G11G18G32G12G31G14G30G17
  21542840.494    21542840.218    21542837.041   -18971829.345 6 -14783233.892 6
        38.400          37.700
  23672117.438    23672116.300    23672115.743    -7583378.943 3  -5909124.308 3
        22.600          22.100
  23601748.072    23601747.323    23601745.767    -6754918.636 2  -5263565.160 3
        17.000          19.900
  22647950.607    22647950.137    22647948.445   -11656856.401 5  -9083262.896 4
        31.000          28.800
  24159490.431    24159490.163    24159489.641    -6390560.976 1  -4979651.091 2
        11.000          12.600
  23360601.482    23360600.787    23360600.142    -9029097.126 4  -7035657.656 4
        28.600          25.900
  23963180.806    23963180.116    23963178.055    -6055669.207 3  -4718701.187 3
        22.600          23.000
  22945871.792    22945872.024    22945869.999   -11194709.948 5  -8723147.765 5
        31.000          31.500
  20361254.151    20361253.557    20361250.991   -24860172.028 6 -19371555.814 7
        38.600          45.400
  24384288.436    24384288.680    24384286.930    -2877273.472 2  -2242029.761 2
        15.100          16.100
  25172689.268    25172688.952    25172684.925     -597757.115 2   -465784.627 2
        15.100          13.900
 09  1 23  1 58  0.0000000  0 11G22G 5G 9G11G18G32G12G31G14G30G17
  21556505.094    21556504.835    21556501.528   -18900021.519 6 -14727279.749 6
        38.500          37.500
  23660424.047    23660423.042    23660423.156    -7644828.106 3  -5957006.758 3
        23.000          23.400
  23622510.421    23622509.563    23622507.339    -6645812.806 2  -5178547.651 3
        17.000          18.600
  22644068.004    22644067.770    22644066.004   -11677259.264 5  -9099161.229 4
        31.300          28.800
  24179119.308    24179118.460    24179117.066    -6287415.183 2  -4899277.795 2
        12.600          12.600
  23343824.010    23343823.047    23343822.733    -9117264.304 4  -7104359.364 4
        28.400          26.500
  23954181.064    23954181.153    23954179.523    -6102961.201 3  -4755552.081 3
        23.400          23.400
  22926259.121    22926259.553    22926257.922   -11297773.517 5  -8803457.024 5
        31.000          32.100
  20361953.338    20361952.769    20361951.551   -24856497.491 6 -19368692.534 7
        38.600          45.300
  24365922.403    24365923.297    24365923.568    -2973775.893 2  -2317226.414 2
        15.100          16.100
  25165292.348    25165293.155    25165289.432     -636616.890 1   -496065.016 2
         6.500          12.600
 09  1 23  1 58 30.0000000  0 11G22G 5G 9G11G18G32G12G31G14G30G17
  21570233.015    21570232.661    21570229.358   -18827881.667 6 -14671066.882 6
        38.500          37.600
  23648820.809    23648820.159    23648820.273    -7705803.492 3  -6004520.041 4
        23.000          24.200
  23643331.343    23643330.966    23643329.411    -6536392.492 2  -5093285.059 2
        17.000          17.800
  22640293.879    22640293.574    22640291.734   -11697092.563 5  -9114615.747 4
        31.000          28.600
  24198775.219    24198774.418    24198772.757    -6184128.142 2  -4818794.378 2
        13.900          12.600
  23327072.420    23327071.734    23327071.562    -9205293.630 4  -7172953.633 4
        27.600          27.400
  23945275.744    23945275.289    23945273.052    -6149762.218 3  -4792020.408 3
        23.000          23.000
  22906696.395    22906696.164    22906694.605   -11400579.216 5  -8883565.339 5
        31.100          32.100
  20362734.731    20362734.263    20362731.689   -24852390.616 6 -19365492.373 7
        38.600          45.300
  24347599.947    24347600.626    24347599.553    -3070067.084 2  -2392258.516 2
        15.100          16.100
  25157995.490    25157995.264    25157995.753     -674961.650     -525943.953 2
         3.000          15.100
 09  1 23  1 59  0.0000000  0 11G22G 5G 9G11G18G32G12G31G14G30G17
  21584024.582    21584024.244    21584020.912   -18755406.518 6 -14614592.750 6
        38.400          37.300
  23637309.237    23637308.032    23637307.452    -7766298.546 3  -6051659.028 3
        23.000          22.600
  23664213.318    23664212.264    23664211.508    -6426656.654 2  -5007776.613 2
        15.100          17.800
  22636628.907    22636628.632    22636626.854   -11716351.493 5  -9129622.705 4
        31.000          28.600
  24218457.508    24218456.956    24218454.942    -6080697.129 2  -4738198.783 2
        12.600          13.900
  23310348.412    23310347.670    23310347.272    -9293179.800 4  -7241436.347 4
        27.100          27.900
  23936463.769    23936463.981    23936461.231    -6196066.247 3  -4828101.459 3
        23.400          23.400
  22887183.197    22887183.209    22887181.657   -11503120.599 5  -8963467.693 5
        31.300          32.100
  20363599.061    20363598.540    20363597.347   -24847848.296 6 -19361952.899 7
        38.600          45.000
  24329316.557    24329317.515    24329316.865    -3166139.691 2  -2467120.261 2
        12.600          15.100
  25150799.775    25150798.937    25150795.887     -712785.664 1   -555417.229 2
         6.500          13.900
 09  1 23  1 59 30.0000000  0 11G22G 5G 9G11G18G32G12G31G14G30G17
  21597878.555    21597878.169    21597874.892   -18682602.895 6 -14557862.661 6
        38.100          37.200
  23625888.035    23625887.087    23625886.664    -7826316.054 3  -6098425.907 3
        23.400          23.400
  23685154.298    23685153.880    23685152.533    -6316614.125 2  -4922029.192 3
        16.100          18.600
  22633072.618    22633072.342    22633070.113   -11735040.932 5  -9144185.901 4
        31.500          28.100
  24238164.267    24238164.192    24238163.193    -5977128.744 1  -4657496.219 2
         9.000          16.100
  23293650.300    23293649.541    23293649.668    -9380926.866 4  -7309810.654 4
        27.400          28.100
  23927747.010    23927746.897    23927744.482    -6241876.696 4  -4863797.922 3
        24.200          23.400
  22867719.829    22867719.841    22867718.227   -11605400.503 5  -9043166.301 5
        31.300          31.500
  20364545.339    20364544.782    20364542.167   -24842876.095 6 -19358078.458 7
        38.700          45.300
  24311076.145    24311076.538    24311076.477    -3261995.901 1  -2541813.362 2
        11.000          17.000
  25143699.497    25143700.576    25143696.828     -750093.297 1   -584488.145 1
         9.000          11.000
                            4 15
RINEX FILE SPLICE                                           COMMENT
teqc  2008Oct2      WCDA Operator       20090123 03:18:40UTCCOMMENT
STATION INFORMATION EFFECTIVE FROM: 2001/01/13 18:20:00     COMMENT
                                TO: CURRENT DATE (above)    COMMENT
BIT 2 OF LLI FLAGS (+4) DATA COLLECTED UNDER 'AS' CONDITION COMMENT
L1 PHASE CENTRE 0.110m ABOVE ARP                            COMMENT
L2 PHASE CENTRE 0.128m ABOVE ARP                            COMMENT
where ARP is the Antenna Reference Point for HI measurement COMMENT
CONTACT gps@pgc.nrcan.gc.ca FOR ADDITIONAL INFORMATION      COMMENT
    P1 =    P1  TurboRogue; =    Y1  Benchmark              COMMENT
    L1 = L1(CA)                                             COMMENT
    P2 =    P2  TurboRogue; =    Y2  Benchmark              COMMENT
    L2 = L2(P2) TurboRogue; = L2(Y2) Benchmark              COMMENT
 SNR is mapped to RINEX snr flag value [0-9]                COMMENT
  L1 & L2: min(max(int(snr_dBHz/6), 0), 9)                  COMMENT
 09  1 23  2  0  0.0000000  0 11G22G 5G 9G11G18G32G12G31G14G30G17
  21611796.148    21611795.859    21611792.774   -18609464.843 6 -14500871.981 6
        38.100          37.300
  23614559.543    23614558.677    23614558.618    -7885846.568 3  -6144813.303 3
        23.800          23.400
  23706153.706    23706152.864    23706152.044    -6206261.321 2  -4836039.998 3
        15.100          18.600
  22629625.288    22629625.115    22629623.505   -11753154.103 5  -9158300.059 4
        31.300          28.800
  24257898.904    24257898.214    24257899.101    -5873417.816 1  -4576682.596 2
         6.500          16.100
  23276980.217    23276979.549    23276979.913    -9468526.532 4  -7378070.116 4
        27.600          27.900
  23919123.994    23919123.951    23919122.183    -6287184.919 3  -4899103.016 3
        23.000          23.800
  22848307.909    22848308.133    22848306.484   -11707409.825 5  -9122654.069 5
        31.300          31.500
  20365574.386    20365573.880    20365572.788   -24837467.869 6 -19353864.252 7
        38.600          45.200
  24292879.374    24292879.866    24292879.091    -3357625.560 2  -2616329.936 2
        13.900          17.800
  25136698.958    25136699.002    25136698.661     -786876.191     -613150.136 2
         3.000          15.100
 09  1 23  2  0 30.0000000  0 11G22G 5G 9G11G18G32G12G31G14G30G17
  21625777.703    21625777.395    21625774.134   -18535991.756 6 -14443620.230 6
        38.100          37.100
  23603325.239    23603324.437    23603323.559    -7944885.792 4  -6190817.875 3
        24.600          23.400
  23727212.052    23727210.951    23727210.467    -6095599.559 2  -4749810.067 3
        15.100          18.600
  22626288.939    22626288.632    22626287.069   -11770688.451 5  -9171963.185 4
        31.600          29.000
  24277663.350    24277663.015    24277660.821    -5769564.041 2  -4495757.627 2
        12.600          16.100
  23260339.324    23260338.878    23260339.093    -9555975.861 4  -7446212.445 4
        27.900          27.900
  23910599.049    23910598.832    23910597.035    -6331986.986 3  -4934013.710 4
        22.600          24.600
  22828948.344    22828948.422    22828946.974   -11809144.384 5  -9201927.726 5
        31.100          31.300
  20366686.762    20366686.206    20366683.668   -24831622.672 6 -19349309.552 7
        38.600          45.200
  24274724.452    24274724.823    24274725.152    -3453023.449 1  -2690665.902 3
        11.000          19.300
  25129801.952    25129800.949    25129799.527     -823131.308     -641400.933 2
                        12.600
 09  1 23  2  1  0.0000000  0 11G22G 5G 9G11G18G32G12G31G14G30G17
  21639822.299    21639821.925    21639818.695   -18462186.736 6 -14386109.830 6
        37.700          36.900
  23592183.778    23592182.652    23592182.506    -8003433.167 3  -6236439.210 3
        23.400          23.400
  23748327.783    23748327.061    23748326.059    -5984634.169 2  -4663343.534 2
        15.100          17.000
  22623061.965    22623061.827    22623059.946   -11787645.378 5  -9185176.376 4
        32.300          28.600
  24297454.070    24297453.212    24297450.119    -5665570.747 2  -4414723.940 2
        16.100          16.100
  23243726.974    23243726.308    23243726.352    -9643275.537 4  -7514238.146 4
        28.100          27.900
  23902169.556    23902169.138    23902167.709    -6376282.963 3  -4968530.039 4
        22.100          24.200
  22809641.311    22809641.375    22809639.815   -11910604.077 5  -9280987.207 5
        31.500          31.800
  20367881.839    20367881.241    20367880.053   -24825342.889 6 -19344416.212 7
        38.600          45.300
  24256616.193    24256616.539    24256615.486    -3548188.437 2  -2764820.355 3
        15.100          19.900
  25123001.688    25123000.894    25122997.355     -858859.623     -669241.112 1
                         6.500
 09  1 23  2  1 30.0000000  0 11G22G 5G 9G11G18G32G12G31G14G30G17
  21653930.110    21653929.712    21653926.423   -18388050.301 6 -14328341.193 6
        37.600          36.900
  23581136.542    23581135.684    23581135.659    -8061485.682 3  -6281674.923 3
        23.000          23.800
  23769500.197    23769499.788    23769499.219    -5873367.841 2  -4576642.484 2
        15.100          17.000
  22619945.586    22619945.218    22619943.053   -11804024.323 5  -9197939.193 4
        32.600          28.400
  24317269.542    24317268.943    24317266.476    -5561438.440 2  -4333581.922 2
        16.100          16.100
  23227143.429    23227142.454    23227142.555    -9730423.596 4  -7582145.702 4
        28.100          28.400
  23893837.856    23893837.660    23893834.937    -6420070.031 3  -5002649.850 4
        23.800          24.200
  22790387.407    22790387.424    22790385.542   -12011785.659 5  -9359829.985 5
        32.000          32.000
  20369159.397    20369158.865    20369156.395   -24818628.730 6 -19339184.400 7
        38.600          45.100
  24238551.941    24238552.234    24238551.596    -3643116.652 3  -2838790.351 3
        18.600          20.500
  25116304.252    25116304.258    25116303.297     -894059.070 2   -696669.179 2
        12.600          12.600
 09  1 23  2  2  0.0000000  0 11G22G 5G 9G11G18G32G12G31G14G30G17
  21668099.392    21668099.001    21668095.847   -18313590.094 6 -14270320.261 6
        37.700          36.900
  23570183.474    23570182.566    23570181.763    -8119047.420 4  -6326528.212 3
        24.200          23.400
  23790728.978    23790728.988    23790727.398    -5761810.496 2  -4489714.676 2
        13.900          17.800
  22616937.582    22616937.310    22616935.130   -11819831.516 5  -9210256.483 4
        32.800          28.600
  24337109.647    24337109.160    24337106.291    -5457175.065 2  -4252337.755 2
        15.100          15.100
  23210587.618    23210586.570    23210586.832    -9817425.382 4  -7649939.277 4
        28.600          29.000
  23885601.030    23885600.666    23885598.321    -6463352.996 3  -5036376.822 4
        23.800          24.600
  22771185.382    22771185.230    22771183.504   -12112693.490 5  -9438459.445 5
        32.100          32.300
  20370518.325    20370517.848    20370516.716   -24811487.280 6 -19333619.632 7
        38.600          45.000
  24220531.890    24220532.327    24220531.375    -3737811.436 2  -2912578.469 3
        17.800          19.300
  25109706.957    25109706.332    25109703.458     -928735.256 2   -723689.664 2
        15.100          13.900
 09  1 23  2  2 30.0000000  0 11G22G 5G 9G11G18G32G12G31G14G30G17
  21682330.369    21682329.982    21682326.949   -18238805.085 6 -14212046.237 6
        37.500          36.600
  23559323.825    23559322.909    23559322.702    -8176113.439 4  -6370995.242 3
        24.200          23.400
  23812013.076    23812012.662    23812011.394    -5649963.013 2  -4402560.810 3
        12.600          18.600
  22614039.200    22614038.821    22614036.315   -11835063.914 5  -9222125.886 4
        32.700          28.600
  24356975.949    24356975.007    24356972.513    -5352779.701 1  -4170990.746 2
        11.000          15.100
  23194059.835    23194059.179    23194059.264    -9904277.100 4  -7717615.915 4
        29.200          29.200
  23877461.049    23877460.943    23877459.218    -6506127.709 3  -5069707.748 4
        23.000          24.900
  22752036.355    22752036.323    22752034.618   -12213322.781 5  -9516871.856 5
        32.600          32.700
  20371958.993    20371958.457    20371956.023   -24803916.765 6 -19327720.529 7
        38.600          45.200
  24202556.843    24202557.512    24202556.161    -3832267.783 2  -2986180.771 2
        16.100          16.100
  25103204.933    25103202.275    25103204.939     -962884.551     -750299.481 2
                        13.900
 09  1 23  2  3  0.0000000  0 11G22G 5G 9G11G18G32G12G31G14G30G17
  21696623.230    21696623.036    21696620.030   -18163694.361 6 -14153518.406 6
        37.300          36.500
  23548559.609    23548558.488    23548558.436    -8232679.336 3  -6415072.560 3
        23.400          23.400
  23833351.016    23833350.446    23833350.863    -5537826.836 1  -4315181.976 2
        11.000          17.800
  22611250.026    22611249.780    22611247.869   -11849719.357 5  -9233545.710 4
        32.600          28.800
  24376865.396    24376865.368    24376863.868    -5248252.148    -4089540.744 2
         3.000          12.600
  23177561.969    23177561.279    23177560.742    -9990975.398 5  -7785173.017 4
        30.100          28.400
  23869419.211    23869419.155    23869416.648    -6548390.189 4  -5102639.547 4
        24.600          25.600
  22732941.164    22732941.163    22732939.346   -12313669.214 5  -9595063.868 5
        33.100          32.700
  20373481.527    20373480.974    20373479.855   -24795915.954 6 -19321486.129 7
        38.600          45.200
  24184628.459    24184629.502    24184628.972    -3926479.674 2  -3059592.613 2
        15.100          17.000
  25096808.237    25096810.699    25096807.482     -996503.869 1   -776496.260 2
         9.000          13.900
 09  1 23  2  3 30.0000000  0 11G22G 5G 9G11G18G32G12G31G14G30G17
  21710978.735    21710978.381    21710975.246   -18088257.779 6 -14094736.665 6
        37.500          36.600
  23537891.276    23537890.393    23537889.891    -8288741.644 3  -6458757.461 3
        23.800          23.400
  23854743.757    23854743.721    23854745.136    -5425403.754 1  -4227579.564 2
         9.000          17.800
  22608571.397    22608571.013    22608568.830   -11863796.529 5  -9244514.945 4
        32.700          28.800
  24396780.714    24396780.305    24396778.989    -5143592.288    -4007987.672 2
         3.000          12.600
  23161093.791    23161092.647    23161092.447   -10077517.898 4  -7852608.725 4
        29.900          28.400
  23861474.414    23861474.492    23861472.613    -6590137.607 4  -5135170.005 4
        24.600          25.300
  22713900.420    22713900.380    22713898.684   -12413729.257 5  -9673032.723 5
        33.000          33.100
  20375085.991    20375085.453    20375083.089   -24787484.444 6 -19314916.121 7
        38.700          45.400
  24166749.129    24166749.036    24166748.749    -4020443.048 2  -3132810.783 2
        15.100          17.800
  25090511.566    25090511.064    25090509.610    -1029591.296     -802278.748 2
                        12.600
 09  1 23  2  4  0.0000000  0 11G22G 5G 9G11G18G32G12G31G14G30G17
  21725395.497    21725395.110    21725392.074   -18012496.899 6 -14035702.219 6
        37.300          36.400
  23527319.439    23527318.613    23527318.427    -8344298.015 3  -6502048.136 3
        23.800          23.800
  23876191.560    23876191.565    23876192.190    -5312697.276 1  -4139756.361 2
         9.000          17.800
  22606002.547    22606002.237    22606000.280   -11877295.450 5  -9255033.586 4
        32.400          29.200
  24416724.647    24416722.719    24416720.033    -5038801.706    -3926332.755 2
         3.000          13.900
  23144654.499    23144653.928    23144653.881   -10163903.573 4  -7919922.227 4
        29.000          28.600
  23853628.891    23853628.870    23853626.202    -6631368.360 4  -5167297.866 4
        24.900          24.600
  22694914.615    22694914.379    22694912.768   -12513500.842 5  -9750776.798 5
        33.000          33.400
  20376772.289    20376771.736    20376770.678   -24778623.099 6 -19308011.175 7
        38.700          45.400
  24148916.063    24148915.786    24148915.494    -4114154.753 2  -3205832.854 3
        13.900          19.300
  25084317.957    25084318.191    25084314.869    -1062145.259 1   -827645.524 2
         9.000          12.600
 09  1 23  2  4 30.0000000  0 11G22G 5G 9G11G18G32G12G31G14G30G17
  21739874.704    21739874.389    21739871.180   -17936407.916 6 -13976412.110 6
        37.200          36.200
  23516843.965    23516843.408    23516843.606    -8399341.411 3  -6544939.082 3
        23.000          23.800
  23897694.692    23897694.102    23897692.987    -5199706.026 1  -4051711.250 2
        11.000          17.000
  22603544.487    22603544.195    22603542.561   -11890211.025 5  -9265097.673 4
        32.100          29.500
  24436690.760    24436689.200    24436686.361    -4933877.454    -3844573.639 2
         3.000          12.600
  23128246.766    23128245.950    23128246.209   -10250126.171 4  -7987108.650 4
        28.400          28.400
  23845882.233    23845882.261    23845880.002    -6672075.725 4  -5199017.890 4
        24.600          24.600
  22675984.596    22675984.646    22675983.082   -12612976.998 5  -9828290.661 5
        33.200          33.500
  20378541.062    20378540.480    20378538.100   -24769327.901 6 -19300768.163 7
        38.700          45.300
  24131131.800    24131132.376    24131132.307    -4207606.942 2  -3278652.678 3
        13.900          18.600
  25078226.022    25078225.510    25078224.642    -1094160.480 1   -852592.408 2
        11.000          16.100
 09  1 23  2  5  0.0000000  0 11G22G 5G 9G11G18G32G12G31G14G30G17
  21754416.476    21754416.178    21754412.917   -17859990.731 6 -13916866.256 6
        37.200          36.200
  23506468.696    23506468.084    23506467.559    -8453867.887 3  -6587427.235 3
        23.800          23.800
  23919251.589    23919250.357    23919248.229    -5086431.991 2  -3963445.767 2
        12.600          16.100
  22601198.200    22601197.987    22601195.990   -11902541.696 5  -9274705.988 4
        32.100          29.200
  24456680.778    24456679.939    24456678.882    -4828819.306    -3762710.204 1
         3.000          11.000
  23111870.982    23111870.236    23111870.121   -10336183.028 4  -8054165.918 4
        28.600          28.600
  23838236.025    23838236.131    23838233.937    -6712256.187 4  -5230327.324 4
        24.200          24.900
  22657111.518    22657111.698    22657110.183   -12712153.780 5  -9905571.258 5
        33.100          33.500
  20380392.621    20380392.096    20380390.905   -24759597.966 6 -19293186.393 7
        38.700          45.300
  24113398.653    24113399.261    24113398.493    -4300794.929 2  -3351266.668 3
        13.900          18.600
  25072234.791    25072235.432    25072230.982    -1125634.041 1   -877117.256 1
         6.500           9.000
 09  1 23  2  5 30.0000000  0 11G22G 5G 9G11G18G32G12G31G14G30G17
  21769018.452    21769018.231    21769015.241   -17783255.769 6 -13857072.789 6
        36.800          36.400
  23496189.598    23496188.478    23496188.724    -8507884.427 4  -6629518.049 4
        24.200          24.200
  23940857.381    23940856.161    23940854.571    -4972887.846 2  -3874969.791 2
        13.900          16.100
  22598961.010    22598960.741    22598959.243   -11914296.249 5  -9283865.390 4
        31.500          29.500
  24476695.983    24476695.501    24476694.427    -4723637.739    -3680750.605 1
                         9.000
  23095524.995    23095524.255    23095523.972   -10422081.949 4  -8121100.132 4
        28.800          28.400
  23830689.208    23830688.759    23830686.778    -6751917.241 4  -5261232.045 4
        24.900          25.300
  22638294.652    22638294.734    22638292.788   -12811038.199 5  -9982624.040 5
        33.400          33.100
  20382325.038    20382324.509    20382322.037   -24749443.292 6 -19285273.660 7
        38.800          45.500
  24095714.774    24095715.454    24095714.510    -4393724.659 2  -3423679.411 2
        15.100          17.800
  25066347.039    25066346.083    25066346.641    -1156574.181 1   -901226.494 2
         6.500          12.600
 09  1 23  2  6  0.0000000  0 11G22G 5G 9G11G18G32G12G31G14G30G17
  21783680.819    21783680.405    21783677.261   -17706206.337 6 -13797034.289 6
        36.800          36.300
  23486008.025    23486007.194    23486007.263    -8561390.821 4  -6671211.347 4
        24.200          24.200
  23962513.590    23962513.353    23962511.874    -4859078.562 2  -3786287.231 2
        12.600          15.100
  22596833.630    22596833.324    22596831.327   -11925477.025 5  -9292577.680 4
        31.600          29.000
  24496735.288    24496733.872    24496733.316    -4618336.578 1  -3598697.801 2
         6.500          12.600
  23079208.928    23079207.847    23079207.626   -10507823.941 4  -8187912.061 4
        28.800          28.400
  23823240.428    23823240.107    23823238.504    -6791059.685 3  -5291732.657 4
        23.400          25.600
  22619533.300    22619533.319    22619531.347   -12909630.244 5 -10059448.995 5
        33.500          33.400
  20384337.743    20384337.168    20384336.050   -24738866.589 6 -19277032.072 7
        38.900          45.600
  24078080.796    24078080.618    24078080.255    -4486395.094 2  -3495890.120 2
        17.800          17.800
  25060561.625    25060561.609    25060563.829    -1186982.302 1   -924921.146 2
        11.000          12.600
 09  1 23  2  6 30.0000000  0 11G22G 5G 9G11G18G32G12G31G14G30G17
  21798402.892    21798402.570    21798399.271   -17628840.575 6 -13736749.294 5
        36.600          35.900
  23475923.892    23475922.878    23475923.131    -8614381.602 4  -6712502.853 4
        24.200          24.600
  23984220.418    23984220.728    23984220.061    -4745004.379 2  -3697398.264 2
        12.600          16.100
  22594816.036    22594815.659    22594813.523   -11936080.651 5  -9300840.246 4
        32.000          28.800
  24516797.551    24516796.595    24516794.820    -4512914.206 1  -3516550.517 2
         9.000          12.600
  23062923.224    23062922.430    23062922.407   -10593404.333 4  -8254598.079 4
        29.200          28.600
  23815891.090    23815891.082    23815889.231    -6829678.381 3  -5321825.142 4
        23.000          24.900
  22600828.803    22600828.654    22600826.426   -13007924.397 5 -10136041.822 5
        34.100          33.400
  20386431.035    20386430.519    20386428.002   -24727865.573 6 -19268459.854 7
        38.700          45.300
  24060497.515    24060497.642    24060495.832    -4578799.714 3  -3567893.667 2
        19.300          17.800
  25054878.074    25054878.088    25054874.172    -1216854.292 2   -948197.911 1
        15.100           6.500
 09  1 23  2  7  0.0000000  0 11G22G 5G 9G11G18G32G12G31G14G30G17
  21813185.571    21813185.235    21813181.821   -17551157.283 6 -13676216.865 5
        36.700          35.500
  23465939.990    23465938.640    23465938.135    -8666852.191 4  -6753389.019 4
        24.600          24.900
  24005978.312    24005978.417    24005977.942    -4630666.369 1  -3608303.728 2
        11.000          17.000
  22592908.652    22592908.344    22592905.981   -11946104.726 5  -9308651.214 4
        32.400          28.800
  24536883.454    24536882.491    24536879.270    -4407369.936 2  -3434308.283 2
        12.600          12.600
  23046669.306    23046668.508    23046668.355   -10678819.545 4  -8321155.369 4
        29.900          28.800
  23808642.966    23808642.950    23808640.689    -6867769.710 4  -5351506.686 4
        24.200          24.600
  22582181.132    22582181.230    22582179.359   -13105915.878 5 -10212398.803 5
        33.900          33.900
  20388605.521    20388604.906    20388603.889   -24716438.642 6 -19259555.749 7
        38.700          45.300
  24042965.006    24042964.938    24042963.556    -4670933.350 3  -3639686.081 3
        19.900          18.600
  25049295.549    25049295.940    25049294.056    -1246186.688 1   -971054.417 2
        11.000          13.900
 09  1 23  2  7 30.0000000  0 11G22G 5G 9G11G18G32G12G31G14G30G17
  21828028.003    21828027.714    21828024.594   -17473159.185 6 -13615439.131 5
        36.500          35.700
  23456053.186    23456052.603    23456052.314    -8718801.864 4  -6793869.269 3
        24.200          23.800
  24027785.411    24027785.444    24027784.950    -4516069.003 1  -3519007.112 2
        11.000          17.000
  22591111.180    22591110.757    22591108.841   -11955550.725 5  -9316011.726 4
        32.100          29.200
  24556988.518    24556987.774    24556986.351    -4301706.303 1  -3351973.041 2
        11.000          13.900
  23030447.125    23030446.180    23030445.906   -10764069.779 5  -8387584.123 4
        30.800          29.000
  23801494.108    23801494.321    23801492.562    -6905332.934 4  -5380776.736 4
        24.600          24.900
  22563591.754    22563591.753    22563590.087   -13203604.156 5 -10288519.521 5
        34.100          34.100
  20390860.485    20390859.954    20390857.636   -24704588.174 6 -19250321.619 7
        38.700          45.200
  24025483.330    24025483.690    24025483.319    -4762794.256 2  -3711265.979 3
        17.800          18.600
  25043818.540    25043817.397    25043815.876    -1274980.120 1   -993490.794 2
         6.500          17.000
 09  1 23  2  8  0.0000000  0 11G 5G 9G11G18G32G12G31G14G30G17G22
  23446268.459    23446267.713    23446267.394    -8770222.483 4  -6833937.303 4
        24.600          24.200
  24049643.982    24049642.716    24049641.683    -4401210.024 2  -3429506.634 2
        12.600          16.100
  22589424.721    22589424.408    22589422.347   -11964412.797 5  -9322917.238 4
        32.400          29.000
  24577118.359    24577116.963    24577116.844    -4195918.731 1  -3269541.211 2
         6.500          12.600
  23014257.192    23014256.348    23014256.465   -10849147.869 5  -8453878.731 4
        30.800          29.900
  23794449.651    23794449.082    23794446.241    -6942360.940 4  -5409629.722 4
        25.300          24.600
  22545061.321    22545061.390    22545059.921   -13300981.404 5 -10364397.878 5
        34.100          34.300
  20393197.228    20393196.692    20393195.628   -24692309.237 6 -19240753.613 7
        38.800          45.500
  24008057.187    24008057.030    24008056.742    -4854373.121 3  -3782626.069 2
        18.600          17.800
  25038443.376    25038442.109    25038438.792    -1303227.859 1  -1015502.101 1
         6.500          11.000
  21842931.030    21842930.891    21842927.935   -17394841.919 6 -13554412.705 5
        36.200          35.700
 09  1 23  2  8 30.0000000  0 11G 5G 9G11G18G32G12G31G14G30G17G22
  23436583.863    23436583.247    23436583.098    -8821114.182 4  -6873593.154 4
        24.200          24.600
  24071549.105    24071548.928    24071547.667    -4286094.959 1  -3339806.595 2
        11.000          13.900
  22587848.769    22587848.446    22587846.375   -11972693.113 5  -9329369.442 4
        32.000          28.600
  24597272.131    24597271.459    24597270.348    -4090011.345 1  -3187016.062 1
         9.000          11.000
  22998099.864    22998098.979    22998098.907   -10934054.792 5  -8520039.957 4
        30.200          29.500
  23787504.246    23787503.722    23787501.886    -6978854.284 3  -5438066.098 4
        23.800          24.900
  22526590.228    22526590.292    22526588.693   -13398047.221 5 -10440033.562 5
        34.000          34.000
  20395614.773    20395614.293    20395611.960   -24679604.373 6 -19230853.719 7
        38.900          45.400
  23990685.354    23990685.390    23990682.864    -4945669.103 3  -3853765.805 2
        21.100          17.000
  25033169.825    25033170.835    25033165.137    -1330931.574 1  -1037089.290 1
         9.000           9.000
  21857894.750    21857894.457    21857891.237   -17316208.714 6 -13493140.090 5
        36.500          35.500
 09  1 23  2  9  0.0000000  0 11G 5G 9G11G18G32G12G31G14G30G17G22
  23427000.918    23426999.806    23426999.394    -8871475.489 4  -6912835.733 4
        24.900          24.600
  24093502.484    24093502.305    24093500.999    -4170727.657 1  -3249909.993 2
        11.000          12.600
  22586383.722    22586383.332    22586381.352   -11980392.442 5  -9335368.923 4
        32.000          28.800
  24617446.834    24617446.393    24617446.509    -3983986.359 1  -3104399.282 1
         6.500          11.000
  22981975.069    22981974.305    22981974.253   -11018789.929 5  -8586067.324 4
        30.400          29.000
  23780661.666    23780661.215    23780659.040    -7014812.305 3  -5466085.312 4
        23.400          24.600
  22508178.886    22508178.829    22508176.935   -13494800.207 5 -10515425.488 5
        34.300          33.800
  20398113.249    20398112.640    20398111.654   -24666475.600 6 -19220623.505 7
        38.900          45.700
  23973364.791    23973364.984    23973364.059    -5036679.777 3  -3924683.194 2
        18.600          17.800
  25028000.118    25028000.207    25027999.798    -1358090.816 1  -1058252.380 2
         6.500          15.100
  21872918.033    21872917.592    21872914.441   -17237261.930 6 -13431623.123 5
        36.500          35.500
 09  1 23  2  9 30.0000000  0 11G 5G 9G11G18G32G12G31G14G30G17G22
  23417517.817    23417516.828    23417516.346    -8921309.351 4  -6951667.318 4
        25.300          24.200
  24115504.563    24115503.672    24115500.549    -4055116.540 1  -3159823.396 2
        11.000          12.600
  22585028.216    22585027.962    22585025.847   -11987515.997 5  -9340919.742 4
        32.300          28.800
  24637644.137    24637643.542    24637642.611    -3877850.397 1  -3021696.017 1
         6.500           9.000
  22965882.615    22965881.775    22965881.455   -11103357.057 5  -8651963.780 4
        30.600          28.800
  23773920.839    23773920.449    23773918.014    -7050238.089 4  -5493689.832 4
        24.600          24.600
  22489826.492    22489826.375    22489824.569   -13591243.166 5 -10590575.834 5
        34.700          33.900
  20400690.995    20400690.477    20400688.240   -24652928.756 6 -19210067.523 7
        38.900          45.500
  23956100.012    23956100.219    23956099.504    -5127407.421 3  -3995380.016 3
        19.300          18.600
  25022935.587    25022935.223    25022933.127    -1384709.981 1  -1078994.628 2
        11.000          15.100
  21887999.493    21887999.125    21887996.085   -17158007.683 6 -13369866.581 5
        36.400          35.500
 09  1 23  2 10  0.0000000  0 11G 5G 9G11G18G32G12G31G14G30G17G22
  23408134.414    23408133.604    23408133.283    -8970619.100 4  -6990090.485 4
        25.300          24.900
  24137548.322    24137547.138    24137545.349    -3939270.322 1  -3069553.619 1
         9.000          11.000
  22583781.248    22583780.964    22583778.882   -11994069.254 5  -9346026.178 4
        32.400          29.000
  24657862.560    24657861.156    24657859.618    -3771610.451 1  -2938911.708 1
         9.000           9.000
  22949821.310    22949820.640    22949820.166   -11187760.392 5  -8717732.611 4
        31.100          29.700
  23767280.261    23767279.852    23767277.270    -7085135.875 4  -5520882.897 4
        24.900          24.900
  22471532.283    22471532.427    22471530.492   -13687379.804 5 -10665487.491 5
        35.200          34.100
  20403347.265    20403346.745    20403345.793   -24638970.011 6 -19199190.575 7
        38.900          45.600
  23938889.788    23938889.832    23938888.065    -5217854.082 3  -4065857.918 3
        19.900          19.300
  25017972.372    25017971.799    25017969.552    -1410793.918 1  -1099319.718 2
         9.000          15.100
  21903138.325    21903138.005    21903134.869   -17078452.730 6 -13307875.716 5
        36.300          35.500
 09  1 23  2 10 30.0000000  0 11G 5G 9G11G18G32G12G31G14G30G17G22
  23398855.689    23398854.674    23398854.264    -9019379.855 4  -7028085.886 4
        25.300          24.900
  24159641.098    24159639.921    24159638.355    -3823169.885 1  -2979085.785 1
         9.000          11.000
  22582646.857    22582646.632    22582644.474   -12000029.795 5  -9350670.763 4
        32.400          29.000
  24678102.646    24678102.406    24678100.862    -3665245.068 1  -2856029.629 1
        11.000           6.500
  22933795.312    22933794.588    22933794.439   -11271975.777 5  -8783354.980 4
        31.000          29.700
  23760744.093    23760743.847    23760740.978    -7119481.734 4  -5547645.911 4
        24.900          24.900
  22453301.047    22453301.198    22453299.318   -13783184.952 5 -10740140.841 5
        35.200          34.400
  20406086.067    20406085.537    20406083.392   -24624577.509 6 -19187975.640 7
        38.900          45.700
  23921735.532    23921735.705    23921735.329    -5307993.820 2  -4136096.644 3
        17.800          19.300
  25013115.279    25013114.455    25013112.975    -1436319.004 1  -1119209.365 2
         9.000          15.100
  21918338.238    21918338.044    21918335.163   -16998575.592 5 -13245633.804 5
        35.900          35.600
 09  1 23  2 11  0.0000000  0 11G 5G 9G11G18G32G12G31G14G30G17G22
  23389678.989    23389677.812    23389677.631    -9067603.280 4  -7065662.566 4
        24.600          24.900
  24181778.933    24181777.924    24181775.984    -3706831.803 1  -2888432.769 1
         9.000          11.000
  22581622.760    22581622.573    22581620.639   -12005411.315 5  -9354864.158 4
        32.400          29.200
  24698364.798    24698365.076    24698362.176    -3558769.668 1  -2773061.801 1
        11.000           9.000
  22917803.265    22917802.392    22917801.956   -11356015.699 5  -8848840.629 4
        31.000          29.900
  23754309.814    23754310.272    23754308.917    -7153287.490 3  -5573988.044 4
        23.800          26.200
  22435130.824    22435130.853    22435129.050   -13878670.145 5 -10814544.872 5
        35.200          34.500
  20408904.686    20408904.150    20408903.113   -24609765.799 6 -19176434.044 7
        39.000          45.600
  23904639.379    23904639.070    23904638.786    -5397837.259 3  -4206104.468 3
        18.600          19.900
  25008363.673    25008363.310    25008358.929    -1461298.279 2  -1138673.814 2
        16.100          13.900
  21933596.745    21933596.624    21933593.385   -16918391.569 6 -13183152.762 5
        36.100          35.100
 09  1 23  2 11 30.0000000  0 11G 5G 9G11G18G32G12G31G14G30G17G22
  23380604.776    23380603.821    23380603.269    -9115288.593 4  -7102819.953 4
        25.300          24.600
  24203961.279    24203960.732    24203959.809    -3590260.946 1  -2797598.368 1
         9.000          11.000
  22580708.418    22580708.173    22580706.359   -12010215.208 5  -9358607.457 4
        32.100          29.000
  24718647.002    24718646.653    24718644.622    -3452186.990 1  -2690010.397 1
         6.500           9.000
  22901844.174    22901843.312    22901843.447   -11439880.124 5  -8914189.520 5
        30.800          30.200
  23747980.304    23747980.068    23747978.686    -7186552.723 4  -5599909.003 4
        24.600          26.800
  22417021.781    22417021.893    22417019.624   -13973834.538 5 -10888698.925 5
        35.600          34.300
  20411802.709    20411802.119    20411800.009   -24594536.912 6 -19164567.379 7
        39.100          45.900
  23887599.683    23887599.521    23887597.847    -5487382.935 3  -4275880.294 3
        20.500          19.300
  25003711.033    25003710.046    25003712.751    -1485732.291 1  -1157713.296 2
         9.000          17.800
  21948913.334    21948913.038    21948909.861   -16837903.160 5 -13120434.526 5
        35.900          34.900
 09  1 23  2 12  0.0000000  0 11G 5G 9G11G18G32G12G31G14G30G17G22
  23371634.180    23371633.201    23371632.794    -9162428.936 4  -7139552.691 4
        25.600          24.200
  24226189.403    24226188.968    24226187.133    -3473455.458 1  -2706581.161 1
        11.000          11.000
  22579904.889    22579904.694    22579902.786   -12014437.366 5  -9361897.450 4
        32.300          29.000
  24738946.698    24738945.873    24738948.813    -3345493.887    -2606872.944 1
                         9.000
  22885919.667    22885918.956    22885919.109   -11523562.965 5  -8979396.926 5
        30.400          30.200
  23741754.227    23741754.034    23741752.258    -7219271.226 4  -5625403.945 4
        24.200          26.500
  22398974.985    22398975.113    22398972.839   -14068670.985 5 -10962597.443 5
        35.700          34.500
  20414780.735    20414780.165    20414779.148   -24578886.964 6 -19152372.611 7
        39.100          45.800
  23870617.503    23870617.596    23870616.050    -5576622.596 3  -4345417.697 3
        20.500          19.900
  24999166.332    24999166.589    24999163.793    -1509615.457 1  -1176323.503 2
         6.500          12.600
  21964288.376    21964288.146    21964284.883   -16757106.934 5 -13057476.438 5
        35.800          34.800
