     2.11           OBSERVATION DATA    G (GPS)             RINEX VERSION / TYPE
teqc  2008Oct2      WCDA Operator       20090104 00:19:08UTCPGM / RUN BY / DATE
Solaris x86 5.10|AMD64|cc SC5.8 -xarch=amd64|=+|=+          COMMENT
teqc  2008Oct2      WCDA Operator       20090103 01:18:33UTCCOMMENT
flin  WCDA-ACP   965000   CFS Flin Flon SASK Canada         MARKER NAME
40135M001                                                   MARKER NUMBER
PGC-WCDA            GEOL. SURV. CANADA                      OBSERVER / AGENCY
1115                AOA BENCHMARK ACT   3.3.32.4            REC # / TYPE / VERS
231                 AOAD/M_T        SCIS                    ANT # / TYPE
  -766174.4630 -3611375.3160  5184056.2210                  APPROX POSITION XYZ
        0.1500        0.0000        0.0000                  ANTENNA: DELTA H/E/N
     1     1                                                WAVELENGTH FACT L1/2
     7    C1    P1    P2    L1    L2    S1    S2            # / TYPES OF OBSERV
STATION INFORMATION EFFECTIVE FROM: 2001/01/13 18:20:00     COMMENT
                                TO: CURRENT DATE (above)    COMMENT
BIT 2 OF LLI FLAGS (+4) DATA COLLECTED UNDER 'AS' CONDITION COMMENT
L1 PHASE CENTRE 0.110m ABOVE ARP                            COMMENT
L2 PHASE CENTRE 0.128m ABOVE ARP                            COMMENT
where ARP is the Antenna Reference Point for HI measurement COMMENT
CONTACT gps@pgc.nrcan.gc.ca FOR ADDITIONAL INFORMATION      COMMENT
    P1 =    P1  TurboRogue; =    Y1  Benchmark              COMMENT
    L1 = L1(CA)                                             COMMENT
    P2 =    P2  TurboRogue; =    Y2  Benchmark              COMMENT
    L2 = L2(P2) TurboRogue; = L2(Y2) Benchmark              COMMENT
 SNR is mapped to RINEX snr flag value [0-9]                COMMENT
  L1 & L2: min(max(int(snr_dBHz/6), 0), 9)                  COMMENT
  2009     1     3     0     0    0.0000000     GPS         TIME OF FIRST OBS
                                                            END OF HEADER
 09  1  3  0  0  0.0000000  0 10G21G26G 9G15G 6G18G 3G19G24G22
  20528859.381    20528858.552    20528857.103   -26466219.583 6 -20623018.632 7
        40.600          44.100
  22641850.809    22641850.308    22641849.707    -8724480.648 4  -6798284.782 4
        24.600          26.800
  24062981.558    24062981.801    24062981.046    -4211555.657 1  -3281729.101 2
        11.000          12.600
  21759043.362    21759043.146    21759041.908   -16274419.712 6 -12681353.549 6
        37.900          39.900
  22248852.110    22248851.632    22248851.340   -12651047.669 5  -9857953.826 5
        33.500          33.000
  20538293.022    20538292.254    20538290.464   -25050554.407 6 -19519903.357 7
        38.200          46.800
  22379066.559    22379065.748    22379066.066   -11484524.981 5  -8948975.055 5
        30.600          30.800
  24171436.104    24171434.946    24171434.206    -4543174.000 3  -3540134.990 4
        19.900          24.600
  23668071.022    23668070.346    23668072.304    -5700772.469 2  -4442154.589 3
        17.000          22.100
  21918645.756    21918645.233    21918642.693   -16983102.448 5 -13233578.076 6
        35.800          36.500
 09  1  3  0  0 30.0000000  0 10G21G26G 9G15G 6G18G 3G19G24G22
  20535899.669    20535898.817    20535897.389   -26429222.796 6 -20594189.967 7
        40.600          44.000
  22661067.702    22661067.277    22661066.865    -8623495.250 4  -6719594.870 4
        24.600          27.100
  24041854.733    24041854.445    24041854.714    -4322580.431 2  -3368241.864 2
        15.100          16.100
  21770066.588    21770066.587    21770065.351   -16216490.723 6 -12636214.063 6
        37.700          39.800
  22249190.453    22249189.852    22249190.136   -12649268.035 5  -9856567.080 5
        33.000          33.000
  20533959.460    20533958.629    20533957.816   -25073328.011 6 -19537649.006 7
        38.200          47.100
  22377478.720    22377477.772    22377478.071   -11492870.052 5  -8955477.667 5
        30.800          30.800
  24156154.216    24156152.802    24156152.053    -4623483.491 3  -3602713.828 4
        20.500          24.600
  23687159.036    23687158.556    23687160.162    -5600465.252 2  -4363993.176 3
        17.800          22.100
  21904302.095    21904301.742    21904299.270   -17058477.922 6 -13292312.186 6
        36.000          36.500
 09  1  3  0  1  0.0000000  0 10G21G26G 9G15G 6G18G 3G19G24G22
  20543033.409    20543032.632    20543031.030   -26391735.033 6 -20564978.721 7
        40.700          43.800
  22680357.945    22680357.545    22680356.596    -8522127.120 4  -6640606.726 4
        24.600          27.100
  24020763.986    24020763.245    24020764.253    -4433414.590 2  -3454606.074 2
        17.000          17.800
  21781180.987    21781180.913    21781179.634   -16158084.586 6 -12590702.774 6
        37.500          39.700
  22249638.689    22249638.252    22249638.439   -12646912.870 5  -9854731.873 5
        33.200          33.400
  20529699.072    20529698.249    20529696.310   -25095715.970 6 -19555094.156 7
        38.100          46.900
  22376008.268    22376007.333    22376007.427   -11500597.260 5  -8961498.832 5
        31.100          30.800
  24140944.878    24140942.941    24140941.639    -4703413.394 3  -3664996.872 3
        21.100          23.800
  23706277.106    23706276.572    23706277.879    -5500000.356 2  -4285708.889 3
        17.800          21.600
  21890008.908    21890008.467    21890005.981   -17133589.267 6 -13350840.488 6
        36.200          36.600
 09  1  3  0  1 30.0000000  0 10G21G26G 9G15G 6G18G 3G19G24G22
  20550261.543    20550260.652    20550258.980   -26353751.734 6 -20535381.345 7
        40.700          43.700
  22699720.852    22699720.298    22699719.318    -8420374.695 4  -6561319.112 4
        24.600          26.800
  23999711.012    23999710.390    23999711.227    -4544049.364 3  -3540814.972 3
        18.600          18.600
  21792386.807    21792386.604    21792385.397   -16099198.427 6 -12544817.446 6
        37.500          39.700
  22250197.309    22250196.676    22250196.931   -12643977.633 5  -9852444.657 5
        33.100          33.200
  20525513.077    20525512.342    20525511.518   -25117713.100 6 -19572234.759 7
        38.100          46.600
  22374656.316    22374655.585    22374655.582   -11507701.614 5  -8967034.668 5
        31.300          30.600
  24125808.635    24125807.145    24125804.338    -4782956.673 3  -3726978.633 3
        21.100          23.400
  23725426.355    23725425.244    23725426.403    -5399374.194 2  -4207298.931 3
        17.800          20.500
  21875767.111    21875766.601    21875764.245   -17208430.613 6 -13409158.399 6
        36.200          36.800
 09  1  3  0  2  0.0000000  0 10G21G26G 9G15G 6G18G 3G19G24G22
  20557582.065    20557581.266    20557579.605   -26315281.199 6 -20505404.308 7
        40.700          43.500
  22719154.430    22719154.037    22719153.172    -8318249.065 4  -6481740.711 4
        24.600          27.100
  23978695.148    23978694.275    23978695.126    -4654489.127 2  -3626871.884 3
        17.800          19.900
  21803681.818    21803681.751    21803680.584   -16039842.055 6 -12498565.717 6
        37.300          39.700
  22250864.760    22250864.188    22250864.280   -12640470.111 5  -9849711.504 5
        33.200          33.200
  20521400.173    20521399.282    20521397.354   -25139327.294 6 -19589076.993 7
        38.100          46.800
  22373421.478    22373420.645    22373420.904   -11514190.598 5  -8972090.988 5
        31.300          30.800
  24110743.044    24110741.508    24110740.108    -4862118.530 3  -3788663.206 3
        19.900          23.800
  23744604.507    23744602.941    23744603.059    -5298596.142 3  -4128770.616 3
        18.600          19.300
  21861575.330    21861574.865    21861572.397   -17283008.700 6 -13467271.177 6
        36.200          36.700
 09  1  3  0  2 30.0000000  0 10G21G26G 9G15G 6G18G 3G19G24G22
  20564996.849    20564996.005    20564994.521   -26276315.957 6 -20475041.780 7
        40.600          43.500
  22738659.981    22738659.786    22738658.986    -8215745.772 4  -6401868.034 4
        24.200          27.600
  23957717.207    23957716.636    23957717.916    -4764722.634 2  -3712768.072 3
        16.100          20.500
  21815067.295    21815067.231    21815066.035   -15980010.084 6 -12451943.378 6
        37.200          39.400
  22251642.835    22251642.092    22251641.889   -12636382.999 5  -9846526.737 5
        33.500          33.100
  20517361.531    20517360.753    20517359.893   -25160550.190 6 -19605614.306 7
        38.100          46.700
  22372305.183    22372304.289    22372304.443   -11520056.736 5  -8976661.967 5
        31.500          31.100
  24095753.650    24095751.868    24095751.600    -4940888.947 3  -3850042.769 4
        19.300          24.200
  23763811.331    23763810.569    23763811.140    -5197659.999 3  -4050119.095 3
        19.900          19.300
  21847435.375    21847434.883    21847432.421   -17357314.745 6 -13525171.971 6
        36.400          36.800
 09  1  3  0  3  0.0000000  0 10G21G26G 9G15G 6G18G 3G19G24G22
  20572505.987    20572505.149    20572503.498   -26236855.599 6 -20444293.449 7
        40.600          43.300
  22758237.801    22758237.228    22758236.197    -8112867.089 4  -6321702.867 4
        24.200          27.600
  23936781.630    23936780.937    23936781.305    -4874745.445 2  -3798500.051 3
        17.000          22.600
  21826543.247    21826543.192    21826542.059   -15919703.648 6 -12404951.331 6
        37.200          39.500
  22252530.777    22252530.225    22252529.982   -12631715.440 5  -9842889.669 5
        33.600          33.100
  20513397.570    20513396.742    20513394.704   -25181380.990 6 -19621846.090 7
        38.100          46.600
  22371307.707    22371306.835    22371306.858   -11525298.869 5  -8980746.718 5
        31.600          31.100
  24080841.285    24080839.034    24080837.380    -5019264.450 3  -3911114.601 4
        20.500          24.200
  23783048.192    23783047.833    23783048.875    -5096565.908 3  -3971344.496 3
        18.600          19.300
  21833347.746    21833347.110    21833344.550   -17431347.061 6 -13582859.467 6
        36.700          36.900
 09  1  3  0  3 30.0000000  0 10G21G26G 9G15G 6G18G 3G19G24G22
  20580107.208    20580106.373    20580104.684   -26196910.919 6 -20413167.717 7
        40.600          43.100
  22777883.494    22777883.250    22777882.373    -8009626.846 4  -6241255.957 4
        24.600          26.800
  23915883.599    23915883.224    23915883.831    -4984564.033 2  -3884072.894 3
        16.100          23.400
  21838107.154    21838107.026    21838105.769   -15858935.395 6 -12357599.430 6
        37.100          39.300
  22253527.508    22253526.892    22253526.948   -12626478.219 5  -9838808.714 5
        33.600          33.400
  20509506.275    20509505.497    20509504.584   -25201829.892 6 -19637780.290 7
        38.100          46.700
  22370426.874    22370426.121    22370426.119   -11529927.331 5  -8984353.288 5
        32.000          31.100
  24065999.828    24065998.182    24065996.535    -5097252.890 3  -3971884.825 4
        21.100          24.200
  23802313.647    23802312.977    23802314.217    -4995325.679 3  -3892456.031 3
        18.600          19.900
  21819309.748    21819309.364    21819306.886   -17505115.365 6 -13640341.244 6
        36.700          37.000
 09  1  3  0  4  0.0000000  0 10G21G26G 9G15G 6G18G 3G19G24G22
  20587801.585    20587800.789    20587799.294   -26156475.614 6 -20381659.688 7
        40.600          43.000
  22797598.882    22797598.614    22797597.706    -7906021.400 3  -6160524.454 4
        23.800          26.200
  23895025.938    23895025.361    23895026.402    -5094168.538 2  -3969478.922 3
        15.100          23.000
  21849759.816    21849759.611    21849758.285   -15797700.699 6 -12309884.065 6
        37.100          39.200
  22254633.713    22254633.094    22254633.184   -12620664.851 5  -9834278.814 5
        33.600          33.100
  20505689.068    20505688.217    20505686.110   -25221889.677 6 -19653411.278 7
        38.100          46.600
  22369664.320    22369663.380    22369663.205   -11533935.784 5  -8987476.738 5
        31.800          31.300
  24051234.034    24051232.595    24051230.298    -5174845.481 3  -4032346.617 3
        21.100          23.800
  23821608.429    23821607.317    23821608.520    -4893933.924 2  -3813449.528 3
        17.000          20.500
  21805324.095    21805323.598    21805320.824   -17578611.993 6 -13697611.325 6
        37.000          36.900
 09  1  3  0  4 30.0000000  0 10G21G26G 9G15G 6G18G 3G19G24G22
  20595589.598    20595588.870    20595587.311   -26115549.603 6 -20349769.287 7
        40.700          43.000
  22817382.825    22817382.670    22817382.168    -7802053.482 3  -6079510.509 4
        22.600          25.600
  23874211.793    23874210.905    23874210.464    -5203554.337 2  -4054714.551 3
        15.100          23.000
  21861500.833    21861500.781    21861499.386   -15736000.906 6 -12261806.289 6
        37.200          39.100
  22255849.674    22255849.005    22255849.022   -12614275.026 5  -9829299.737 5
        33.200          33.100
  20501945.927    20501945.152    20501944.296   -25241559.204 6 -19668738.171 7
        38.100          46.500
  22369019.254    22369018.516    22369018.768   -11537323.149 5  -8990116.215 5
        31.300          31.300
  24036543.781    24036542.329    24036540.875    -5252038.943 3  -4092497.358 3
        18.600          23.000
  23840931.428    23840930.365    23840931.993    -4792391.316 2  -3734325.475 3
        16.100          21.100
  21791390.300    21791389.690    21791386.916   -17651835.301 6 -13754668.428 6
        37.000          37.200
 09  1  3  0  5  0.0000000  0 10G21G26G 9G15G 6G18G 3G19G24G22
  20603471.947    20603471.137    20603469.529   -26074128.470 6 -20317493.086 7
        40.800          42.900
  22837236.749    22837236.449    22837235.552    -7697721.474 3  -5998212.842 4
        22.600          25.300
  23853439.092    23853438.874    23853438.854    -5312713.106 2  -4139773.258 3
        17.000          23.800
  21873330.857    21873330.774    21873329.511   -15673833.599 6 -12213364.221 6
        37.200          39.100
  22257176.112    22257175.514    22257175.530   -12607304.071 5  -9823867.818 5
        33.400          33.100
  20498278.139    20498277.373    20498275.168   -25260833.955 6 -19683757.444 7
        38.000          46.600
  22368494.085    22368493.224    22368493.114   -11540084.861 5  -8992268.190 5
        31.600          31.300
  24021932.823    24021931.196    24021928.747    -5328826.062 3  -4152331.472 3
        19.900          23.000
  23860283.331    23860282.864    23860284.286    -4690694.419 2  -3655081.189 3
        17.000          21.100
  21777509.170    21777508.620    21777506.191   -17724779.587 6 -13811508.105 6
        37.100          37.400
 09  1  3  0  5 30.0000000  0 10G21G26G 9G15G 6G18G 3G19G24G22
  20611447.266    20611446.460    20611444.805   -26032218.045 6 -20284835.611 7
        40.700          42.800
  22857158.275    22857158.077    22857157.109    -7593034.215 3  -5916638.365 4
        23.400          25.900
  23832710.120    23832709.278    23832709.418    -5421646.797 2  -4224656.592 3
        16.100          23.000
  21885248.579    21885248.464    21885247.002   -15611206.253 6 -12164563.690 6
        37.100          39.000
  22258612.233    22258611.645    22258611.538   -12599757.870 5  -9817987.663 5
        33.400          33.200
  20494684.170    20494683.438    20494682.582   -25279719.294 6 -19698473.281 7
        38.000          46.200
  22368086.108    22368085.353    22368085.404   -11542226.867 5  -8993937.280 5
        31.300          31.000
  24007397.273    24007395.281    24007394.208    -5405209.580 3  -4211851.084 3
        21.100          23.800
  23879663.902    23879663.184    23879664.813    -4588850.138 2  -3575722.054 3
        16.100          21.600
  21763680.348    21763679.931    21763677.422   -17797449.844 6 -13868134.258 6
        37.400          37.300
 09  1  3  0  6  0.0000000  0 10G21G26G 9G15G 6G18G 3G19G24G22
  20619515.634    20619514.744    20619513.184   -25989818.978 6 -20251797.377 7
        40.700          42.800
  22877146.902    22877146.298    22877145.546    -7487995.157 3  -5834789.762 4
        23.400          25.600
  23812022.704    23812022.159    23812023.209    -5530352.041 2  -4309361.902 3
        13.900          21.600
  21897253.293    21897253.065    21897251.736   -15548121.242 6 -12115406.538 6
        36.900          39.000
  22260157.484    22260156.941    22260156.898   -12591637.189 5  -9811659.854 5
        33.400          33.200
  20491164.692    20491163.888    20491161.677   -25298215.318 6 -19712885.762 7
        38.000          46.400
  22367796.551    22367795.657    22367795.908   -11543749.008 5  -8995123.351 5
        31.300          31.100
  23992939.318    23992937.623    23992935.909    -5481187.915 3  -4271054.967 4
        22.100          24.200
  23899072.814    23899072.115    23899072.636    -4486860.192 2  -3496249.401 3
        16.100          21.100
  21749904.272    21749903.807    21749901.081   -17869844.066 6 -13924545.323 6
        37.400          37.300
 09  1  3  0  6 30.0000000  0 10G21G26G 9G15G 6G18G 3G19G24G22
  20627676.997    20627676.185    20627674.705   -25946929.874 6 -20218377.301 7
        40.700          42.700
  22897201.962    22897201.581    22897200.803    -7382605.351 3  -5752667.842 4
        23.400          25.900
  23791381.489    23791380.407    23791381.432    -5638823.316 1  -4393884.905 3
        11.000          20.500
  21909344.908    21909344.811    21909343.496   -15484578.931 6 -12065893.049 6
        37.000          39.000
  22261812.397    22261811.835    22261811.741   -12582940.278 5  -9804883.034 5
        33.100          33.000
  20487719.564    20487718.748    20487717.761   -25316319.399 6 -19726992.829 7
        38.000          46.400
  22367625.052    22367624.371    22367624.312   -11544650.115 5  -8995825.508 5
        31.600          31.100
  23978558.524    23978557.049    23978555.704    -5556756.592 3  -4329939.620 4
        22.100          24.200
  23918507.879    23918507.075    23918508.665    -4384723.920 2  -3416662.737 3
        13.900          20.500
  21736180.997    21736180.453    21736177.892   -17941960.168 6 -13980739.664 6
        37.400          37.600
 09  1  3  0  7  0.0000000  0 10G21G26G 9G15G 6G18G 3G19G24G22
  20635931.033    20635930.202    20635928.610   -25903554.836 6 -20184578.570 7
        40.800          42.600
  22917321.913    22917321.565    22917320.937    -7276872.037 3  -5670278.256 4
        22.600          25.900
  23770785.403    23770784.688    23770785.095    -5747060.744 2  -4478225.672 3
        15.100          22.100
  21921522.573    21921522.503    21921520.976   -15420584.977 6 -12016027.625 6
        37.100          38.600
  22263576.099    22263575.492    22263575.562   -12573671.271 5  -9797660.430 5
        33.100          33.000
  20484348.403    20484347.567    20484345.481   -25334035.078 6 -19740797.251 7
        37.800          46.400
  22367571.312    22367570.470    22367570.643   -11544933.395 5  -8996046.236 5
        31.300          31.300
  23964256.735    23964255.073    23964252.930    -5631916.991 3  -4388506.163 3
        23.000          23.800
  23937970.876    23937969.862    23937970.966    -4282446.318 2  -3336965.954 3
        15.100          19.900
  21722510.082    21722509.625    21722507.005   -18013800.794 6 -14036719.352 6
        37.300          37.700
 09  1  3  0  7 30.0000000  0 10G21G26G 9G15G 6G18G 3G19G24G22
  20644276.435    20644275.587    20644274.020   -25859699.317 6 -20150405.442 7
        40.700          42.400
  22937505.884    22937505.595    22937505.198    -7170803.205 3  -5587627.207 4
        21.600          26.200
  23750232.126    23750231.453    23750232.670    -5855065.255 2  -4562384.975 3
        17.800          22.600
  21933784.700    21933784.639    21933782.999   -15356146.444 6 -11965815.770 6
        36.800          38.400
  22265448.084    22265447.494    22265447.311   -12563835.405 5  -9789996.122 5
        33.500          32.800
  20481050.239    20481049.472    20481048.549   -25351366.984 6 -19754302.624 7
        37.800          46.400
  22367633.407    22367632.727    22367633.307   -11544604.087 5  -8995789.621 5
        30.600          31.500
  23950030.895    23950029.318    23950027.935    -5706671.122 3  -4446756.138 4
        22.600          24.600
  23957459.381    23957458.440    23957459.640    -4180033.757 2  -3257163.988 3
        17.000          19.300
  21708891.110    21708890.501    21708887.944   -18085369.719 6 -14092487.326 6
        37.300          37.800
 09  1  3  0  8  0.0000000  0 10G21G26G 9G15G 6G18G 3G19G24G22
  20652714.688    20652713.829    20652712.292   -25815355.962 6 -20115852.176 7
        40.700          42.300
  22957755.038    22957754.370    22957754.143    -7064394.060 3  -5504711.012 4
        21.100          25.900
  23729726.642    23729725.783    23729725.983    -5962825.523 3  -4646353.955 3
        19.900          21.100
  21946132.759    21946132.572    21946130.979   -15291257.693 6 -11915253.099 6
        36.800          38.300
  22267429.096    22267428.478    22267428.295   -12553424.970 5  -9781884.112 5
        33.400          32.800
  20477826.761    20477825.931    20477823.758   -25368306.524 6 -19767502.257 7
        37.900          46.400
  22367814.626    22367813.780    22367813.784   -11543654.277 5  -8995049.504 5
        31.000          31.100
  23935884.007    23935883.221    23935881.854    -5781008.934 3  -4504681.701 4
        21.600          24.200
  23976975.042    23976974.100    23976974.758    -4077479.321 3  -3177251.447 3
        18.600          18.600
  21695325.409    21695324.832    21695322.155   -18156658.590 6 -14148037.076 6
        37.700          37.900
 09  1  3  0  8 30.0000000  0 10G21G26G 9G15G 6G18G 3G19G24G22
  20661245.339    20661244.514    20661243.091   -25770526.500 6 -20080920.130 7
        40.600          42.200
  22978067.711    22978067.490    22978066.994    -6957649.105 3  -5421533.142 4
        21.600          25.300
  23709266.737    23709266.058    23709266.348    -6070339.051 3  -4730130.687 3
        19.300          19.300
  21958565.602    21958565.528    21958564.065   -15225922.137 6 -11864342.273 6
        36.900          38.400
  22269519.278    22269518.442    22269518.402   -12542441.950 5  -9773325.921 5
        33.200          33.000
  20474677.618    20474676.790    20474675.864   -25384855.352 6 -19780397.438 7
        37.800          46.300
  22368112.756    22368112.156    22368112.333   -11542085.561 5  -8993827.121 5
        30.800          31.300
  23921818.590    23921816.841    23921814.843    -5854929.453 3  -4562282.098 3
        23.000          23.400
  23996517.450    23996516.273    23996516.997    -3974785.867 3  -3097230.586 3
        18.600          19.300
  21681812.828    21681812.338    21681809.658   -18227667.329 6 -14203368.545 6
        38.100          38.000
 09  1  3  0  9  0.0000000  0 10G21G26G 9G15G 6G18G 3G19G24G22
  20669868.724    20669867.879    20669866.347   -25725210.931 6 -20045609.300 7
        40.700          42.000
  22998444.475    22998444.058    22998443.026    -6850571.040 3  -5338095.693 4
        21.600          24.600
  23688856.654    23688855.162    23688854.615    -6177601.666 3  -4813711.886 3
        18.600          18.600
  21971083.112    21971083.097    21971081.514   -15160141.665 6 -11813084.747 6
        36.700          38.100
  22271717.956    22271717.236    22271717.548   -12530886.308 5  -9764321.536 5
        33.000          33.200
  20471602.774    20471601.988    20471599.730   -25401013.043 6 -19792987.833 7
        37.800          46.100
  22368529.316    22368528.442    22368528.862   -11539897.803 5  -8992122.369 5
        30.600          31.600
  23907831.344    23907830.126    23907828.159    -5928429.728 3  -4619555.066 3
        22.600          22.600
  24016085.616    24016084.414    24016085.693    -3871954.311 2  -3017102.109 3
        16.100          20.500
  21668353.983    21668353.431    21668350.645   -18298394.262 6 -14258480.422 6
        38.100          37.900
 09  1  3  0  9 30.0000000  0 10G21G26G 9G15G 6G18G 3G19G24G22
  20678584.415    20678583.544    20678582.028   -25679409.938 6 -20009920.217 6
        40.800          41.900
  23018883.267    23018882.690    23018881.898    -6743163.330 3  -5254401.375 4
        21.600          24.200
  23668492.479    23668491.165    23668492.104    -6284610.188 2  -4897095.085 3
        17.000          18.600
  21983685.066    21983685.036    21983683.529   -15093918.288 6 -11761482.112 6
        36.500          38.200
  22274025.686    22274025.004    22274025.110   -12518758.766 5  -9754871.514 5
        32.800          33.000
  20468602.704    20468601.827    20468601.000   -25416779.154 6 -19805273.105 7
        37.800          46.200
  22369063.009    22369062.296    22369062.633   -11537091.593 5  -8989935.708 5
        31.000          31.500
  23893924.724    23893923.195    23893922.001    -6001507.610 3  -4676498.872 3
        20.500          22.600
  24035679.820    24035678.377    24035680.093    -3768986.085 2  -2936867.176 3
        16.100          21.600
  21654948.728    21654948.269    21654945.555   -18368838.678 6 -14313372.161 6
        38.200          38.300
 09  1  3  0 10  0.0000000  0 10G21G26G 9G15G 6G18G 3G19G24G22
  20687392.277    20687391.534    20687389.849   -25633124.204 6 -19973853.417 6
        40.800          41.800
  23039384.429    23039384.151    23039382.943    -6635429.325 3  -5170452.818 3
        21.600          23.400
  23648178.061    23648177.467    23648177.549    -6391361.148 2  -4980277.583 3
        17.800          19.300
  21996370.758    21996370.603    21996369.210   -15027254.379 6 -11709536.208 6
        36.300          38.100
  22276442.477    22276441.837    22276441.895   -12506059.747 5  -9744976.185 5
        33.000          33.100
  20465676.997    20465676.184    20465673.804   -25432153.627 6 -19817253.209 7
        37.700          46.100
  22369715.356    22369714.608    22369714.306   -11533666.912 5  -8987267.125 5
        31.500          31.300
  23880099.926    23880097.702    23880096.468    -6074160.754 3  -4733111.699 3
        21.100          23.000
  24055299.044    24055298.424    24055300.181    -3665882.467 2  -2856526.729 3
        15.100          21.600
  21641597.528    21641597.030    21641594.368   -18438999.558 6 -14368042.952 6
        38.100          38.400
 09  1  3  0 10 30.0000000  0 10G21G26G 9G15G 6G18G 3G19G24G22
  20696292.618    20696291.800    20696290.221   -25586352.551 6 -19937407.977 6
        40.800          41.700
  23059947.821    23059947.266    23059946.120    -6527370.277 3  -5086250.969 3
        23.000          23.400
  23627914.426    23627913.646    23627913.576    -6497848.624 2  -5063254.779 3
        17.800          21.100
  22009140.348    22009140.332    22009138.807   -14960150.082 6 -11657247.147 6
        36.300          38.000
  22278968.149    22278967.389    22278967.297   -12492787.820 5  -9734634.428 5
        33.100          33.000
  20462826.258    20462825.430    20462824.566   -25447133.986 6 -19828926.205 7
        37.700          46.000
  22370484.647    22370483.827    22370484.043   -11529622.080 5  -8984115.303 5
        30.800          31.300
  23866355.902    23866354.773    23866353.042    -6146384.832 3  -4789390.202 3
        22.600          23.400
  24074945.353    24074944.169    24074945.752    -3562642.999 2  -2776080.430 3
        13.900          21.100
  21628300.754    21628300.261    21628297.607   -18508874.448 6 -14422490.898 6
        38.100          38.500
 09  1  3  0 11  0.0000000  0 10G21G26G 9G15G 6G18G 3G19G24G22
  20705285.454    20705284.515    20705282.982   -25539095.875 6 -19900584.593 6
        40.900          41.800
  23080571.817    23080571.422    23080570.263    -6418989.768 3  -5001798.631 3
        22.600          23.800
  23607700.853    23607699.814    23607700.940    -6604069.542 2  -5146024.265 3
        15.100          23.000
  22021993.267    22021993.032    22021991.490   -14892608.513 6 -11604617.350 6
        36.100          38.000
  22281601.987    22281601.589    22281601.724   -12478944.254 5  -9723847.232 5
        32.800          33.000
  20460050.494    20460049.692    20460047.355   -25461721.032 6 -19840292.731 7
        37.700          46.000
  22371372.185    22371371.341    22371371.570   -11524958.183 5  -8980481.092 5
        30.800          31.100
  23852694.517    23852692.918    23852691.207    -6218177.979 3  -4845332.927 3
        22.600          23.800
  24094616.152    24094615.370    24094617.183    -3459269.535 2  -2695529.734 3
        12.600          21.600
  21615058.526    21615058.025    21615055.506   -18578462.433 6 -14476715.280 6
        38.100          38.600
 09  1  3  0 11 30.0000000  0 10G21G26G 9G15G 6G18G 3G19G24G22
  20714369.823    20714368.918    20714367.259   -25491357.075 6 -19863385.532 6
        40.900          41.500
  23101255.512    23101255.429    23101254.525    -6310293.221 3  -4917100.037 4
        22.100          24.200
  23587538.369    23587538.055    23587539.093    -6710022.688 2  -5228585.043 3
        16.100          23.800
  22034928.205    22034927.978    22034926.610   -14824634.073 5 -11551650.251 6
        35.900          38.000
  22284344.695    22284344.155    22284344.330   -12464531.755 5  -9712616.716 5
        32.700          33.000
  20457349.187    20457348.371    20457347.381   -25475916.708 6 -19851354.287 7
        37.700          46.200
  22372376.909    22372376.075    22372376.420   -11519678.267 5  -8976366.874 5
        30.800          31.500
  23839115.009    23839113.291    23839111.542    -6289540.421 3  -4900940.006 4
        23.400          24.600
  24114311.919    24114311.693    24114313.173    -3355765.870 2  -2614877.582 3
        12.600          21.600
  21601870.780    21601870.215    21601867.600   -18647764.991 6 -14530717.250 6
        38.100          38.600
 09  1  3  0 12  0.0000000  0 10G21G26G 9G15G 6G18G 3G19G24G22
  20723545.915    20723545.136    20723543.609   -25443135.401 6 -19825810.206 6
        40.900          41.500
  23121999.706    23121999.412    23121998.684    -6201282.575 3  -4832156.704 3
        21.100          23.800
  23567428.774    23567427.965    23567428.010    -6815703.059 2  -5310933.331 3
        17.800          23.000
  22047945.348    22047945.292    22047943.851   -14756227.863 5 -11498346.713 6
        35.900          37.800
  22287195.842    22287195.319    22287195.291   -12449549.538 5  -9700942.262 5
        32.800          33.000
  20454722.550    20454721.747    20454719.298   -25489719.362 6 -19862109.597 7
        37.700          46.000
  22373499.115    22373498.328    22373498.857   -11513780.346 5  -8971771.100 5
        30.400          31.300
  23825617.384    23825615.942    23825614.433    -6360468.234 3  -4956208.441 4
        23.800          24.600
  24134033.335    24134032.476    24134033.986    -3252131.765 1  -2534123.791 3
        11.000          21.600
  21588737.731    21588737.262    21588734.372   -18716779.768 6 -14584494.980 6
        38.400          38.600
 09  1  3  0 12 30.0000000  0 10G21G26G 9G15G 6G18G 3G19G24G22
  20732813.575    20732812.753    20732811.214   -25394433.810 6 -19787860.921 6
        40.800          41.300
  23142802.660    23142802.311    23142800.922    -6091963.539 3  -4746973.064 3
        21.600          23.000
  23547370.097    23547369.715    23547369.611    -6921109.422 3  -5393068.114 3
        18.600          23.000
  22061044.069    22061043.902    22061042.505   -14687393.854 5 -11444709.816 6
        35.700          37.700
  22290154.825    22290154.349    22290154.141   -12434000.768 5  -9688826.346 5
        33.100          33.000
  20452170.376    20452169.560    20452168.573   -25503131.160 6 -19872560.340 7
        37.700          46.000
  22374738.354    22374737.496    22374737.830   -11507268.288 5  -8966696.779 5
        30.400          31.100
  23812201.924    23812201.295    23812199.850    -6430961.885 3  -5011138.554 4
        22.600          24.900
  24153778.199    24153777.835    24153779.131    -3148371.342 2  -2453271.562 3
        12.600          20.500
  21575658.931    21575658.440    21575655.734   -18785508.526 6 -14638049.832 6
        38.300          38.800
 09  1  3  0 13  0.0000000  0 10G21G26G 9G15G 6G18G 3G19G24G22
  20742171.395    20742170.521    20742168.875   -25345258.764 6 -19749542.708 6
        40.900          41.200
  23163663.028    23163662.186    23163660.527    -5982344.526 3  -4661555.654 3
        21.600          23.000
  23527363.622    23527363.245    23527363.347    -7026243.123 3  -5474990.422 3
        18.600          23.000
  22074222.578    22074222.437    22074221.174   -14618140.077 5 -11390745.827 6
        35.600          37.800
  22293220.348    22293219.827    22293219.689   -12417891.579 5  -9676273.732 5
        32.800          33.100
  20449691.518    20449690.716    20449688.252   -25516157.686 6 -19882710.876 7
        37.700          46.100
  22376093.350    22376092.625    22376092.822   -11500147.737 5  -8961148.299 5
        31.000          31.000
  23798870.460    23798869.090    23798867.582    -6501024.206 3  -5065732.573 4
        22.100          25.300
  24173546.593    24173545.347    24173546.376    -3044491.369 2  -2372326.158 3
        12.600          19.900
  21562634.040    21562633.497    21562630.598   -18853955.315 6 -14691384.970 6
        38.500          38.800
 09  1  3  0 13 30.0000000  0 10G21G26G 9G15G 6G18G 3G19G24G22
  20751620.376    20751619.539    20751617.936   -25295603.789 6 -19710850.521 6
        40.900          41.100
  23184580.384    23184579.704    23184578.394    -5872422.009 3  -4575901.763 3
        20.500          23.400
  23507411.492    23507410.846    23507410.744    -7131093.795 3  -5556692.193 3
        19.900          23.400
  22087482.101    22087481.844    22087480.537   -14548461.725 5 -11336450.993 6
        35.600          37.700
  22296393.488    22296392.813    22296393.068   -12401215.536 5  -9663279.420 5
        32.400          33.100
  20447287.219    20447286.398    20447285.474   -25528791.886 6 -19892555.692 7
        37.600          45.800
  22377565.524    22377564.748    22377565.027   -11492411.776 5  -8955120.291 5
        31.300          31.100
  23785621.789    23785620.077    23785618.873    -6570645.975 3  -5119983.306 4
        21.600          25.300
  24193339.197    24193337.347    24193338.457    -2940486.102 2  -2291283.153 3
        12.600          19.300
  21549664.017    21549663.568    21549660.722   -18922112.382 6 -14744494.358 6
        38.700          38.700
 09  1  3  0 14  0.0000000  0 10G21G26G 9G15G 6G18G 3G19G24G22
  20761161.392    20761160.573    20761159.036   -25245464.831 6 -19671781.206 6
        40.700          40.900
  23205555.621    23205555.096    23205554.314    -5762194.363 3  -4490010.125 3
        20.500          23.400
  23487514.766    23487513.945    23487514.102    -7235653.397 3  -5638167.152 4
        19.900          24.200
  22100822.555    22100822.467    22100820.833   -14478356.834 5 -11281823.790 6
        35.600          37.300
  22299675.484    22299674.858    22299674.895   -12383968.908 5  -9649840.495 5
        32.600          32.800
  20444958.641    20444957.814    20444955.351   -25541028.946 6 -19902091.056 7
        37.600          46.000
  22379155.607    22379154.835    22379154.995   -11484056.398 5  -8948609.618 5
        31.600          30.800
  23772458.177    23772456.739    23772454.832    -6639820.503 3  -5173885.527 4
        21.600          24.600
  24213154.053    24213153.335    24213153.921    -2836352.376 2  -2210140.058 3
        16.100          18.600
  21536750.244    21536749.805    21536746.916   -18989974.924 6 -14797374.249 6
        38.800          38.900
 09  1  3  0 14 30.0000000  0 10G21G26G 9G15G 6G18G 3G19G24G22
  20770793.841    20770793.075    20770791.526   -25194845.566 6 -19632337.624 6
        40.700          40.800
  23226587.852    23226587.903    23226587.043    -5651667.449 3  -4403885.280 3
        20.500          23.400
  23467673.378    23467672.331    23467672.873    -7339920.644 3  -5719414.290 4
        20.500          24.200
  22114243.040    22114242.964    22114241.592   -14407830.094 5 -11226867.875 6
        35.300          37.200
  22303065.309    22303064.773    22303064.775   -12366154.923 5  -9635959.469 5
        32.400          32.800
  20442705.108    20442704.309    20442703.340   -25552871.035 6 -19911318.644 7
        37.700          45.800
  22380862.753    22380861.995    22380862.073   -11475084.931 5  -8941618.869 5
        31.100          30.400
  23759380.254    23759378.208    23759376.591    -6708548.059 3  -5227439.434 4
        22.100          24.900
  24232993.538    24232993.104    24232993.818    -2732093.911 2  -2128899.735 2
        16.100          17.800
  21523892.522    21523891.951    21523888.992   -19057544.124 6 -14850025.559 6
        38.900          39.000
 09  1  3  0 15  0.0000000  0 10G21G26G 9G15G 6G18G 3G19G24G22
  20780517.970    20780517.091    20780515.610   -25143745.583 6 -19592519.458 6
        40.700          40.900
  23247677.214    23247677.385    23247676.570    -5540843.494 3  -4317528.984 3
        20.500          23.000
  23447888.338    23447887.342    23447887.810    -7443891.109 3  -5800430.197 3
        21.600          23.400
  22127744.131    22127744.054    22127742.559   -14336882.893 5 -11171584.328 6
        35.500          37.400
  22306563.452    22306562.715    22306562.603   -12347773.417 5  -9621636.212 5
        32.300          32.800
  20440526.989    20440526.135    20440523.654   -25564317.340 6 -19920237.836 7
        37.600          45.900
  22382687.295    22382686.582    22382686.550   -11465497.179 5  -8934147.909 5
        31.600          30.400
  23746387.026    23746385.345    23746383.798    -6776825.344 3  -5280642.488 4
        22.100          24.900
  24252856.923    24252855.823    24252856.930    -2627711.504 2  -2047562.804 2
        15.100          16.100
  21511090.420    21511089.939    21511087.225   -19124818.338 6 -14902447.009 6
        38.700          39.200
 09  1  3  0 15 30.0000000  0 10G21G26G 9G15G 6G18G 3G19G24G22
  20790335.325    20790334.384    20790332.826   -25092155.761 6 -19552319.602 6
        40.600          40.700
  23268824.632    23268823.831    23268823.337    -5429716.039 3  -4230936.178 3
        19.900          23.400
  23428161.595    23428161.225    23428161.426    -7547551.499 3  -5881204.487 3
        19.900          21.600
  22141326.194    22141326.161    22141324.783   -14265507.855 5 -11115967.398 6
        35.600          37.200
  22310170.668    22310170.111    22310170.350   -12328815.566 5  -9606863.867 5
        32.300          33.100
  20438426.004    20438425.214    20438424.065   -25575357.887 6 -19928840.845 7
        37.600          45.800
  22384630.740    22384630.007    22384629.790   -11455284.395 5  -8926189.901 5
        31.600          30.100
  23733481.918    23733480.490    23733479.601    -6844640.613 3  -5333485.539 4
        22.100          25.600
  24272745.179    24272743.909    24272745.665    -2523196.879 2  -1966122.857 2
        13.900          15.100
  21498346.599    21498346.125    21498343.586   -19191786.775 6 -14954630.186 6
        38.800          39.300
 09  1  3  0 16  0.0000000  0 11G21G26G 9G15G 6G14G18G 3G19G24G22
  20800240.405    20800239.551    20800238.091   -25040103.366 6 -19511759.297 6
        40.600          40.600
  23290023.868    23290023.555    23290021.969    -5318314.436 3  -4144129.753 3
        19.900          22.100
  23408490.521    23408489.738    23408490.342    -7650924.378 3  -5961754.736 3
        19.300          21.600
  22154984.593    22154984.554    22154982.931   -14193733.394 5 -11060039.229 6
        35.600          37.100
  22313882.995    22313882.348    22313882.282   -12309308.333 5  -9591663.408 5
        32.300          32.800
  25262082.067    25262081.570    25262080.020           -.3971          -.41512
         3.000          12.600
  20436397.366    20436396.553    20436393.918   -25586018.828 6 -19937148.063 7
        37.600          46.000
  22386688.321    22386687.525    22386687.360   -11444472.894 5  -8917765.367 5
        31.600          30.600
  23720661.045    23720659.477    23720657.816    -6912017.984 3  -5385987.363 4
        23.800          25.600
  24292653.348    24292652.758    24292653.445    -2418577.402 2  -1884601.222 2
        12.600          13.900
  21485656.349    21485655.834    21485653.220   -19258474.859 6 -15006594.905 6
        38.800          39.400
 09  1  3  0 16 30.0000000  0 11G21G26G 9G15G 6G14G18G 3G19G24G22
  20810234.452    20810233.665    20810232.088   -24987584.129 6 -19470835.218 6
        40.500          40.500
  23311275.304    23311274.754    23311273.219    -5206636.923 3  -4057108.326 3
        19.300          22.100
  23388875.682    23388875.546    23388875.115    -7754001.364 3  -6042074.422 3
        19.900          22.100
  22168719.173    22168719.228    22168717.641   -14121556.668 5 -11003797.614 6
        35.300          37.000
  22317700.180    22317699.631    22317699.779   -12289247.571 5  -9576031.640 5
        32.300          33.000
  25240026.684    25240026.600    25240025.926     -115899.041 1    -90310.952 2
        11.000          13.900
  20434441.809    20434441.018    20434439.802   -25596295.064 6 -19945155.510 7
        37.600          45.900
  22388860.076    22388859.383    22388859.503   -11433058.016 5  -8908870.657 5
        31.300          30.600
  23707924.673    23707922.577    23707921.141    -6978949.915 3  -5438142.100 4
        23.400          25.600
  24312582.131    24312580.670    24312582.676    -2313849.764 1  -1802995.291 2
        11.000          13.900
  21473020.628    21473020.113    21473017.305   -19324876.525 6 -15058336.446 6
        39.100          39.400
 09  1  3  0 17  0.0000000  0 11G21G26G 9G15G 6G14G18G 3G19G24G22
  20820318.009    20820317.142    20820315.691   -24934594.683 6 -19429544.738 6
        40.300          40.400
  23332578.954    23332578.577    23332578.130    -5094682.770 3  -3969871.336 3
        18.600          22.100
  23369318.400    23369318.090    23369318.451    -7856774.645 3  -6122157.456 3
        19.300          23.400
  22182530.771    22182530.666    22182529.208   -14048976.283 5 -10947241.456 6
        35.100          36.700
  22321623.907    22321623.317    22321623.204   -12268629.988 5  -9559965.983 5
        32.400          32.800
  25217977.869    25217977.853    25217978.155     -231761.775 1   -180593.513 2
        11.000          16.100
  20432560.230    20432559.409    20432556.789   -25606182.614 6 -19952860.085 7
        37.500          45.900
  22391147.933    22391147.094    22391147.309   -11421036.533 5  -8899503.272 5
        31.300          30.800
  23695273.597    23695271.684    23695269.993    -7045430.481 4  -5489945.112 4
        24.600          25.900
  24332532.386    24332531.850    24332532.937    -2209011.198 1  -1721302.943 2
         9.000          15.100
  21460440.170    21460439.663    21460436.953   -19390986.854 6 -15109850.971 6
        39.300          39.500
 09  1  3  0 17 30.0000000  0 11G22G21G26G 9G15G 6G14G18G 3G19G24
  21447918.362    21447917.966    21447915.186   -19456788.855 6 -15161125.240 6
        39.300          39.600
  20830494.003    20830493.103    20830491.655   -24881119.891 6 -19387876.071 6
        40.300          40.300
  23353938.127    23353938.020    23353937.166    -4982438.750 3  -3882408.470 3
        19.300          21.600
  23349823.498    23349822.809    23349823.123    -7959224.280 3  -6201988.278 4
        21.100          24.600
  22196421.867    22196421.808    22196420.225   -13975978.246 5 -10890359.853 6
        35.100          36.600
  22325656.069    22325655.379    22325655.265   -12247440.455 5  -9543454.641 5
        32.600          32.600
  25195937.377    25195939.022    25195940.523     -347570.389 1   -270833.918 2
         6.500          15.100
  20430755.837    20430754.956    20430753.917   -25615665.059 6 -19960248.988 7
        37.600          45.800
  22393553.925    22393553.039    22393553.106   -11408393.015 5  -8889651.178 5
        31.000          30.600
  23682712.475    23682710.442    23682708.229    -7111441.327 3  -5541382.107 4
        23.800          25.300
  24352508.171    24352506.934    24352506.241    -2104046.821 1  -1639512.552 2
         9.000          12.600
 09  1  3  0 18  0.0000000  0 11G22G21G26G 9G15G 6G14G18G 3G19G24
  21435452.701    21435452.133    21435449.218   -19522297.288 6 -15212170.749 6
        39.500          39.600
  20840758.916    20840758.175    20840756.741   -24827176.373 6 -19345842.161 6
        40.400          40.200
  23375348.877    23375348.156    23375348.105    -4869923.931 2  -3794734.584 3
        17.800          21.600
  23330386.864    23330386.221    23330386.340    -8061362.549 3  -6281576.489 4
        20.500          24.200
  22210388.794    22210388.757    22210387.208   -13902580.902 5 -10833167.103 6
        34.900          36.500
  22329793.849    22329793.189    22329793.304   -12225695.795 5  -9526510.737 5
        32.600          32.800
  25173905.996    25173908.060    25173910.500     -463338.850     -361043.065 2
         3.000          12.600
  20429025.383    20429024.548    20429021.876   -25624758.586 6 -19967334.839 7
        37.600          45.900
  22396075.244    22396074.293    22396074.465   -11395144.208 5  -8879327.434 5
        31.000          30.800
  23670237.301    23670235.619    23670233.477    -7176996.190 3  -5592463.800 4
        23.800          24.900
  24372502.655    24372500.976    24372501.099    -1998974.081 1  -1557637.688 2
        11.000          12.600
 09  1  3  0 18 30.0000000  0 11G22G21G26G 9G15G 6G14G18G 3G19G24
  21423043.192    21423042.676    21423039.886   -19587509.558 6 -15262985.487 6
        39.600          39.800
  20851113.586    20851112.693    20851111.282   -24772763.199 6 -19303442.285 6
        40.300          40.200
  23396811.421    23396811.280    23396810.119    -4757139.682 2  -3706850.769 3
        17.800          21.600
  23311010.883    23311010.280    23311010.342    -8163184.055 3  -6360917.873 3
        20.500          23.400
  22224432.009    22224431.799    22224430.046   -13828784.809 5 -10775663.638 6
        35.100          36.500
  22334037.376    22334036.931    22334036.877   -12203395.056 5  -9509133.528 5
        32.400          32.700
  25151887.292    25151885.265    25151887.929     -579063.399 1   -451218.023 1
         6.500          11.000
  20427369.265    20427368.438    20427367.269   -25633461.094 6 -19974115.997 7
        37.600          45.800
  22398711.671    22398710.907    22398711.054   -11381289.146 5  -8868531.281 5
        31.000          31.100
  23657849.564    23657847.896    23657846.722    -7242091.280 3  -5643187.245 4
        23.400          25.900
  24392517.660    24392516.722    24392517.188    -1893792.769 1  -1475678.245 2
        11.000          13.900
 09  1  3  0 19  0.0000000  0 11G22G21G26G 9G15G 6G14G18G 3G19G24
  21410690.839    21410690.327    21410687.572   -19652420.604 6 -15313565.496 6
        39.500          39.800
  20861558.083    20861557.220    20861555.624   -24717876.831 6 -19260673.685 6
        40.300          39.800
  23418325.246    23418324.708    23418323.789    -4644085.117 2  -3618756.339 3
        17.000          22.100
  23291696.620    23291695.829    23291696.073    -8264681.250 3  -6440006.569 4
        20.500          24.200
  22238551.252    22238551.058    22238549.487   -13754587.957 5 -10717847.901 6
        35.100          36.500
  22338387.718    22338387.038    22338386.958   -12180534.977 5  -9491320.463 5
        32.600          32.600
  25129874.769    25129873.942    25129874.433     -694738.003     -541354.105 1
         3.000           9.000
  20425788.533    20425787.738    20425785.038   -25641767.905 6 -19980588.822 7
        37.500          45.900
  22401463.859    22401463.179    22401463.555   -11366824.679 5  -8857260.262 5
        31.000          31.300
  23645551.555    23645549.902    23645548.353    -7306719.989 4  -5693547.273 4
        24.600          26.500
  24412553.697    24412553.162    24412553.492    -1788500.105 1  -1393632.023 2
         9.000          15.100
 09  1  3  0 19 30.0000000  0 11G22G21G26G 9G15G 6G14G18G 3G19G24
  21398396.497    21398395.912    21398393.150   -19717028.566 6 -15363909.343 6
        39.600          40.000
  20872092.670    20872091.893    20872090.246   -24662517.364 6 -19217536.438 6
        40.300          39.700
  23439890.085    23439889.917    23439888.057    -4530762.190 3  -3530452.767 3
        18.600          21.100
  23272444.541    23272443.653    23272444.589    -8365849.287 3  -6518838.761 4
        21.100          25.900
  22252746.510    22252746.326    22252744.576   -13679991.638 5 -10659720.892 6
        34.900          36.300
  22342844.111    22342843.476    22342843.428   -12157115.619 5  -9473071.591 5
        32.400          32.600
  25107874.209    25107872.833    25107872.861     -810359.599 1   -631448.829 1
         9.000          11.000
  20424283.174    20424282.405    20424281.228   -25649677.990 6 -19986752.509 7
        37.500          45.600
  22404332.914    22404332.121    22404331.924   -11351750.266 5  -8845513.958 5
        31.100          31.000
  23633342.894    23633341.212    23633339.082    -7370879.179 4  -5743541.442 4
        24.900          26.200
  24432611.168    24432610.218    24432611.078    -1683096.432 1  -1311499.333 2
         6.500          15.100
 09  1  3  0 20  0.0000000  0 11G22G21G26G 9G15G 6G14G18G 3G19G24
  21386159.263    21386158.726    21386155.809   -19781335.894 6 -15414018.923 6
        39.800          39.800
  20882716.437    20882715.585    20882714.015   -24606688.939 6 -19174033.770 6
        40.200          39.500
  23461503.887    23461503.448    23461502.432    -4417177.545 2  -3441945.250 3
        17.800          21.600
  23253256.286    23253255.899    23253255.576    -8466687.745 3  -6597414.113 4
        22.100          26.200
  22267016.655    22267016.521    22267014.721   -13605001.597 5 -10601287.083 6
        34.800          36.300
  22347406.514    22347405.885    22347405.685   -12133141.055 5  -9454390.106 5
        32.600          32.400
  25085882.693    25085881.725    25085881.397     -925929.370 1   -721503.228 1
         9.000          11.000
  20422852.944    20422852.061    20422849.471   -25657194.980 6 -19992609.897 7
        37.600          45.900
  22407316.609    22407315.695    22407315.628   -11336070.367 5  -8833295.845 5
        31.000          30.800
  23621222.245    23621220.875    23621219.169    -7434570.353 4  -5793170.914 4
        24.900          26.500
  24452688.486    24452688.155    24452688.601    -1577586.381    -1229283.764 2
         3.000          16.100
 09  1  3  0 20 30.0000000  0 11G22G21G26G 9G15G 6G14G18G 3G19G24
  21373978.131    21373977.630    21373974.740   -19845347.234 6 -15463897.875 6
        39.700          39.900
  20893428.187    20893427.397    20893425.821   -24550398.144 6 -19130170.820 6
        40.200          39.400
  23483166.381    23483166.381    23483165.406    -4303339.830 2  -3353240.547 3
        17.800          22.600
  23234128.652    23234128.684    23234128.806    -8567198.818 3  -6675734.382 4
        21.600          25.600
  22281359.957    22281359.871    22281358.338   -13529625.818 5 -10542552.713 6
        34.600          36.400
  22352072.802    22352072.325    22352072.179   -12108618.258 5  -9435281.428 5
        32.600          32.700
  25063899.267    25063898.158    25063898.814    -1041451.113 1   -811520.224 1
         9.000           9.000
  20421496.120    20421495.225    20421494.067   -25664324.731 6 -19998165.537 7
        37.600          45.900
  22410414.133    22410413.386    22410413.553   -11319791.047 5  -8820610.655 5
        30.400          31.000
  23609190.596    23609188.942    23609187.208    -7497796.872 4  -5842438.305 4
        24.200          25.900
  24472785.935    24472785.500    24472786.444    -1471977.246    -1146990.992 2
                        15.100
 09  1  3  0 21  0.0000000  0 11G22G21G26G 9G15G 6G14G18G 3G19G24
  21361854.956    21361854.465    21361851.729   -19909055.040 6 -15513540.300 6
        39.700          40.200
  20904229.063    20904228.291    20904226.762   -24493638.668 6 -19085942.659 6
        40.300          39.200
  23504878.340    23504878.095    23504877.255    -4189245.003 2  -3264335.501 3
        17.000          23.000
  23215066.391    23215066.087    23215066.662    -8667371.653 3  -6753791.094 4
        21.100          25.300
  22295777.711    22295777.597    22295775.905   -13453859.645 5 -10483514.141 5
        34.400          35.900
  22356844.891    22356844.409    22356844.488   -12083540.892 5  -9415740.619 5
        32.300          33.100
  25041926.859    25041926.375    25041927.053    -1156915.747     -901492.729 1
         3.000          11.000
  20420214.511    20420213.691    20420211.101   -25671059.520 6 -20003413.418 7
        37.600          45.900
  22413627.394    22413626.605    22413626.804   -11302905.891 5  -8807453.391 5
        30.600          31.000
  23597248.698    23597247.575    23597245.663    -7560549.691 3  -5891336.592 4
        23.800          26.200
  24492902.096    24492900.146    24492903.250    -1366263.194    -1064616.450 2
                        13.900
 09  1  3  0 21 30.0000000  0 11G22G21G26G 9G15G 6G14G18G 3G19G24
  21349790.257    21349789.699    21349786.855   -19972455.927 6 -15562943.562 6
        39.800          40.300
  20915119.664    20915118.851    20915117.186   -24436409.105 6 -19041348.199 6
        40.300          39.100
  23526638.898    23526638.659    23526637.175    -4074893.761 2  -3175230.662 3
        17.800          22.600
  23196070.347    23196069.685    23196069.939    -8767200.673 3  -6831579.896 4
        21.600          25.600
  22310269.375    22310269.523    22310267.970   -13377702.978 5 -10424171.281 5
        34.100          35.700
  22361722.604    22361722.186    22361722.235   -12057907.720 5  -9395766.719 5
        31.800          33.000
  25019966.695    25019966.395    25019966.596    -1272318.660     -991417.070 1
         3.000          11.000
  20419008.529    20419007.703    20419006.524   -25677396.900 6 -20008351.626 7
        37.700          45.800
  22416956.028    22416955.268    22416955.373   -11285414.292 5  -8793823.561 5
        31.300          31.300
  23585398.766    23585397.084    23585395.106    -7622823.960 3  -5939861.986 4
        23.800          26.200
  24513035.597    24513036.479    24513034.717    -1260443.246     -982158.280 2
                        12.600
 09  1  3  0 22  0.0000000  0 11G22G21G26G 9G15G 6G14G18G 3G19G24
  21337785.217    21337784.739    21337781.920   -20035542.042 6 -15612101.555 6
        40.000          40.400
  20926100.504    20926099.749    20926098.214   -24378703.703 6 -18996382.956 6
        40.300          38.900
  23548449.206    23548448.698    23548446.749    -3960282.722 3  -3085923.373 3
        18.600          21.600
  23177140.906    23177140.156    23177140.409    -8866675.319 3  -6909092.568 4
        22.600          25.900
  22324837.068    22324837.205    22324835.433   -13301151.466 5 -10364520.747 5
        34.400          35.900
  22366707.541    22366706.946    22366706.998   -12031713.204 5  -9375355.405 5
        32.100          32.800
  24998018.813    24998017.912    24998019.410    -1387651.108    -1081286.501 1
                         9.000
  20417879.284    20417878.535    20417875.768   -25683330.443 6 -20012975.161 7
        37.600          45.700
  22420401.050    22420400.211    22420400.539   -11267310.061 5  -8779716.355 5
        30.800          31.100
  23573641.168    23573639.426    23573637.854    -7684611.233 4  -5988007.910 4
        24.200          26.800
  24533196.743    24533195.762    24533196.225    -1154511.945     -899615.613 2
                        13.900
 09  1  3  0 22 30.0000000  0 11G22G21G26G 9G15G 6G14G18G 3G19G24
  21325837.700    21325837.197    21325834.509   -20098326.681 6 -15661024.633 6
        39.900          40.600
  20937169.360    20937168.486    20937166.891   -24320537.334 6 -18951058.520 6
        40.200          38.800
  23570305.201    23570304.402    23570302.900    -3845428.793 2  -2996426.817 3
        17.800          21.600
  23158276.449    23158275.940    23158276.187    -8965805.916 3  -6986337.154 4
        22.600          26.200
  22339476.686    22339476.479    22339474.861   -13224221.142 5 -10304575.032 5
        34.400          35.800
  22371796.127    22371795.440    22371795.534   -12004972.143 5  -9354518.214 5
        32.000          33.000
  24976084.096    24976083.848    24976081.407    -1502925.201    -1171110.459 1
                         9.000
  20416824.639    20416823.826    20416822.552   -25688873.894 6 -20017294.724 7
        37.700          46.000
  22423959.699    22423958.974    22423959.285   -11248607.746 5  -8765143.111 5
        30.600          30.800
  23561973.826    23561972.397    23561970.718    -7745923.479 4  -6035783.682 4
        25.300          27.100
  24553374.198    24553373.576    24553374.636    -1048484.949     -816997.222 2
         3.000          17.000
 09  1  3  0 23  0.0000000  0 11G22G21G26G 9G15G 6G14G18G 3G19G24
  21313947.428    21313946.959    21313944.293   -20160809.693 6 -15709712.670 6
        39.900          40.600
  20948325.421    20948324.506    20948322.845   -24261911.866 6 -18905376.343 6
        40.100          38.500
  23592206.035    23592205.308    23592204.566    -3730335.786 2  -2906743.977 3
        16.100          21.600
  23139478.504    23139477.833    23139478.668    -9064589.544 3  -7063311.368 4
        21.600          26.800
  22354187.242    22354187.155    22354185.599   -13146915.872 5 -10244337.154 5
        34.100          35.900
  22376988.613    22376987.893    22376987.910   -11977686.626 5  -9333256.775 5
        32.100          32.800
  24954159.091    24954158.487    24954156.166    -1618139.687    -1260887.949 1
         3.000          11.000
  20415843.759    20415842.976    20415840.347   -25694027.999 6 -20021310.903 7
        37.700          46.100
  22427632.200    22427631.424    22427631.520   -11229309.400 5  -8750105.424 5
        30.400          30.600
  23550397.952    23550395.816    23550394.112    -7806759.349 4  -6083188.246 4
        24.600          27.400
  24573568.697    24573567.697    24573569.250     -942364.616 1   -734306.075 2
         6.500          17.800
 09  1  3  0 23 30.0000000  0 11G22G21G26G 9G15G 6G14G18G 3G19G24
  21302115.559    21302114.997    21302112.066   -20222987.770 6 -15758163.103 6
        40.000          40.600
  20959569.046    20959568.263    20959566.691   -24202825.742 6 -18859335.212 6
        40.100          38.600
  23614152.124    23614151.889    23614151.271    -3615004.586 2  -2816875.511 3
        17.000          21.600
  23120748.377    23120747.551    23120747.680    -9163020.262 3  -7140010.555 4
        23.000          26.800
  22368969.582    22368969.394    22368967.866   -13069235.169 5 -10183806.730 6
        34.000          36.100
  22382284.577    22382283.960    22382283.910   -11949855.310 5  -9311570.034 5
        32.300          32.700
  24932246.749    24932245.992    24932244.223    -1733290.531    -1350615.853 2
                        12.600
  20414937.441    20414936.650    20414935.424   -25698790.294 6 -20025021.773 7
        37.700          45.800
  22431418.597    22431417.754    22431417.629   -11209413.617 5  -8734602.204 5
        31.000          30.600
  23538911.667    23538910.434    23538908.612    -7867114.331 3  -6130218.072 4
        23.800          27.100
  24593781.173    24593780.390    24593781.174     -836149.887 1   -651541.358 2
        11.000          16.100
 09  1  3  0 24  0.0000000  0 11G22G21G26G 9G15G 6G14G18G 3G19G24
  21290342.299    21290341.696    21290338.873   -20284856.390 6 -15806372.404 6
        40.000          40.700
  20970900.992    20970900.126    20970898.660   -24143276.374 6 -18812933.112 6
        40.100          38.600
  23636144.833    23636144.394    23636143.375    -3499434.582 2  -2726820.983 3
        17.000          21.600
  23102085.837    23102085.165    23102085.425    -9261090.691 3  -7216429.045 4
        23.400          26.200
  22383823.405    22383823.129    22383821.637   -12991177.531 5 -10122982.598 6
        33.600          36.000
  22387684.930    22387684.382    22387684.534   -11921475.675 5  -9289456.033 5
        32.000          32.800
  24910346.658    24910345.280    24910346.768    -1848371.835    -1440289.544 2
                        12.600
  20414106.553    20414105.745    20414103.090   -25703157.130 6 -20028424.498 7
        37.800          46.100
  22435318.681    22435317.851    22435317.874   -11188917.719 5  -8718631.369 5
        31.000          30.600
  23527518.871    23527517.530    23527516.373    -7926982.636 3  -6176868.672 4
        23.800          27.400
  24614010.646    24614010.634    24614011.352     -729838.370 1   -568701.267 2
         9.000          16.100
 09  1  3  0 24 30.0000000  0 11G21G26G 9G15G 6G14G18G 3G19G24G22
  20982320.911    20982320.068    20982318.448   -24083264.258 6 -18766170.429 6
        40.000          38.100
  23658182.510    23658182.108    23658180.504    -3383628.252 2  -2636582.305 3
        16.100          21.600
  23083492.975    23083492.382    23083492.289    -9358796.959 3  -7292563.767 4
        23.400          25.900
  22398748.504    22398748.315    22398746.866   -12912745.078 5 -10061866.397 5
        33.600          35.600
  22393189.299    22393188.649    22393189.092   -11892548.546 5  -9266915.410 5
        31.500          32.700
  24888462.661    24888460.920    24888460.746    -1963380.674    -1529906.777 2
         3.000          16.100
  20413350.857    20413350.081    20413348.861   -25707128.144 6 -20031518.783 7
        37.800          46.000
  22439333.196    22439332.347    22439332.317   -11167821.809 5  -8702192.984 5
        30.800          30.400
  23516219.645    23516218.576    23516216.453    -7986362.090 4  -6223138.348 4
        25.300          26.500
  24634258.506    24634257.927    24634259.712     -623430.881 1   -485786.387 2
         9.000          13.900
  21278628.024    21278627.579    21278624.811   -20346414.422 6 -15854339.687 6
        40.000          41.000
 09  1  3  0 25  0.0000000  0 11G21G26G 9G15G 6G14G18G 3G19G24G22
  20993829.627    20993828.796    20993827.167   -24022785.769 6 -18719044.335 6
        40.100          38.100
  23680264.840    23680264.832    23680263.391    -3267584.076 2  -2546158.283 3
        17.000          21.600
  23064970.821    23064970.236    23064970.327    -9456131.055 3  -7368408.470 4
        23.000          26.200
  22413745.535    22413745.268    22413743.855   -12833935.433 5 -10000456.284 5
        33.400          35.300
  22398799.302    22398798.624    22398798.587   -11863070.284 5  -9243945.340 5
        32.000          32.800
  24866591.155    24866591.611    24866590.937    -2078310.714    -1619462.638 2
         3.000          15.100
  20412671.436    20412670.651    20412667.975   -25710698.463 6 -20034300.842 7
        37.800          46.100
  22443462.087    22443461.336    22443461.255   -11146122.995 5  -8685284.803 5
        30.800          30.200
  23505014.500    23505013.075    23505011.038    -8045246.024 4  -6269021.923 4
        25.900          26.200
  24654526.861    24654524.846    24654527.008     -516924.494     -402794.416 2
         3.000          12.600
  21266974.117    21266973.602    21266970.930   -20407656.120 6 -15902060.478 6
        40.000          41.000
 09  1  3  0 25 30.0000000  0 11G21G26G 9G15G 6G14G18G 3G19G24G22
  21005424.976    21005424.099    21005422.438   -23961852.430 6 -18671563.811 6
        40.200          38.000
  23702390.535    23702389.593    23702388.801    -3151315.494 2  -2455559.414 3
        17.000          21.100
  23046518.215    23046517.317    23046517.543    -9553099.925 3  -7443968.571 4
        22.600          26.200
  22428811.543    22428811.465    22428810.027   -12754761.830 5  -9938762.564 5
        33.100          34.900
  22404511.510    22404510.779    22404511.060   -11833052.712 5  -9220555.027 5
        32.000          32.800
  24844735.674    24844735.014    24844733.350    -2193170.742 1  -1708963.921 2
         6.500          16.100
  20412066.245    20412065.453    20412064.271   -25713878.685 6 -20036778.926 7
        37.900          46.200
  22447703.829    22447702.997    22447703.061   -11123832.791 5  -8667915.798 5
        30.800          30.600
  23493901.954    23493900.222    23493898.777    -8103643.067 4  -6314526.088 4
        25.900          27.400
  24674810.158    24674809.451    24674811.871     -410331.047     -319734.629 2
                        12.600
  21255378.501    21255378.025    21255375.168   -20468591.204 6 -15949542.350 6
        40.000          41.000
 09  1  3  0 26  0.0000000  0 11G21G26G 9G15G 6G14G18G 3G19G24G22
  21017107.377    21017106.497    21017104.736   -23900461.199 6 -18623726.493 6
        40.100          37.900
  23724557.842    23724557.143    23724557.002    -3034821.816 2  -2364785.154 3
        17.000          21.100
  23028136.823    23028136.058    23028135.930    -9649695.479 3  -7519237.787 4
        23.000          25.600
  22443947.417    22443947.260    22443945.803   -12675222.392 5  -9876783.777 5
        33.200          34.800
  22410326.686    22410326.034    22410325.980   -11802493.119 5  -9196742.358 5
        31.800          32.400
  24822891.157    24822890.077    24822890.274    -2307954.576 1  -1798405.836 2
         6.500          17.000
  20411536.034    20411535.254    20411532.660   -25716664.770 6 -20038949.897 7
        37.800          46.100
  22452058.570    22452057.822    22452058.038   -11100947.812 5  -8650083.324 5
        30.800          31.000
  23482883.237    23482881.688    23482880.269    -8161547.013 4  -6359646.003 4
        26.200          27.400
  24695112.072    24695109.969    24695114.109     -303648.063     -236605.068 2
                        13.900
  21243842.365    21243841.807    21243839.027   -20529214.695 6 -15996781.418 6
        40.000          41.200
 09  1  3  0 26 30.0000000  0 11G21G26G 9G15G 6G14G18G 3G19G24G22
  21028876.743    21028875.852    21028874.291   -23838612.240 6 -18575532.516 6
        39.900          37.700
  23746767.500    23746767.624    23746767.409    -2918104.660 2  -2273836.762 3
        15.100          19.900
  23009826.425    23009825.911    23009826.155    -9745913.273 3  -7594212.662 4
        22.600          24.600
  22459152.502    22459152.501    22459151.143   -12595318.497 5  -9814520.987 5
        33.400          35.100
  22416245.062    22416244.401    22416244.318   -11771391.554 5  -9172507.372 5
        31.800          32.300
  24801061.729    24801062.484    24801062.454    -2422659.244 1  -1887786.050 2
         6.500          15.100
  20411081.028    20411080.256    20411078.967   -25719055.581 6 -20040812.858 7
        37.900          45.900
  22456526.976    22456526.094    22456526.099   -11077468.325 5  -8631787.598 5
        30.600          31.100
  23471959.246    23471957.640    23471955.378    -8218954.858 4  -6404379.369 4
        27.100          26.200
  24715430.590    24715429.506    24715432.194     -196875.647     -153405.870 2
                        13.900
  21232365.558    21232365.101    21232362.363   -20589524.940 6 -16043776.397 6
        40.200          41.300
 09  1  3  0 27  0.0000000  0 11G21G26G 9G15G 6G14G18G 3G19G24G22
  21040733.748    21040732.867    21040731.126   -23776303.340 6 -18526980.133 6
        39.900          37.500
  23769020.066    23769020.044    23769020.701    -2801164.282 2  -2182714.427 3
        15.100          19.900
  22991590.858    22991590.127    22991589.644    -9841746.576 3  -7668887.927 4
        23.000          24.600
  22474427.265    22474427.234    22474425.900   -12515049.047 5  -9751973.354 5
        33.000          35.100
  22422267.093    22422266.382    22422266.407   -11739746.236 5  -9147848.689 5
        31.800          32.400
  24779251.646    24779251.420    24779251.257    -2537279.518 1  -1977100.510 2
         9.000          16.100
  20410701.983    20410701.201    20410698.701   -25721047.792 6 -20042365.226 7
        37.900          46.200
  22461108.201    22461107.293    22461107.368   -11053392.559 5  -8613027.241 5
        30.600          30.800
  23461130.084    23461128.737    23461126.434    -8275861.413 4  -6448722.126 4
        27.900          26.500
  24735766.666    24735766.559    24735768.227      -90012.060      -70135.563 2
                        13.900
  21220949.401    21220948.908    21220946.154   -20649517.557 6 -16090523.868 6
        40.200          41.400
 09  1  3  0 27 30.0000000  0 11G21G26G 9G15G 6G14G18G 3G19G24G22
  21052676.693    21052675.851    21052674.105   -23713543.054 6 -18478076.019 6
        39.800          37.400
  23791314.144    23791314.106    23791314.345    -2684011.183 2  -2091426.338 3
        15.100          19.900
  22973426.619    22973425.776    22973425.583    -9937199.471 4  -7743266.759 4
        24.200          25.600
  22489769.622    22489769.654    22489768.131   -12434424.264 5  -9689148.849 5
        32.600          34.800
  22428390.613    22428390.085    22428389.861   -11707566.136 5  -9122773.295 5
        31.500          32.100
  24757455.222    24757454.528    24757454.864    -2651820.893 2  -2066353.512 2
        12.600          16.100
  20410397.111    20410396.368    20410395.139   -25722649.474 6 -20043613.283 7
        37.900          46.000
  22465801.432    22465800.582    22465800.607   -11028729.507 5  -8593809.260 5
        30.800          30.600
  23450395.100    23450393.553    23450391.657    -8332272.778 4  -6492679.017 4
        27.900          26.500
  24756119.450    24756118.158    24756118.016       16933.347       13198.479 2
                        12.600
  21209592.128    21209591.703    21209588.903   -20709199.439 6 -16137029.212 6
        40.200          41.300
 09  1  3  0 28  0.0000000  0 11G21G26G 9G15G 6G14G18G 3G19G24G22
  21064704.409    21064703.665    21064702.142   -23650335.511 6 -18428823.395 6
        39.500          37.500
  23813648.862    23813648.405    23813646.516    -2566650.935 2  -1999976.808 3
        16.100          19.300
  22955334.923    22955334.371    22955333.972   -10032270.835 3  -7817348.304 4
        23.800          25.300
  22505178.516    22505178.590    22505176.948   -12353449.284 5  -9626051.452 5
        32.300          34.500
  22434615.148    22434614.488    22434614.682   -11674855.062 5  -9097284.144 5
        31.300          32.000
  24735673.818    24735673.020    24735673.116    -2766284.057 2  -2155545.563 2
        12.600          16.100
  20410166.274    20410165.452    20410162.870   -25723863.139 6 -20044558.993 7
        37.900          46.300
  22470605.844    22470604.998    22470605.034   -11003482.575 5  -8574136.307 5
        30.800          30.600
  23439754.312    23439752.608    23439750.993    -8388189.695 4  -6536250.623 4
        27.900          26.500
  24776483.133    24776482.593    24776483.374      123956.354       96593.002 1
         3.000          11.000
  21198294.259    21198293.659    21198290.777   -20768572.029 6 -16183293.551 6
        40.200          41.500
 09  1  3  0 28 30.0000000  0 11G21G26G 9G15G 6G14G18G 3G19G24G22
  21076818.531    21076817.835    21076816.347   -23586675.684 6 -18379218.338 6
        39.700          37.400
  23836021.946    23836021.457    23836018.942    -2449080.602 2  -1908363.533 3
        15.100          18.600
  22937317.329    22937316.936    22937316.691   -10126951.645 3  -7891125.516 4
        23.000          25.300
  22520654.933    22520654.875    22520653.424   -12272120.494 5  -9562678.367 5
        32.100          34.400
  22440941.976    22440941.303    22440941.283   -11641608.584 5  -9071377.798 5
        31.300          32.100
  24713907.524    24713907.567    24713907.996    -2880661.093 2  -2244670.477 2
        12.600          13.900
  20410010.223    20410009.439    20410008.283   -25724682.840 6 -20045197.717 7
        38.000          46.200
  22475522.041    22475521.137    22475521.038   -10977647.131 5  -8554004.775 5
        30.200          30.200
  23429209.987    23429208.258    23429206.282    -8443604.136 4  -6579430.697 4
        27.900          26.500
  24796863.690    24796863.023    24796864.627      231061.717 1    180051.670 1
         6.500          11.000
  21187055.846    21187055.359    21187052.486   -20827629.601 6 -16229312.414 6
        40.300          41.700
 09  1  3  0 29  0.0000000  0 11G21G26G 9G15G 6G14G18G 3G19G24G22
  21089019.338    21089018.518    21089017.173   -23522560.274 6 -18329258.283 6
        39.500          37.400
  23858434.374    23858433.694    23858432.392    -2331298.756 2  -1816585.482 3
        12.600          19.300
  22919376.234    22919375.570    22919375.170   -10221233.387 3  -7964591.755 4
        23.000          25.300
  22536199.447    22536199.166    22536197.589   -12190435.627 5  -9499027.820 5
        32.600          34.500
  22447371.031    22447370.368    22447370.386   -11607823.263 5  -9045051.575 5
        31.100          32.300
  24692161.660    24692160.262    24692160.161    -2994945.305 1  -2333723.070 2
        11.000          12.600
  20409930.107    20409929.376    20409926.769   -25725103.874 6 -20045525.794 7
        38.000          46.300
  22480550.702    22480550.041    22480550.299   -10951219.537 4  -8533411.833 5
        29.900          30.200
  23418761.269    23418759.363    23418757.940    -8498509.488 4  -6622214.072 4
        26.200          26.500
  24817261.477    24817260.287    24817263.188      338252.600 1    263577.011 2
         6.500          12.600
  21175878.656    21175878.157    21175875.259   -20886365.868 6 -16275080.914 6
        40.300          41.800
 09  1  3  0 29 30.0000000  0 11G21G26G 9G15G 6G14G18G 3G19G24G22
  21101305.453    21101304.655    21101303.196   -23457996.016 6 -18278948.468 6
        39.300          37.200
  23880885.719    23880885.010    23880884.170    -2213313.802 2  -1724649.162 3
        12.600          18.600
  22901511.215    22901510.334    22901509.625   -10315118.254 3  -8037748.756 4
        23.800          25.600
  22551809.243    22551809.437    22551807.847   -12108403.229 5  -9435106.464 5
        32.100          34.500
  22453901.413    22453900.905    22453900.798   -11573506.480 5  -9018311.225 5
        31.100          32.400
  24670431.322    24670429.747    24670428.995    -3109140.830 1  -2422706.554 2
         9.000          12.600
  20409924.889    20409924.036    20409922.935   -25725131.823 6 -20045547.568 7
        38.100          46.400
  22485691.235    22485690.278    22485690.329   -10924207.302 4  -8512363.328 5
        29.900          30.200
  23408409.191    23408407.382    23408405.850    -8552909.748 4  -6664603.867 4
        26.800          26.800
  24837674.497    24837672.883    24837676.719      445521.738      347163.303 1
                        11.000
  21164761.612    21164761.149    21164758.254   -20944786.007 6 -16320603.082 6
        40.300          41.900
 09  1  3  0 30  0.0000000  0 11G21G26G 9G15G 6G14G18G 3G19G24G22
  21113677.371    21113676.519    21113675.023   -23392981.567 6 -18228287.864 6
        39.300          37.100
  23903375.465    23903374.424    23903374.823    -2095126.471 1  -1632555.150 3
        11.000          19.300
  22883721.370    22883720.802    22883720.873   -10408600.623 4  -8110592.121 4
        24.200          26.500
  22567485.758    22567485.662    22567484.319   -12026022.445 5  -9370913.634 5
        32.000          34.300
  22460532.884    22460532.239    22460532.162   -11538656.939 5  -8991155.739 5
        30.800          32.000
  24648717.292    24648717.064    24648716.317    -3223242.629 1  -2511616.974 1
         6.500          11.000
  20409994.626    20409993.864    20409991.204   -25724764.811 6 -20045261.580 7
        38.100          46.400
  22490942.920    22490942.103    22490941.889   -10896609.286 4  -8490858.373 4
        29.900          29.900
  23398153.999    23398152.274    23398150.522    -8606800.858 4  -6706596.931 4
        27.400          27.100
  24858101.829    24858100.418    24858102.593      552869.955      430811.207 1
                        11.000
  21153705.171    21153704.685    21153702.114   -21002886.762 6 -16365876.377 7
        40.200          42.000
 09  1  3  0 30 30.0000000  0 11G21G26G 9G15G 6G14G18G 3G19G24G22
  21126134.280    21126133.454    21126132.021   -23327519.528 6 -18177278.489 6
        39.100          37.000
  23925901.389    23925900.992    23925902.931    -1976741.809 1  -1540307.395 2
         9.000          17.800
  22866009.259    22866008.606    22866008.760   -10501678.628 4  -8183120.398 4
        24.900          27.100
  22583227.854    22583227.820    22583226.195   -11943298.122 5  -9306453.126 5
        32.000          34.300
  22467265.363    22467264.722    22467264.765   -11503278.182 5  -8963587.873 5
        31.000          32.100
  24627022.338    24627020.916    24627020.698    -3337251.123    -2600454.717 1
         3.000           9.000
  20410139.357    20410138.559    20410137.338   -25724004.501 6 -20044669.123 7
        38.100          46.400
  22496305.340    22496304.554    22496304.607   -10868428.535 5  -8468899.339 4
        30.100          29.900
  23387995.531    23387994.145    23387992.567    -8660182.967 4  -6748193.359 4
        27.400          27.900
  24878542.056    24878541.640    24878544.335      660294.079      514518.258 1
                         9.000
  21142709.671    21142709.174    21142706.442   -21060669.133 6 -16410901.579 7
        40.300          42.000
 09  1  3  0 31  0.0000000  0 11G21G26G 9G15G 6G14G18G 3G19G24G22
  21138677.406    21138676.543    21138674.913   -23261606.099 6 -18125917.382 6
        39.200          36.800
  23948467.396    23948467.995    23948469.319    -1858156.817 1  -1447903.499 3
         9.000          18.600
  22848375.689    22848375.234    22848375.003   -10594342.904 4  -8255326.298 4
        24.900          27.400
  22599036.242    22599036.022    22599034.180   -11860226.708 5  -9241722.155 5
        32.700          34.100
  22474099.505    22474098.790    22474098.840   -11467365.793 5  -8935604.187 5
        31.100          32.300
  24605345.152    24605344.570    24605345.191    -3451158.638    -2689213.793 1
                         6.500
  20410360.058    20410359.189    20410356.631   -25722845.186 6 -20043765.755 7
        38.100          46.600
  22501780.087    22501779.279    22501779.050   -10839660.682 5  -8446482.829 5
        30.400          30.100
  23377935.965    23377934.564    23377932.710    -8713047.892 4  -6789386.782 4
        27.400          27.900
  24899001.583    24898999.609    24899001.013      767798.551      598287.888 1
                         6.500
  21131776.081    21131775.559    21131772.696   -21118126.305 6 -16455673.387 7
        40.500          42.000
 09  1  3  0 31 30.0000000  0 11G21G26G 9G15G 6G14G18G 3G19G24G22
  21151305.278    21151304.410    21151302.892   -23195246.139 6 -18074208.326 6
        39.000          36.900
  23971071.402    23971071.068    23971072.323    -1739378.383 2  -1355348.870 3
        12.600          19.300
  22830821.040    22830820.374    22830820.451   -10686593.370 4  -8327209.734 4
        24.200          27.400
  22614909.047    22614908.945    22614907.149   -11776814.289 5  -9176725.457 5
        32.400          34.400
  22481033.940    22481033.247    22481033.144   -11430924.910 5  -8907208.696 5
        31.000          32.100
  24583689.248    24583688.096    24583687.778    -3564966.759    -2777895.397 1
         3.000           6.500
  20410655.895    20410655.056    20410653.905   -25721290.289 6 -20042554.139 7
        38.100          46.500
  22507364.965    22507363.986    22507364.122   -10810310.711 4  -8423612.711 5
        29.900          30.100
  23367973.830    23367972.457    23367970.967    -8765398.020 4  -6830179.063 4
        27.900          28.400
  24919475.314    24919474.158    24919473.777      875378.073      682116.071 1
         3.000           9.000
  21120903.604    21120903.084    21120900.237   -21175261.199 6 -16500194.064 7
        40.500          42.100
 09  1  3  0 32  0.0000000  0 11G21G26G 9G15G 6G14G18G 3G19G24G22
  21164016.668    21164015.817    21164014.449   -23128446.565 6 -18022156.717 6
        38.900          36.700
  23993710.619    23993709.959    23993710.250    -1620415.175 1  -1262650.261 2
        11.000          17.800
  22813344.676    22813344.080    22813343.842   -10778432.776 4  -8398772.856 4
        24.200          27.100
  22630845.212    22630844.947    22630843.310   -11693069.353 5  -9111469.672 5
        32.100          34.600
  22488067.436    22488066.893    22488066.507   -11393962.937 5  -8878407.153 5
        31.000          31.600
  24562050.787    24562049.804    24562049.788    -3678679.234 1  -2866502.519 1
         6.500          11.000
  20411025.894    20411025.015    20411022.508   -25719346.200 6 -20041039.257 7
        38.200          46.600
  22513059.417    22513058.343    22513058.721   -10780386.348 4  -8400295.027 5
        29.700          30.100
  23358109.697    23358108.049    23358105.822    -8817237.430 4  -6870573.400 4
        27.900          27.900
  24939959.852    24939959.552    24939958.117      983024.971      765996.739 1
         3.000           9.000
  21110091.597    21110091.072    21110088.135   -21232078.837 6 -16544467.533 7
        40.600          42.200
 09  1  3  0 32 30.0000000  0 11G21G26G 9G15G 6G14G18G 3G19G24G22
  21176813.025    21176812.187    21176810.666   -23061201.611 6 -17969758.057 6
        38.900          36.500
  24016383.900    24016384.717    24016383.593    -1501263.399 1  -1169804.715 2
        11.000          17.000
  22795948.193    22795947.528    22795947.418   -10869850.674 4  -8470007.544 4
        25.900          26.500
  22646845.520    22646845.228    22646843.779   -11608987.493 5  -9045951.349 5
        32.000          34.500
  22495201.025    22495200.523    22495200.386   -11356474.472 5  -8849195.352 5
        30.800          31.500
  24540431.906    24540430.639    24540431.764    -3792287.314 1  -2955028.260 1
         6.500          11.000
  20411471.144    20411470.309    20411469.175   -25717006.026 6 -20039215.734 7
        38.100          46.500
  22518864.276    22518863.263    22518863.311   -10749881.905 4  -8376525.337 5
        29.900          30.100
  23348343.408    23348341.627    23348339.725    -8868557.406 4  -6910562.984 4
        27.100          27.400
  24960456.477    24960456.830    24960457.175     1090744.668      849934.157 1
         3.000           9.000
  21099341.139    21099340.695    21099337.924   -21288572.152 6 -16588488.278 7
        40.700          42.400
 09  1  3  0 33  0.0000000  0 11G21G26G 9G15G 6G14G18G 3G19G24G22
  21189692.796    21189692.011    21189690.316   -22993517.974 6 -17917017.561 6
        38.900          36.400
  24039092.382    24039092.447    24039091.273    -1381931.401 1  -1076818.758 2
        11.000          16.100
  22778632.334    22778631.675    22778630.904   -10960849.217 4  -8540915.478 4
        26.200          26.500
  22662908.184    22662908.164    22662906.444   -11524576.552 5  -8980176.597 5
        31.800          34.300
  22502433.498    22502433.028    22502432.983   -11318466.792 5  -8819578.962 5
        30.800          31.500
  24518831.452    24518830.999    24518831.784    -3905794.502 1  -3043475.405 2
         9.000          13.900
  20411990.692    20411989.865    20411987.319   -25714275.562 6 -20037088.095 7
        38.100          46.500
  22524778.009    22524777.117    22524777.444   -10718804.127 4  -8352308.882 5
        29.900          30.200
  23338675.094    23338673.956    23338672.291    -8919362.105 4  -6950151.054 4
        27.400          27.900
  24980967.744    24980966.270    24980968.232     1198530.452      933923.052 1
                         9.000
  21088651.839    21088651.341    21088648.507   -21344745.475 6 -16632259.682 7
        40.900          42.400
 09  1  3  0 33 30.0000000  0 11G21G26G 9G15G 6G14G18G 3G19G24G22
  21202656.574    21202655.796    21202654.202   -22925392.399 6 -17863932.700 6
        38.600          36.300
  24061835.405    24061835.176    24061834.120    -1262417.398 2   -983690.969 2
        12.600          16.100
  22761397.104    22761396.528    22761395.904   -11051419.745 4  -8611489.892 4
        25.600          27.100
  22679034.309    22679034.199    22679032.294   -11439833.888 5  -8914143.358 5
        31.600          34.000
  22509765.662    22509765.200    22509765.234   -11279936.282 5  -8789555.175 5
        30.600          31.500
  24497250.780    24497250.847    24497252.109    -4019194.110 1  -3131838.694 2
         9.000          16.100
  20412585.426    20412584.587    20412583.489   -25711149.567 6 -20034652.247 7
        38.100          46.300
  22530801.632    22530800.886    22530800.974   -10687149.923 5  -8327643.273 5
        30.200          30.100
  23329106.833    23329105.301    23329104.027    -8969645.241 4  -6989332.706 4
        26.800          28.100
  25001491.472    25001489.768    25001492.914     1306385.838     1017966.131 1
         3.000          11.000
  21078024.421    21078023.916    21078021.040   -21400592.743 6 -16675777.015 7
        40.900          42.500
 09  1  3  0 34  0.0000000  0 11G21G26G 9G15G 6G14G18G 3G19G24G22
  21215704.475    21215703.691    21215702.189   -22856825.126 6 -17810503.655 6
        38.600          36.200
  24084612.769    24084612.371    24084610.826    -1142723.293 2   -890422.862 2
        13.900          16.100
  22744244.214    22744243.613    22744243.241   -11141558.096 4  -8681727.523 4
        25.300          27.600
  22695223.147    22695223.026    22695220.905   -11354761.174 5  -8847852.938 5
        31.500          33.600
  22517197.160    22517196.551    22517196.629   -11240883.785 5  -8759124.639 5
        30.200          31.500
  24475693.779    24475692.964    24475694.290    -4132483.156 1  -3220115.813 2
         9.000          17.000
  20413255.843    20413254.968    20413252.447   -25707627.422 6 -20031907.707 7
        38.100          46.600
  22536935.351    22536934.357    22536934.156   -10654919.559 5  -8302528.711 4
        30.100          29.900
  23319638.102    23319636.645    23319634.865    -9019403.293 4  -7028105.199 4
        26.500          28.400
  25022029.190    25022029.070    25022030.887     1414310.145     1102062.935 1
         3.000          11.000
  21067459.144    21067458.676    21067455.811   -21456112.661 6 -16719039.271 7
        40.900          42.500
 09  1  3  0 34 30.0000000  0 11G21G26G 9G15G 6G14G18G 3G19G24G22
  21228834.893    21228834.039    21228832.366   -22787825.405 6 -17756737.637 6
        38.600          36.100
  24107421.407    24107421.456    24107419.808    -1022860.227 2   -797023.092 2
        13.900          16.100
  22727172.748    22727171.994    22727171.866   -11231268.904 4  -8751632.002 4
        24.900          27.900
  22711472.269    22711472.488    22711470.645   -11269368.575 5  -8781313.249 5
        31.500          33.400
  22524726.132    22524725.416    22524725.453   -11201318.834 5  -8728294.798 5
        30.100          31.300
  24454156.228    24454156.089    24454155.712    -4245667.611 2  -3308311.470 3
        13.900          18.600
  20413999.830    20413999.018    20413997.896   -25703717.248 6 -20028860.809 7
        38.200          46.600
  22543176.192    22543175.153    22543174.862   -10622122.743 4  -8276972.758 4
        29.700          29.500
  23310268.099    23310266.737    23310264.858    -9068642.969 4  -7066473.756 4
        26.500          28.400
  25042577.407    25042577.328    25042578.201     1522293.687     1186205.883 1
         3.000          11.000
  21056955.081    21056954.562    21056951.678   -21511312.735 6 -16762052.302 7
        41.000          42.700
 09  1  3  0 35  0.0000000  0 11G21G26G 9G15G 6G14G18G 3G19G24G22
  21242048.344    21242047.525    21242045.936   -22718387.673 6 -17702630.308 5
        38.400          35.900
  24130264.030    24130264.215    24130262.156     -902824.151 2   -703488.506 2
        12.600          17.800
  22710184.459    22710183.868    22710183.627   -11320541.920 4  -8821195.345 4
        24.900          28.100
  22727783.823    22727783.740    22727782.144   -11183652.137 5  -8714521.208 5
        31.500          33.400
  22532353.537    22532352.943    22532352.764   -11161236.351 5  -8697061.680 5
        30.200          31.300
  24432638.799    24432638.480    24432638.909    -4358739.031 2  -3396419.072 3
        15.100          18.600
  20414818.964    20414818.167    20414815.697   -25699412.480 6 -20025506.437 7
        38.200          46.600
  22549525.837    22549525.079    22549524.884   -10588754.247 5  -8250971.329 4
        30.200          29.700
  23300998.412    23300996.905    23300994.949    -9117355.831 4  -7104431.812 4
        27.400          28.600
  25063138.947    25063137.448    25063139.029     1630341.661     1270399.050 1
         3.000           9.000
  21046513.334    21046512.782    21046509.953   -21566184.879 6 -16804809.801 7
        41.000          42.800
 09  1  3  0 35 30.0000000  0 11G21G26G 9G15G 6G14G18G 3G19G24G22
  21255343.769    21255343.028    21255341.661   -22648518.213 6 -17648186.578 5
        38.100          35.800
  24153138.811    24153137.802    24153136.282     -782622.950 2   -609825.273 3
        12.600          18.600
  22693279.177    22693278.793    22693278.571   -11409378.735 4  -8890418.798 4
        25.300          28.400
  22744155.619    22744155.473    22744153.551   -11097619.263 5  -8647482.611 5
        31.300          33.000
  22540078.305    22540077.779    22540077.512   -11120642.983 5  -8665430.485 5
        30.400          31.600
  24411143.122    24411141.995    24411143.093    -4471700.179 2  -3484440.718 3
        16.100          19.900
  20415712.386    20415711.553    20415710.515   -25694717.947 6 -20021848.354 7
        38.300          46.800
  22555983.143    22555982.306    22555982.204   -10554820.720 4  -8224529.617 4
        29.900          29.500
  23291828.565    23291826.786    23291825.043    -9165545.327 4  -7141982.076 4
        27.100          29.000
  25083710.361    25083710.178    25083712.333     1738447.950     1354637.682 1
                         9.000
  21036133.088    21036132.595    21036129.569   -21620733.279 6 -16847315.031 7
        41.000          42.700
 09  1  3  0 36  0.0000000  0 11G21G26G 9G15G 6G14G18G 3G19G24G22
  21268723.054    21268722.206    21268720.676   -22578211.580 6 -17593402.211 5
        38.400          35.900
  24176044.730    24176043.703    24176041.963     -662252.632 2   -516030.247 2
        12.600          17.800
  22676459.486    22676458.760    22676458.525   -11497768.949 4  -8959294.252 4
        25.600          28.800
  22760588.188    22760587.900    22760586.094   -11011265.081 5  -8580193.636 5
        31.000          32.800
  22547901.151    22547900.599    22547900.537   -11079533.286 5  -8633396.938 5
        30.400          31.800
  24389670.174    24389669.739    24389669.569    -4584542.171 2  -3572369.541 3
        16.100          19.900
  20416681.179    20416680.341    20416677.863   -25689627.080 6 -20017881.439 7
        38.200          46.800
  22562548.750    22562547.936    22562548.195   -10520316.588 4  -8197643.289 4
        29.000          29.700
  23282758.939    23282757.382    23282756.213    -9213202.860 4  -7179117.791 4
        26.800          29.500
  25104295.327    25104295.215    25104296.482     1846618.085     1438925.998 1
                         6.500
  21025815.795    21025815.325    21025812.380   -21674950.348 6 -16889562.086 7
        41.100          42.800
 09  1  3  0 36 30.0000000  0 11G21G26G 9G15G 6G14G18G 3G19G24G22
  21282184.465    21282183.615    21282182.114   -22507471.091 6 -17538279.750 5
        38.100          35.600
  24198980.826    24198980.389    24198979.303     -541718.111 2   -422107.259 2
        12.600          17.000
  22659724.091    22659723.285    22659723.649   -11585711.243 4  -9027820.682 4
        25.600          29.000
  22777080.879    22777080.590    22777079.173   -10924594.288 5  -8512657.952 5
        30.800          33.100
  22555821.593    22555821.109    22555821.034   -11037911.012 5  -8600963.986 5
        30.400          31.600
  24368219.850    24368219.261    24368218.952    -4697264.963 2  -3660205.463 3
        16.100          19.300
  20417724.763    20417723.962    20417722.953   -25684142.148 6 -20013607.459 7
        38.300          46.600
  22569223.066    22569222.129    22569222.171   -10485245.663 4  -8170315.289 4
        29.200          29.900
  23273791.470    23273789.850    23273788.488    -9260328.558 4  -7215839.107 4
        28.100          29.900
  25124893.863    25124894.290    25124890.565     1954848.275     1523261.156 1
                         6.500
  21015561.336    21015560.816    21015557.977   -21728837.824 6 -16931552.313 7
        41.100          43.000
 09  1  3  0 37  0.0000000  0 10G21G22G26G 9G15G 6G14G18G 3G19
  21295727.775    21295726.888    21295725.412   -22436300.492 6 -17482822.158 5
        38.100          35.400
  21005369.556    21005369.064    21005366.033   -21782396.705 6 -16973286.492 7
        41.300          43.000
  24221947.403    24221946.537    24221946.597     -421024.382 2   -328060.223 2
        12.600          16.100
  22643075.093    22643074.375    22643074.321   -11673204.137 4  -9095996.923 4
        25.900          29.000
  22793633.016    22793632.845    22793631.462   -10837611.441 5  -8444879.108 5
        30.600          33.100
  22563838.677    22563838.119    22563837.863   -10995780.116 5  -8568134.718 5
        30.100          31.100
  24346792.233    24346791.848    24346790.973    -4809869.066 2  -3747948.911 3
        17.000          19.300
  20418843.206    20418842.408    20418839.942   -25678265.260 6 -20009028.065 7
        38.400          46.800
  22576003.346    22576002.564    22576002.745   -10449611.780 4  -8142548.635 4
        29.000          29.700
  23264924.861    23264923.404    23264921.892    -9306923.316 4  -7252146.694 5
        28.400          30.200
 09  1  3  0 37 30.0000000  0 10G21G22G26G 9G15G 6G14G18G 3G19
  21309351.374    21309350.638    21309349.096   -22364707.631 6 -17427035.525 5
        38.000          35.300
  20995239.101    20995238.592    20995235.472   -21835632.761 6 -17014769.125 7
        41.300          43.000
  24244943.199    24244942.651    24244942.671     -300181.103 2   -233896.642 2
        12.600          16.100
  22626510.767    22626510.266    22626509.755   -11760250.984 4  -9163825.626 4
        26.500          29.000
  22810243.163    22810243.061    22810241.504   -10750325.490 5  -8376864.092 5
        30.600          33.000
  22571951.144    22571950.753    22571950.580   -10953148.862 5  -8534915.558 5
        30.200          31.300
  24325386.807    24325386.303    24325384.886    -4922359.108 2  -3835603.482 3
        16.100          19.300
  20420034.734    20420033.959    20420032.890   -25672003.217 6 -20004148.543 7
        38.400          46.700
  22582889.713    22582889.013    22582889.183   -10413423.537 4  -8114350.000 4
        29.000          29.700
  23256158.632    23256156.743    23256155.204    -9352992.279 4  -7288044.570 5
        27.900          30.100
 09  1  3  0 38  0.0000000  0 10G21G26G 9G15G 6G14G18G 3G19G22
  21323057.888    21323057.051    21323055.615   -22292679.415 6 -17370909.654 5
        37.700          35.100
  24267969.762    24267969.568    24267969.295     -179176.753 2   -139607.561 2
        12.600          17.000
  22610034.161    22610033.734    22610033.768   -11846833.851 4  -9231292.759 4
        26.500          29.500
  22826913.073    22826912.870    22826911.589   -10662724.637 5  -8308603.697 5
        30.400          33.100
  22580161.809    22580161.125    22580160.801   -10910004.676 5  -8501296.715 5
        30.600          31.600
  24304005.151    24304004.560    24304003.638    -5034718.677 2  -3923156.371 3
        15.100          19.300
  20421302.494    20421301.675    20421299.308   -25665341.550 6 -19998957.636 7
        38.400          46.900
  22589884.253    22589883.517    22589883.772   -10376667.668 4  -8085709.059 4
        28.800          29.900
  23247495.200    23247493.530    23247491.400    -9398519.526 4  -7323520.323 4
        28.800          29.700
  20985172.551    20985172.091    20985169.321   -21888530.811 6 -17055988.372 7
        40.900          43.100
 09  1  3  0 38 30.0000000  0 10G21G26G 9G15G 6G14G18G 3G19G22
  21336846.225    21336845.432    21336843.957   -22220221.728 6 -17314449.126 5
        37.800          35.100
  24291024.885    24291024.471    24291024.395      -58018.488 1    -45198.552 2
        11.000          17.800
  22593646.355    22593645.701    22593645.380   -11932954.021 4  -9298399.351 4
        26.500          29.500
  22843641.808    22843641.633    22843639.859   -10574815.556 5  -8240103.129 5
        30.200          32.400
  22588467.975    22588467.308    22588467.306   -10866353.630 5  -8467282.912 5
        30.200          31.500
  24282647.990    24282647.096    24282646.768    -5146950.210 2  -4010609.497 3
        15.100          19.900
  20422645.222    20422644.449    20422643.375   -25658285.123 6 -19993459.117 7
        38.500          46.900
  22596985.475    22596984.790    22596984.901   -10339350.337 4  -8056630.624 4
        28.400          29.900
  23238934.049    23238932.311    23238930.337    -9443507.821 4  -7358576.122 5
        29.200          30.100
  20975170.131    20975169.686    20975166.800   -21941094.476 6 -17096947.059 7
        41.100          43.200
 09  1  3  0 39  0.0000000  0 10G21G26G 9G15G 6G14G18G 3G19G22
  21350717.325    21350716.493    21350714.922   -22147328.775 6 -17257649.432 5
        37.700          34.800
  24314110.189    24314110.285    24314109.859       63297.779 1     49333.570 3
         9.000          18.600
  22577348.438    22577347.619    22577347.274   -12018601.096 4  -9365137.288 4
        26.500          29.000
  22860429.684    22860429.575    22860428.035   -10486593.597 4  -8171358.753 5
        29.900          32.000
  22596872.035    22596871.465    22596871.303   -10822190.491 5  -8432870.069 5
        30.200          31.300
  24261316.719    24261316.089    24261315.465    -5259044.729 2  -4097955.836 3
        12.600          18.600
  20424064.616    20424063.767    20424061.436   -25650826.896 6 -19987647.511 7
        38.500          47.200
  22604195.112    22604194.148    22604194.349   -10301466.170 4  -8027110.499 5
        28.800          30.200
  23230477.341    23230475.592    23230473.833    -9487948.438 4  -7393205.162 5
        29.000          30.600
  20965232.847    20965232.300    20965229.413   -21993316.055 6 -17137639.190 7
        41.100          43.300
 09  1  3  0 39 30.0000000  0 10G21G26G 9G15G 6G14G18G 3G19G22
  21364669.016    21364668.127    21364666.300   -22074013.371 6 -17200520.559 5
        37.600          34.500
  24337222.972    24337222.486    24337222.880      184757.817 1    143977.632 3
         9.000          19.900
  22561138.824    22561138.313    22561137.455   -12103782.852 4  -9431512.666 4
        27.600          28.800
  22877274.706    22877274.281    22877272.838   -10398072.533 4  -8102381.303 5
        29.200          31.500
  22605370.707    22605369.944    22605370.034   -10777528.382 4  -8398068.433 5
        29.700          31.100
  24240010.413    24240009.138    24240008.958    -5371011.674 2  -4185202.809 2
        12.600          17.800
  20425557.998    20425557.172    20425556.186   -25642978.295 6 -19981531.714 7
        38.500          46.900
  22611509.567    22611508.682    22611508.705   -10263028.218 4  -7997158.838 5
        28.800          30.100
  23222122.797    23222120.930    23222119.554    -9531851.615 4  -7427415.435 5
        28.800          30.800
  20955358.306    20955357.858    20955354.991   -22045206.375 6 -17178073.198 7
        41.100          43.400
 09  1  3  0 40  0.0000000  0 11G21G26G 9G15G 6G14G18G 3G24G19G22
  21378701.082    21378700.274    21378698.504   -22000273.292 6 -17143060.765 5
        37.700          34.300
  24360364.460    24360363.591    24360363.562      306362.822 1    238734.670 3
         9.000          20.500
  22545019.031    22545018.477    22545018.051   -12188492.139 4  -9497519.885 4
        27.100          29.000
  22894176.767    22894176.535    22894175.015   -10309250.996 4  -8033169.728 5
        29.200          31.600
  22613965.123    22613964.406    22613964.346   -10732365.310 4  -8362876.429 5
        29.700          31.000
  24218728.184    24218727.607    24218727.845    -5482845.095 2  -4272345.709 2
        12.600          17.800
  20427126.508    20427125.705    20427123.489   -25634735.591 6 -19975108.827 7
        38.600          46.900
  22618929.601    22618928.897    22618928.673   -10224034.775 4  -7966774.340 4
        29.000          29.500
  25269354.895    25269353.630                           -.5261

  23213871.365    23213869.615    23213868.138    -9575211.919 4  -7461202.695 5
        28.600          30.400
  20945547.904    20945547.463    20945544.538   -22096760.541 6 -17218245.268 7
        41.100          43.500
 09  1  3  0 40 30.0000000  0 10G21G26G 9G15G 6G14G18G 3G19G22
  21392810.987    21392810.150    21392808.397   -21926125.353 6 -17085283.159 5
        37.300          34.100
  24383529.617    24383529.386    24383528.279      428094.095 2    333590.059 3
        12.600          19.900
  22528986.902    22528986.236    22528986.021   -12272741.326 4  -9563168.562 4
        27.100          29.700
  22911133.047    22911132.901    22911131.121   -10220147.020 4  -7963738.067 5
        29.200          32.100
  22622651.439    22622650.568    22622650.724   -10686718.611 4  -8327307.585 5
        29.500          30.800
  24197469.997    24197469.617    24197469.633    -5594558.839 2  -4359395.356 2
        12.600          16.100
  20428767.090    20428766.286    20428765.279   -25626114.475 6 -19968391.072 7
        38.600          47.000
  22626452.250    22626451.347    22626451.282   -10184503.024 4  -7935970.365 4
        28.800          29.500
  23205720.486    23205719.083    23205717.394    -9618043.259 4  -7494577.763 5
        28.600          30.200
  20935798.674    20935798.173    20935795.303   -22147993.240 6 -17258166.841 7
        41.200          43.600
 09  1  3  0 41  0.0000000  0 10G21G26G 9G15G 6G14G18G 3G19G22
  21407000.085    21406999.371    21406997.901   -21851559.668 6 -17027180.038 5
        37.200          34.000
  24406720.423    24406719.974    24406718.578      549960.824 2    428551.177 3
        15.100          20.500
  22513045.380    22513044.729    22513044.125   -12356515.417 4  -9628447.043 4
        27.900          29.700
  22928144.167    22928143.906    22928142.414   -10130751.494 4  -7894079.228 5
        28.600          32.300
  22631431.397    22631430.763    22631430.689   -10640578.616 4  -8291354.354 5
        29.200          30.800
  24176237.194    24176237.487    24176235.799    -5706139.479 2  -4446341.259 2
        13.900          16.100
  20430481.682    20430480.893    20430478.750   -25617103.993 6 -19961369.915 7
        38.600          47.000
  22634078.794    22634077.976    22634078.198   -10144423.411 4  -7904739.497 4
        28.800          29.000
  23197673.213    23197671.433    23197670.235    -9660332.976 4  -7527530.789 5
        28.400          30.600
  20926112.872    20926112.360    20926109.449   -22198892.238 6 -17297828.389 7
        41.100          43.600
 09  1  3  0 41 30.0000000  0 10G21G26G 9G15G 6G14G18G 3G19G22
  21421269.322    21421268.436    21421266.766   -21776575.953 6 -16968751.181 5
        37.300          33.900
  24429936.224    24429935.860    24429935.169      671961.571 2    523616.677 3
        15.100          19.900
  22497195.022    22497194.222    22497193.704   -12439809.608 4  -9693351.580 4
        27.900          29.700
  22945210.911    22945210.673    22945209.160   -10041065.126 4  -7824193.767 5
        28.400          32.100
  22640305.451    22640304.992    22640304.828   -10593945.554 4  -8255016.917 5
        29.700          30.800
  24155031.122    24155029.841    24155028.806    -5817583.299 2  -4533180.565 2
        16.100          15.100
  20432270.756    20432269.954    20432268.911   -25607702.416 6 -19954044.006 7
        38.700          47.100
  22641810.282    22641809.632    22641809.260   -10103796.031 4  -7873081.785 4
        28.800          29.200
  23189730.135    23189728.222    23189726.592    -9702077.859 4  -7560059.266 5
        28.400          30.400
  20916490.985    20916490.493    20916487.521   -22249455.546 6 -17337228.362 7
        41.100          43.600
 09  1  3  0 42  0.0000000  0 10G21G26G 9G15G 6G14G18G 3G19G22
  21435619.441    21435618.554    21435616.867   -21701165.847 6 -16909990.074 5
        37.200          33.800
  24453179.034    24453178.450    24453177.829      794103.284 2    618791.952 3
        13.900          18.600
  22481438.295    22481437.588    22481437.171   -12522610.818 4  -9757871.972 4
        28.100          29.900
  22962334.833    22962334.427    22962332.661    -9951080.663 4  -7754076.022 5
        28.600          31.500
  22649274.560    22649274.072    22649274.370   -10546811.575 4  -8218289.132 5
        29.200          31.000
  24133851.394    24133850.995    24133850.075    -5928878.535 2  -4619904.097 2
        15.100          16.100
  20434136.080    20434135.309    20434133.115   -25597900.277 6 -19946405.970 7
        38.700          47.300
  22649647.240    22649646.456    22649646.255   -10062612.888 4  -7840991.021 4
        29.000          29.200
  23181891.593    23181889.611    23181888.308    -9743266.718 4  -7592154.482 5
        27.600          30.200
  20906934.913    20906934.440    20906931.618   -22299672.384 6 -17376358.356 7
        41.000          43.700
 09  1  3  0 42 30.0000000  0 10G21G26G 9G15G 6G14G18G 3G19G22
  21450050.297    21450049.400    21450047.651   -21625331.546 6 -16850898.426 5
        37.100          33.500
  24476447.055    24476446.497    24476446.935      916382.718 2    714074.515 2
        12.600          17.000
  22465776.127    22465775.490    22465774.918   -12604916.216 4  -9822006.021 4
        28.100          29.700
  22979514.214    22979513.952    22979512.266    -9860800.907 4  -7683728.167 5
        28.600          31.000
  22658338.894    22658338.205    22658338.319   -10499178.917 4  -8181172.786 5
        29.000          31.000
  24112700.894    24112700.654    24112700.497    -6040023.915 2  -4706510.861 2
        16.100          16.100
  20436077.412    20436076.689    20436075.646   -25587697.958 6 -19938456.106 7
        38.800          47.100
  22657589.252    22657588.464    22657588.213   -10020876.298 4  -7808469.004 4
        28.800          28.800
  23174159.515    23174157.861    23174156.212    -9783898.798 4  -7623815.836 5
        28.100          30.200
  20897444.975    20897444.496    20897441.709   -22349542.522 6 -17415218.195 7
        41.000          44.000
 09  1  3  0 43  0.0000000  0 10G21G26G 9G15G 6G14G18G 3G19G22
  21464559.770    21464559.080    21464557.471   -21549082.280 6 -16791483.429 5
        36.700          33.500
  24499739.710    24499740.381    24499740.608     1038789.150 1    809456.107 2
         9.000          15.100
  22450207.265    22450206.312    22450206.199   -12686730.097 4  -9885757.068 4
        27.400          29.500
  22996748.416    22996748.113    22996746.452    -9770236.524 4  -7613158.529 5
        29.500          31.000
  22667496.219    22667495.476    22667495.600   -10451057.528 4  -8143675.615 5
        28.800          30.600
  24091578.630    24091577.852    24091577.590    -6151025.367 2  -4793005.461 2
        17.000          16.100
  20438093.508    20438092.745    20438090.582   -25577103.786 6 -19930200.905 7
        38.800          47.400
  22665634.876    22665633.980    22665633.947    -9978596.420 4  -7775523.649 4
        28.800          28.800
  23166532.325    23166530.481    23166529.004    -9823980.519 4  -7655048.344 5
        28.400          30.200
  20888019.709    20888019.186    20888016.395   -22399073.186 6 -17453813.505 7
        41.100          44.100
 09  1  3  0 43 30.0000000  0 10G21G26G 9G15G 6G14G18G 3G19G22
  21479147.796    21479146.992    21479145.382   -21472422.112 6 -16731748.245 5
        36.600          33.400
  24523055.949    24523057.176    24523056.922     1161317.476 1    904932.640 1
         9.000          11.000
  22434732.204    22434731.466    22434730.974   -12768051.997 4  -9949124.754 4
        27.600          29.500
  23014035.670    23014035.304    23014033.499    -9679391.697 4  -7542370.350 5
        29.700          31.000
  22676745.269    22676744.740    22676744.767   -10402451.815 4  -8105801.035 5
        28.400          30.200
  24070482.914    24070481.455    24070482.116    -6261883.420 2  -4879388.320 2
        17.000          17.000
  20440183.659    20440182.822    20440181.797   -25566120.204 6 -19921642.264 7
        38.800          47.400
  22673783.321    22673782.385    22673782.300    -9935777.509 4  -7742158.254 4
        28.800          29.200
  23159009.697    23159008.062    23159006.180    -9863513.180 4  -7685853.008 4
        29.200          29.700
  20878658.776    20878658.214    20878655.245   -22448265.666 6 -17492145.301 7
        41.100          44.100
 09  1  3  0 44  0.0000000  0 10G21G26G 9G15G 6G14G18G 3G19G22
  21493814.089    21493813.124    21493811.663   -21395350.288 6 -16671692.293 5
        36.400          33.200
  24546396.190    24546395.737    24546395.659     1283967.182 1   1000503.843 1
         6.500           9.000
  22419352.211    22419351.451    22419350.800   -12848876.167 4 -10012104.592 4
        28.800          29.900
  23031376.075    23031375.910    23031374.004    -9588266.844 4  -7471363.991 5
        29.000          31.100
  22686087.143    22686086.364    22686086.600   -10353361.420 4  -8067548.792 5
        28.800          30.400
  24049414.568    24049413.922    24049414.757    -6372593.898 2  -4965656.177 2
        17.000          17.000
  20442348.081    20442347.332    20442345.257   -25554745.269 6 -19912778.675 7
        38.900          47.300
  22682034.261    22682033.434    22682033.242    -9892418.476 4  -7708371.988 4
        29.000          29.200
  23151591.582    23151590.167    23151588.395    -9902492.818 4  -7716226.746 4
        29.200          28.800
  20869362.328    20869361.884    20869358.944   -22497117.628 6 -17530211.759 7
        41.100          44.000
 09  1  3  0 44 30.0000000  0 10G21G26G 9G15G 6G14G18G 3G19G22
  21508558.850    21508558.050    21508556.427   -21317866.191 6 -16611315.098 5
        36.400          33.100
  24569759.480    24569758.261    24569757.660     1406737.616 1   1096169.147 1
         6.500           6.500
  22404067.044    22404066.504    22404066.176   -12929197.423 4 -10074692.560 5
        28.800          30.100
  23048770.076    23048769.605    23048767.781    -9496862.508 4  -7400139.844 5
        28.400          31.100
  22695521.153    22695520.431    22695520.299   -10303786.160 4  -8028918.726 5
        28.400          30.200
  24028376.069    24028375.863    24028375.879    -6483152.672 2  -5051805.838 2
        17.000          17.000
  20444587.514    20444586.719    20444585.666   -25542977.425 6 -19903608.917 7
        38.900          47.500
  22690387.361    22690386.642    22690386.945    -9848519.595 4  -7674165.065 4
        28.100          29.500
  23144279.572    23144278.290    23144276.663    -9940916.300 4  -7746167.114 4
        29.000          29.200
  20860131.591    20860131.099    20860128.208   -22545625.917 6 -17568010.417 7
        41.200          44.300
 09  1  3  0 45  0.0000000  0 10G21G26G 9G15G 6G14G18G 3G19G22
  21523381.735    21523380.840    21523379.029   -21239972.265 6 -16550618.543 5
        36.400          32.800
  24593144.924    24593142.516    24593143.038     1529625.205     1191925.684 1
         3.000           6.500
  22388878.806    22388878.295    22388877.729   -13009013.272 4 -10136886.705 5
        28.800          30.200
  23066215.859    23066215.520    23066214.196    -9405181.839 4  -7328700.383 5
        27.900          31.100
  22705046.313    22705045.679    22705045.966   -10253728.644 4  -7989912.873 5
        28.100          30.200
  24007367.166    24007365.775    24007365.907    -6593558.714 2  -5137836.482 3
        17.000          18.600
  20446901.604    20446900.784    20446898.699   -25530817.264 6 -19894133.462 7
        39.000          47.700
  22698843.910    22698843.053    22698842.562    -9804084.153 4  -7639540.046 4
        28.600          29.200
  23137074.307    23137072.737    23137070.857    -9978783.127 4  -7775673.719 4
        29.000          29.000
  20850966.278    20850965.726    20850962.758   -22593790.543 6 -17605541.286 7
        41.200          44.300
 09  1  3  0 45 30.0000000  0 10G21G26G 9G15G 6G14G18G 3G19G22
  21538281.490    21538280.653    21538279.005   -21161672.756 6 -16489605.951 5
        36.000          33.000
  24616552.119    24616550.663    24616550.175     1652624.404 1   1287769.262 1
         6.500           6.500
  22373786.566    22373785.774    22373785.536   -13088323.595 4 -10198686.940 5
        28.400          30.400
  23083713.679    23083713.341    23083711.726    -9313229.943 4  -7257049.579 5
        27.600          30.600
  22714662.899    22714662.235    22714662.562   -10203194.020 4  -7950535.255 5
        28.400          30.200
  23986386.503    23986385.768    23986384.862    -6703812.918 2  -5223748.792 3
        17.800          19.300
  20449289.611    20449288.794    20449287.617   -25518268.158 6 -19884354.931 7
        39.000          47.800
  22707400.621    22707399.817    22707399.794    -9759116.692 4  -7604500.477 4
        28.400          29.500
  23129973.943    23129972.662    23129970.331   -10016095.092 4  -7804747.965 4
        29.500          28.800
  20841865.696    20841865.195    20841862.221   -22641613.794 6 -17642806.149 7
        41.200          44.400
 09  1  3  0 46  0.0000000  0 10G21G26G 9G15G 6G14G18G 3G19G22
  21553258.273    21553257.440    21553255.775   -21082969.246 6 -16428278.554 5
        36.100          32.800
  24639979.308    24639977.860    24639976.486     1775732.893 1   1383698.009 1
         6.500           9.000
  22358791.078    22358790.419    22358789.992   -13167124.503 4 -10260090.219 5
        28.100          30.200
  23101262.603    23101262.378    23101260.705    -9221008.967 4  -7185189.103 5
        27.600          30.400
  22724369.863    22724369.299    22724369.184   -10152183.908 4  -7910787.127 5
        28.600          30.100
  23965435.314    23965434.570    23965433.416    -6813913.230 3  -5309541.219 3
        18.600          19.900
  20451751.684    20451750.897    20451748.856   -25505329.371 6 -19874272.754 7
        39.000          47.700
  22716058.518    22716057.688    22716057.919    -9713618.570 4  -7569047.383 4
        28.100          29.500
  23122979.631    23122978.112    23122976.262   -10052850.588 4  -7833388.606 4
        29.700          29.500
  20832830.492    20832829.997    20832826.996   -22689094.564 6 -17679804.146 7
        41.400          44.700
 09  1  3  0 46 30.0000000  0 10G21G26G 9G15G 6G14G18G 3G19G22
  21568311.055    21568310.182    21568308.549   -21003866.295 5 -16366639.901 5
        35.900          32.600
  24663425.085    24663424.043    24663424.063     1898944.641 1   1479707.174 1
         9.000           6.500
  22343892.345    22343891.706    22343891.927   -13245415.919 4 -10321096.489 5
        27.600          30.600
  23118862.166    23118861.847    23118859.600    -9128524.520 4  -7113123.315 4
        28.100          29.900
  22734166.412    22734165.768    22734165.774   -10100703.484 4  -7870672.516 5
        28.600          30.200
  23944512.803    23944512.157    23944511.579    -6923860.804 2  -5395214.628 3
        17.000          20.500
  20454287.262    20454286.446    20454285.404   -25492005.135 6 -19863890.225 7
        39.100          47.900
  22724816.329    22724815.352    22724815.930    -9667595.220 4  -7533185.025 4
        27.600          29.200
  23116090.714    23116089.074    23116087.321   -10089051.316 4  -7861596.957 4
        29.000          29.200
  20823859.886    20823859.415    20823856.590   -22736235.002 6 -17716536.946 7
        41.300          44.800
 09  1  3  0 47  0.0000000  0 10G21G26G 9G15G 6G14G18G 3G19G22
  21583439.493    21583438.616    21583437.142   -20924365.754 5 -16304691.449 5
        35.700          32.600
  24686890.079    24686888.611    24686890.126     2022256.682 1   1575794.480 1
         9.000           9.000
  22329091.493    22329090.978    22329090.809   -13323195.426 4 -10381703.873 5
        28.400          30.400
  23136511.097    23136510.719    23136508.613    -9035778.970 4  -7040854.066 4
        28.400          29.900
  22744052.114    22744051.422    22744051.293   -10048755.001 4  -7830193.188 5
        28.600          30.400
  23923619.888    23923618.876    23923618.138    -7033653.961 2  -5480767.669 3
        16.100          21.100
  20456896.168    20456895.319    20456893.311   -25478295.420 6 -19853207.327 7
        39.100          47.800
  22733673.944    22733673.070    22733673.128    -9621048.809 4  -7496915.095 4
        28.400          29.000
  23109307.437    23109306.040    23109304.588   -10124696.388 4  -7889372.331 4
        29.200          29.700
  20814954.078    20814953.577    20814950.777   -22783035.112 6 -17753004.557 7
        41.300          44.900
 09  1  3  0 47 30.0000000  0 10G21G26G 9G15G 6G14G18G 3G19G22
  21598645.163    21598644.344    21598642.598   -20844459.948 5 -16242427.202 5
        35.700          32.400
  24710375.687    24710373.785    24710375.311     2145675.915 1   1671965.297 1
         6.500           9.000
  22314390.979    22314390.127    22314389.609   -13400449.824 4 -10441902.090 5
        28.800          30.200
  23154210.302    23154210.306    23154208.571    -8942765.220 4  -6968375.829 4
        27.400          29.700
  22754027.775    22754027.091    22754027.396    -9996331.006 4  -7789343.332 5
        28.100          30.600
  23902758.052    23902757.305    23902757.080    -7143281.288 2  -5566191.515 3
        15.100          20.500
  20459580.091    20459579.275    20459578.106   -25464191.113 6 -19842216.952 7
        39.100          47.900
  22742632.121    22742631.406    22742631.411    -9573972.103 4  -7460231.945 4
        28.400          28.600
  23102632.619    23102631.211    23102629.484   -10159775.111 4  -7916706.388 4
        29.900          29.700
  20806115.076    20806114.524    20806111.671   -22829484.664 6 -17789199.006 7
        41.300          44.900
 09  1  3  0 48  0.0000000  0 10G21G26G 9G15G 6G14G18G 3G19G22
  21613926.994    21613926.400    21613924.968   -20764151.891 5 -16179849.511 5
        35.600          32.600
  24733880.906    24733879.432    24733881.296     2269198.114     1768216.349 1
         3.000           9.000
  22299789.835    22299789.261    22299789.013   -13477177.827 4 -10501690.125 5
        29.000          30.600
  23171960.365    23171960.473    23171958.938    -8849487.563 4  -6895691.942 4
        26.800          29.900
  22764093.706    22764093.136    22764092.975    -9943435.227 4  -7748125.847 5
        28.400          30.600
  23881928.484    23881927.272    23881927.607    -7252742.402 2  -5651485.847 3
        16.100          21.600
  20462338.869    20462338.010    20462335.950   -25449693.950 6 -19830920.458 8
        39.100          48.000
  22751690.963    22751690.137    22751690.075    -9526368.222 4  -7423138.009 4
        28.400          28.600
  23096065.130    23096063.513    23096061.442   -10194288.332 4  -7943599.797 4
        29.900          29.200
  20797342.622    20797342.066    20797339.214   -22875584.446 6 -17825120.905 7
        41.400          45.100
 09  1  3  0 48 30.0000000  0 10G21G26G 9G15G 6G14G18G 3G19G22
  21629286.105    21629285.315    21629283.739   -20683440.439 5 -16116957.486 5
        35.300          32.300
  24757404.699    24757404.139    24757404.461     2392823.340     1864547.644 1
                        11.000
  22285290.334    22285289.632    22285289.028   -13553373.520 4 -10561063.358 5
        29.200          30.200
  23189761.021    23189760.910    23189759.859    -8755945.489 4  -6822802.019 5
        27.100          30.400
  22774248.911    22774248.368    22774248.554    -9890067.043 4  -7706540.254 5
        27.900          30.400
  23861131.205    23861130.484    23861130.448    -7362032.694 2  -5736647.060 3
        17.800          22.100
  20465172.752    20465171.898    20465170.819   -25434801.438 6 -19819315.897 7
        39.000          47.900
  22760850.216    22760849.373    22760849.242    -9478236.861 4  -7385633.058 4
        27.900          28.800
  23089605.787    23089604.082    23089602.406   -10228231.713 4  -7970049.173 4
        29.200          29.700
  20788637.386    20788636.832    20788633.905   -22921330.627 6 -17860767.271 7
        41.400          45.100
 09  1  3  0 49  0.0000000  0 10G21G26G 9G15G 6G14G18G 3G19G22
  21644719.705    21644718.852    21644717.120   -20602336.954 5 -16053759.989 5
        35.300          32.000
  24780946.494    24780945.854    24780947.998     2516539.002     1960949.398 1
         3.000          11.000
  22270891.001    22270890.228    22270889.476   -13629043.655 4 -10620027.087 5
        29.500          30.200
  23207609.620    23207609.664    23207608.167    -8662151.258 4  -6749715.609 5
        27.900          30.800
  22784492.630    22784491.895    22784491.975    -9836238.269 4  -7664595.762 5
        27.900          30.400
  23840364.753    23840363.852    23840363.711    -7471160.098 2  -5821681.381 3
        17.800          21.600
  20468079.939    20468079.099    20468077.177   -25419523.846 6 -19807411.274 7
        39.100          47.900
  22770107.483    22770106.648    22770106.536    -9429590.507 4  -7347726.803 4
        27.900          28.800
  23083253.396    23083251.846    23083249.820   -10261614.111 4  -7996061.431 4
        29.500          29.900
  20779997.799    20779997.313    20779994.301   -22966732.191 6 -17896145.103 7
        41.600          45.300
 09  1  3  0 49 30.0000000  0 10G21G26G 9G15G 6G14G18G 3G19G22
  21660227.920    21660227.018    21660225.493   -20520840.707 5 -15990256.438 5
        34.900          32.100
  24804505.907    24804506.524    24804506.683     2640344.956 1   2057421.525 2
         6.500          12.600
  22256592.133    22256591.698    22256591.101   -13704182.537 4 -10678576.835 5
        29.200          30.400
  23225506.763    23225506.478    23225504.704    -8568104.909 4  -6676432.764 5
        27.900          30.800
  22794823.110    22794822.678    22794822.810    -9781948.627 4  -7622292.149 5
        27.900          30.100
  23819630.302    23819629.327    23819629.466    -7580120.343 3  -5906585.413 3
        18.600          21.600
  20471060.974    20471060.134    20471058.958   -25403858.619 6 -19795204.602 8
        39.100          48.000
  22779462.531    22779461.825    22779461.624    -9380428.361 4  -7309418.641 4
        28.400          29.000
  23077007.941    23077006.471    23077004.751   -10294431.985 4  -8021633.793 5
        29.200          30.100
  20771424.159    20771423.641    20771420.637   -23011786.866 6 -17931252.633 7
        41.600          45.300
 09  1  3  0 50  0.0000000  0 10G21G26G 9G15G 6G14G18G 3G19G22
  21675810.602    21675809.777    21675808.342   -20438952.988 5 -15926447.844 5
        34.900          32.300
  24828082.556    24828082.705    24828083.408     2764239.284 1   2153962.509 2
         9.000          13.900
  22242395.405    22242394.692    22242394.407   -13778786.910 4 -10736710.092 5
        29.000          30.800
  23243450.758    23243450.460    23243448.724    -8473808.024 4  -6602954.692 5
        27.600          30.200
  22805241.839    22805241.248    22805241.116    -9727199.748 4  -7579630.694 4
        27.400          29.900
  23798927.801    23798926.872    23798927.255    -7688911.076 3  -5991357.390 3
        18.600          21.600
  20474115.672    20474114.871    20474112.913   -25387805.867 6 -19782695.958 8
        39.200          48.100
  22788915.561    22788914.867    22788914.860    -9330751.716 4  -7270709.568 4
        27.900          29.000
  23070870.792    23070869.153    23070867.149   -10326683.820 4  -8046765.082 5
        29.700          30.100
  20762916.795    20762916.297    20762913.315   -23056492.968 6 -17966088.549 7
        41.700          45.500
 09  1  3  0 50 30.0000000  0 10G21G26G 9G15G 6G14G18G 3G19G22
  21691468.683    21691467.916    21691466.266   -20356669.531 5 -15862330.880 5
        35.100          31.800
  24851676.086    24851677.740    24851677.354     2888225.025     2250574.710 2
         3.000          13.900
  22228302.168    22228301.565    22228301.208   -13852847.642 4 -10794419.732 5
        29.500          31.300
  23261442.778    23261442.766    23261441.028    -8379257.892 4  -6529279.268 4
        27.100          29.900
  22815747.692    22815747.307    22815747.709    -9671987.948 4  -7536608.525 4
        27.100          29.900
  23778259.475    23778258.207    23778258.541    -7797524.597 3  -6075991.270 3
        18.600          21.100
  20477245.165    20477244.358    20477243.280   -25371359.853 6 -19769880.880 8
        39.200          48.000
  22798467.214    22798466.481    22798466.506    -9280557.650 4  -7231597.313 4
        27.600          29.200
  23064842.923    23064841.385    23064839.104   -10358362.509 5  -8071449.776 5
        30.800          30.400
  20754477.051    20754476.571    20754473.557   -23100844.104 6 -18000647.870 7
        41.600          45.500
 09  1  3  0 51  0.0000000  0 10G21G26G 9G15G 6G14G18G 3G19G22
  21707199.697    21707198.804    21707197.213   -20274002.864 5 -15797915.310 5
        34.700          31.600
  24875285.254    24875286.762    24875285.263     3012288.644 1   2347247.576 2
         6.500          13.900
  22214310.858    22214310.311    22214310.122   -13926372.293 4 -10851711.631 5
        29.500          32.000
  23279481.128    23279480.757    23279479.436    -8284466.601 4  -6455415.936 5
        26.500          30.100
  22826339.971    22826339.595    22826339.587    -9616326.231 4  -7493235.747 4
        27.600          29.200
  23757622.936    23757622.155    23757621.751    -7905969.733 3  -6160493.959 3
        18.600          21.100
  20480447.524    20480446.677    20480444.823   -25354531.714 6 -19756768.042 8
        39.200          48.100
  22808115.207    22808114.406    22808114.278    -9229858.759 4  -7192091.691 4
        27.400          29.000
  23058921.680    23058920.174    23058918.224   -10389477.967 5  -8095695.578 5
        30.800          31.000
  20746102.910    20746102.340    20746099.543   -23144850.507 6 -18034938.566 7
        41.600          45.600
 09  1  3  0 51 30.0000000  0 10G21G26G 9G15G 6G14G18G 3G19G22
  21723005.313    21723004.690    21723003.259   -20190942.321 5 -15733192.829 5
        34.600          31.800
  24898911.373    24898911.164    24898910.010     3136440.277 1   2443989.079 2
         6.500          13.900
  22200424.702    22200423.759    22200423.414   -13999345.716 4 -10908574.016 5
        29.700          31.600
  23297566.377    23297566.286    23297565.055    -8189424.629 4  -6381357.267 4
        25.600          29.700
  22837020.069    22837019.457    22837019.420    -9560204.460 4  -7449504.491 4
        27.900          29.200
  23737021.465    23737020.436    23737020.143    -8014232.118 2  -6244854.247 3
        17.800          21.600
  20483724.922    20483724.027    20483722.821   -25337309.443 6 -19743348.089 8
        39.300          48.300
  22817860.639    22817859.933    22817859.836    -9178645.092 4  -7152184.944 4
        27.400          29.000
  23053110.307    23053108.554    23053106.954   -10420017.012 5  -8119492.225 5
        30.600          31.100
  20737796.927    20737796.412    20737793.468   -23188498.791 6 -18068950.205 7
        41.700          45.700
 09  1  3  0 52  0.0000000  0 11G21G26G 9G15G 6G14G18G 3G28G19G22
  21738884.786    21738884.026    21738882.833   -20107494.837 5 -15668168.840 5
        34.300          31.600
  24922552.445    24922552.864    24922550.957     3260671.858     2540792.894 2
                        12.600
  22186642.637    22186641.991    22186641.473   -14071769.969 5 -10965008.478 5
        30.100          31.600
  23315698.224    23315698.399    23315697.398    -8094139.703 4  -6307109.301 4
        24.900          29.700
  22847786.147    22847785.427    22847785.178    -9503630.040 4  -7405420.518 4
        27.900          29.500
  23716453.358    23716452.658    23716452.678    -8122315.086 2  -6329074.716 3
        17.800          20.500
  20487076.196    20487075.334    20487073.401   -25319698.501 6 -19729625.276 8
        39.300          48.500
  22827702.527    22827701.860    22827701.907    -9126923.822 4  -7111882.658 4
        27.400          28.600
  25627958.183    25627957.778    25627955.700           -.4851           .3161
                         3.000
  23047407.916    23047406.001    23047404.278   -10449983.993 5  -8142843.114 5
        30.400          31.000
  20729558.228    20729557.735    20729554.727   -23231793.623 6 -18102686.423 7
        41.800          45.800
 09  1  3  0 52 30.0000000  0 11G21G26G 9G15G 6G14G18G 3G28G19G22
  21754836.704    21754835.842    21754834.415   -20023668.433 5 -15602849.588 5
        34.300          31.500
  24946207.774    24946207.233    24946204.819     3384974.546     2637652.095 2
                        12.600
  22172964.467    22172963.662    22172963.156   -14143648.710 4 -11021017.880 5
        29.900          31.500
  23333874.943    23333874.950    23333873.967    -7998620.533 4  -6232678.810 4
        24.900          29.700
  22858636.353    22858635.581    22858635.407    -9446611.505 4  -7360990.497 4
        27.600          29.500
  23695919.304    23695919.053    23695918.477    -8230223.279 3  -6413159.006 3
        18.600          21.100
  20490500.052    20490499.228    20490498.026   -25301705.410 6 -19715604.677 8
        39.300          48.400
  22837640.025    22837639.104    22837639.201    -9074703.476 4  -7071191.485 4
        27.400          28.400
  25622083.577    25622083.037    25622081.076      -30883.506      -24064.483
         3.000           3.000
  23041813.003    23041811.329    23041809.797   -10479383.744 5  -8165752.012 5
        30.400          31.300
  20721385.603    20721385.130    20721382.186   -23274740.645 6 -18136151.622 7
        41.900          45.900
 09  1  3  0 53  0.0000000  0 11G21G26G 9G15G 6G14G18G 3G28G19G22
  21770861.209    21770860.436    21770858.751   -19939460.310 5 -15537232.884 5
        34.400          31.300
  24969877.995    24969875.329    24969873.588     3509350.270     2734568.221 2
                        12.600
  22159391.446    22159390.941    22159390.366   -14214974.098 4 -11076596.088 5
        29.900          31.500
  23352096.967    23352096.821    23352095.500    -7902864.843 4  -6158064.009 4
        24.900          29.200
  22869570.887    22869570.269    22869570.620    -9389146.559 4  -7316212.612 4
        27.100          29.500
  23675419.745    23675418.799    23675418.852    -8337950.354 2  -6497102.171 3
        17.800          21.600
  20493997.423    20493996.682    20493995.002   -25283325.567 6 -19701282.717 8
        39.300          48.300
  22847672.541    22847671.838    22847671.742    -9021981.984 4  -7030109.804 4
        27.400          28.100
  25616295.316    25616291.152    25616295.312      -61292.323      -47759.774 1
                         6.500
  23036327.557    23036325.863    23036324.195   -10508211.099 5  -8188214.875 5
        31.100          31.500
  20713280.154    20713279.683    20713276.721   -23317334.751 6 -18169341.821 7
        41.900          45.900
 09  1  3  0 53 30.0000000  0 11G21G26G 9G15G 6G14G18G 3G28G19G22
  21786957.177    21786956.342    21786954.686   -19854875.624 5 -15471322.764 5
        34.000          31.100
  24993559.709    24993558.206    24993553.890     3633792.768     2831536.277 2
                        12.600
  22145924.242    22145923.507    22145923.002   -14285746.392 5 -11131743.312 5
        30.100          31.300
  23370362.396    23370362.353    23370361.016    -7806878.357 4  -6083269.369 4
        25.300          29.000
  22880590.116    22880589.612    22880589.696    -9331240.843 4  -7271091.275 4
        26.800          29.200
  23654953.898    23654953.491    23654952.980    -8445497.716 2  -6580905.281 3
        17.800          21.600
  20497567.989    20497567.144    20497565.830   -25264563.275 6 -19686662.743 8
        39.400          48.500
  22857799.509    22857798.548    22857798.457    -8968764.836 4  -6988641.899 4
        27.100          27.600
  25610600.142    25610597.352    25610592.972      -91229.584      -71087.366 1
                         6.500
  23030950.534    23030948.752    23030946.647   -10536468.523 5  -8210233.641 5
        31.300          31.000
  20705241.451    20705240.906    20705237.966   -23359578.707 6 -18202259.181 7
        41.800          46.000
 09  1  3  0 54  0.0000000  0 10G21G26G 9G15G 6G14G18G 3G19G22
  21803124.554    21803123.784    21803122.364   -19769914.366 5 -15405119.216 5
        33.600          30.800
  25017248.251    25017248.979    25017248.395     3758302.011     2928556.505 1
                        11.000
  22132562.914    22132562.360    22132561.484   -14355960.978 5 -11186455.965 5
        30.400          31.100
  23388671.524    23388671.897    23388670.368    -7710661.943 4  -6008295.538 4
        24.900          28.600
  22891692.680    22891692.292    22891692.563    -9272894.727 4  -7225626.782 4
        26.200          29.200
  23634523.306    23634522.518    23634522.563    -8552861.588 3  -6664565.399 3
        18.600          22.600
  20501211.345    20501210.552    20501208.764   -25245416.935 6 -19671743.515 8
        39.400          48.600
  22868020.730    22868019.789    22868019.700    -8915052.741 4  -6946788.314 4
        26.800          27.600
  23025682.282    23025680.490    23025678.552   -10564153.250 5  -8231806.146 5
        31.000          31.300
  20697269.867    20697269.369    20697266.306   -23401469.925 6 -18234901.678 7
        41.900          46.100
 09  1  3  0 54 30.0000000  0 10G21G26G 9G15G 6G14G18G 3G19G22
  21819364.329    21819363.375    21819361.677   -19684575.242 5 -15338621.228 5
        33.600          30.600
  25040952.837    25040958.032    25040952.950     3882878.185     3025628.760 1
                         9.000
  22119308.646    22119307.993    22119307.401   -14425611.605 5 -11240729.181 5
        30.200          31.600
  23407024.551    23407025.539    23407023.692    -7614213.829 4  -5933141.147 4
        24.900          27.600
  22902880.255    22902879.515    22902879.502    -9214107.213 4  -7179818.333 4
        26.200          29.200
  23614129.068    23614128.304    23614127.628    -8660036.903 3  -6748078.597 3
        19.900          22.600
  20504928.570    20504927.727    20504926.396   -25225883.006 6 -19656522.266 8
        39.400          48.600
  22878336.101    22878335.256    22878335.336    -8860844.420 4  -6904548.070 4
        27.400          28.100
  23020523.591    23020521.722    23020520.201   -10591261.260 5  -8252929.255 5
        30.800          31.500
  20689365.959    20689365.504    20689362.532   -23443004.355 6 -18267266.160 7
        41.900          46.200
 09  1  3  0 55  0.0000000  0 10G21G26G 9G15G 6G14G18G 3G19G22
  21835677.903    21835677.224    21835675.673   -19598845.530 5 -15271818.868 5
        33.900          31.000
  25064674.904    25064676.075    25064672.825     4007532.670     3122762.088 1
                         6.500
  22106164.887    22106164.550    22106164.078   -14494681.583 5 -11294549.919 5
        30.200          32.300
  23425425.013    23425425.134    23425423.380    -7517522.976 4  -5857797.624 4
        24.900          27.400
  22914152.760    22914152.326    22914152.545    -9154866.746 4  -7133656.938 4
        25.900          29.200
  23593772.962    23593772.212    23593771.990    -8767008.066 3  -6831432.732 3
        19.900          23.000
  20508721.877    20508721.108    20508719.370   -25205948.542 6 -19640988.913 8
        39.500          48.500
  22888748.386    22888747.517    22888747.092    -8806128.485 4  -6861912.265 4
        27.400          27.600
  23015477.565    23015475.971    23015474.258   -10617777.495 5  -8273591.253 5
        30.800          31.100
  20681532.947    20681532.429    20681529.477   -23484167.689 6 -18299341.476 7
        41.900          46.300
 09  1  3  0 55 30.0000000  0 10G21G26G 9G15G 6G14G18G 3G19G22
  21852061.926    21852061.273    21852059.998   -19512746.341 5 -15204728.617 5
        33.500          31.000
  25088407.593    25088406.957    25088404.806     4132244.311     3219940.018 1
                         9.000
  22093129.308    22093128.438    22093127.793   -14563187.128 5 -11347930.848 5
        30.800          32.300
  23443867.570    23443866.921    23443865.646    -7420610.903 4  -5782281.731 4
        24.900          28.100
  22925508.261    22925507.531    22925507.860    -9095194.468 4  -7087159.064 4
        26.200          28.800
  23573452.776    23573452.004    23573451.320    -8873792.014 3  -6914640.970 3
        20.500          23.000
  20512587.922    20512587.066    20512585.796   -25185632.797 6 -19625158.460 8
        39.400          48.600
  22899252.519    22899251.873    22899252.134    -8750926.059 4  -6818897.390 4
        26.500          27.900
  23010540.904    23010539.141    23010537.181   -10643720.352 5  -8293806.452 5
        30.800          31.000
  20673767.003    20673766.430    20673763.469   -23524978.297 6 -18331141.943 7
        41.900          46.300
 09  1  3  0 56  0.0000000  0 11G21G26G 9G15G 6G14G18G 3G28G19G22
  21868518.201    21868517.275    21868515.877   -19426268.732 5 -15137343.491 5
        33.100          30.200
  25112151.209    25112150.500    25112151.377     4257021.152     3317168.738
                         3.000
  22080202.670    22080202.164    22080201.674   -14631114.504 5 -11400861.257 5
        30.400          32.400
  23462353.153    23462352.757    23462351.069    -7323468.775 4  -5706586.572 4
        25.300          27.900
  22936947.357    22936946.759    22936946.872    -9035082.161 4  -7040318.303 4
        27.400          28.400
  23553170.008    23553169.466    23553169.153    -8980376.134 3  -6997693.491 3
        20.500          23.000
  20516528.428    20516527.589    20516525.895   -25164925.287 6 -19609022.733 8
        39.500          48.600
  22909851.741    22909850.710    22909850.923    -8695229.158 4  -6775497.207 4
        26.500          28.100
  25583483.329    25583480.577    25583480.483           -.4541          -.4041
                         3.000
  23005715.520    23005714.045    23005712.031   -10669078.500 5  -8313566.041 5
        31.100          31.100
  20666070.135    20666069.679    20666066.800   -23565424.519 6 -18362658.472 7
        41.900          46.400
 09  1  3  0 56 30.0000000  0 10G21G 9G15G 6G14G18G 3G28G19G22
  21885042.208    21885041.412    21885040.086   -19339433.966 5 -15069680.055 5
        33.000          30.100
  22067383.517    22067383.027    22067382.346   -14698479.991 5 -11453353.825 5
        30.800          32.400
  23480877.753    23480877.558    23480875.969    -7226118.761 4  -5630729.416 4
        24.600          27.600
  22948466.190    22948465.741    22948465.207    -8974551.454 4  -6993151.521 4
        27.600          27.900
  23532922.481    23532921.745    23532921.296    -9086777.828 3  -7080603.877 3
        21.100          23.000
  20520539.692    20520538.921    20520537.416   -25143845.614 6 -19592597.010 8
        39.500          48.600
  22920540.288    22920539.603    22920539.509    -8639059.205 4  -6731728.418 4
        26.800          27.900
  25578338.953    25578337.960    25578337.266      -27056.322 1    -21082.728 1
         6.500          11.000
  23000997.599    23000996.018    23000994.114   -10693870.584 5  -8332884.548 5
        31.100          31.100
  20658439.336    20658438.837    20658435.808   -23605525.171 6 -18393905.727 7
        41.900          46.400
 09  1  3  0 57  0.0000000  0 10G21G 9G15G 6G14G18G 3G28G19G22
  21901635.092    21901634.200    21901632.803   -19252238.951 5 -15001735.902 4
        33.000          29.900
  22054672.746    22054672.127    22054671.412   -14765276.120 5 -11505402.736 5
        31.300          32.300
  23499442.629    23499442.671    23499441.540    -7128558.074 3  -5554708.107 4
        23.800          28.100
  22960064.618    22960064.081    22960063.790    -8913599.873 4  -6945656.786 4
        27.100          27.400
  23512711.218    23512709.858    23512709.357    -9192990.861 3  -7163367.242 3
        20.500          21.600
  20524622.709    20524621.937    20524620.278   -25122389.113 6 -19575877.656 8
        39.500          48.600
  22931319.454    22931318.592    22931318.721    -8582414.091 4  -6687589.363 4
        26.200          27.900
  25573277.662    25573279.066    25573276.189      -53637.136      -41795.101 1
         3.000           9.000
  22996388.785    22996387.225    22996385.300   -10718090.445 5  -8351757.151 5
        31.100          31.100
  20650875.147    20650874.607    20650871.598   -23645275.270 6 -18424879.815 7
        41.900          46.500
 09  1  3  0 57 30.0000000  0 10G21G 9G15G 6G14G18G 3G28G19G22
  21918299.379    21918298.605    21918297.265   -19164666.778 5 -14933497.866 4
        32.700          29.700
  22042074.316    22042073.660    22042072.777   -14831481.391 5 -11556991.255 5
        31.500          32.300
  23518051.010    23518050.907    23518049.822    -7030770.666 3  -5478510.150 4
        23.800          28.400
  22971746.901    22971746.116    22971745.738    -8852211.072 4  -6897821.348 4
        27.100          27.100
  23492539.278    23492538.559    23492537.375    -9298994.525 3  -7245967.472 3
        21.600          21.100
  20528780.982    20528780.159    20528778.580   -25100537.732 6 -19558850.605 8
        39.600          48.600
  22942192.377    22942191.590    22942191.523    -8525277.357 4  -6643067.242 4
        26.800          27.900
  25568312.652    25568313.880    25568313.275      -79722.601      -62121.230
                         3.000
  22991892.072    22991890.518    22991888.916   -10741719.089 5  -8370169.071 5
        30.800          31.300
  20643381.451    20643380.938    20643377.872   -23684654.929 6 -18455565.250 7
        41.900          46.600
 09  1  3  0 58  0.0000000  0 10G21G 9G15G 6G14G18G 3G28G19G22
  21935034.611    21935033.819    21935032.152   -19076723.753 5 -14864970.849 4
        32.800          29.700
  22029588.157    22029587.477    22029586.660   -14897097.437 5 -11608120.636 5
        31.600          32.800
  23536701.845    23536701.269    23536699.698    -6932763.039 4  -5402140.584 4
        24.200          27.600
  22983510.700    22983509.876    22983509.500    -8790391.914 4  -6849650.577 4
        27.100          26.800
  23472407.198    23472406.367    23472404.798    -9404791.243 3  -7328406.453 3
        22.100          21.600
  20533013.385    20533012.573    20533010.889   -25078296.319 6 -19541519.627 8
        39.700          48.500
  22953157.347    22953156.543    22953156.656    -8467655.732 4  -6598167.264 4
        26.500          28.100
  25563445.883    25563445.170    25563444.985     -105316.466      -82064.628 1
         3.000           9.000
  22987507.703    22987506.114    22987504.403   -10764760.141 5  -8388123.126 5
        30.600          31.300
  20635957.435    20635956.912    20635953.978   -23723668.289 6 -18485965.260 7
        41.900          46.700
 09  1  3  0 58 30.0000000  0 10G21G 9G15G 6G14G18G 3G28G19G22
  21951838.531    21951837.640    21951835.978   -18988419.281 5 -14796162.197 4
        32.800          29.500
  22017213.026    22017212.245    22017211.631   -14962129.166 5 -11658794.691 5
        32.000          33.100
  23555392.320    23555391.967    23555390.102    -6834545.118 4  -5325607.146 4
        25.300          26.800
  22995354.105    22995353.440    22995353.564    -8728152.463 4  -6801152.306 4
        26.500          27.100
  23452312.810    23452312.122    23452310.464    -9510387.076 3  -7410688.896 3
        21.600          21.100
  20537318.637    20537317.781    20537316.050   -25055672.641 6 -19523890.781 8
        39.800          48.500
  22964212.471    22964211.782    22964212.163    -8409559.597 4  -6552897.562 4
        26.500          28.100
  25558666.030    25558665.053    25558664.494     -130425.208     -101629.854 1
                         9.000
  22983233.863    22983232.038    22983230.033   -10787220.568 5  -8405624.748 5
        30.600          30.800
  20628601.802    20628601.317    20628598.410   -23762322.055 6 -18516085.067 7
        41.900          46.800
 09  1  3  0 59  0.0000000  0 10G21G 9G15G 6G14G18G 3G28G19G22
  21968710.597    21968709.726    21968708.039   -18899755.895 5 -14727073.856 4
        32.600          29.500
  22004949.306    22004948.667    22004948.123   -15026574.599 5 -11709011.902 5
        32.000          33.100
  23574122.045    23574121.554    23574119.898    -6736120.094 4  -5248912.314 4
        24.900          26.500
  23007277.478    23007276.778    23007276.686    -8665495.617 4  -6752328.793 4
        26.200          26.800
  23432255.994    23432255.514    23432254.887    -9615781.148 3  -7492814.132 3
        20.500          21.600
  20541696.213    20541695.419    20541693.801   -25032667.791 6 -19505964.924 8
        39.800          48.500
  22975357.828    22975356.767    22975356.851    -8350991.812 4  -6507260.318 4
        26.200          27.900
  25553980.582    25553980.879    25553978.106     -155048.515     -120816.909 1
         3.000           6.500
  22979070.398    22979068.662    22979066.313   -10809100.436 5  -8422673.990 5
        31.000          30.400
  20621314.851    20621314.300    20621311.125   -23800616.191 6 -18545924.647 7
        41.900          46.800
 09  1  3  0 59 30.0000000  0 10G21G 9G15G 6G14G18G 3G28G19G22
  21985651.281    21985650.527    21985648.726   -18810731.572 5 -14657704.270 4
        32.300          29.000
  21992798.365    21992797.782    21992797.552   -15090426.707 5 -11758766.776 5
        31.800          33.400
  23592891.501    23592891.171    23592889.595    -6637486.091 4  -5172054.646 4
        24.900          27.400
  23019280.325    23019279.844    23019279.474    -8602419.979 4  -6703178.941 4
        25.600          27.400
  23412239.862    23412239.115    23412238.974    -9720967.156 3  -7574777.231 3
        20.500          22.100
  20546147.141    20546146.360    20546144.781   -25009277.964 6 -19487739.080 8
        39.900          48.500
  22986592.945    22986592.110    22986591.996    -8291950.889 4  -6461254.406 4
        25.600          27.900
  25549388.566    25549387.668    25549386.346     -179181.489     -139621.701 1
                        11.000
  22975017.887    22975016.131    22975014.252   -10830394.886 5  -8439267.064 5
        30.800          30.800
  20614096.844    20614096.367    20614093.297   -23838546.315 6 -18575480.579 7
        41.900          46.900
                            4 15
RINEX FILE SPLICE                                           COMMENT
teqc  2008Oct2      WCDA Operator       20090103 02:18:25UTCCOMMENT
STATION INFORMATION EFFECTIVE FROM: 2001/01/13 18:20:00     COMMENT
                                TO: CURRENT DATE (above)    COMMENT
BIT 2 OF LLI FLAGS (+4) DATA COLLECTED UNDER 'AS' CONDITION COMMENT
L1 PHASE CENTRE 0.110m ABOVE ARP                            COMMENT
L2 PHASE CENTRE 0.128m ABOVE ARP                            COMMENT
where ARP is the Antenna Reference Point for HI measurement COMMENT
CONTACT gps@pgc.nrcan.gc.ca FOR ADDITIONAL INFORMATION      COMMENT
    P1 =    P1  TurboRogue; =    Y1  Benchmark              COMMENT
    L1 = L1(CA)                                             COMMENT
    P2 =    P2  TurboRogue; =    Y2  Benchmark              COMMENT
    L2 = L2(P2) TurboRogue; = L2(Y2) Benchmark              COMMENT
 SNR is mapped to RINEX snr flag value [0-9]                COMMENT
  L1 & L2: min(max(int(snr_dBHz/6), 0), 9)                  COMMENT
 09  1  3  1  0  0.0000000  0 10G21G 9G15G 6G14G18G 3G28G19G22
  22002660.954    22002660.218    22002658.684   -18721343.743 5 -14588051.442 4
        32.000          29.000
  21980762.358    21980761.533    21980761.089   -15153678.376 5 -11808053.775 5
        32.000          33.400
  23611700.815    23611700.585    23611699.400    -6538641.146 4  -5095032.630 4
        24.200          27.600
  23031363.426    23031362.718    23031362.657    -8538923.277 4  -6653701.004 4
        24.900          27.900
  23392264.795    23392264.257    23392263.153    -9825938.731 3  -7656573.230 3
        22.100          22.600
  20550672.131    20550671.305    20550669.689   -24985499.167 6 -19469210.143 8
        39.900          48.400
  22997917.819    22997917.127    22997917.836    -8232434.478 4  -6414877.974 4
        25.600          28.400
  25544889.422    25544890.043    25544888.913     -202819.407     -158041.043 2
         3.000          13.900
  22971078.021    22971076.287    22971074.438   -10851098.998 5  -8455400.133 5
        30.600          30.800
  20606949.058    20606948.572    20606945.757   -23876107.261 6 -18604748.839 7
        41.800          47.000
 09  1  3  1  0 30.0000000  0 10G21G 9G15G 6G14G18G 3G28G19G22
  22019738.968    22019738.097    22019736.232   -18631600.267 5 -14518121.476 4
        32.000          28.800
  21968839.353    21968838.579    21968837.935   -15216333.317 5 -11856875.802 5
        31.800          33.000
  23630548.337    23630548.266    23630547.165    -6439593.644 4  -5017852.767 4
        24.200          27.400
  23043524.891    23043523.914    23043524.231    -8475014.306 4  -6603901.813 4
        25.300          28.100
  23372329.187    23372328.415    23372327.820    -9930700.381 3  -7738205.674 3
        21.600          22.600
  20555269.755    20555268.985    20555267.399   -24961338.105 6 -19450383.337 8
        39.900          48.300
  23009333.112    23009332.361    23009332.283    -8172451.587 4  -6368138.066 4
        26.500          28.400
  25540487.957    25540487.057    25540484.891     -225966.273     -176077.616 2
         3.000          17.000
  22967249.522    22967247.958    22967245.880   -10871218.267 5  -8471077.486 5
        30.200          31.000
  20599870.672    20599870.184    20599867.206   -23913304.923 6 -18633734.023 7
        41.900          47.000
 09  1  3  1  1  0.0000000  0 10G21G 9G15G 6G14G18G 3G28G19G22
  22036884.123    22036883.293    22036881.433   -18541502.282 5 -14447915.274 4
        32.300          28.800
  21957030.526    21957029.933    21957029.383   -15278387.871 5 -11905229.993 5
        31.800          33.400
  23649435.025    23649434.868    23649433.185    -6340345.045 3  -4940516.207 4
        23.800          26.800
  23055764.803    23055764.032    23055763.819    -8410694.629 4  -6553782.591 4
        26.500          28.400
  23352434.172    23352433.251    23352432.864   -10035249.445 3  -7819672.441 3
        21.600          23.000
  20559940.317    20559939.511    20559937.946   -24936794.301 6 -19431258.291 8
        40.000          48.200
  23020835.702    23020834.764    23020834.720    -8112004.103 4  -6321036.137 4
        26.200          27.600
  25536173.685    25536173.130    25536173.526     -248620.776     -193730.294 2
         3.000          13.900
  22963532.448    22963530.771    22963529.044   -10890751.013 5  -8486297.792 5
        30.600          31.500
  20592861.606    20592861.096    20592858.207   -23950137.546 6 -18662434.759 7
        41.900          47.100
 09  1  3  1  1 30.0000000  0 10G21G 9G15G 6G14G18G 3G28G19G22
  22054095.795    22054095.005    22054093.513   -18451053.347 5 -14377435.611 4
        31.800          29.000
  21945336.632    21945336.053    21945335.458   -15339840.999 5 -11953115.538 5
        32.300          33.600
  23668358.959    23668359.268    23668357.090    -6240898.937 3  -4863025.723 4
        23.800          26.800
  23068081.528    23068081.004    23068080.886    -8345968.221 4  -6503346.443 4
        26.200          27.900
  23332579.356    23332578.989    23332578.267   -10139585.932 3  -7900973.569 3
        22.100          23.800
  20564683.414    20564682.601    20564680.919   -24911869.520 6 -19411836.382 8
        40.000          48.100
  23032426.165    23032425.579    23032425.119    -8051096.032 4  -6273575.303 4
        26.500          27.600
  25531957.619    25531956.140    25531956.122     -270784.172     -211000.504 2
         3.000          12.600
  22959926.704    22959925.058    22959923.273   -10909698.939 5  -8501062.403 5
        30.600          31.300
  20585922.030    20585921.554    20585918.502   -23986606.077 7 -18690851.788 7
        42.000          47.200
 09  1  3  1  2  0.0000000  0 10G21G 9G15G 6G14G18G 3G28G19G22
  22071372.448    22071371.758    22071370.473   -18360263.388 5 -14306690.221 4
        31.500          29.500
  21933755.676    21933755.292    21933754.764   -15400697.922 5 -12000536.502 5
        32.300          33.600
  23687318.827    23687318.683    23687316.728    -6141266.143 3  -4785389.780 4
        23.000          27.100
  23080473.665    23080473.284    23080473.096    -8280845.811 4  -6452601.718 4
        25.600          27.900
  23312764.206    23312763.536    23312763.403   -10243715.883 3  -7982113.757 4
        22.100          24.200
  20569497.234    20569496.414    20569494.760   -24886572.508 6 -19392124.422 8
        40.100          48.000
  23044102.171    23044101.227    23044101.569    -7989737.953 4  -6225763.816 4
        26.200          28.100
  25527833.484    25527832.929    25527829.497     -292463.437 1   -227893.500 1
         9.000          11.000
  22956430.706    22956429.072    22956427.516   -10928069.664 5  -8515377.257 5
        30.400          31.100
  20579050.118    20579049.621    20579046.539   -24022718.131 7 -18718991.048 7
        42.000          47.200
 09  1  3  1  2 30.0000000  0 10G21G 9G15G 6G14G18G 3G28G19G22
  22088716.219    22088715.359    22088714.072   -18269121.998 5 -14235670.985 4
        31.100          29.200
  21922291.478    21922290.875    21922290.241   -15460943.816 5 -12047481.340 5
        32.400          33.500
  23706316.324    23706315.767    23706313.586    -6041436.363 3  -4707600.349 4
        22.100          26.800
  23092943.589    23092942.946    23092942.732    -8215317.320 4  -6401540.556 4
        25.600          27.400
  23292991.056    23292989.883    23292989.987   -10347625.348 3  -8063082.126 4
        22.600          24.900
  20574384.274    20574383.417    20574381.722   -24860891.192 6 -19372113.002 8
        40.000          48.000
  23055865.682    23055864.932    23055865.184    -7927920.135 4  -6177594.086 4
        25.900          28.400
  25523799.164    25523798.884    25523798.785     -313645.287     -244398.889 1
                         9.000
  22953047.392    22953045.968    22953043.904   -10945849.545 5  -8529231.716 5
        31.000          30.800
  20572248.435    20572247.901    20572244.947   -24058460.689 7 -18746842.389 7
        42.000          47.200
 09  1  3  1  3  0.0000000  0 10G21G 9G15G 6G14G18G 3G28G19G22
  22106125.930    22106125.270    22106124.047   -18177631.807 5 -14164379.949 4
        31.000          28.800
  21910943.732    21910943.080    21910942.662   -15520576.621 5 -12093948.442 5
        32.400          33.800
  23725350.449    23725349.774    23725347.419    -5941412.725 3  -4629659.872 4
        21.100          25.900
  23105489.393    23105488.921    23105489.202    -8149385.943 4  -6350165.469 4
        24.600          26.800
  23273260.185    23273259.214    23273258.687   -10451312.846 3  -8143877.540 4
        22.600          24.600
  20579344.075    20579343.308    20579341.659   -24834826.482 6 -19351802.834 7
        40.000          47.900
  23067716.202    23067715.319    23067715.435    -7865645.973 4  -6129068.767 4
        26.200          27.900
  25519865.426    25519864.159    25519864.730     -334329.507 1   -260516.484 2
         6.500          12.600
  22949776.309    22949774.639    22949773.124   -10963039.061 5  -8542626.143 5
        30.400          31.300
  20565517.195    20565516.726    20565513.690   -24093833.806 7 -18774405.857 7
        42.000          47.300
 09  1  3  1  3 30.0000000  0 10G21G 9G15G 6G14G18G 3G28G19G22
  22123601.803    22123601.060    22123599.806   -18085796.340 5 -14092819.865 4
        31.000          28.800
  21899712.637    21899712.146    21899711.495   -15579595.699 5 -12139937.327 5
        32.600          33.600
  23744420.120    23744419.204    23744417.617    -5841198.840 3  -4551571.157 4
        21.100          24.900
  23118111.720    23118111.345    23118111.309    -8083055.805 4  -6298479.641 4
        24.900          26.500
  23253571.052    23253570.044    23253569.688   -10554778.283 3  -8224499.928 4
        22.600          24.200
  20584376.701    20584375.857    20584374.246   -24808380.439 6 -19331195.522 7
        40.100          47.800
  23079652.704    23079651.959    23079651.805    -7802919.162 4  -6080190.732 4
        26.200          27.100
  25516025.883    25516024.960    25516021.522     -354517.235 2   -276247.355 1
        13.900          11.000
  22946617.658    22946615.762    22946613.928   -10979639.453 5  -8555561.505 5
        30.200          31.100
  20558855.967    20558855.482    20558852.425   -24128838.342 7 -18801682.115 7
        42.000          47.300
 09  1  3  1  4  0.0000000  0 10G21G 9G15G 6G14G18G 3G28G19G22
  22141142.923    22141142.148    22141140.343   -17993619.017 5 -14020993.404 4
        31.300          28.100
  21888598.544    21888598.005    21888597.566   -15637999.679 5 -12185446.912 5
        32.400          33.800
  23763525.537    23763524.899    23763522.856    -5740798.536 3  -4473337.155 4
        20.500          24.600
  23130809.469    23130808.648    23130808.984    -8016330.874 4  -6246486.208 4
        24.600          27.400
  23233924.502    23233923.449    23233922.988   -10658021.584 3  -8304949.217 3
        22.600          23.800
  20589481.434    20589480.613    20589478.997   -24781554.956 6 -19310292.543 7
        40.100          47.800
  23091674.722    23091673.811    23091673.569    -7739743.841 4  -6030963.205 4
        25.900          27.100
  25512274.126    25512273.823    25512275.689     -374208.661 1   -291591.390 2
         9.000          12.600
  22943570.516    22943568.909    22943567.003   -10995651.775 5  -8568038.631 5
        31.100          31.100
  20552264.831    20552264.319    20552261.239   -24163475.510 7 -18828672.113 7
        42.000          47.400
 09  1  3  1  4 30.0000000  0 10G21G 9G15G 6G14G18G 3G28G19G22
  22158749.517    22158748.523    22158746.974   -17901096.133 5 -13948897.667 4
        31.000          28.100
  21877603.158    21877602.591    21877602.225   -15695781.003 5 -12230471.304 5
        32.300          33.600
  23782666.484    23782666.445    23782664.533    -5640208.788 3  -4394955.520 4
        21.100          24.200
  23143582.809    23143581.950    23143581.471    -7949208.412 4  -6194183.001 4
        24.200          26.800
  23214321.654    23214320.840    23214320.042   -10761035.527 3  -8385219.783 4
        23.000          24.900
  20594659.262    20594658.403    20594656.846   -24754345.022 6 -19289089.994 7
        40.100          47.700
  23103782.235    23103781.396    23103781.240    -7676117.234 4  -5981384.028 4
        25.900          26.500
  25508623.511    25508624.080    25508623.281     -393397.488 1   -306543.516 2
         9.000          13.900
  22940636.407    22940634.674    22940632.802   -11011070.228 5  -8580053.016 5
        31.300          31.000
  20545744.662    20545744.150    20545741.129   -24197739.130 7 -18855371.034 7
        42.000          47.500
 09  1  3  1  5  0.0000000  0 10G21G 9G15G 6G14G18G 3G28G19G22
  22176420.265    22176419.622    22176418.161   -17808233.552 5 -13876537.232 4
        30.400          28.100
  21866726.300    21866725.693    21866725.002   -15752940.692 5 -12275011.306 5
        32.600          33.500
  23801842.990    23801843.208    23801841.153    -5539435.629 3  -4316430.985 4
        21.600          24.900
  23156429.365    23156429.155    23156429.298    -7881694.569 4  -6141574.814 4
        24.200          27.600
  23194761.946    23194761.173    23194760.837   -10863822.237 3  -8465313.281 4
        23.800          25.600
  20599909.463    20599908.654    20599906.982   -24726754.889 6 -19267591.184 7
        40.200          47.500
  23115974.616    23115973.795    23115973.532    -7612045.903 4  -5931458.318 4
        25.600          27.100
  25505068.374    25505067.837    25505066.357     -412087.239 1   -321106.761 2
         9.000          12.600
  22937814.642    22937813.182    22937811.269   -11025898.188 5  -8591607.265 5
        31.500          31.100
  20539295.010    20539294.458    20539291.414   -24231632.496 7 -18881781.447 7
        42.000          47.600
 09  1  3  1  5 30.0000000  0 10G21G 9G15G 6G14G18G 3G28G19G22
  22194154.777    22194154.170    22194153.083   -17715037.000 5 -13803916.567 4
        30.200          28.100
  21855966.879    21855966.378    21855966.161   -15809479.921 5 -12319067.834 5
        32.600          34.100
  23821053.184    23821053.148    23821051.506    -5438484.771 3  -4237767.989 4
        22.600          25.600
  23169350.427    23169349.787    23169350.233    -7813795.617 4  -6088666.556 4
        24.200          27.600
  23175244.995    23175244.290    23175244.049   -10966383.283 3  -8545230.945 4
        23.400          25.300
  20605231.324    20605230.511    20605228.797   -24698788.531 6 -19245799.216 7
        40.200          47.400
  23128250.333    23128249.591    23128249.536    -7547535.937 4  -5881190.819 4
        25.600          27.400
  25501607.984    25501606.510    25501603.877     -430281.497 1   -335284.370 1
         6.500          11.000
  22935104.679    22935103.182    22935101.447   -11040138.952 5  -8602703.962 5
        31.600          31.000
  20532915.084    20532914.580    20532911.650   -24265158.578 7 -18907905.663 7
        42.100          47.700
 09  1  3  1  6  0.0000000  0 10G21G 9G15G 6G14G18G 3G28G19G22
  22211953.554    22211952.810    22211951.662   -17621505.032 5 -13731034.539 4
        30.200          28.100
  21845327.237    21845326.796    21845326.344   -15865392.338 5 -12362635.927 5
        33.000          34.000
  23840297.265    23840297.488    23840295.721    -5337355.108 3  -4158965.664 4
        22.100          25.600
  23182345.356    23182344.434    23182344.429    -7745510.471 4  -6035457.363 4
        24.900          28.100
  23155772.221    23155771.499    23155771.379   -11068713.212 3  -8624968.514 4
        23.400          25.900
  20610625.311    20610624.482    20610622.894   -24670442.808 6 -19223711.635 7
        40.200          47.400
  23140609.976    23140609.119    23140609.239    -7482586.601 4  -5830580.939 4
        24.900          27.900
  25498238.418    25498237.253    25498235.383     -447974.541     -349070.995 1
                         9.000
  22932507.470    22932505.872    22932504.003   -11053788.432 5  -8613339.923 5
        31.600          31.000
  20526606.107    20526605.572    20526602.497   -24298313.064 7 -18933740.315 7
        42.200          47.700
 09  1  3  1  6 30.0000000  0 10G21G 9G15G 6G14G18G 3G28G19G22
  22229815.227    22229814.459    22229813.269   -17527641.044 5 -13657893.802 4
        30.100          27.900
  21834807.042    21834806.294    21834805.598   -15920677.152 5 -12405714.991 5
        32.800          33.600
  23859575.070    23859575.493    23859573.323    -5236050.516 3  -4080027.030 4
        22.100          25.900
  23195411.521    23195411.150    23195411.390    -7676843.356 4  -5981950.523 4
        24.600          28.400
  23136343.259    23136342.842    23136342.672   -11170811.946 4  -8704525.926 4
        24.200          25.900
  20616091.071    20616090.269    20616088.669   -24641719.934 6 -19201330.175 7
        40.300          47.400
  23153051.827    23153051.172    23153051.522    -7417202.137 4  -5779632.014 4
        24.600          27.400
  25494967.048    25494966.170    25494966.748     -465168.008     -362468.383 2
         3.000          12.600
  22930022.619    22930020.813    22930018.693   -11066848.040 5  -8623516.246 5
        32.100          30.800
  20520367.364    20520366.825    20520363.839   -24331097.339 7 -18959286.496 7
        42.100          47.900
 09  1  3  1  7  0.0000000  0 10G21G 9G15G 6G14G18G 3G28G19G22
  22247740.022    22247739.420    22247738.212   -17433444.987 4 -13584494.302 4
        29.900          27.600
  21824406.826    21824406.359    21824405.644   -15975330.354 5 -12448301.885 5
        33.000          34.000
  23878886.201    23878886.201    23878884.475    -5134571.014 3  -4000952.116 4
        21.100          25.600
  23208550.803    23208550.547    23208550.527    -7607794.887 3  -5928146.537 4
        23.800          27.600
  23116959.241    23116958.636    23116958.275   -11272676.193 4  -8783900.638 4
        24.900          25.900
  20621628.923    20621628.090    20621626.537   -24612618.244 6 -19178653.529 7
        40.300          47.300
  23165576.231    23165575.845    23165576.338    -7351382.891 3  -5728344.278 4
        23.800          27.400
  25491791.180    25491791.445    25491790.105     -481859.622     -375474.949 1
         3.000          11.000
  22927649.654    22927648.227    22927646.250   -11079315.597 5  -8633231.224 5
        32.000          30.600
  20514199.623    20514199.146    20514196.218   -24363508.798 7 -18984542.176 8
        42.200          48.000
 09  1  3  1  7 30.0000000  0 10G21G 9G15G 6G14G18G 3G28G19G22
  22265727.980    22265727.163    22265725.991   -17338918.603 4 -13510837.398 4
        29.200          27.100
  21814127.411    21814126.650    21814126.247   -16029349.175 5 -12490394.448 5
        33.200          34.300
  23898230.658    23898230.122    23898227.921    -5032918.380 3  -3921742.285 4
        20.500          24.900
  23221762.754    23221762.239    23221762.450    -7538367.370 3  -5874047.184 4
        23.400          27.900
  23097620.167    23097619.655    23097619.098   -11374303.340 4  -8863090.585 4
        24.200          25.600
  20627238.932    20627238.106    20627236.377   -24583137.736 6 -19155681.705 7
        40.300          47.100
  23178183.691    23178182.962    23178183.580    -7285131.644 3  -5676719.955 4
        23.800          27.100
  25488709.957    25488709.554    25488708.024     -498047.942     -388089.255
                         3.000
  22925390.200    22925388.530    22925386.283   -11091190.273 5  -8642484.210 5
        32.000          30.200
  20508103.146    20508102.629    20508099.622   -24395546.421 7 -19009506.554 8
        42.200          48.000
 09  1  3  1  8  0.0000000  0 10G21G 9G15G 6G14G18G 3G28G19G22
  22283777.846    22283776.928    22283775.866   -17244065.718 4 -13436926.077 4
        28.800          27.100
  21803968.753    21803968.009    21803967.353   -16082733.252 5 -12531992.411 5
        33.100          33.900
  23917606.745    23917606.176    23917604.072    -4931097.241 3  -3842401.165 4
        21.100          24.600
  23235045.712    23235045.059    23235045.388    -7468565.237 3  -5819655.927 4
        23.000          27.400
  23078325.830    23078325.396    23078324.832   -11475693.924 3  -8942096.197 4
        23.800          25.300
  20632920.469    20632919.638    20632917.878   -24553280.990 6 -19132416.701 7
        40.300          47.000
  23190872.223    23190871.569    23190872.222    -7218452.651 3  -5624762.293 4
        23.400          27.100
  25485725.281    25485726.825    25485725.884     -513734.276     -400312.279
         3.000           3.000
  22923243.058    22923241.319    22923239.037   -11102474.010 5  -8651276.724 5
        31.600          30.100
  20502077.347    20502076.919    20502073.895   -24427211.455 7 -19034180.603 8
        42.200          48.100
 09  1  3  1  8 30.0000000  0 10G21G 9G15G 6G14G18G 3G28G19G22
  22301889.361    22301888.607    22301887.249   -17148889.604 4 -13362762.908 4
        28.800          26.800
  21793931.072    21793930.430    21793929.767   -16135481.452 5 -12573094.888 5
        33.400          33.900
  23937014.315    23937013.879    23937011.495    -4829110.878 3  -3762931.293 4
        21.100          24.900
  23248399.052    23248398.275    23248398.773    -7398392.679 3  -5764976.020 4
        23.000          27.100
  23059077.113    23059076.523    23059075.769   -11576847.380 4  -9020917.040 4
        24.200          25.300
  20638673.408    20638672.546    20638670.877   -24523049.555 6 -19108859.733 7
        40.400          47.000
  23203642.118    23203641.214    23203641.184    -7151350.032 3  -5572474.556 4
        23.800          26.800
  25482835.650    25482834.228    25482835.054     -528919.687     -412145.227 1
         3.000           6.500
  22921207.889    22921206.094    22921204.281   -11113167.923 5  -8659609.640 5
        31.300          30.400
  20496122.511    20496122.033    20496118.992   -24458504.940 7 -19058565.130 8
        42.300          48.300
 09  1  3  1  9  0.0000000  0 10G21G 9G15G 6G14G18G 3G28G19G22
  22320062.512    22320061.802    22320060.260   -17053389.581 4 -13288347.323 4
        29.000          26.800
  21784015.479    21784014.787    21784014.282   -16187588.842 5 -12613698.037 5
        33.400          34.400
  23956452.802    23956452.199    23956450.830    -4726958.770 3  -3683332.286 4
        20.500          24.900
  23261823.216    23261822.620    23261822.741    -7327849.323 3  -5710007.187 4
        23.800          26.500
  23039874.520    23039873.900    23039872.946   -11677759.223 4  -9099549.619 4
        24.900          25.900
  20644497.878    20644497.063    20644495.417   -24492441.378 6 -19085009.203 7
        40.500          47.000
  23216491.739    23216490.934    23216491.150    -7083823.743 4  -5519856.657 4
        24.200          26.800
  25480041.832    25480041.689    25480040.687     -543600.412     -423584.603 2
         3.000          12.600
  22919285.728    22919284.065    22919282.075   -11123268.981 5  -8667480.588 5
        31.600          30.200
  20490238.877    20490238.395    20490235.329   -24489423.639 7 -19082657.615 8
        42.400          48.300
 09  1  3  1  9 30.0000000  0 10G21G 9G15G 6G14G18G 3G28G19G22
  22338297.865    22338296.977    22338295.642   -16957563.278 4 -13213677.504 4
        29.000          27.100
  21774223.104    21774222.328    21774221.783   -16239048.490 5 -12653796.449 5
        33.500          34.400
  23975922.612    23975922.878    23975922.096    -4624638.413 3  -3603602.164 4
        19.300          24.900
  23275318.217    23275317.627    23275317.650    -7256933.008 3  -5654747.723 4
        23.800          26.200
  23020719.205    23020718.215    23020717.471   -11778422.953 4  -9177988.848 4
        24.900          25.900
  20650394.930    20650394.087    20650392.418   -24461452.063 6 -19060861.677 7
        40.300          46.800
  23229422.563    23229421.640    23229421.882    -7015871.899 4  -5466907.189 4
        24.600          26.200
  25477344.208    25477343.586    25477344.909     -557771.701     -434627.192 2
         3.000          13.900
  22917477.212    22917475.700    22917473.277   -11132772.397 5  -8674885.849 4
        31.600          29.900
  20484427.642    20484427.113    20484424.136   -24519962.089 7 -19106453.799 8
        42.400          48.400
 09  1  3  1 10  0.0000000  0 10G21G 9G15G 6G14G18G 3G28G19G22
  22356593.252    22356592.533    22356591.203   -16861420.613 4 -13138761.168 4
        29.000          27.400
  21764552.856    21764552.192    21764551.390   -16289865.607 5 -12693394.187 5
        33.600          34.000
  23995423.522    23995424.066    23995423.209    -4522159.906 3  -3523748.824 4
        18.600          25.900
  23288881.948    23288881.411    23288881.463    -7185654.374 4  -5599205.947 4
        24.200          26.200
  23001609.429    23001608.753    23001607.875   -11878844.739 4  -9256239.559 4
        25.300          25.900
  20656362.980    20656362.133    20656360.437   -24430089.912 6 -19036423.635 7
        40.500          46.700
  23242432.302    23242431.473    23242431.768    -6947505.143 4  -5413634.383 4
        24.900          26.200
  25474745.496    25474744.236    25474742.220     -571440.739     -445278.452 1
                         9.000
  22915780.961    22915779.230    22915777.647   -11141685.716 5  -8681831.292 5
        31.000          30.600
  20478687.243    20478686.732    20478683.762   -24550127.872 7 -19129959.592 8
        42.500          48.500
 09  1  3  1 10 30.0000000  0 10G21G 9G15G 6G14G18G 3G28G19G22
  22374948.492    22374947.525    22374946.366   -16764964.131 4 -13063600.298 4
        28.600          27.100
  21755004.953    21755004.356    21755003.875   -16340038.956 5 -12732490.292 5
        33.500          34.100
  24014954.581    24014954.671    24014953.472    -4419526.414 3  -3443774.714 4
        18.600          25.600
  23302514.252    23302513.546    23302513.670    -7114016.942 4  -5543384.577 4
        24.200          26.800
  22982546.005    22982545.326    22982544.524   -11979023.810 4  -9334301.151 4
        25.300          25.600
  20662401.591    20662400.872    20662399.204   -24398356.219 6 -19011696.079 7
        40.500          46.600
  23255520.598    23255519.849    23255519.708    -6878726.918 4  -5360040.973 4
        24.600          25.900
  25472239.299    25472238.097    25472237.189     -584607.581     -455538.386
         3.000           3.000
  22914196.847    22914195.339    22914193.605   -11150009.826 5  -8688317.606 5
        31.100          30.600
  20473017.818    20473017.302    20473014.214   -24579921.047 7 -19153175.040 8
        42.500          48.500
 09  1  3  1 11  0.0000000  0 10G21G 9G15G 6G14G18G 3G28G19G22
  22393363.863    22393363.221    22393361.743   -16668189.186 4 -12988191.273 4
        28.800          26.200
  21745581.743    21745581.048    21745580.040   -16389559.288 5 -12771077.542 5
        33.800          33.800
  24034515.948    24034515.702    24034514.657    -4316733.056 3  -3363676.010 4
        18.600          25.300
  23316215.433    23316214.932    23316215.047    -7042016.349 3  -5487280.230 4
        23.400          26.500
  22963529.985    22963529.482    22963528.670   -12078951.648 4  -9412166.975 4
        25.300          25.600
  20668512.232    20668511.444    20668509.785   -24366244.594 6 -18986674.029 7
        40.500          46.500
  23268687.553    23268686.777    23268686.910    -6809533.235 3  -5306123.834 4
        23.800          25.300
  25469829.207    25469828.340    25469828.685     -597265.059     -465401.444
                         3.000
  22912726.392    22912724.887    22912722.902   -11157737.553 5  -8694339.205 5
        31.500          30.200
  20467420.613    20467420.117    20467417.085   -24609334.176 7 -19176094.351 8
        42.700          48.700
 09  1  3  1 11 30.0000000  0 10G21G 9G15G 6G14G18G 3G28G19G22
  22411839.704    22411838.979    22411837.736   -16571097.127 4 -12912535.142 4
        28.100          26.200
  21736282.906    21736282.371    21736281.467   -16438424.023 5 -12809153.954 5
        33.800          33.800
  24054107.024    24054106.833    24054105.810    -4213781.483 3  -3283454.012 4
        18.600          24.600
  23329985.382    23329984.683    23329984.745    -6969654.705 3  -5430894.536 4
        23.800          26.200
  22944562.936    22944562.243    22944561.219   -12178625.548 4  -9489834.920 4
        25.300          25.900
  20674694.831    20674694.047    20674692.397   -24333754.978 6 -18961357.442 7
        40.500          46.500
  23281933.180    23281932.454    23281932.722    -6739925.971 3  -5251884.417 4
        23.400          24.600
  25467519.270    25467518.242    25467516.093     -609411.735     -474866.430
         3.000           3.000
  22911369.313    22911367.741    22911365.964   -11164868.246 5  -8699895.592 4
        31.300          29.900
  20461895.972    20461895.522    20461892.430   -24638366.218 7 -19198716.713 8
        42.700          48.700
 09  1  3  1 12  0.0000000  0 10G 9G21G15G 6G14G18G 3G28G19G22
  21727108.110    21727107.411    21727106.891   -16486637.937 5 -12846723.215 5
        33.800          34.000
  22430374.421    22430373.507    22430372.432   -16473697.159 4 -12836639.093 4
        28.400          25.900
  24073727.195    24073726.902    24073725.517    -4110680.935 3  -3203115.947 4
        18.600          24.600
  23343822.178    23343821.376    23343821.718    -6896941.777 3  -5374235.107 4
        22.600          26.500
  22925642.291    22925641.770    22925640.942   -12278051.104 4  -9567309.350 4
        25.300          25.600
  20680947.932    20680947.090    20680945.396   -24300894.919 6 -18935752.197 7
        40.500          46.300
  23295256.341    23295255.531    23295255.378    -6669915.317 3  -5197330.669 3
        23.800          23.800
  25465304.370    25465303.535    25465301.153     -621054.719 1   -483938.719 1
         6.500           6.500
  22910125.034    22910123.321    22910121.200   -11171408.985 5  -8704992.264 4
        31.500          29.900
  20456442.810    20456442.314    20456439.194   -24667023.254 7 -19221046.869 8
        42.800          48.800
 09  1  3  1 12 30.0000000  0 10G 9G21G15G 6G14G18G 3G28G19G22
  21718057.816    21718057.212    21718056.595   -16534197.025 5 -12883782.238 5
        33.800          34.300
  22448967.464    22448966.868    22448965.612   -16375989.217 4 -12760503.050 4
        28.400          25.900
  24093375.491    24093374.791    24093372.685    -4007431.856 3  -3122662.139 4
        18.600          24.200
  23357725.394    23357725.048    23357725.485    -6823878.345 3  -5317302.572 4
        21.600          26.800
  22906770.241    22906769.744    22906769.097   -12377224.453 4  -9644587.264 4
        25.900          25.900
  20687271.804    20687270.948    20687269.234   -24267662.801 6 -18909857.037 7
        40.600          46.200
  23308655.205    23308654.253    23308654.564    -6599502.088 3  -5142463.222 3
        23.400          23.800
  25463183.150    25463182.892    25463183.553     -632191.187     -492616.456 1
                         9.000
  22908993.218    22908991.466    22908989.132   -11177357.631 5  -8709627.574 5
        31.800          30.100
  20451061.155    20451060.661    20451057.603   -24695303.767 7 -19243083.624 8
        42.900          48.900
 09  1  3  1 13  0.0000000  0 10G 9G21G15G 6G14G18G 3G28G19G22
  21709134.066    21709133.378    21709132.804   -16581092.609 5 -12920324.240 5
        34.000          34.500
  22467620.479    22467619.626    22467618.299   -16277969.184 4 -12684123.819 4
        28.100          26.200
  24113051.238    24113051.324    24113049.269    -3904029.740 3  -3042089.085 3
        18.600          23.400
  23371696.333    23371695.447    23371696.496    -6750460.612 3  -5260093.962 4
        21.600          26.800
  22887948.249    22887947.424    22887946.684   -12476137.491 4  -9721662.344 4
        26.200          26.800
  20693667.526    20693666.725    20693664.961   -24234052.758 6 -18883667.388 7
        40.600          46.000
  23322132.075    23322131.161    23322130.892    -6528682.331 3  -5087279.002 4
        23.400          24.200
  25461160.626    25461160.113    25461162.166     -642814.227 1   -500894.005 1
         6.500           9.000
  22907975.055    22907973.267    22907971.280   -11182707.954 5  -8713796.652 5
        32.000          30.600
  20445752.642    20445752.102    20445749.026   -24723200.427 7 -19264821.270 8
        42.900          49.000
 09  1  3  1 13 30.0000000  0 10G 9G21G15G 6G14G18G 3G28G19G22
  21700335.301    21700334.683    21700333.976   -16627330.052 5 -12956353.394 5
        34.100          34.500
  22486330.824    22486329.915    22486328.694   -16179646.204 4 -12607508.530 4
        27.900          26.200
  24132755.129    24132754.929    24132753.055    -3800483.720 3  -2961403.891 3
        18.600          23.400
  23385732.981    23385732.517    23385732.459    -6676698.375 3  -5202616.913 4
        21.600          24.900
  22869173.887    22869173.114    22869172.759   -12574795.945 4  -9798539.034 4
        25.900          26.800
  20700133.757    20700132.895    20700131.188   -24200072.687 6 -18857189.408 7
        40.600          45.900
  23335683.822    23335682.637    23335682.555    -6457466.271 3  -5031785.992 3
        22.600          23.800
  25459238.117    25459237.865    25459236.292     -652931.124 1   -508777.315
         9.000
  22907069.496    22907067.850    22907065.884   -11187467.198 5  -8717505.149 5
        32.400          31.100
  20440515.801    20440515.324    20440512.245   -24750719.925 7 -19286265.030 8
        42.900          49.100
 09  1  3  1 14  0.0000000  0  9G 9G21G15G 6G14G18G 3G19G22
  21691662.587    21691661.868    21691661.159   -16672905.349 5 -12991866.607 5
        34.100          34.400
  22505098.724    22505097.719    22505096.220   -16081020.693 4 -12530657.511 4
        27.600          25.600
  24152486.257    24152486.369    24152484.312    -3696794.308 3  -2880606.956 3
        19.300          23.400
  23399834.752    23399834.145    23399833.966    -6602592.693 3  -5144872.207 4
        22.100          24.600
  22850448.826    22850447.949    22850447.811   -12673196.376 4  -9875214.663 4
        26.200          27.100
  20706670.674    20706669.866    20706668.125   -24165720.902 6 -18830421.781 7
        40.600          45.800
  23349311.114    23349310.039    23349309.780    -6385854.628 3  -4975984.726 3
        23.000          23.400
  22906276.555    22906274.860    22906272.731   -11191633.518 5  -8720751.635 5
        32.100          30.600
  20435351.337    20435350.850    20435347.687   -24777859.823 7 -19307413.003 8
        43.100          49.200
 09  1  3  1 14 30.0000000  0 10G 9G21G28G15G 6G14G18G 3G19G22
  21683116.378    21683115.675    21683115.200   -16717816.438 5 -13026862.245 5
        34.300          34.900
  22523923.738    22523922.941    22523921.015   -15982094.452 4 -12453572.143 4
        27.600          25.300
  25455676.758    25455675.863    25455675.767           -.63011         -.43111
         6.500           6.500
  24172244.094    24172244.243    24172242.376    -3592963.716 3  -2799700.020 3
        19.300          23.000
  23414001.422    23414000.718    23414000.904    -6528146.341 3  -5086862.069 4
        22.600          24.600
  22831773.275    22831772.501    22831772.157   -12771336.941 4  -9951687.804 4
        26.500          27.600
  20713278.169    20713277.384    20713275.648   -24130998.074 6 -18803365.027 7
        40.600          45.700
  23363013.457    23363012.354    23363012.116    -6313850.722 3  -4919877.804 4
        23.400          24.200
  22905596.650    22905594.790    22905592.812   -11195207.057 5  -8723536.212 5
        31.600          30.400
  20430259.081    20430258.532    20430255.438   -24804619.594 7 -19328264.770 8
        43.000          49.300
 09  1  3  1 15  0.0000000  0 10G 9G21G28G15G 6G14G18G 3G19G22
  21674697.625    21674696.914    21674696.193   -16762056.967 5 -13061335.372 5
        34.400          34.500
  22542805.879    22542805.240    22542803.610   -15882865.862 4 -12376251.179 4
        27.400          24.900
  25454043.199    25454042.818    25454043.788       -8587.429 1     -6691.633 1
         6.500          11.000
  24192029.803    24192029.442    24192027.979    -3488989.837 3  -2718681.433 3
        18.600          23.000
  23428233.324    23428232.756    23428232.817    -6453357.656 3  -5028585.168 4
        22.600          24.600
  22813148.277    22813147.608    22813147.110   -12869211.651 4 -10027953.788 4
        26.500          27.600
  20719956.931    20719956.158    20719954.507   -24095900.554 6 -18776016.309 7
        40.600          45.700
  23376789.760    23376788.929    23376789.197    -6241452.832 3  -4863463.870 4
        22.600          24.600
  22905029.888    22905028.106    22905026.259   -11198183.622 5  -8725855.608 5
        31.500          30.400
  20425240.134    20425239.564    20425236.438   -24830994.686 7 -19348816.788 8
        43.100          49.400
 09  1  3  1 15 30.0000000  0 10G 9G21G28G15G 6G14G18G 3G19G22
  21666406.285    21666405.679    21666405.023   -16805627.709 5 -13095286.592 5
        34.400          34.600
  22561744.924    22561744.308    22561743.268   -15783338.814 4 -12298697.675 4
        27.100          24.900
  25452505.731    25452506.982    25452504.691      -16662.681 1    -12984.359 1
         6.500           6.500
  24211841.469    24211841.835    24211840.302    -3384877.132 2  -2637554.665 3
        17.800          22.600
  23442529.353    23442528.879    23442528.812    -6378231.497 3  -4970045.303 3
        21.600          23.800
  22794573.817    22794573.185    22794572.387   -12966821.033 4 -10104013.015 4
        26.500          27.400
  20726706.672    20726705.843    20726704.130   -24060431.103 6 -18748377.771 7
        40.600          45.600
  23390640.694    23390640.011    23390639.893    -6168665.687 3  -4806746.634 4
        22.600          24.200
  22904576.558    22904574.996    22904573.047   -11200565.412 5  -8727711.540 5
        31.600          30.600
  20420293.989    20420293.481    20420290.322   -24856986.563 7 -19369070.196 8
        43.200          49.400
 09  1  3  1 16  0.0000000  0 10G 9G21G28G15G 6G14G18G 3G19G22
  21658242.300    21658241.521    21658240.892   -16848530.746 5 -13128717.523 5
        34.400          34.800
  22580739.919    22580739.294    22580738.307   -15683520.041 4 -12220916.838 4
        26.800          25.300
  25451066.645    25451066.914    25451062.629      -24230.443      -18881.443
         3.000           3.000
  24231678.968    24231678.671    24231677.106    -3280632.291 2  -2556324.947 3
        17.000          22.100
  23456887.821    23456887.314    23456887.478    -6302775.300 3  -4911248.257 3
        22.600          22.600
  22776049.720    22776048.848    22776047.854   -13064167.943 4 -10179867.729 4
        27.400          27.600
  20733526.110    20733525.292    20733523.554   -24024594.528 6 -18720453.166 7
        40.500          45.400
  23404564.119    23404563.228    23404563.710    -6095497.219 3  -4749732.246 4
        23.000          24.200
  22904235.766    22904233.991    22904232.250   -11202357.137 5  -8729107.684 5
        31.600          31.000
  20415419.968    20415419.460    20415416.374   -24882599.580 7 -19389028.389 8
        43.200          49.500
 09  1  3  1 16 30.0000000  0 10G21G28G 9G15G 6G14G18G 3G19G22
  22599791.175    22599790.299    22599789.184   -15583407.111 4 -12142906.781 4
        26.800          24.900
  25449722.017    25449723.876    25449721.948      -31285.697      -24379.075 1
                         6.500
  21650206.157    21650205.519    21650204.905   -16890759.736 5 -13161623.220 5
        34.100          34.700
  24251541.226    24251541.285    24251539.606    -3176252.645 2  -2474990.168 3
        17.000          21.600
  23471310.380    23471310.003    23471309.599    -6226987.105 3  -4852192.504 3
        22.100          22.600
  22757576.220    22757575.465    22757574.481   -13161246.231 4 -10255513.127 4
        27.600          27.600
  20740416.214    20740415.429    20740413.647   -23988386.655 6 -18692239.237 7
        40.500          45.200
  23418560.204    23418559.524    23418559.827    -6021945.567 3  -4692419.284 4
        22.100          24.600
  22904007.743    22904006.194    22904004.516   -11203554.491 5  -8730040.689 5
        31.600          31.100
  20410619.169    20410618.631    20410615.483   -24907828.254 7 -19408687.097 8
        43.200          49.500
 09  1  3  1 17  0.0000000  0 10G 9G21G28G15G 6G14G18G 3G19G22
  21642297.718    21642297.033    21642296.464   -16932319.583 5 -13194007.501 5
        34.500          34.900
  22618895.922    22618895.260    22618894.262   -15483009.295 4 -12064674.724 4
        26.800          24.600
  25448475.453    25448476.432    25448474.101      -37835.074 1    -29482.431 1
         6.500           6.500
  24271428.217    24271428.298    24271426.771    -3071747.292 2  -2393557.453 3
        17.800          22.100
  23485793.646    23485792.995    23485792.695    -6150876.537 3  -4792885.572 3
        22.100          22.600
  22739152.682    22739151.987    22739151.286   -13258060.972 4 -10330953.164 4
        27.400          28.100
  20747375.670    20747374.798    20747372.990   -23951815.163 6 -18663741.969 7
        40.500          45.100
  23432628.304    23432627.176    23432627.673    -5948020.179 3  -4634815.097 4
        21.600          24.900
  22903892.018    22903890.242    22903888.393   -11204164.309 5  -8730515.871 5
        31.600          31.300
  20405890.177    20405889.655    20405886.471   -24932679.182 7 -19428051.457 8
        43.300          49.600
 09  1  3  1 17 30.0000000  0 10G 9G21G28G15G 6G14G18G 3G19G22
  21634520.489    21634519.763    21634519.224   -16973189.253 5 -13225853.993 5
        34.600          35.200
  22638059.020    22638058.176    22638056.925   -15382309.058 4 -11986207.030 4
        26.800          24.600
  25447330.757    25447330.621    25447329.461      -43859.699 1    -34177.043 2
         9.000          12.600
  24291342.225    24291341.738    24291340.561    -2967099.220 2  -2312013.515 3
        16.100          21.600
  23500341.291    23500341.029    23500340.429    -6074427.377 3  -4733314.788 3
        21.600          23.000
  22720783.132    22720782.735    22720782.156   -13354591.646 4 -10406171.843 4
        27.400          28.400
  20754407.576    20754406.735    20754405.078   -23914861.330 6 -18634946.770 7
        40.500          45.100
  23446770.010    23446769.395    23446769.058    -5873705.435 3  -4576907.531 4
        22.600          24.600
  22903891.026    22903889.545    22903887.860   -11204168.066 5  -8730518.796 5
        31.600          31.800
  20401236.876    20401236.384    20401233.261   -24957132.448 7 -19447105.958 8
        43.400          49.700
 09  1  3  1 18  0.0000000  0 10G 9G21G28G15G 6G14G18G 3G19G22
  21626871.315    21626870.522    21626869.761   -17013386.553 5 -13257176.553 5
        34.900          34.900
  22657275.212    22657274.299    22657273.037   -15281328.378 4 -11907520.827 4
        26.800          24.600
  25446281.460    25446280.807    25446281.649      -49378.964 1    -38477.789 2
         9.000          15.100
  24311279.022    24311278.849    24311277.037    -2862330.179 2  -2230375.342 3
        16.100          21.600
  23514949.565    23514948.762    23514948.545    -5997661.982 3  -4673497.607 3
        21.100          23.400
  22702465.017    22702464.258    22702463.905   -13450855.868 4 -10481182.900 4
        27.600          28.600
  20761508.596    20761507.742    20761505.995   -23877545.586 6 -18605869.566 7
        40.500          44.900
  23460981.346    23460980.623    23460980.627    -5799023.345 3  -4518713.709 3
        21.600          23.800
  22904002.048    22904000.444    22903998.666   -11203585.281 5  -8730064.683 5
        32.100          31.600
  20396655.394    20396654.939    20396651.902   -24981207.741 7 -19465865.928 8
        43.400          49.800
 09  1  3  1 18 30.0000000  0 10G 9G21G28G15G 6G14G18G 3G19G22
  21619351.218    21619350.598    21619349.789   -17052904.082 5 -13287969.424 5
        34.800          34.900
  22676544.976    22676544.176    22676543.227   -15180064.286 4 -11828613.766 4
        25.900          24.900
  25445326.454    25445326.227    25445327.792      -54386.211      -42379.105 1
                         9.000
  24331239.761    24331240.132    24331238.279    -2757436.619 2  -2148640.136 3
        16.100          21.600
  23529618.151    23529617.194    23529617.400    -5920577.604 3  -4613431.854 4
        19.900          24.200
  22684198.834    22684197.974    22684197.282   -13546846.688 4 -10555980.912 4
        27.900          28.600
  20768679.312    20768678.521    20768676.774   -23839862.902 6 -18576506.433 7
        40.600          44.800
  23475263.468    23475262.960    23475262.736    -5723971.135 3  -4460231.504 3
        21.600          23.800
  22904225.433    22904223.768    22904221.642   -11202410.987 5  -8729149.644 5
        32.000          30.600
  20392147.225    20392146.714    20392143.633   -25004898.781 7 -19484326.478 8
        43.400          49.900
 09  1  3  1 19  0.0000000  0 10G 9G21G28G15G 6G14G18G 3G19G22
  21611961.492    21611960.943    21611960.280   -17091736.910 5 -13318228.765 5
        34.800          35.100
  22695869.107    22695868.150    22695867.274   -15078515.308 4 -11749484.732 4
        25.600          24.900
  25444473.610    25444473.182    25444472.062      -58879.505      -45880.252
         3.000           3.000
  24351224.155    24351224.660    24351222.638    -2652417.403 2  -2066807.009 3
        16.100          21.100
  23544347.377    23544347.009    23544347.653    -5843173.633 3  -4553117.089 4
        20.500          25.300
  22665985.180    22665984.473    22665983.470   -13642559.402 4 -10630562.218 4
        27.900          28.100
  20775920.582    20775919.758    20775917.998   -23801810.335 6 -18546855.076 7
        40.600          44.800
  23489614.690    23489614.295    23489614.966    -5648548.624 3  -4401460.715 3
        20.500          22.600
  22904562.247    22904560.442    22904558.470   -11200641.972 5  -8727771.194 5
        31.600          30.600
  20387712.810    20387712.273    20387709.193   -25028201.965 7 -19502484.795 8
        43.400          50.100
 09  1  3  1 19 30.0000000  0 10G 9G21G28G15G 6G14G18G 3G19G22
  21604703.599    21604702.921    21604702.194   -17129877.972 5 -13347949.066 5
        34.700          34.900
  22715248.387    22715247.574    22715246.244   -14976678.288 4 -11670131.241 4
        25.900          24.900
  25443717.908    25443716.481    25443716.801      -62852.384      -48976.033
         3.000           3.000
  24371233.791    24371233.934    24371232.051    -2547269.285 2  -1984873.435 3
        16.100          20.500
  23559138.450    23559137.621    23559138.311    -5765447.654 3  -4492551.393 4
        21.600          25.300
  22647826.126    22647825.362    22647824.278   -13737986.617 4 -10704921.059 4
        28.100          28.600
  20783233.024    20783232.248    20783230.568   -23763383.000 6 -18516911.694 7
        40.600          44.800
  23504039.699    23504038.678    23504038.572    -5572753.452 3  -4342399.560 3
        20.500          23.000
  22905013.133    22905011.347    22905009.486   -11198273.253 5  -8725925.447 5
        32.000          31.500
  20383353.330    20383352.813    20383349.616   -25051111.664 7 -19520336.505 8
        43.500          50.100
 09  1  3  1 20  0.0000000  0 10G 9G21G28G15G 6G14G18G 3G19G22
  21597575.325    21597574.744    21597574.195   -17167336.001 5 -13377137.130 5
        34.500          35.100
  22734679.722    22734678.779    22734677.526   -14874565.946 4 -11590563.217 4
        25.300          24.900
  25443058.158    25443058.101    25443056.972      -66315.472      -51674.424
         3.000           3.000
  24391264.663    24391264.979    24391263.871    -2442004.902 2  -1902849.261 3
        16.100          20.500
  23573987.677    23573987.042    23573987.531    -5687412.916 3  -4431745.110 4
        21.100          24.600
  22629719.352    22629718.619    22629717.664   -13833137.431 4 -10779064.521 4
        28.400          28.800
  20790614.824    20790613.928    20790612.195   -23724591.868 6 -18486684.836 7
        40.600          44.600
  23518530.662    23518529.681    23518530.148    -5496599.384 3  -4283058.730 3
        21.100          22.100
  22905575.823    22905573.923    22905572.126   -11195315.843 5  -8723620.972 5
        32.100          31.500
  20379066.725    20379066.127    20379063.040   -25073637.773 7 -19537889.308 8
        43.400          50.200
 09  1  3  1 20 30.0000000  0 10G 9G21G28G15G 6G14G18G 3G19G22
  21590578.456    21590577.686    21590577.026   -17204106.342 5 -13405789.332 5
        34.900          35.100
  22754163.854    22754162.989    22754161.299   -14772177.186 4 -11510779.799 4
        24.900          24.600
  25442494.745    25442495.251    25442495.379      -69266.462      -53974.119

  24411318.123    24411318.398    24411317.137    -2336623.366 2  -1820733.777 3
        16.100          19.300
  23588896.557    23588895.509    23588895.573    -5609068.977 3  -4370697.889 4
        21.100          24.600
  22611666.068    22611665.524    22611664.531   -13928006.975 4 -10852988.810 4
        28.600          28.800
  20798066.074    20798065.267    20798063.518   -23685434.747 6 -18456172.790 7
        40.500          44.500
  23533090.921    23533090.038    23533089.956    -5420085.730 3  -4223437.710 3
        21.600          22.600
  22906251.098    22906249.412    22906247.271   -11191766.701 5  -8720855.409 5
        32.300          31.100
  20374853.760    20374853.227    20374850.157   -25095776.586 7 -19555140.324 8
        43.400          50.300
 09  1  3  1 21  0.0000000  0  9G 9G21G15G 6G14G18G 3G19G22
  21583711.338    21583710.663    21583709.816   -17240193.021 5 -13433908.814 5
        35.100          35.100
  22773698.748    22773697.433    22773696.397   -14669520.134 4 -11430787.319 3
        24.200          23.800
  24431393.032    24431393.106    24431390.283    -2231132.443 2  -1738533.059 3
        17.000          18.600
  23603861.955    23603861.057    23603861.308    -5530424.717 3  -4309416.645 4
        21.600          24.200
  22593665.844    22593664.947    22593664.218   -14022599.932 4 -10926697.576 4
        28.600          29.000
  20805585.829    20805584.995    20805583.330   -23645917.839 6 -18425380.391 7
        40.600          44.400
  23547717.890    23547717.016    23547717.019    -5343221.591 3  -4163543.586 3
        22.600          22.600
  22907037.906    22907036.376    22907034.306   -11187632.433 5  -8717633.907 5
        32.600          31.500
  20370713.438    20370712.926    20370709.885   -25117533.767 7 -19572093.977 8
        43.400          50.300
 09  1  3  1 21 30.0000000  0 10G 9G21G28G15G 6G14G18G 3G19G22
  21576976.087    21576975.446    21576974.809   -17275585.711 5 -13461487.521 5
        34.800          34.900
  22793285.419    22793284.423    22793283.688   -14566588.302 3 -11350580.749 3
        23.800          23.000
  25441664.152    25441663.395    25441662.575          -1.08111         -.94611
         6.500           6.500
  24451489.896    24451489.397    24451486.577    -2125525.253 2  -1656241.729 2
        17.800          17.800
  23618885.525    23618885.002    23618885.379    -5451473.955 3  -4247896.580 3
        20.500          22.600
  22575720.016    22575719.365    22575718.278   -14116905.409 4 -11000182.336 4
        28.800          29.000
  20813175.699    20813174.890    20813173.093   -23606032.983 6 -18394301.277 7
        40.600          44.200
  23562412.475    23562411.535    23562411.657    -5266000.515 3  -4103371.309 3
        22.600          23.000
  22907937.506    22907935.823    22907933.793   -11182904.468 5  -8713949.783 5
        32.300          31.100
  20366647.688    20366647.132    20366644.054   -25138899.854 7 -19588742.869 8
        43.500          50.400
 09  1  3  1 22  0.0000000  0 10G 9G21G28G15G 6G14G18G 3G19G22
  21570373.554    21570372.901    21570372.379   -17310282.614 5 -13488524.068 5
        34.800          35.200
  22812924.527    22812923.869    22812922.205   -14463383.711 4 -11270161.618 3
        24.600          22.100
  25441395.720    25441395.160    25441394.868       -1411.892 1     -1100.214 1
         9.000          11.000
  24471607.462    24471607.134    24471604.701    -2019804.118 2  -1573861.634 3
        15.100          18.600
  23633967.260    23633966.444    23633966.868    -5372219.500 3  -4186139.853 3
        18.600          22.100
  22557829.711    22557828.750    22557827.770   -14210921.577 4 -11073441.662 4
        29.500          29.000
  20820835.504    20820834.637    20820832.839   -23565780.662 6 -18362935.829 7
        40.500          44.100
  23577174.738    23577173.921    23577173.678    -5188425.527 3  -4042923.275 3
        23.000          23.000
  22908950.176    22908948.557    22908946.551   -11177583.033 5  -8709803.211 5
        32.000          31.000
  20362656.434    20362655.883    20362652.793   -25159874.115 7 -19605086.446 8
        43.500          50.500
 09  1  3  1 22 30.0000000  0 10G 9G21G28G15G 6G14G18G 3G19G22
  21563903.058    21563902.392    21563901.720   -17344286.034 5 -13515020.235 5
        35.100          35.200
  22832614.610    22832614.241    22832612.423   -14359912.591 4 -11189534.797 3
        25.300          23.000
  25441227.172    25441225.658    25441223.351       -2309.771 1     -1799.509 1
         9.000           6.500
  24491745.490    24491745.359    24491743.267    -1913974.671 2  -1491397.157 3
        13.900          19.300
  23649104.982    23649104.656    23649104.652    -5292668.192 3  -4124151.826 3
        18.600          21.100
  22539993.440    22539992.672    22539991.673   -14304651.194 4 -11146477.710 4
        29.700          29.500
  20828564.296    20828563.415    20828561.718   -23525165.581 6 -18331287.710 7
        40.500          44.100
  23592002.038    23592001.356    23592001.555    -5110503.712 3  -3982204.992 3
        23.000          23.400
  22910074.528    22910073.016    22910071.020   -11171672.756 5  -8705197.801 5
        31.500          30.400
  20358738.894    20358738.375    20358735.319   -25180460.519 7 -19621127.791 8
        43.500          50.600
 09  1  3  1 23  0.0000000  0 10G 9G21G28G15G 6G14G18G 3G19G22
  21557564.218    21557563.711    21557563.043   -17377595.085 5 -13540975.325 5
        34.800          34.900
  22852355.222    22852354.383    22852352.652   -14256177.443 4 -11108702.237 3
        24.200          23.000
  25441152.435    25441151.452    25441150.502       -2695.976 1     -2100.234 1
         9.000           6.500
  24511904.014    24511903.980    24511901.953    -1808039.323 2  -1408850.136 3
        13.900          19.300
  23664299.171    23664298.672    23664298.487    -5212823.360 3  -4061935.091 3
        19.300          21.100
  22522211.800    22522211.095    22522210.241   -14398092.972 4 -11219289.459 4
        29.700          29.500
  20836362.039    20836361.232    20836359.334   -23484188.493 6 -18299357.510 7
        40.600          43.800
  23606895.573    23606895.028    23606894.794    -5032238.776 3  -3921219.345 3
        23.000          23.400
  22911311.205    22911309.788    22911307.388   -11165174.383 5  -8700134.130 4
        31.600          29.900
  20354895.145    20354894.656    20354891.689   -25200659.061 7 -19636866.913 8
        43.500          50.600
 09  1  3  1 23 30.0000000  0 10G 9G21G28G15G 6G14G18G 3G19G22
  21551359.536    21551358.835    21551358.131   -17410201.977 5 -13566383.282 5
        34.900          34.900
  22872146.431    22872145.440    22872144.239   -14152174.209 4 -11027660.785 3
        24.200          23.800
  25441173.734    25441175.358    25441176.350       -2564.559       -1997.762 1
                         6.500
  24532083.189    24532084.006    24532082.096    -1701994.041 2  -1326217.460 3
        13.900          19.300
  23679549.593    23679549.182    23679549.573    -5132681.486 3  -3999486.877 3
        19.300          21.600
  22504486.646    22504485.807    22504484.852   -14491239.449 4 -11291871.112 4
        29.200          29.200
  20844229.662    20844228.773    20844226.901   -23442843.873 6 -18267140.918 7
        40.600          43.700
  23621855.400    23621854.528    23621854.590    -4953627.231 3  -3859963.588 3
        22.600          23.800
  22912660.852    22912659.132    22912657.041   -11158082.375 5  -8694607.894 5
        31.600          30.200
  20351126.700    20351126.176    20351123.076   -25220462.947 7 -19652298.503 8
        43.600          50.700
 09  1  3  1 24  0.0000000  0 10G 9G21G28G15G 6G14G18G 3G19G22
  21545286.641    21545286.059    21545285.366   -17442115.351 5 -13591250.845 5
        35.300          35.300
  22891985.921    22891985.196    22891983.963   -14047915.172 3 -10946420.010 3
        23.800          23.000
  25441296.086    25441295.974    25441291.760       -1925.161       -1499.474
                         3.000
  24552282.367    24552282.343    24552280.737    -1595851.166 2  -1243508.762 3
        12.600          19.900
  23694854.298    23694853.915    23694853.536    -5052255.561 3  -3936817.347 3
        19.900          22.100
  22486815.978    22486815.164    22486814.366   -14584098.685 4 -11364228.941 4
        29.700          29.500
  20852164.984    20852164.235    20852162.494   -23401142.452 6 -18234646.296 7
        40.600          43.700
  23636878.076    23636877.258    23636877.065    -4874682.039 3  -3798447.869 3
        21.600          23.400
  22914121.471    22914119.639    22914117.954   -11150407.059 5  -8688627.132 5
        31.600          31.000
  20347431.432    20347430.906    20347427.826   -25239881.687 7 -19667429.987 8
        43.600          50.700
 09  1  3  1 24 30.0000000  0 10G 9G21G28G15G 6G14G18G 3G19G22
  21539346.027    21539345.322    21539344.754   -17473333.212 5 -13615576.439 5
        35.100          35.400
  22911874.100    22911873.236    22911872.483   -13943402.200 3 -10864981.354 3
        23.800          23.000
  25441517.396    25441516.386    25441514.166        -777.540        -605.174
         3.000           3.000
  24572499.567    24572499.361    24572497.485    -1489611.948 2  -1160724.980 3
        12.600          20.500
  23710212.795    23710212.052    23710211.730    -4971547.858 3  -3873928.232 3
        21.100          22.600
  22469200.603    22469199.825    22469199.026   -14676668.489 4 -11436361.239 5
        29.900          30.100
  20860168.579    20860167.727    20860165.919   -23359083.963 6 -18201873.447 7
        40.600          43.600
  23651963.410    23651962.966    23651963.224    -4795405.437 3  -3736673.889 3
        20.500          23.800
  22915693.043    22915691.606    22915689.334   -11142148.618 5  -8682191.979 5
        32.000          31.000
  20343809.533    20343809.017    20343805.997   -25258914.596 7 -19682260.827 8
        43.600          50.700
 09  1  3  1 25  0.0000000  0 10G 9G21G28G15G 6G14G18G 3G19G22
  21533540.232    21533539.572    21533538.662   -17503843.582 5 -13639350.747 5
        35.200          35.100
  22931812.186    22931811.038    22931810.783   -13838627.388 3 -10783338.679 3
        23.400          23.800
  25441834.030    25441834.043    25441832.342         887.728 1       692.016 1
         6.500           6.500
  24592736.332    24592735.596    24592734.181    -1383268.142 2  -1077859.669 3
        13.900          21.600
  23725625.988    23725625.659    23725625.204    -4890550.940 3  -3810813.763 3
        22.600          23.000
  22451642.354    22451641.544    22451640.659   -14768937.366 4 -11508259.042 5
        29.700          30.100
  20868241.646    20868240.899    20868239.115   -23316659.071 6 -18168815.083 7
        40.600          43.500
  23667113.502    23667112.187    23667113.499    -4715790.647 3  -3674636.415 4
        18.600          24.200
  22917377.453    22917375.723    22917373.850   -11133297.489 5  -8675294.992 5
        32.100          31.100
  20340263.302    20340262.773    20340259.594   -25277550.860 7 -19696782.587 8
        43.700          50.700
 09  1  3  1 25 30.0000000  0 10G 9G21G28G15G 6G14G18G 3G19G22
  21527869.387    21527868.816    21527867.824   -17533644.123 5 -13662571.947 5
        35.500          35.200
  22951799.591    22951798.970    22951798.018   -13733591.351 3 -10701492.457 3
        23.400          23.000
  25442250.445    25442249.860    25442249.301        3074.262        2396.046 1
         3.000           6.500
  24612993.202    24612992.669    24612990.445    -1276820.436 2   -994913.421 3
        13.900          23.000
  23741093.421    23741092.715    23741093.455    -4809266.323 3  -3747475.093 3
        21.600          23.800
  22434141.901    22434141.270    22434140.385   -14860902.304 4 -11579920.013 5
        29.900          30.400
  20876384.723    20876383.917    20876382.262   -23273866.958 6 -18135470.581 7
        40.500          43.500
  23682328.569    23682327.376    23682327.458    -4635838.882 3  -3612336.336 3
        19.300          23.000
  22919174.558    22919172.751    22919171.048   -11123852.700 5  -8667935.425 5
        31.100          31.100
  20336792.651    20336792.137    20336789.026   -25295788.761 7 -19710993.934 8
        43.700          50.700
 09  1  3  1 26  0.0000000  0 10G 9G21G28G15G 6G14G18G 3G19G22
  21522333.480    21522332.740    21522332.094   -17562735.691 5 -13685240.691 5
        35.400          35.400
  22971836.627    22971835.577    22971834.617   -13628298.676 3 -10619446.237 3
        23.800          22.600
  25442762.371    25442760.871    25442761.743        5777.887        4502.868 1
                         9.000
  24633268.424    24633267.695    24633265.874    -1170273.437 2   -911889.829 3
        13.900          23.400
  23756616.403    23756615.639    23756615.125    -4727699.113 3  -3683916.237 3
        21.100          23.800
  22416699.015    22416698.422    22416697.746   -14952563.967 5 -11651344.663 5
        30.100          30.200
  20884597.162    20884596.298    20884594.662   -23230710.598 6 -18101842.246 7
        40.500          43.400
  23697605.335    23697604.611    23697604.753    -4555555.283 3  -3549777.697 3
        18.600          22.100
  22921084.049    22921082.409    22921080.580   -11113817.367 5  -8660115.687 5
        31.000          31.300
  20333397.502    20333397.010    20333393.902   -25313630.192 7 -19724896.340 8
        43.700          50.800
 09  1  3  1 26 30.0000000  0 10G 9G21G28G15G 6G14G18G 3G19G22
  21516930.880    21516930.203    21516929.572   -17591125.774 5 -13707362.824 5
        35.300          35.400
  22991920.057    22991919.023    22991918.162   -13522760.336 3 -10537208.606 3
        23.000          22.600
  25443375.593    25443374.528    25443374.401        8989.960 1      7005.772 1
         6.500           9.000
  24653559.945    24653559.455    24653557.918    -1063637.489 2   -828796.909 3
        13.900          23.800
  23772189.309    23772188.618    23772188.469    -4645861.169 3  -3620146.424 3
        19.900          23.400
  22399312.772    22399312.166    22399311.361   -15043929.750 5 -11722538.761 5
        30.200          30.200
  20892877.124    20892876.323    20892874.542   -23187199.407 6 -18067937.417 7
        40.600          43.300
  23712943.722    23712942.705    23712943.002    -4474952.590 3  -3486970.423 3
        19.300          21.600
  22923104.379    22923102.809    22923101.229   -11103200.810 5  -8651843.050 5
        31.300          31.600
  20330076.126    20330075.659    20330072.513   -25331083.933 7 -19738496.644 8
        43.700          50.800
 09  1  3  1 27  0.0000000  0 10G 9G21G28G15G 6G14G18G 3G19G22
  21511663.645    21511662.888    21511662.255   -17618805.425 5 -13728931.380 5
        35.300          35.400
  23012050.775    23012049.549    23012048.611   -13416971.254 3 -10454775.594 3
        22.600          21.600
  25444085.535    25444084.534    25444080.881       12717.368 1      9910.126 1
         6.500           9.000
  24673868.651    24673869.827    24673867.689     -956907.607 2   -745630.815 3
        15.100          22.600
  23787814.602    23787813.959    23787813.774    -4563747.864 2  -3556162.047 3
        17.800          23.000
  22381984.531    22381983.955    22381982.978   -15134990.643 5 -11793495.287 5
        30.200          30.600
  20901225.812    20901224.969    20901223.219   -23143326.534 6 -18033750.755 7
        40.600          43.100
  23728343.755    23728342.927    23728342.922    -4394025.701 3  -3423910.504 3
        19.900          22.100
  22925236.665    22925235.025    22925233.089   -11091996.514 5  -8643112.429 5
        31.800          31.100
  20326830.186    20326829.672    20326826.562   -25348141.771 7 -19751788.462 8
        43.800          50.900
 09  1  3  1 27 30.0000000  0 10G 9G21G28G15G 6G14G18G 3G19G22
  21506530.683    21506530.027    21506529.232   -17645779.435 5 -13749950.075 5
        35.500          35.300
  23032227.575    23032226.517    23032225.733   -13310939.622 3 -10372153.577 3
        21.600          21.100
  25444890.770    25444889.566    25444890.087       16954.849       13212.138 1
         3.000          11.000
  24694196.568    24694196.195    24694194.897     -850091.226 2   -662397.313 4
        16.100          24.600
  23803490.851    23803490.545    23803490.012    -4481367.966 2  -3491969.958 3
        17.800          23.400
  22364713.299    22364712.707    22364711.885   -15225750.957 5 -11864217.590 5
        30.800          30.800
  20909642.140    20909641.322    20909639.574   -23099098.414 6 -17999287.281 7
        40.600          43.000
  23743803.303    23743802.417    23743802.929    -4312783.393 3  -3360604.822 3
        20.500          23.000
  22927479.720    22927477.741    22927475.785   -11080211.060 5  -8633928.960 5
        31.600          31.300
  20323658.423    20323657.874    20323654.844   -25364809.243 7 -19764776.097 8
        43.700          50.900
 09  1  3  1 28  0.0000000  0 10G 9G21G28G15G 6G14G18G 3G19G22
  21501533.575    21501532.955    21501532.252   -17672038.974 5 -13770412.047 5
        35.400          35.300
  23052452.177    23052451.248    23052450.395   -13204659.873 3 -10289338.228 3
        22.100          20.500
  25445796.286    25445795.329    25445793.132       21708.770       16916.391
         3.000           3.000
  24714541.133    24714540.265    24714538.611     -743182.923 2   -579092.187 4
        16.100          24.600
  23819218.674    23819218.096    23819218.764    -4398716.943 2  -3427566.560 4
        17.800          24.200
  22347501.290    22347500.512    22347499.735   -15316201.773 5 -11934698.726 5
        31.000          30.800
  20918127.533    20918126.665    20918124.812   -23054507.938 6 -17964541.452 7
        40.700          42.900
  23759323.431    23759322.880    23759323.735    -4231221.563 3  -3297050.136 3
        20.500          23.000
  22929834.530    22929832.735    22929830.822   -11067837.488 5  -8624287.217 5
        32.100          32.100
  20320562.518    20320561.998    20320558.821   -25381078.663 7 -19777453.560 8
        43.800          50.900
 09  1  3  1 28 30.0000000  0 10G 9G21G28G15G 6G14G18G 3G19G22
  21496672.413    21496671.681    21496670.877   -17697585.125 5 -13790318.136 5
        35.400          35.200
  23072722.549    23072721.827    23072720.895   -13098136.689 3 -10206333.169 3
        22.100          20.500
  25446797.776    25446796.973    25446796.550       26977.610       21022.238

  24734901.263    24734901.665    24734898.773     -636186.944 2   -495718.784 4
        16.100          24.200
  23834996.838    23834996.354    23834997.509    -4315799.676 2  -3362955.714 4
        17.000          24.600
  22330347.805    22330347.022    22330346.143   -15406343.493 5 -12004939.007 5
        31.000          30.600
  20926681.104    20926680.382    20926678.376   -23009557.943 6 -17929515.478 7
        40.600          42.700
  23774905.804    23774904.525    23774903.861    -4149345.259 3  -3233250.434 3
        20.500          23.000
  22932300.048    22932298.234    22932296.590   -11054878.628 5  -8614189.417 5
        32.000          32.000
  20317541.783    20317541.269    20317538.202   -25396952.162 7 -19789822.508 8
        43.800          51.000
 09  1  3  1 29  0.0000000  0  9G 9G21G15G 6G14G18G 3G19G22
  21491945.682    21491944.983    21491944.098   -17722424.396 5 -13809673.404 5
        35.600          35.200
  23093037.592    23093036.885    23093036.408   -12991379.816 3 -10123146.025 3
        22.100          20.500
  24755276.983    24755277.167    24755274.148     -529112.549 2   -412284.221 3
        16.100          23.800
  23850824.273    23850824.117    23850824.271    -4232626.635 2  -3298145.561 3
        17.800          23.800
  22313252.246    22313251.241    22313250.179   -15496182.363 5 -12074943.303 5
        30.600          30.600
  20935301.474    20935300.712    20935298.952   -22964256.861 6 -17894215.930 7
        40.500          42.600
  23790543.909    23790542.820    23790542.331    -4067165.048 3  -3169213.905 3
        20.500          23.000
  22934875.601    22934874.106    22934872.202   -11041342.963 5  -8603642.144 5
        31.600          32.000
  20314595.223    20314594.764    20314591.676   -25412436.308 7 -19801888.068 8
        43.800          51.000
 09  1  3  1 29 30.0000000  0 10G 9G21G28G15G 6G14G18G 3G19G22
  21487355.642    21487354.992    21487354.365   -17746543.777 5 -13828467.729 5
        35.500          35.300
  23113398.963    23113398.537    23113397.848   -12884379.702 3 -10039769.355 3
        22.100          20.500
  25449092.748    25449091.111    25449094.488            .0941           .00911
                         9.000
  24775670.286    24775670.519    24775666.725     -421950.034 2   -328781.017 4
        15.100          24.200
  23866702.960    23866701.886    23866702.175    -4149188.911 2  -3233129.157 3
        17.800          23.400
  22296216.133    22296215.515    22296214.828   -15585705.281 5 -12144701.396 5
        31.100          31.100
  20943990.886    20943990.119    20943988.375   -22918593.704 6 -17858634.250 7
        40.600          42.500
  23806241.090    23806240.198    23806240.625    -3984672.106 3  -3104933.701 3
        20.500          23.800
  22937563.430    22937561.730    22937560.012   -11027219.567 5  -8592636.911 5
        31.600          32.400
  20311725.170    20311724.645    20311721.532   -25427518.788 7 -19813640.642 8
        43.800          51.000
 09  1  3  1 30  0.0000000  0 10G 9G21G28G15G 6G14G18G 3G19G22
  21482902.258    21482901.642    21482901.045   -17769946.497 5 -13846703.606 5
        35.600          35.400
  23133805.453    23133804.960    23133804.454   -12777143.254 3  -9956208.544 3
        21.600          21.100
  25450390.885    25450388.750    25450388.793        6807.209        5304.294 1
                         9.000
  24796079.204    24796078.618    24796074.935     -314705.807 2   -245214.091 3
        13.900          23.000
  23882629.505    23882628.713    23882628.923    -4065494.092 2  -3167912.441 3
        17.800          23.400
  22279240.173    22279239.557    22279238.736   -15674914.859 5 -12214215.324 5
        31.500          31.100
  20952748.356    20952747.541    20952745.666   -22872573.668 6 -17822774.477 7
        40.600          42.400
  23821997.221    23821996.099    23821996.866    -3901873.996 3  -3040415.695 4
        19.300          24.200
  22940361.359    22940360.006    22940358.315   -11012513.726 5  -8581177.812 5
        31.500          32.100
  20308930.606    20308930.079    20308926.885   -25442204.481 7 -19825084.029 8
        43.900          51.000
 09  1  3  1 30 30.0000000  0 10G 9G21G28G15G 6G14G18G 3G19G22
  21478584.391    21478583.732    21478582.832   -17792637.875 5 -13864385.195 5
        35.900          35.100
  23154255.940    23154255.341    23154254.203   -12669678.958 3  -9872470.158 3
        23.000          21.600
  25451782.830    25451781.824    25451778.425       14121.305 1     11003.471 1
         6.500           6.500
  24816500.632    24816499.984    24816497.200     -207388.268 2   -161590.043 3
        12.600          22.600
  23898603.280    23898602.638    23898602.133    -3981551.234 3  -3102502.429 3
        19.300          23.400
  22262323.065    22262322.450    22262321.386   -15763815.896 5 -12283488.843 5
        32.000          31.100
  20961572.412    20961571.550    20961569.654   -22826203.460 6 -17786641.843 7
        40.700          42.300
  23837809.679    23837808.441    23837809.003    -3818779.968 3  -2975667.123 4
        18.600          24.200
  22943269.983    22943268.075    22943266.313   -10997232.418 5  -8569270.310 5
        31.800          32.000
  20306210.385    20306209.911    20306206.721   -25456499.115 7 -19836222.707 8
        44.000          51.000
 09  1  3  1 31  0.0000000  0 10G 9G21G28G15G 6G14G18G 3G19G22
  21474403.408    21474402.649    21474401.994   -17814609.141 5 -13881505.660 5
        35.900          35.200
  23174750.677    23174749.555    23174748.504   -12561981.552 3  -9788550.141 3
        23.000          22.100
  25453270.108    25453269.916    25453270.153       21949.488       17103.342 1
         3.000          11.000
  24836936.419    24836936.217    24836934.499      -99991.693 1    -77904.435 3
         9.000          20.500
  23914624.742    23914624.095    23914624.037    -3897355.567 3  -3036895.429 3
        19.900          23.000
  22245466.120    22245465.482    22245464.434   -15852399.579 5 -12352515.074 5
        31.800          31.300
  20970464.158    20970463.343    20970461.517   -22779476.114 6 -17750230.922 7
        40.600          42.200
  23853679.311    23853678.309    23853678.442    -3735385.454 2  -2910684.395 3
        17.800          23.400
  22946288.276    22946286.633    22946285.043   -10981369.005 5  -8556909.201 5
        31.600          31.800
  20303566.208    20303565.715    20303562.603   -25470394.293 7 -19847050.121 8
        44.000          51.100
 09  1  3  1 31 30.0000000  0 10G 9G21G28G15G 6G14G18G 3G19G22
  21470359.328    21470358.653    21470358.041   -17835861.323 6 -13898065.795 5
        36.100          35.400
  23195288.265    23195287.478    23195286.181   -12454055.211 3  -9704451.740 3
        21.600          21.100
  25454859.769    25454859.233    25454856.235       30289.246       23601.844 1
         3.000           9.000
  24857385.483    24857387.279    24857384.833        7480.046 1      5839.766 2
         6.500          16.100
  23930693.419    23930692.843    23930693.063    -3812912.259 3  -2971095.453 3
        19.300          22.600
  22228669.528    22228668.743    22228667.892   -15940666.374 5 -12421294.373 5
        32.000          31.600
  20979423.701    20979422.855    20979421.028   -22732394.186 6 -17713543.702 7
        40.600          42.200
  23869604.632    23869603.700    23869603.864    -3651695.496 2  -2845471.459 3
        17.000          23.000
  22949417.467    22949415.474    22949413.527   -10964926.511 5  -8544096.871 5
        31.100          31.100
  20300997.677    20300997.117    20300994.006   -25483892.228 7 -19857567.985 8
        44.000          51.200
 09  1  3  1 32  0.0000000  0 10G21G28G 9G15G 6G14G18G 3G19G22
  23215868.488    23215867.710    23215866.242   -12345904.605 3  -9620178.587 3
        21.100          20.500
  25456542.754    25456542.518    25456542.120       39138.569       30497.372 1
         3.000           9.000
  21466451.657    21466450.938    21466450.332   -17856395.933 6 -13914066.793 5
        36.000          35.400
  24877849.428    24877849.795    24877850.345      115022.663       89639.200 2
         3.000          15.100
  23946809.035    23946808.319    23946808.259    -3728226.377 2  -2905106.477 3
        17.800          22.600
  22211932.966    22211932.401    22211931.263   -16028616.990 5 -12489827.297 5
        32.000          31.800
  20988449.902    20988449.160    20988447.274   -22684960.441 6 -17676582.343 7
        40.600          42.100
  23885585.320    23885584.621    23885584.937    -3567715.706 2  -2780032.693 3
        17.000          22.600
  22952656.104    22952654.107    22952652.207   -10947907.840 5  -8530835.572 5
        30.800          31.300
  20298504.429    20298503.894    20298500.720   -25496994.574 7 -19867777.610 8
        44.100          51.200
 09  1  3  1 32 30.0000000  0 10G21G28G 9G15G 6G14G18G 3G19G22
  23236490.383    23236489.519    23236488.407   -12237535.683 3  -9535735.316 3
        20.500          20.500
  25458322.159    25458320.186    25458322.972       48492.891       37786.512 1
                         9.000
  21462680.072    21462679.427    21462678.619   -17876215.907 6 -13929510.925 5
        36.100          35.300
  24898327.893    24898328.661    24898326.009      222630.628      173489.549 2
         3.000          15.100
  23962968.747    23962967.832    23962968.959    -3643304.451 2  -2838933.576 3
        17.000          22.100
  22195256.441    22195255.641    22195254.569   -16116253.641 5 -12558115.572 5
        32.300          31.800
  20997542.328    20997541.515    20997539.682   -22637179.749 6 -17639350.631 7
        40.600          42.000
  23901619.410    23901618.663    23901619.608    -3483452.533 2  -2714373.095 3
        15.100          21.100
  22956003.284    22956001.496    22955999.489   -10930318.022 5  -8517129.222 5
        31.000          31.000
  20296085.773    20296085.227    20296082.035   -25509704.979 7 -19877681.822 8
        44.100          51.200
 09  1  3  1 33  0.0000000  0 10G21G28G 9G15G 6G14G18G 3G19G22
  23257155.430    23257154.054    23257152.928   -12128941.792 3  -9451116.740 3
        20.500          19.900
  25460201.336    25460200.228    25460198.900       58360.643 1     45475.852 1
         6.500           6.500
  21459046.328    21459045.673    21459045.013   -17895310.956 6 -13944390.183 5
        36.100          35.300
  24918821.353    24918821.089    24918817.373      330311.804      257397.174 2
         3.000          15.100
  23979175.310    23979174.750    23979174.827    -3558140.561 2  -2772572.121 3
        17.000          21.100
  22178641.235    22178640.417    22178639.686   -16203566.308 5 -12626151.397 5
        32.400          32.100
  21006702.283    21006701.495    21006699.649   -22589043.758 6 -17601842.065 6
        40.600          41.800
  23917709.520    23917708.837    23917709.194    -3398900.258 2  -2648488.220 3
        17.800          19.900
  22959460.469    22959458.539    22959456.851   -10912149.004 5  -8502971.548 5
        30.400          30.600
  20293743.281    20293742.809    20293739.656   -25522013.901 7 -19887273.185 8
        44.100          51.200
 09  1  3  1 33 30.0000000  0 10G21G28G 9G15G 6G14G18G 3G19G22
  23277862.340    23277861.833    23277860.463   -12020121.279 3  -9366321.581 3
        19.900          19.300
  25462177.455    25462177.001    25462174.999       68745.244 1     53567.691 1
         6.500           9.000
  21455551.303    21455550.793    21455550.085   -17913676.577 6 -13958701.054 5
        36.000          35.300
  24939325.508    24939325.023    24939322.931      438066.364 1    341361.737 2
         6.500          13.900
  23995427.741    23995426.865    23995426.947    -3472733.751 2  -2706021.361 3
        17.800          19.900
  22162088.676    22162087.921    22162087.405   -16290549.259 5 -12693930.298 5
        32.300          32.300
  21015930.463    21015929.647    21015927.886   -22540549.222 6 -17564054.111 6
        40.300          41.700
  23933854.804    23933853.887    23933854.097    -3314058.664 2  -2582377.873 3
        17.800          18.600
  22963028.686    22963026.807    22963024.943   -10893397.858 5  -8488360.263 5
        30.400          30.600
  20291478.170    20291477.675    20291474.558   -25533917.318 7 -19896548.572 8
        44.100          51.300
 09  1  3  1 34  0.0000000  0 10G21G28G 9G15G 6G14G18G 3G19G22
  23298610.865    23298610.222    23298608.925   -11911089.205 3  -9281361.557 3
        20.500          19.900
  25464246.776    25464245.155    25464249.109       79633.519       62051.914 2
                        12.600
  21452193.259    21452192.591    21452191.678   -17931324.591 6 -13972452.746 5
        36.200          35.200
  24959840.889    24959840.941    24959838.862      545880.613 1    425372.846 1
         9.000          11.000
  24011723.084    24011721.907    24011722.258    -3387099.800 2  -2639293.630 3
        16.100          19.300
  22145596.867    22145596.212    22145595.535   -16377214.142 5 -12761461.353 5
        32.400          32.400
  21025224.363    21025223.562    21025221.906   -22491709.441 6 -17525997.138 6
        40.300          41.800
  23950051.300    23950050.548    23950050.599    -3228942.909 2  -2516053.923 2
        17.000          17.800
  22966705.240    22966703.458    22966701.521   -10874078.121 5  -8473305.915 5
        31.100          30.600
  20289288.101    20289287.531    20289284.310   -25545427.023 7 -19905517.174 8
        44.100          51.300
 09  1  3  1 34 30.0000000  0 10G21G28G 9G15G 6G14G18G 3G19G22
  23319402.318    23319401.220    23319400.210   -11801831.558 3  -9196225.770 3
        19.900          19.900
  25466417.347    25466418.505    25466416.312       91041.042       70940.346 1
                         6.500
  21448974.845    21448974.185    21448973.343   -17948237.377 6 -13985631.541 5
        36.300          35.200
  24980370.985    24980371.225    24980370.260      653769.641 1    509442.246 1
         9.000          11.000
  24028065.434    24028064.355    24028063.878    -3301224.522 3  -2572377.835 2
        19.300          17.800
  22129169.286    22129168.476    22129167.828   -16463542.309 5 -12828730.033 5
        32.400          32.600
  21034587.054    21034586.297    21034584.628   -22442508.210 6 -17487658.513 6
        40.400          41.700
  23966303.876    23966303.079    23966302.929    -3143539.060 3  -2449505.461 3
        18.600          18.600
  22970493.215    22970491.392    22970489.278   -10854173.952 5  -8457796.179 5
        31.500          31.000
  20287175.740    20287175.181    20287172.045   -25556527.069 7 -19914166.564 8
        44.100          51.300
 09  1  3  1 35  0.0000000  0 10G21G28G 9G15G 6G14G18G 3G19G22
  23340233.077    23340232.239    23340231.559   -11692363.915 3  -9110926.360 3
        19.300          20.500
  25468687.402    25468686.875    25468684.477      102955.781       80224.862 1
         3.000           6.500
  21445893.859    21445893.151    21445892.371   -17964428.123 5 -13998247.702 5
        35.900          35.100
  25000914.365    25000913.615    25000912.884      761717.356 1    593557.398 2
        11.000          12.600
  24044449.155    24044448.308    24044448.110    -3215125.086 3  -2505287.356 2
        20.500          17.000
  22112803.209    22112802.573    22112801.679   -16549546.502 5 -12895746.264 5
        32.700          32.700
  21044015.781    21044014.923    21044012.951   -22392960.427 6 -17449049.846 6
        40.200          41.300
  23982606.577    23982605.980    23982606.242    -3057864.407 3  -2382745.982 3
        18.600          18.600
  22974388.820    22974387.076    22974385.011   -10833700.873 5  -8441843.122 5
        31.000          30.800
  20285138.949    20285138.416    20285135.318   -25567230.441 7 -19922506.847 8
        44.200          51.400
 09  1  3  1 35 30.0000000  0 10G21G28G 9G15G 6G14G18G 3G19G22
  23361101.937    23361101.131    23361101.171   -11582695.068 3  -9025470.180 3
        19.300          21.600
  25471047.957    25471047.055    25471047.752      115369.594       89898.305 1
         3.000           6.500
  21442949.113    21442948.462    21442947.534   -17979902.233 6 -14010305.441 5
        36.000          35.300
  25021465.328    25021465.818    25021464.368      869715.991 2    677712.186 2
        12.600          13.900
  24060873.580    24060873.134    24060873.311    -3128810.506 3  -2438029.248 2
        19.300          17.000
  22096497.896    22096497.143    22096496.319   -16635231.602 5 -12962513.859 5
        33.000          32.800
  21053508.918    21053508.130    21053506.376   -22343072.900 6 -17410176.449 6
        40.200          41.200
  23998960.058    23998959.141    23998959.082    -2971928.402 2  -2315782.841 3
        17.800          18.600
  22978391.767    22978389.885    22978387.916   -10812666.078 5  -8425452.367 5
        30.800          30.800
  20283176.388    20283175.930    20283172.880   -25577542.904 7 -19930542.526 8
        44.100          51.400
 09  1  3  1 36  0.0000000  0 10G21G28G 9G15G 6G14G18G 3G19G22
  23382010.967    23382010.090    23382009.960   -11472818.767 2  -8939852.346 3
        17.800          21.100
  25473507.980    25473507.640    25473505.299      128289.994 1     99966.308 1
         9.000           6.500
  21440142.763    21440142.096    21440141.445   -17994650.088 6 -14021797.279 5
        36.200          35.500
  25042026.528    25042027.506    25042026.775      977772.070 1    761911.673 2
        11.000          15.100
  24077340.610    24077340.495    24077340.097    -3042275.078 3  -2370599.036 2
        19.300          17.800
  22080255.139    22080254.397    22080253.612   -16720587.580 5 -13029024.987 5
        32.800          33.100
  21063068.456    21063067.632    21063065.730   -22292837.451 6 -17371031.937 6
        40.200          41.000
  24015363.512    24015363.225    24015363.495    -2885725.005 2  -2248611.364 3
        17.000          18.600
  22982502.704    22982500.869    22982499.115   -10791061.715 5  -8408617.795 5
        30.800          31.000
  20281290.140    20281289.599    20281286.446   -25587455.999 7 -19938267.012 8
        44.200          51.400
 09  1  3  1 36 30.0000000  0 10G21G28G 9G15G 6G14G18G 3G19G22
  23402960.941    23402959.935    23402959.531   -11362727.433 2  -8854066.955 3
        16.100          20.500
  25476066.071    25476064.743    25476062.442      141726.433 1    110436.237 1
         9.000           6.500
  21437476.264    21437475.661    21437475.086   -18008661.542 6 -14032715.297 5
        36.100          35.300
  25062601.261    25062601.520    25062600.508     1085893.455 1    846162.111 2
         6.500          15.100
  24093851.450    24093850.845    24093851.661    -2955512.017 2  -2302991.451 3
        17.800          19.300
  22064077.218    22064076.504    22064075.739   -16805602.835 5 -13095270.617 5
        33.400          33.200
  21072695.677    21072694.930    21072693.108   -22242245.231 6 -17331609.423 6
        40.000          40.800
  24031819.858    24031818.499    24031819.327    -2799247.810 2  -2181226.523 3
        16.100          18.600
  22986723.953    22986722.184    22986720.325   -10768879.300 5  -8391332.792 5
        31.500          31.100
  20279481.623    20279481.095    20279477.932   -25596959.534 7 -19945672.361 8
        44.200          51.400
 09  1  3  1 37  0.0000000  0 10G21G28G 9G15G 6G14G18G 3G19G22
  23423948.605    23423947.299    23423947.194   -11252435.899 2  -8768125.566 3
        17.800          20.500
  25478718.331    25478715.432    25478716.465      155665.865      121298.005 2
                        12.600
  21434947.993    21434947.323    21434946.617   -18021948.648 6 -14043068.883 5
        36.300          35.300
  25083183.138    25083185.808    25083184.741     1194066.248      930452.584 2
         3.000          12.600
  24110402.160    24110401.899    24110402.007    -2868536.699 2  -2235218.480 3
        15.100          19.900
  22047961.892    22047961.269    22047960.456   -16890288.664 5 -13161259.557 5
        33.200          33.200
  21082388.652    21082387.766    21082385.968   -22191309.404 6 -17291919.167 6
        40.000          40.700
  24048324.094    24048323.610    24048324.514    -2712512.455 2  -2113640.530 3
        16.100          18.600
  22991052.338    22991050.673    22991048.949   -10746132.317 5  -8373607.861 5
        31.300          31.100
  20277748.897    20277748.358    20277745.188   -25606065.304 7 -19952767.764 8
        44.300          51.400
 09  1  3  1 37 30.0000000  0 10G21G28G 9G15G 6G14G18G 3G19G22
  23444975.411    23444974.744    23444974.202   -11141940.555 3  -8682025.366 3
        19.300          19.900
  25481469.177    25481467.181    25481466.798      170113.511 1    132555.922 1
         6.500           9.000
  21432558.334    21432557.840    21432557.117   -18034504.948 6 -14052853.009 5
        36.200          35.300
  25103778.165    25103780.730    25103780.025     1302294.146     1014785.978 2
                        12.600
  24126995.018    24126993.945    24126993.919    -2781346.149 2  -2167277.811 3
        13.900          20.500
  22031910.957    22031910.242    22031909.277   -16974637.955 5 -13226986.259 5
        33.500          33.400
  21092147.841    21092146.979    21092145.093   -22140024.846 6 -17251957.172 6
        40.000          40.600
  24064879.525    24064878.736    24064878.912    -2625516.172 2  -2045851.217 3
        16.100          19.300
  22995489.756    22995487.854    22995485.963   -10722816.140 5  -8355439.410 5
        31.300          31.300
  20276092.903    20276092.371    20276089.220   -25614767.558 7 -19959548.740 8
        44.300          51.400
 09  1  3  1 38  0.0000000  0 10G21G28G 9G15G 6G14G18G 3G19G22
  23466040.849    23466039.727    23466038.946   -11031244.545 3  -8595768.785 3
        20.500          18.600
  25484313.032    25484311.390    25484310.095      185068.777      144209.064
         3.000           3.000
  21430308.371    21430307.669    21430306.920   -18046330.106 6 -14062067.418 5
        36.200          35.200
  25124383.098    25124387.938    25124387.572     1410574.880     1099160.659 1
                        11.000
  24143626.297    24143626.118    24143626.224    -2693943.894 2  -2099172.181 3
        16.100          21.100
  22015923.868    22015923.231    22015922.398   -17058649.617 5 -13292449.875 5
        33.400          33.400
  21101973.116    21101972.216    21101970.425   -22088392.549 6 -17211724.212 6
        39.800          40.600
  24081484.810    24081483.597    24081483.180    -2538262.060 2  -1977861.021 3
        17.800          19.300
  23000034.507    23000032.571    23000030.625   -10698932.534 5  -8336828.814 5
        31.000          31.600
  20274513.756    20274513.260    20274510.062   -25623065.921 7 -19966014.995 8
        44.200          51.400
 09  1  3  1 38 30.0000000  0 10G21G28G 9G15G 6G14G18G 3G19G22
  23487143.667    23487142.641    23487142.210   -10920348.219 3  -8509356.109 2
        19.300          17.800
  25487257.868    25487255.818    25487254.719      200532.699      156258.910
         3.000           3.000
  21428197.703    21428196.982    21428196.173   -18057422.106 6 -14070710.532 5
        36.400          35.200
  25145000.495    25144999.723    25145002.022     1518908.017     1183576.029 2
                        12.600
  24160298.702    24160298.130    24160297.907    -2606331.471 2  -2030902.793 3
        16.100          20.500
  22000001.785    22000001.143    22000000.247   -17142321.139 5 -13357648.445 5
        33.600          33.500
  21111864.733    21111863.834    21111862.060   -22036411.835 6 -17171219.759 6
        39.700          40.500
  24098137.415    24098136.042    24098135.474    -2450751.945 2  -1909671.334 3
        17.800          19.300
  23004687.181    23004685.651    23004683.747   -10674481.179 5  -8317775.807 5
        30.800          32.000
  20273011.561    20273011.079    20273007.977   -25630959.566 7 -19972165.886 8
        44.200          51.500
 09  1  3  1 39  0.0000000  0 10G21G28G 9G15G 6G14G18G 3G19G22
  23508283.956    23508282.828    23508282.080   -10809255.823 3  -8422790.642 2
        19.900          17.800
  25490295.364    25490293.401    25490292.982      216502.261 1    168702.940 1
         6.500           9.000
  21426226.182    21426225.537    21426224.823   -18067781.895 6 -14078783.097 5
        36.200          35.200
  25165622.153    25165627.692    25165615.487     1627290.119     1268029.517 1
                        11.000
  24177009.294    24177009.055    24177008.794    -2518513.432 2  -1962473.164 3
        13.900          20.500
  21984144.387    21984143.725    21984142.592   -17225652.617 5 -13422582.046 5
        34.000          33.400
  21121821.929    21121821.063    21121819.388   -21984085.413 6 -17130445.922 6
        39.700          40.300
  24114836.563    24114835.822    24114835.462    -2362990.936 2  -1841286.134 3
        16.100          19.300
  23009447.421    23009445.780    23009444.166   -10649464.946 5  -8298282.640 5
        30.200          31.600
  20271586.389    20271585.872    20271582.796   -25638449.112 7 -19978001.894 8
        44.200          51.500
 09  1  3  1 39 30.0000000  0 10G21G28G 9G15G 6G14G18G 3G19G22
  23529460.822    23529460.269    23529459.661   -10697969.026 3  -8336073.711 3
        19.300          18.600
  25493431.431    25493429.563    25493427.494      232977.109 1    181540.414 1
        11.000           9.000
  21424394.249    21424393.592    21424392.812   -18077408.930 6 -14086284.678 5
        36.200          35.200
  25186255.730    25186259.861    25186255.102     1735719.821     1352520.260 1
                         9.000
  24193758.828    24193758.582    24193758.706    -2430492.341 2  -1893885.316 3
        15.100          20.500
  21968351.740    21968351.068    21968350.085   -17308642.411 5 -13487249.401 5
        33.900          33.400
  21131844.918    21131844.159    21131842.418   -21931413.647 6 -17089402.987 6
        39.600          40.200
  24131583.553    24131583.089    24131583.956    -2274981.951 2  -1772707.720 3
        16.100          20.500
  23014315.604    23014313.743    23014311.672   -10623884.808 5  -8278350.075 5
        30.400          31.500
  20270238.328    20270237.770    20270234.544   -25645533.955 7 -19983522.547 8
        44.300          51.500
 09  1  3  1 40  0.0000000  0 10G21G28G 9G15G 6G14G18G 3G19G22
  23550674.880    23550674.154    23550673.386   -10586491.457 3  -8249208.122 3
        19.300          19.300
  25496659.057    25496658.624    25496657.786      249956.380      194770.926 1
         3.000          11.000
  21422701.718    21422701.063    21422700.158   -18086303.530 6 -14093215.536 5
        36.300          35.100
  25206900.409    25206900.564    25206900.055     1844194.733     1437044.060 1
                        11.000
  24210547.784    24210547.305    24210546.886    -2342271.650 2  -1825141.922 3
        15.100          20.500
  21952624.537    21952623.880    21952622.984   -17391289.655 5 -13551649.834 5
        34.000          33.600
  21141933.763    21141932.865    21141931.021   -21878397.605 6 -17048091.784 6
        39.700          40.000
  24148378.859    24148377.809    24148378.386    -2186728.266 2  -1703938.605 3
        17.000          21.100
  23019289.893    23019288.155    23019286.818   -10597742.675 5  -8257979.594 5
        30.400          31.500
  20268966.745    20268966.240    20268963.085   -25652215.553 7 -19988728.983 8
        44.300          51.500
 09  1  3  1 40 30.0000000  0 10G21G28G 9G15G 6G14G18G 3G19G22
  23571924.236    23571923.616    23571922.379   -10474824.803 2  -8162195.197 3
        17.000          18.600
  25499986.525    25499986.286    25499985.342      267439.486      208394.223 1
         3.000          11.000
  21421148.571    21421147.912    21421147.092   -18094464.909 6 -14099575.054 5
        36.300          35.100
  25227551.154    25227551.967    25227552.187     1952713.171     1521603.852 2
                        12.600
  24227372.575    24227371.835    24227372.610    -2253854.181 2  -1756245.226 3
        16.100          21.100
  21936962.801    21936962.258    21936961.230   -17473592.856 5 -13615782.183 5
        34.300          33.800
  21152087.677    21152086.802    21152085.025   -21825037.776 6 -17006512.693 6
        39.500          39.800
  24165219.382    24165218.672    24165217.927    -2098232.760 3  -1634981.073 3
        18.600          19.900
  23024371.323    23024369.764    23024367.958   -10571039.533 5  -8237171.943 5
        30.800          31.300
  20267772.304    20267771.808    20267768.713   -25658492.155 7 -19993619.840 8
        44.200          51.600
 09  1  3  1 41  0.0000000  0 10G21G28G 9G15G 6G14G18G 3G19G22
  23593208.924    23593208.026    23593207.494   -10362971.323 2  -8075036.717 3
        16.100          19.300
  25503407.903    25503407.351    25503409.578      285425.496      222409.480 1
         3.000          11.000
  21419735.242    21419734.590    21419733.591   -18101892.827 6 -14105363.044 5
        36.400          34.900
  25248210.899    25248210.756    25248211.225     2061273.177 1   1606195.953 2
         6.500          15.100
  24244234.368    24244233.787    24244235.007    -2165243.046 2  -1687197.605 3
        16.100          21.600
  21921366.951    21921366.142    21921365.228   -17555550.732 5 -13679645.451 5
        34.600          34.100
  21162306.998    21162306.177    21162304.387   -21771334.896 6 -16964666.288 6
        39.600          39.800
  24182103.616    24182103.838    24182103.172    -2009498.916 3  -1565837.816 3
        18.600          19.300
  23029559.309    23029557.681    23029555.975   -10543776.867 5  -8215928.307 5
        30.800          31.100
  20266654.893    20266654.353    20266651.212   -25664364.474 7 -19998195.672 8
        44.300          51.600
 09  1  3  1 41 30.0000000  0 10G21G28G 9G15G 6G14G18G 3G19G22
  23614528.549    23614527.460    23614527.011   -10250936.475 2  -7987736.878 3
        16.100          19.300
  25506927.701    25506927.771    25506925.478      303910.975      236813.718 1
                         9.000
  21418460.864    21418460.194    21418459.527   -18108589.194 6 -14110580.992 5
        36.300          35.400
  25268876.181    25268876.820    25268875.176     2169870.592 1   1690817.260 2
         9.000          15.100
  24261132.778    24261131.926    24261132.664    -2076443.850 2  -1618003.436 3
        16.100          21.100
  21905836.122    21905835.475    21905834.534   -17637164.684 5 -13743240.725 5
        34.600          34.100
  21172590.888    21172590.085    21172588.318   -21717292.438 6 -16922555.282 6
        39.500          39.600
  24199034.710    24199033.805    24199032.877    -1920532.250 3  -1496513.162 3
        19.300          18.600
  23034853.136    23034851.611    23034849.679   -10515958.660 5  -8194251.782 5
        31.500          31.100
  20265613.964    20265613.439    20265610.304   -25669834.673 7 -20002458.159 8
        44.200          51.600
 09  1  3  1 42  0.0000000  0 10G21G28G 9G15G 6G14G18G 3G19G22
  23635882.356    23635881.235    23635881.385   -10138720.215 2  -7900295.732 3
        13.900          18.600
  25510538.873    25510539.637    25510536.835      322897.408      251608.389 1
                         6.500
  21417326.476    21417325.662    21417324.803   -18114551.801 6 -14115227.174 5
        36.300          35.300
  25289547.995    25289548.602    25289547.126     2278505.821 1   1775468.097 2
         9.000          12.600
  24278066.928    24278065.815    24278065.883    -1987457.307 2  -1548663.296 3
        16.100          19.900
  21890371.792    21890371.040    21890369.970   -17718431.007 5 -13806565.115 5
        34.800          34.000
  21182939.884    21182939.039    21182937.022   -21662909.081 6 -16880178.639 6
        39.600          39.400
  24216008.751    24216007.198    24216007.115    -1831333.598 2  -1427007.711 3
        17.000          18.600
  23040252.662    23040251.094    23040248.923   -10487584.009 5  -8172141.660 5
        31.500          30.800
  20264649.907    20264649.438    20264646.382   -25674900.213 7 -20006405.330 8
        44.200          51.600
 09  1  3  1 42 30.0000000  0 10G21G28G 9G15G 6G14G18G 3G19G22
  23657269.332    23657268.309    23657269.012   -10026328.334 2  -7812717.736 2
        12.600          17.800
  25514249.391    25514246.919    25514246.144      342380.455 1    266789.901 1
         6.500           9.000
  21416330.541    21416329.827    21416328.917   -18119783.914 6 -14119304.152 5
        36.300          35.100
  25310226.370    25310227.630    25310227.399     2387173.607 1   1860144.264 2
         9.000          12.600
  24295034.735    24295033.845    24295033.723    -1898289.898 2  -1479182.229 3
        16.100          18.600
  21874972.723    21874972.102    21874971.266   -17799352.107 5 -13869620.505 5
        34.800          34.100
  21193352.607    21193351.843    21193350.002   -21608188.997 6 -16837539.610 6
        39.500          39.400
  24233024.443    24233023.637    24233024.679    -1741909.610 2  -1357326.676 3
        16.100          19.300
  23045756.941    23045755.250    23045753.620   -10458658.187 5  -8149602.061 5
        31.100          31.000
  20263762.412    20263761.855    20263758.769   -25679564.663 7 -20010039.964 8
        44.300          51.700
 09  1  3  1 43  0.0000000  0 10G21G28G 9G15G 6G14G18G 3G19G22
  23678690.082    23678690.716    23678690.694    -9913755.278 2  -7724998.547 2
        15.100          17.800
  25518051.442    25518050.708    25518049.416      362366.919      282363.748 1
         3.000          11.000
  21415475.795    21415475.031    21415474.089   -18124277.277 6 -14122805.472 5
        36.500          35.200
  25330913.153    25330913.328    25330913.484     2495879.736 1   1944850.338 2
         6.500          12.600
  24312038.444    24312038.178    24312037.473    -1808936.631 2  -1409556.313 2
        16.100          17.800
  21859641.610    21859640.907    21859639.878   -17879918.724 5 -13932399.668 5
        34.900          34.500
  21203831.051    21203830.126    21203828.313   -21553125.029 6 -16794632.622 6
        39.500          39.300
  24250085.057    24250084.108    24250085.238    -1652255.577 2  -1287466.385 3
        15.100          19.300
  23051367.727    23051365.859    23051364.223   -10429174.469 5  -8126627.731 5
        31.100          31.300
  20262952.541    20262952.059    20262949.016   -25683819.882 7 -20013355.715 8
        44.300          51.700
 09  1  3  1 43 30.0000000  0 10G21G28G 9G15G 6G14G18G 3G19G22
  23700146.458    23700146.071    23700146.382    -9801007.760 2  -7637143.385 2
        15.100          17.800
  25521949.704    25521948.554    25521948.805      382852.265 1    298326.381 1
         9.000           9.000
  21414760.363    21414759.629    21414758.654   -18128035.981 6 -14125734.336 5
        36.400          34.900
  25351604.421    25351604.442    25351604.274     2604618.585     2029581.892 1
         3.000          11.000
  24329074.743    24329074.305    24329074.568    -1719404.852 2  -1339791.302 2
        15.100          17.800
  21844377.372    21844376.561    21844375.537   -17960133.864 5 -13994904.955 5
        34.900          34.600
  21214373.741    21214372.909    21214371.132   -21497722.355 6 -16751461.705 6
        39.500          39.300
  24267188.213    24267187.146    24267187.330    -1562379.083 2  -1217432.753 2
        13.900          17.800
  23057083.179    23057081.561    23057079.823   -10399138.480 5  -8103223.059 5
        30.600          31.100
  20262220.037    20262219.512    20262216.352   -25687669.745 7 -20016355.607 8
        44.300          51.600
 09  1  3  1 44  0.0000000  0 10G21G28G 9G15G 6G14G18G 3G19G22
  23721635.818    23721634.598    23721634.524    -9688085.285 2  -7549151.912 2
        15.100          17.000
  25525942.202    25525941.017    25525940.702      403837.676      314678.595 1
                         9.000
  21414185.385    21414184.704    21414183.545   -18131057.417 6 -14128088.703 5
        36.300          34.900
  25372302.766    25372303.279    25372304.243     2713391.073     2114339.661 1
                        11.000
  24346145.052    24346144.705    24346146.042    -1629694.705 1  -1269887.285 2
        11.000          17.000
  21829180.455    21829179.709    21829178.574   -18039993.405 5 -14057133.150 5
        35.100          34.500
  21224981.389    21224980.589    21224978.807   -21441978.916 6 -16708025.257 6
        39.500          39.100
  24284333.656    24284332.884    24284332.792    -1472280.060 2  -1147225.722 3
        15.100          18.600
  23062904.297    23062902.483    23062900.379   -10368549.368 5  -8079387.393 5
        30.400          30.800
  20261565.058    20261564.584    20261561.421   -25691111.277 7 -20019037.318 8
        44.300          51.600
 09  1  3  1 44 30.0000000  0  9G21G28G 9G 6G14G18G 3G19G22
  23743155.394    23743153.756    23743153.557    -9575002.846 2  -7461035.794 2
        16.100          16.100
  25530030.177    25530029.282    25530026.074      425310.444      331410.676 1
                         6.500
  21413748.227    21413747.621    21413746.806   -18133353.985 6 -14129878.246 5
        36.200          35.300
  24363248.462    24363248.163    24363247.608    -1539821.754 2  -1199856.452 2
        12.600          16.100
  21814049.191    21814048.513    21814047.406   -18119508.569 5 -14119093.005 5
        35.400          34.700
  21235651.293    21235650.592    21235648.743   -21385907.871 6 -16664333.532 6
        39.600          39.100
  24301518.641    24301517.995    24301517.535    -1381974.619 2  -1076857.859 3
        15.100          19.900
  23068827.588    23068825.969    23068824.143   -10337420.511 5  -8055131.146 5
        30.400          30.800
  20260985.534    20260984.993    20260981.790   -25694157.137 7 -20021410.714 8
        44.200          51.500
 09  1  3  1 45  0.0000000  0  9G21G28G 9G 6G14G18G 3G19G22
  23764704.479    23764703.104    23764702.735    -9461759.581 2  -7372794.349 2
        13.900          16.100
  25534209.904    25534208.574    25534205.251      447272.762      348524.202 1
         3.000           9.000
  21413449.903    21413449.225    21413448.589   -18134922.071 6 -14131100.127 5
        36.100          35.400
  24380382.733    24380382.004    24380381.079    -1449785.502 2  -1129698.324 2
        13.900          15.100
  21798984.403    21798983.611    21798982.537   -18198675.063 5 -14180781.166 5
        35.600          35.100
  21246384.041    21246383.200    21246381.560   -21329507.004 6 -16620384.803 6
        39.400          39.100
  24318741.940    24318741.188    24318742.220    -1291462.115 2  -1006328.652 3
        15.100          20.500
  23074853.954    23074852.786    23074850.754   -10305750.216 5  -8030452.988 5
        30.100          30.400
  20260481.861    20260481.396    20260478.243   -25696803.467 7 -20023472.786 8
        44.300          51.600
 09  1  3  1 45 30.0000000  0  9G21G28G 9G 6G14G18G 3G19G22
  23786288.668    23786287.184    23786286.292    -9348335.623 2  -7284412.109 2
        13.900          16.100
  25538485.730    25538484.304    25538483.791      469745.550 1    366035.396 2
         6.500          12.600
  21413294.325    21413293.674    21413292.879   -18135739.207 6 -14131736.855 5
        36.300          35.300
  24397550.115    24397548.959    24397548.960    -1359566.953 2  -1059398.183 2
        12.600          16.100
  21783990.173    21783989.399    21783988.533   -18277469.303 5 -14242179.257 5
        35.700          35.300
  21257183.669    21257182.810    21257181.090   -21272754.827 6 -16576162.330 6
        39.300          38.900
  24336009.679    24336008.377    24336008.817    -1200723.982 2   -935623.621 3
        17.000          20.500
  23080987.903    23080986.532    23080984.751   -10273517.969 5  -8005336.953 5
        30.400          31.100
  20260058.516    20260057.988    20260054.859   -25699028.190 7 -20025206.330 8
        44.200          51.500
 09  1  3  1 46  0.0000000  0  9G21G28G 9G 6G14G18G 3G19G22
  23807903.739    23807902.787    23807901.736    -9234743.799 2  -7195899.041 2
        13.900          13.900
  25542854.386    25542854.553    25542854.879      492717.172      383935.299 1
                         9.000
  21413279.893    21413279.217    21413278.339   -18135815.849 6 -14131796.585 5
        36.300          35.300
  24414749.615    24414748.381    24414750.045    -1269179.309 1   -988966.287 2
        11.000          15.100
  21769065.285    21769064.560    21769063.534   -18355900.457 5 -14303294.425 5
        35.800          35.400
  21268048.077    21268047.263    21268045.384   -21215662.357 6 -16531674.687 6
        39.300          38.900
  24353315.415    24353315.144    24353315.728    -1109773.389 2   -864753.048 3
        13.900          19.900
  23087226.365    23087224.764    23087222.648   -10240735.806 5  -7979792.409 5
        30.600          30.800
  20259713.456    20259712.946    20259709.798   -25700841.572 7 -20026619.356 8
        44.300          51.500
 09  1  3  1 46 30.0000000  0  9G21G28G 9G 6G14G18G 3G19G22
  23829550.070    23829549.565    23829548.340    -9120988.057 2  -7107258.253 2
        12.600          12.600
  25547321.978    25547320.308    25547319.685      516185.480      402222.041 1
                         6.500
  21413405.743    21413405.081    21413404.397   -18135153.879 6 -14131280.763 5
        36.100          35.300
  24431981.288    24431980.643    24431981.171    -1178627.308 1   -918406.296 2
         9.000          13.900
  21754209.474    21754208.599    21754207.750   -18433968.929 5 -14364126.982 5
        35.800          35.700
  21278976.771    21278975.927    21278973.973   -21158232.223 6 -16486923.933 6
        39.300          38.600
  24370662.703    24370661.967    24370662.596    -1018615.059 2   -793720.633 3
        15.100          19.900
  23093568.254    23093566.796    23093564.809   -10207406.971 5  -7953821.902 5
        30.200          30.400
  20259446.503    20259445.982    20259442.786   -25702244.786 7 -20027712.767 8
        44.300          51.500
 09  1  3  1 47  0.0000000  0  9G21G28G 9G 6G14G18G 3G19G22
  23851225.247    23851224.712    23851223.804    -9007083.920 2  -7018501.826 2
        12.600          12.600
  25551879.466    25551879.389    25551878.362      540136.687      420885.310 2
         3.000          13.900
  21413669.660    21413669.018    21413668.297   -18133766.693 6 -14130199.846 5
        36.200          35.300
  24449241.804    24449240.939    24449239.897    -1087927.080 2   -847730.796 2
        12.600          15.100
  21739420.105    21739419.320    21739418.401   -18511686.730 5 -14424686.291 5
        35.900          35.700
  21289966.809    21289965.988    21289964.166   -21100478.559 6 -16441921.077 6
        39.200          38.600
  24388046.816    24388045.605    24388045.527     -927265.500 2   -722539.163 3
        15.100          19.300
  23100012.110    23100010.121    23100008.295   -10173546.406 4  -7927437.053 5
        29.900          30.100
  20259254.949    20259254.384    20259251.233   -25703251.431 7 -20028497.160 8
        44.300          51.500
 09  1  3  1 47 30.0000000  0  9G21G28G 9G 6G14G18G 3G19G22
  23872930.781    23872929.779    23872929.328    -8893021.935 2  -6929622.427 2
        12.600          13.900
  25556529.602    25556529.402    25556530.487      564581.781      439933.748 2
                        13.900
  21414074.017    21414073.323    21414072.374   -18131642.428 6 -14128544.576 5
        36.300          35.300
  24466531.421    24466530.274    24466530.258     -997070.124 2   -776933.153 2
        12.600          15.100
  21724700.010    21724699.265    21724698.430   -18589041.131 6 -14484962.429 5
        36.200          35.900
  21301020.690    21301019.827    21301018.101   -21042390.277 6 -16396657.481 6
        39.100          38.600
  24405467.890    24405467.073    24405467.028     -835716.200 2   -651202.051 3
        12.600          18.600
  23106558.811    23106556.974    23106554.820   -10139144.123 5  -7900630.077 4
        30.100          29.700
  20259141.145    20259140.623    20259137.443   -25703849.297 7 -20028963.028 8
        44.300          51.500
 09  1  3  1 48  0.0000000  0  9G21G28G 9G 6G14G18G 3G19G22
  23894665.905    23894665.175    23894663.558    -8778809.229 2  -6840625.569 2
        13.900          13.900
  25561271.939    25561275.649    25561273.572      589513.951      459361.471 1
                         9.000
  21414617.752    21414617.014    21414616.121   -18128785.819 6 -14126318.648 5
        36.300          35.300
  24483847.965    24483847.548    24483848.331     -906063.623 1   -706019.015 2
        11.000          17.800
  21710048.421    21710047.756    21710046.717   -18666035.295 6 -14544957.867 5
        36.300          35.700
  21312137.095    21312136.277    21312134.528   -20983972.724 6 -16351137.310 6
        39.100          38.500
  24422925.161    24422924.123    24422925.105     -743974.874 2   -579715.307 3
        13.900          19.900
  23113207.154    23113205.357    23113203.375   -10104205.960 5  -7873405.548 4
        30.200          29.700
  20259104.319    20259103.799    20259100.634   -25704042.857 7 -20029113.852 8
        44.300          51.500
 09  1  3  1 48 30.0000000  0  9G21G28G 9G 6G14G18G 3G19G22
  23916428.202    23916427.388    23916426.361    -8664447.264 2  -6751512.397 2
        15.100          13.900
  25566113.230    25566112.828    25566112.180      614933.520      479168.946 1
                         9.000
  21415300.601    21415299.954    21415299.142   -18125195.943 6 -14123521.343 5
        36.100          35.100
  24501193.897    24501194.462    24501194.719     -814909.542 2   -634989.897 2
        12.600          17.800
  21695466.008    21695465.302    21695464.316   -18742666.777 6 -14604670.697 6
        36.300          36.000
  21323316.225    21323315.458    21323313.696   -20925225.676 6 -16305360.387 6
        39.100          38.300
  24440419.946    24440418.895    24440419.328     -652043.256 2   -508080.293 3
        15.100          19.300
  23119957.325    23119955.929    23119953.772   -10068732.518 5  -7845763.908 4
        30.400          29.900
  20259144.706    20259144.171    20259140.969   -25703830.767 7 -20028948.583 8
        44.300          51.400
 09  1  3  1 49  0.0000000  0  8G21G 9G 6G14G18G 3G19G22
  23938217.762    23938217.106    23938215.558    -8549940.077 2  -6662286.058 2
        13.900          13.900
  21416122.968    21416122.317    21416121.516   -18120874.921 6 -14120154.312 5
        36.400          35.200
  24518568.720    24518567.897    24518567.926     -723612.944 1   -563849.692 2
        11.000          17.800
  21680952.625    21680951.833    21680950.640   -18818936.332 6 -14664101.501 6
        36.500          36.200
  21334557.705    21334556.903    21334555.072   -20866151.727 6 -16259328.737 6
        39.100          38.300
  24457948.121    24457947.448    24457948.312     -559926.487 2   -436301.000 2
        15.100          17.800
  23126809.030    23126807.317    23126805.350   -10032727.628 5  -7817708.156 5
        30.100          30.200
  20259261.801    20259261.293    20259258.135   -25703215.040 7 -20028468.795 8
        44.300          51.400
 09  1  3  1 49 30.0000000  0  8G21G 9G 6G14G18G 3G19G22
  23960037.496    23960036.986    23960036.080    -8435277.029 2  -6572938.274 2
        13.900          13.900
  21417086.977    21417086.241    21417085.400   -18115809.467 6 -14116207.206 5
        36.200          35.100
  24535969.827    24535968.833    24535969.641     -632163.460 1   -492590.364 2
         9.000          17.000
  21666510.341    21666509.558    21666508.498   -18894829.792 6 -14723239.246 6
        36.400          36.200
  21345863.529    21345862.729    21345861.088   -20806738.431 6 -16213032.662 6
        38.800          38.100
  24475514.234    24475513.875    24475515.206     -467614.659 2   -364369.698 2
        12.600          17.000
  23133763.663    23133762.129    23133760.251    -9996179.715 4  -7789229.260 5
        29.700          30.100
  20259458.442    20259457.906    20259454.633   -25702182.116 7 -20027663.914 8
        44.300          51.400
 09  1  3  1 50  0.0000000  0  8G 9G21G 6G14G18G 3G19G22
  21418192.218    21418191.535    21418190.706   -18110000.845 6 -14111681.010 5
        36.100          35.100
  23981886.821    23981885.960    23981884.558    -8320461.119 2  -6483471.371 2
        16.100          15.100
  24553400.749    24553399.130    24553399.742     -540564.763 1   -421214.774 2
         6.500          15.100
  21652139.801    21652139.189    21652138.125   -18970346.463 6 -14782083.388 6
        36.500          36.300
  21357234.004    21357233.156    21357231.309   -20746987.317 6 -16166473.353 6
        38.900          38.000
  24493117.985    24493117.573    24493117.646     -375111.279 2   -292289.170 2
        13.900          16.100
  23140821.646    23140819.918    23140818.150    -9959090.661 4  -7760328.714 5
        29.900          30.100
  20259734.160    20259733.664    20259730.408   -25700732.824 7 -20026534.597 8
        44.300          51.300
 09  1  3  1 50 30.0000000  0  8G 9G21G 6G14G18G 3G19G22
  21419437.916    21419437.143    21419436.504   -18103454.903 6 -14106580.282 5
        36.100          35.200
  24003763.148    24003762.448    24003760.918    -8205500.454 2  -6393891.664 2
        16.100          16.100
  24570858.599    24570857.798    24570857.569     -448825.406 2   -349729.586 2
        12.600          16.100
  21637840.172    21637839.512    21637838.565   -19045491.219 6 -14840637.730 6
        36.500          36.500
  21368667.210    21368666.333    21368664.482   -20686905.274 6 -16119656.174 6
        38.700          37.700
  24510755.302    24510754.571    24510754.453     -282425.351 2   -220066.365 2
        12.600          15.100
  23147980.795    23147979.124    23147977.302    -9921468.524 4  -7731012.763 5
        29.900          30.100
  20260088.203    20260087.656    20260084.455   -25698872.743 7 -20025085.178 8
        44.300          51.400
 09  1  3  1 51  0.0000000  0  9G 9G21G11G 6G14G18G 3G19G22
  21420822.002    21420821.468    21420820.694   -18096180.778 6 -14100912.135 5
        36.100          35.200
  24025664.541    24025664.141    24025662.673    -8090406.026 2  -6304207.752 2
        15.100          15.100
  24827416.465    24827415.802    24827415.368          -1.2351          -.78611
         3.000          11.000
  24588341.610    24588340.872    24588340.432     -356957.211 2   -278144.032 3
        13.900          18.600
  21623610.177    21623609.500    21623608.435   -19120271.333 6 -14898907.929 6
        36.500          36.500
  21380161.444    21380160.660    21380158.874   -20626501.619 6 -16072588.388 6
        38.600          37.700
  24528425.156    24528424.240    24528424.444     -189568.506 1   -147710.396 2
        11.000          15.100
  23155239.618    23155237.836    23155235.969    -9883323.601 4  -7701289.446 4
        29.500          29.500
  20260518.661    20260518.172    20260515.004   -25696610.216 7 -20023322.167 8
        44.300          51.400
 09  1  3  1 51 30.0000000  0  9G 9G21G11G 6G14G18G 3G19G22
  21422345.287    21422344.758    21422343.833   -18088175.858 6 -14094674.537 5
        36.200          34.800
  24047591.496    24047590.870    24047589.994    -7975177.142 2  -6214419.065 2
        12.600          12.600
  24808859.698    24808859.603    24808860.204      -97518.466      -75988.241 1
         3.000          11.000
  24605845.215    24605845.328    24605847.553     -264960.024 2   -206457.954 3
        12.600          19.900
  21609450.246    21609449.478    21609448.370   -19194682.614 6 -14956890.733 6
        36.700          36.700
  21391717.683    21391716.855    21391714.990   -20565773.920 6 -16025268.107 6
        38.500          37.700
  24546127.731    24546126.788    24546127.137      -96540.762 1    -75221.257 2
         6.500          13.900
  23162598.006    23162596.334    23162594.150    -9844654.375 4  -7671157.590 4
        29.000          28.800
  20261026.462    20261025.872    20261022.734   -25693942.066 7 -20021243.088 8
        44.200          51.400
 09  1  3  1 52  0.0000000  0  9G 9G21G11G 6G14G18G 3G19G22
  21424008.081    21424007.443    21424006.327   -18079438.995 6 -14087866.593 5
        36.000          34.600
  24069544.310    24069542.979    24069543.161    -7859815.109 2  -6124526.640 1
        13.900           9.000
  24790347.702    24790348.025    24790348.567     -194797.828     -151790.410 2
         3.000          12.600
  24623377.852    24623377.590    24623378.176     -172835.441 2   -134672.524 3
        13.900          19.300
  21595360.881    21595360.155    21595359.122   -19268722.499 6 -15014584.135 6
        36.800          36.900
  21403335.399    21403334.618    21403332.803   -20504721.885 6 -15977695.090 6
        38.400          37.500
  24563863.610    24563862.435    24563862.526       -3344.172 1     -2600.566 2
         6.500          15.100
  23170055.960    23170054.376    23170052.503    -9805461.566 4  -7640617.740 4
        29.200          28.800
  20261611.622    20261611.086    20261607.916   -25690866.859 7 -20018846.821 8
        44.300          51.400
 09  1  3  1 52 30.0000000  0  9G 9G21G11G 6G14G18G 3G19G22
  21425811.483    21425810.834    21425809.990   -18069960.174 5 -14080480.505 5
        35.700          34.600
  24091524.063    24091522.877    24091522.580    -7744311.923 2  -6034524.186 1
        15.100          11.000
  24771884.310    24771884.412    24771885.940     -291826.769 1   -227397.385 1
         6.500          11.000
  24640935.054    24640934.675    24640933.425      -80576.252 2    -62782.250 2
        17.000          17.800
  21581344.333    21581343.558    21581342.622   -19342379.748 6 -15071979.376 6
        36.700          37.200
  21415016.734    21415015.887    21415014.076   -20443336.351 6 -15929862.206 6
        38.400          37.300
  24581631.786    24581630.880    24581631.011       90028.391 1     70157.289 2
         9.000          15.100
  23177615.668    23177614.110    23177611.965    -9765736.790 4  -7609663.360 4
        29.200          29.200
  20262276.236    20262275.716    20262272.477   -25687374.420 7 -20016125.437 8
        44.200          51.300
 09  1  3  1 53  0.0000000  0  9G 9G21G11G 6G14G18G 3G19G22
  21427755.652    21427754.813    21427753.976   -18059746.261 6 -14072521.619 5
        36.100          34.900
  24113527.445    24113526.980    24113527.851    -7628676.234 2  -5944418.501 1
        15.100          11.000
  24753469.567    24753467.619    24753468.371     -388609.164 1   -302812.248 2
         6.500          12.600
  24658514.412    24658513.103    24658512.831       11808.439 2      9205.790 2
        15.100          15.100
  21567399.927    21567399.080    21567397.901   -19415659.463 6 -15129080.442 6
        37.000          37.200
  21426760.283    21426759.522    21426757.505   -20381624.080 6 -15881774.722 6
        38.200          37.200
  24599430.421    24599429.077    24599430.424      183567.594 2    143045.023 2
        12.600          13.900
  23185274.947    23185272.921    23185271.044    -9725488.070 4  -7578300.714 4
        29.000          29.500
  20263019.097    20263018.529    20263015.338   -25683470.651 7 -20013083.533 8
        44.100          51.300
 09  1  3  1 53 30.0000000  0  9G 9G21G11G 6G14G18G 3G19G22
  21429838.002    21429837.170    21429836.511   -18048803.152 6 -14063994.522 5
        36.000          35.100
  24135555.658    24135555.698    24135556.092    -7512915.985 2  -5854215.759 1
        13.900          11.000
  24735098.986    24735098.095    24735096.785     -485148.152     -378037.480 1
         3.000          11.000
  24676115.983    24676116.399    24676115.539      104309.970 2     81284.884 2
        12.600          15.100
  21553525.983    21553525.228    21553524.218   -19488566.117 6 -15185890.805 6
        37.100          37.200
  21438564.441    21438563.679    21438561.927   -20319591.690 6 -15833437.794 6
        38.000          37.000
  24617260.954    24617260.435    24617260.026      277264.746 2    216055.780 2
        13.900          13.900
  23193032.336    23193030.610    23193028.559    -9684722.545 4  -7546535.374 4
        29.200          29.500
  20263838.938    20263838.475    20263835.384   -25679161.494 7 -20009725.748 8
        44.100          51.300
 09  1  3  1 54  0.0000000  0  9G 9G21G11G 6G14G18G 3G19G22
  21432058.647    21432058.095    21432057.307   -18037131.342 5 -14054899.606 5
        35.500          34.900
  24157608.112    24157607.742    24157607.333    -7397033.342 2  -5763917.646 1
        15.100           9.000
  24716773.357    24716772.817    24716770.944     -581441.248     -453071.034 1
                        11.000
  24693741.607    24693741.205    24693740.756      196925.729 2    153453.009 2
        12.600          17.000
  21539723.474    21539722.772    21539721.811   -19561098.268 6 -15242409.352 6
        37.200          37.400
  21450429.945    21450429.062    21450427.049   -20257239.740 6 -15784851.862 6
        38.100          36.800
  24635120.797    24635119.961    24635119.762      371117.444 2    289187.718 2
        15.100          13.900
  23200887.524    23200885.573    23200883.832    -9643442.459 4  -7514369.076 4
        28.800          29.700
  20264736.316    20264735.748    20264732.599   -25674446.529 7 -20006051.750 8
        44.100          51.300
 09  1  3  1 54 30.0000000  0  9G 9G21G11G 6G14G18G 3G19G22
  21434419.188    21434418.636    21434417.995   -18024726.869 5 -14045233.792 5
        35.600          35.200
  24179684.841    24179683.495    24179682.647    -7281026.319 2  -5673522.618 1
        17.000           9.000
  24698499.775    24698498.690    24698493.420     -677481.338     -527907.460 1
         3.000           9.000
  24711387.107    24711386.544    24711387.348      289657.089 1    225711.178 3
        11.000          18.600
  21525993.450    21525992.722    21525991.857   -19633250.437 6 -15298631.806 6
        37.400          37.700
  21462356.476    21462355.653    21462353.918   -20194564.474 6 -15736013.994 6
        38.000          37.000
  24653010.463    24653009.361    24653008.280      465126.766 2    362441.707 2
        12.600          13.900
  23208841.361    23208839.564    23208837.788    -9601645.090 4  -7481799.699 4
        28.800          29.700
  20265711.638    20265711.078    20265707.938   -25669321.113 7 -20002057.916 8
        44.100          51.300
 09  1  3  1 55  0.0000000  0  9G 9G21G11G 6G14G18G 3G19G22
  21436918.547    21436917.785    21436916.757   -18011595.402 6 -14035001.483 5
        36.100          35.200
  24201782.223    24201781.437    24201780.601    -7164902.798 2  -5583036.801 1
        17.800           9.000
  24680270.590    24680269.687    24680265.912     -773271.530     -602549.116 1
         3.000           9.000
  24729054.663    24729053.690    24729054.766      382495.863 1    298053.046 3
         6.500          18.600
  21512334.746    21512334.088    21512333.182   -19705027.022 6 -15354561.597 6
        37.600          37.700
  21474343.405    21474342.575    21474340.940   -20131572.445 6 -15686929.296 6
        37.900          36.900
  24670927.849    24670927.021    24670926.494      559283.954 2    435810.939 2
        12.600          15.100
  23216891.902    23216890.265    23216888.207    -9559337.481 4  -7448832.732 4
        28.800          29.500
  20266764.007    20266763.508    20266760.293   -25663790.546 7 -19997748.385 8
        44.100          51.200
 09  1  3  1 55 30.0000000  0  9G 9G21G11G 6G14G18G 3G19G22
  21439556.539    21439555.887    21439555.171   -17997730.876 5 -14024197.963 5
        35.800          35.100
  24223902.944    24223902.325    24223901.722    -7048657.914 2  -5492456.397 1
        17.800           6.500
  24662089.188    24662089.963    24662087.363     -868802.677     -676988.907 1
         3.000           9.000
  24746741.015    24746741.553    24746741.491      475446.052      370481.761 2
                        16.100
  21498749.146    21498748.424    21498747.454   -19776419.913 6 -15410192.400 6
        37.600          37.800
  21486391.769    21486390.982    21486389.324   -20068257.223 6 -15637592.757 6
        37.700          36.700
  24688873.308    24688872.656    24688873.728      653592.980 2    509298.492 3
        12.600          18.600
  23225041.279    23225039.356    23225037.597    -9516514.488 4  -7415464.172 4
        28.800          29.900
  20267894.908    20267894.373    20267891.242   -25657847.782 7 -19993117.657 8
        44.000          51.200
 09  1  3  1 56  0.0000000  0  9G 9G21G11G 6G14G18G 3G19G22
  21442335.194    21442334.545    21442333.749   -17983129.099 5 -14012819.964 5
        35.800          35.100
  24246047.926    24246046.967    24246046.473    -6932289.467 2  -5401779.715 1
        17.800           6.500
  24643962.892    24643962.690    24643960.185     -964067.770 1   -751221.379 2
         9.000          13.900
  24764449.825    24764451.172    24764453.643      568509.437      442998.624 1
                        11.000
  21485237.709    21485236.968    21485236.028   -19847423.353 6 -15465519.741 6
        37.700          38.000
  21498502.722    21498501.874    21498500.027   -20004615.001 6 -15588001.419 6
        37.600          36.500
  24706849.440    24706849.442    24706849.686      748055.847 2    582905.928 3
        12.600          19.300
  23233288.829    23233286.881    23233284.971    -9473173.350 4  -7381691.866 4
        28.600          29.500
  20269105.132    20269104.624    20269101.458   -25651488.155 7 -19988162.101 8
        44.000          51.200
 09  1  3  1 56 30.0000000  0  9G 9G21G11G 6G14G18G 3G19G22
  21445252.248    21445251.484    21445250.815   -17967799.546 5 -14000874.860 5
        35.600          34.900
  24268213.001    24268211.739    24268211.442    -6815808.293 2  -5311015.197 1
        16.100          11.000
  24625885.456    24625884.959    24625882.222    -1059072.683 2   -825251.139 2
        13.900          12.600
  24782183.450    24782182.801    24782178.370      661674.449      515594.625 2
                        12.600
  21471798.793    21471798.042    21471797.109   -19918044.661 6 -15520549.315 6
        37.600          38.100
  21510673.874    21510673.013    21510670.987   -19940655.320 6 -15538162.706 6
        37.500          36.100
  24724853.064    24724851.970    24724851.183      842660.634 2    656623.937 2
        15.100          17.000
  23241632.393    23241630.836    23241629.238    -9429324.798 4  -7347524.158 4
        28.400          29.000
  20270392.971    20270392.454    20270389.292   -25644720.362 7 -19982888.497 8
        44.000          51.200
 09  1  3  1 57  0.0000000  0  8G 9G14G21G11G18G 3G19G22
  21448307.815    21448307.204    21448306.441   -17951742.801 5 -13988363.121 5
        35.800          34.900
  21458432.966    21458432.289    21458431.141   -19988282.658 6 -15575280.209 6
        37.700          38.000
  24290399.039    24290398.421    24290397.951    -6699216.959 2  -5220164.897 2
        17.800          13.900
  24607856.850    24607856.218    24607853.220    -1153815.021 2   -899076.280 2
        15.100          12.600
  21522905.344    21522904.479    21522902.414   -19876379.013 6 -15488077.271 6
        37.700          36.000
  24742880.971    24742880.677    24742880.362      937404.604 2    730450.360 2
        12.600          16.100
  23250073.270    23250071.721    23250069.345    -9384970.711 4  -7312962.537 4
        28.800          29.200
  20271758.559    20271758.067    20271754.885   -25637544.130 7 -19977296.626 8
        44.000          51.100
 09  1  3  1 57 30.0000000  0  8G 9G14G21G11G18G 3G19G22
  21451501.661    21451501.083    21451500.482   -17934958.304 5 -13975284.288 5
        35.700          34.900
  21445140.430    21445139.667    21445138.552   -20058135.678 6 -15629711.115 6
        37.700          38.200
  24312606.385    24312606.009    24312605.102    -6582516.667 3  -5129229.662 2
        19.300          15.100
  24589878.029    24589877.157    24589874.324    -1248291.520 2   -972694.267 2
        13.900          12.600
  21535196.874    21535196.049    21535194.197   -19811785.983 6 -15437745.037 6
        37.600          36.200
  24760936.140    24760935.625    24760936.062     1032285.339 2    804383.394 2
        12.600          17.800
  23258609.433    23258607.657    23258605.633    -9340112.325 4  -7278007.951 4
        28.800          29.500
  20273202.136    20273201.585    20273198.299   -25629958.455 7 -19971385.705 8
        44.000          51.100
 09  1  3  1 58  0.0000000  0  9G 9G14G21G11G 6G18G 3G19G22
  21454836.201    21454835.557    21454834.932   -17917435.746 5 -13961630.352 5
        35.700          35.100
  21431923.403    21431922.659    21431921.576   -20127591.294 6 -15683832.357 6
        37.800          38.400
  24334836.686    24334835.280    24334835.194    -6465698.543 2  -5038202.616 2
        17.800          16.100
  24571953.237    24571952.154    24571948.944    -1342488.800 1  -1046094.692 1
        11.000          11.000
  24835481.702    24835480.913    24835478.785           -.4981          -.42512
         3.000          12.600
  21547550.740    21547549.899    21547548.083   -19746865.665 6 -15387157.782 6
        37.500          36.100
  24779018.491    24779017.676    24779018.707     1127310.467 1    878428.930 2
         9.000          17.000
  23267243.495    23267241.802    23267239.567    -9294740.278 4  -7242653.113 4
        28.600          29.200
  20274725.651    20274725.108    20274721.938   -25621952.078 7 -19965146.969 8
        44.000          51.100
 09  1  3  1 58 30.0000000  0  9G 9G14G18G21G11G 6G 3G19G22
  21458308.592    21458307.919    21458307.233   -17899188.545 5 -13947411.756 5
        35.600          34.800
  21418779.970    21418779.188    21418777.964   -20196661.283 6 -15737653.115 6
        38.000          38.400
  21559964.270    21559963.453    21559961.487   -19681632.037 6 -15336326.382 5
        37.400          35.600
  24357086.147    24357084.621    24357084.284    -6348777.734 2  -4947095.552 2
        15.100          16.100
  24554078.886    24554078.092    24554075.995    -1436417.090 1  -1119285.537 1
         9.000           9.000
  24853281.418    24853278.222    24853281.953       93554.557       72899.634 1
                        11.000
  24797127.586    24797126.925    24797125.980     1222464.665 1    952575.021 2
         9.000          17.000
  23275972.069    23275970.404    23275968.659    -9248869.221 4  -7206909.431 4
        28.100          29.500
  20276326.852    20276326.328    20276323.169   -25613537.591 7 -19958590.226 8
        43.900          51.100
 09  1  3  1 59  0.0000000  0  9G 9G14G18G21G11G 6G 3G19G22
  21461918.103    21461917.493    21461916.710   -17880219.063 5 -13932630.347 5
        35.500          34.500
  21405709.620    21405708.933    21405707.758   -20265345.507 6 -15791173.270 6
        37.900          38.500
  21572436.917    21572436.163    21572434.476   -19616087.003 6 -15285252.331 5
        37.300          35.700
  24379353.700    24379352.295    24379352.518    -6231757.834 1  -4855911.276 2
        11.000          15.100
  24536254.576    24536254.632    24536252.530    -1530074.701 1  -1192265.462 1
         6.500           6.500
  24871100.711    24871100.438    24871100.300      187195.044      145866.263 1
         3.000          11.000
  24815257.471    24815257.009    24815257.216     1317743.898 1   1026818.567 2
         9.000          17.800
  23284795.735    23284794.001    23284792.196    -9202502.161 4  -7170779.253 4
        28.600          29.900
  20278005.570    20278005.027    20278001.770   -25604716.181 7 -19951716.396 8
        43.900          51.000
 09  1  3  1 59 30.0000000  0  9G 9G14G18G21G11G 6G 3G19G22
  21465665.997    21465665.362    21465664.435   -17860525.175 5 -13917284.460 5
        35.800          34.500
  21392713.582    21392712.822    21392711.805   -20333640.472 6 -15844390.115 6
        38.100          38.700
  21584969.776    21584968.980    21584966.782   -19550228.580 6 -15233934.079 5
        37.600          35.400
  24401640.201    24401638.615    24401639.489    -6114638.442 1  -4764649.468 2
         6.500          12.600
  24518483.861    24518485.365    24518482.328    -1623456.812    -1265030.740 1
                         9.000
  24888939.255    24888937.661    24888937.614      280920.693 1    218899.244 1
        11.000          11.000
  24833412.622    24833411.384    24833411.419     1413147.935 1   1101159.310 2
         9.000          17.800
  23293713.284    23293711.684    23293709.759    -9155638.807 4  -7134262.356 4
        27.600          29.500
  20279762.051    20279761.524    20279758.448   -25595485.322 7 -19944523.520 8
        43.800          51.000
                            4 15
RINEX FILE SPLICE                                           COMMENT
teqc  2008Oct2      WCDA Operator       20090103 03:18:23UTCCOMMENT
STATION INFORMATION EFFECTIVE FROM: 2001/01/13 18:20:00     COMMENT
                                TO: CURRENT DATE (above)    COMMENT
BIT 2 OF LLI FLAGS (+4) DATA COLLECTED UNDER 'AS' CONDITION COMMENT
L1 PHASE CENTRE 0.110m ABOVE ARP                            COMMENT
L2 PHASE CENTRE 0.128m ABOVE ARP                            COMMENT
where ARP is the Antenna Reference Point for HI measurement COMMENT
CONTACT gps@pgc.nrcan.gc.ca FOR ADDITIONAL INFORMATION      COMMENT
    P1 =    P1  TurboRogue; =    Y1  Benchmark              COMMENT
    L1 = L1(CA)                                             COMMENT
    P2 =    P2  TurboRogue; =    Y2  Benchmark              COMMENT
    L2 = L2(P2) TurboRogue; = L2(Y2) Benchmark              COMMENT
 SNR is mapped to RINEX snr flag value [0-9]                COMMENT
  L1 & L2: min(max(int(snr_dBHz/6), 0), 9)                  COMMENT
 09  1  3  2  0  0.0000000  0  9G 9G14G18G21G11G 6G 3G19G22
  21469551.846    21469551.215    21469550.384   -17840105.337 5 -13901372.902 5
        35.900          34.700
  21379792.104    21379791.419    21379790.390   -20401542.652 6 -15897300.892 6
        38.000          38.900
  21597562.060    21597561.132    21597559.041   -19484055.306 6 -15182370.486 5
        37.200          35.300
  24423945.907    24423945.163    24423945.314    -5997419.703    -4673310.238 2
         3.000          12.600
  24500768.228    24500766.443    24500765.613    -1716559.008    -1337577.884 1
                         9.000
  24906787.988    24906787.376    24906788.058      374730.976 2    291998.152 1
        13.900           9.000
  24851591.912    24851590.537    24851590.592     1508675.967 1   1175596.721 2
        11.000          16.100
  23302725.903    23302723.826    23302722.310    -9108278.484 4  -7097358.213 4
        27.400          29.900
  20281597.042    20281596.507    20281593.394   -25585842.427 7 -19937009.575 8
        43.800          51.000
 09  1  3  2  0 30.0000000  0  9G 9G14G18G21G11G 6G 3G19G22
  21473576.069    21473575.445    21473574.782   -17818957.237 5 -13884893.877 5
        35.600          34.600
  21366946.175    21366945.531    21366944.539   -20469047.801 6 -15949902.294 6
        38.100          38.900
  21610214.847    21610214.026    21610211.875   -19417564.575 6 -15130559.527 5
        37.200          35.300
  24446273.364    24446272.249    24446270.772    -5880100.539    -4581892.760 2
         3.000          12.600
  24483105.352    24483105.736    24483104.193    -1809375.255    -1409902.247 1
                         9.000
  24924655.950    24924655.490    24924654.696      468626.463 2    365163.481
        13.900           3.000
  24869793.562    24869792.441    24869793.242     1604328.143 1   1250130.863 2
        11.000          15.100
  23311832.668    23311831.001    23311829.802    -9060420.081 4  -7060065.957 5
        27.400          30.400
  20283511.064    20283510.544    20283507.411   -25575784.062 7 -19929171.886 8
        43.700          50.900
 09  1  3  2  1  0.0000000  0  9G 9G14G18G21G11G 6G 3G19G22
  21477737.971    21477737.343    21477736.433   -17797086.514 5 -13867851.748 5
        35.400          34.600
  21354175.273    21354174.579    21354173.635   -20536159.435 6 -16002197.060 6
        38.100          39.100
  21622927.005    21622926.072    21622924.217   -19350761.906 6 -15078505.501 5
        37.100          35.500
  24468616.868    24468615.660    24468613.581    -5762688.015    -4490402.566 2
         3.000          13.900
  24465498.282    24465497.208    24465496.717    -1901907.654    -1482005.399 1
                        11.000
  24942537.668    24942537.607    24942537.411      562599.507 2    438389.242
        16.100           3.000
  24888017.384    24888016.158    24888016.546     1700097.149 1   1324756.037 2
        11.000          12.600
  23321033.718    23321031.740    23321029.912    -9012070.465 4  -7022390.931 4
        27.900          29.700
  20285503.361    20285502.869    20285499.642   -25565314.741 7 -19921013.971 8
        43.700          50.900
 09  1  3  2  1 30.0000000  0  9G 9G14G18G21G11G 6G 3G19G22
  21482037.058    21482036.395    21482035.890   -17774494.027 5 -13850247.225 5
        35.100          34.800
  21341479.545    21341478.824    21341477.813   -20602876.213 6 -16054184.147 6
        38.100          39.200
  21635698.258    21635697.410    21635695.544   -19283648.175 6 -15026209.087 5
        37.100          35.400
  24490975.746    24490974.287    24490974.587    -5645184.087 1  -4398841.157 2
         6.500          13.900
  24447943.900    24447941.778    24447940.823    -1994153.459    -1553885.240 1
                         9.000
  24960436.028    24960435.023    24960435.909      656647.621 2    511673.537 1
        15.100           6.500
  24906261.644    24906262.414    24906262.551     1795979.642 1   1399469.660 2
        11.000          12.600
  23330327.203    23330325.820    23330323.887    -8963231.486 4  -6984334.594 4
        27.900          29.900
  20287573.820    20287573.271    20287570.080   -25554434.486 7 -19912535.851 8
        43.700          50.800
 09  1  3  2  2  0.0000000  0  9G 9G14G18G21G11G 6G 3G19G22
  21486474.212    21486473.554    21486472.962   -17751177.024 5 -13832078.132 5
        35.100          34.800
  21328859.703    21328859.007    21328857.966   -20669194.097 6 -16105860.407 6
        38.200          39.300
  21648529.227    21648528.313    21648526.285   -19216221.056 6 -14973668.473 5
        36.900          34.900
  24513354.869    24513352.919    24513351.877    -5527587.586 1  -4307207.618 1
         6.500          11.000
  24430447.154    24430447.113    24430443.364    -2086107.166    -1625537.519 1
                        11.000
  24978347.175    24978346.487    24978347.417      750771.123 2    585016.512 1
        13.900           6.500
  24924528.921    24924529.077    24924530.280     1891976.043 1   1474272.089 1
         9.000          11.000
  23339714.009    23339712.461    23339711.132    -8913901.709 4  -6945895.815 4
        26.800          29.500
  20289722.932    20289722.469    20289719.406   -25543140.027 7 -19903734.973 8
        43.600          50.800
 09  1  3  2  2 30.0000000  0  9G 9G14G18G21G11G 6G 3G19G22
  21491048.054    21491047.362    21491046.604   -17727141.625 5 -13813349.261 5
        35.200          34.600
  21316315.156    21316314.371    21316313.251   -20735116.741 6 -16157228.689 6
        38.200          39.400
  21661418.714    21661417.835    21661416.093   -19148485.933 6 -14920887.856 5
        36.700          34.800
  24535747.753    24535747.032    24535746.803    -5409905.954    -4215507.701 1
         3.000           9.000
  24413006.627    24413004.833    24412999.579    -2177771.226    -1696964.035 1
                        11.000
  24996270.730    24996270.736    24996270.191      844962.189 2    658412.131 1
        12.600           6.500
  24942818.245    24942817.177    24942817.099     1988078.545 1   1549157.148 1
        11.000          11.000
  23349193.472    23349191.879    23349190.020    -8864088.358 4  -6907080.214 4
        26.800          28.800
  20291950.319    20291949.718    20291946.493   -25531436.219 7 -19894615.121 8
        43.600          50.700
 09  1  3  2  3  0.0000000  0  9G 9G14G18G21G11G 6G 3G19G22
  21495757.682    21495757.072    21495756.319   -17702392.443 5 -13794064.187 5
        35.300          34.700
  21303845.135    21303844.408    21303843.356   -20800646.638 6 -16208290.936 6
        38.200          39.500
  21674365.983    21674365.151    21674363.387   -19080447.321 6 -14867870.753 5
        36.700          34.900
  24558156.912    24558156.307    24558156.525    -5292145.108 1  -4123746.080 1
         9.000           6.500
  24395615.684    24395612.731    24395609.598    -2269146.771    -1768165.705 1
                         6.500
  25014205.023    25014204.458    25014205.028      939214.611 1    731855.567 1
         6.500           6.500
  24961127.573    24961126.288    24961125.315     2084280.775 2   1624119.909 2
        13.900          12.600
  23358763.796    23358762.134    23358760.125    -8813797.134 4  -6867892.251 4
        27.600          28.600
  20294254.749    20294254.214    20294250.970   -25519326.085 7 -19885178.651 8
        43.600          50.700
 09  1  3  2  3 30.0000000  0  9G 9G14G18G21G11G 6G 3G19G22
  21500604.910    21500604.279    21500603.429   -17676920.143 5 -13774215.641 5
        35.300          34.500
  21291452.159    21291451.325    21291450.204   -20865772.788 6 -16259038.574 6
        38.300          39.700
  21687372.744    21687371.900    21687370.138   -19012095.912 6 -14814609.916 5
        36.400          34.700
  24580584.554    24580583.280    24580583.761    -5174297.357 2  -4031916.688
        15.100           3.000
  24378283.041    24378283.944    24378280.073    -2360221.308    -1839132.790 1
                         6.500
  25032155.000    25032153.931    25032154.423     1033535.517      805352.296 1
         3.000           9.000
  24979450.937    24979450.766    24979451.943     2180589.884 2   1699165.928 2
        12.600          12.600
  23368425.982    23368424.449    23368422.816    -8763019.951 4  -6828325.606 4
        27.600          28.600
  20296638.251    20296637.780    20296634.620   -25506799.959 7 -19875418.031 8
        43.500          50.600
 09  1  3  2  4  0.0000000  0  9G 9G14G18G21G11G 6G 3G19G22
  21505589.148    21505588.483    21505587.686   -17650727.570 5 -13753805.855 5
        35.100          34.400
  21279135.402    21279134.692    21279133.791   -20930496.106 6 -16309472.317 6
        38.300          39.700
  21700438.691    21700437.918    21700435.982   -18943434.449 6 -14761107.473 5
        36.500          34.600
  24603025.990    24603025.056    24603025.221    -5056366.754 3  -3940022.658
        19.300
  24361011.097    24361010.129    24361006.252    -2450994.011    -1909864.736 1
         3.000           9.000
  25050116.322    25050115.580    25050114.753     1127920.347      878898.885 1
                        11.000
  24997796.443    24997796.337    24997796.785     2277001.042 1   1774291.495 1
         6.500          11.000
  23378180.292    23378178.956    23378177.008    -8711760.726 4  -6788383.370 4
        27.900          28.600
  20299100.736    20299100.219    20299097.047   -25493859.747 7 -19865334.747 8
        43.500          50.500
 09  1  3  2  4 30.0000000  0  8G 9G14G18G11G 6G 3G19G22
  21510708.237    21510707.612    21510707.087   -17623825.506 5 -13732843.210 5
        34.800          34.500
  21266894.043    21266893.391    21266892.369   -20994824.925 6 -16359598.661 6
        38.400          39.800
  21713561.777    21713560.866    21713558.999   -18874473.252 6 -14707371.475 5
        36.500          34.900
  24343793.372    24343793.158    24343790.856    -2541471.900 1  -1980366.995 1
         6.500           9.000
  25068087.518    25068084.963    25068086.462     1222356.771      952485.759 1
                        11.000
  25016160.240    25016160.253    25016161.212     2373501.804 1   1849486.888 2
         9.000          12.600
  23388024.543    23388022.998    23388020.895    -8660031.082 4  -6748074.569 4
        27.600          28.400
  20301640.288    20301639.752    20301636.559   -25480514.566 7 -19854935.904 8
        43.500          50.500
