     2.11           OBSERVATION DATA    G (GPS)             RINEX VERSION / TYPE
teqc  2008Oct2      WCDA Operator       20090119 20:58:14UTCPGM / RUN BY / DATE
Solaris x86 5.10|AMD64|cc SC5.8 -xarch=amd64|=+|=+          COMMENT
teqc  2008Oct2      WCDA Operator       20090119 20:58:14UTCCOMMENT
teqc  2008Oct2      WCDA Operator       20090118 01:18:22UTCCOMMENT
flin  WCDA-ACP   965000   CFS Flin Flon SASK Canada         MARKER NAME
40135M001                                                   MARKER NUMBER
PGC-WCDA            GEOL. SURV. CANADA                      OBSERVER / AGENCY
1115                AOA BENCHMARK ACT   3.3.32.4            REC # / TYPE / VERS
231                 AOAD/M_T        SCIS                    ANT # / TYPE
  -766174.4630 -3611375.3160  5184056.2210                  APPROX POSITION XYZ
        0.1500        0.0000        0.0000                  ANTENNA: DELTA H/E/N
     1     1                                                WAVELENGTH FACT L1/2
     7    C1    P1    P2    L1    L2    S1    S2            # / TYPES OF OBSERV
STATION INFORMATION EFFECTIVE FROM: 2001/01/13 18:20:00     COMMENT
                                TO: CURRENT DATE (above)    COMMENT
BIT 2 OF LLI FLAGS (+4) DATA COLLECTED UNDER 'AS' CONDITION COMMENT
L1 PHASE CENTRE 0.110m ABOVE ARP                            COMMENT
L2 PHASE CENTRE 0.128m ABOVE ARP                            COMMENT
where ARP is the Antenna Reference Point for HI measurement COMMENT
CONTACT gps@pgc.nrcan.gc.ca FOR ADDITIONAL INFORMATION      COMMENT
    P1 =    P1  TurboRogue; =    Y1  Benchmark              COMMENT
    L1 = L1(CA)                                             COMMENT
    P2 =    P2  TurboRogue; =    Y2  Benchmark              COMMENT
    L2 = L2(P2) TurboRogue; = L2(Y2) Benchmark              COMMENT
 SNR is mapped to RINEX snr flag value [0-9]                COMMENT
  L1 & L2: min(max(int(snr_dBHz/6), 0), 9)                  COMMENT
  2009     1    18     0     0    0.0000000     GPS         TIME OF FIRST OBS
                                                            END OF HEADER
 09  1 18  0  0  0.0000000  0 10G21G28G 9G15G 6G19G22G 3G18G14
  22066104.569    22066103.978    22066102.057   -16548932.428 6 -12895265.432 5
        36.300          30.600
  25532885.112    25532886.213    25532883.991     -296058.673 1   -230695.282 1
         6.500           9.000
  21945792.533    21945792.118    21945792.037   -11348271.006 6  -8842805.150 5
        36.000          34.500
  23682880.328    23682880.161    23682878.818    -6235279.116 4  -4858648.525 4
        28.800          29.500
  23067819.138    23067818.927    23067819.567    -7800727.200 4  -6078484.907 4
        29.700          29.700
  22983002.585    22983000.962    22982999.398    -9380820.148 5  -7309726.811 5
        33.100          31.300
  20585304.487    20585304.015    20585300.902   -22626299.825 7 -17630874.171 7
        44.600          47.200
  23022988.918    23022988.543    23022988.471    -5443340.347 4  -4241561.033 4
        29.700          29.000
  20548921.982    20548921.283    20548919.707   -24409094.584 7 -19020065.323 7
        42.100          47.900
  23275149.388    23275148.492    23275148.351   -10465575.195 4  -8154990.090 4
        27.100          25.900
 09  1 18  0  0 30.0000000  0 10G21G28G 9G15G 6G19G22G 3G18G14
  22083410.299    22083409.732    22083407.885   -16457989.577 5 -12824400.879 5
        35.600          30.600
  25528796.724    25528796.441    25528795.916     -317541.738 1   -247435.267 1
         6.500          11.000
  21934218.813    21934218.240    21934217.992   -11409092.193 5  -8890198.259 5
        35.900          34.800
  23701871.166    23701871.316    23701870.539    -6135479.339 4  -4780882.445 4
        28.600          29.700
  23080143.114    23080142.429    23080142.505    -7735967.973 4  -6028023.176 4
        29.900          29.200
  22979250.399    22979249.007    22979247.888    -9400535.169 5  -7325089.164 5
        32.300          32.300
  20578426.950    20578426.531    20578423.602   -22662440.095 7 -17659035.413 7
        44.500          47.300
  23034565.014    23034564.671    23034565.386    -5382504.601 5  -4194156.567 4
        30.400          29.000
  20553521.871    20553521.275    20553519.732   -24384921.022 7 -19001228.773 7
        42.100          47.800
  23255425.779    23255424.895    23255424.110   -10569224.960 4  -8235756.127 4
        27.600          25.900
 09  1 18  0  1  0.0000000  0 10G21G28G 9G15G 6G19G22G 3G18G14
  22100781.978    22100781.162    22100779.808   -16366699.730 5 -12753265.936 5
        35.500          30.800
  25524806.257    25524804.905    25524801.563     -338530.337 2   -263789.981 2
        12.600          12.600
  21922760.690    21922760.180    21922759.583   -11469305.120 6  -8937117.397 5
        36.300          34.700
  23720899.410    23720899.178    23720898.673    -6035486.676 4  -4702966.087 5
        27.400          30.200
  23092543.040    23092542.757    23092542.864    -7670804.050 5  -5977246.117 4
        30.100          29.000
  22975610.999    22975609.409    22975607.845    -9419663.968 5  -7339994.709 5
        33.400          32.800
  20571619.413    20571619.079    20571616.209   -22698213.531 7 -17686910.803 7
        44.700          47.500
  23046230.187    23046229.584    23046229.550    -5321209.124 5  -4146393.861 4
        31.600          28.800
  20558194.953    20558194.190    20558192.703   -24360364.716 7 -18982093.986 7
        42.300          47.900
  23235743.799    23235743.326    23235742.590   -10672651.557 4  -8316348.264 4
        27.900          25.900
 09  1 18  0  1 30.0000000  0 10G21G28G 9G15G 6G19G22G 3G18G14
  22118220.522    22118219.770    22118218.695   -16275059.050 5 -12681857.622 5
        35.600          30.600
  25520906.895    25520906.602    25520902.650     -359018.018 2   -279754.424 2
        16.100          13.900
  21911420.298    21911419.594    21911418.603   -11528902.081 6  -8983556.572 5
        37.000          34.800
  23739964.790    23739964.392    23739963.783    -5935298.202 4  -4624897.149 4
        25.900          29.200
  23105021.289    23105020.761    23105020.850    -7605232.272 4  -5926151.228 4
        29.200          29.000
  22972084.232    22972082.358    22972080.636    -9438200.620 5  -7354438.845 5
        35.100          33.000
  20564883.115    20564882.723    20564879.558   -22733614.253 7 -17714495.780 7
        44.900          47.400
  23057982.173    23057981.607    23057981.654    -5259450.790 5  -4098270.481 4
        30.800          29.000
  20562941.534    20562940.974    20562939.456   -24335420.735 7 -18962657.111 7
        42.600          47.800
  23216106.339    23216105.785    23216105.248   -10775847.838 4  -8396760.936 4
        27.900          26.500
 09  1 18  0  2  0.0000000  0 10G21G28G 9G15G 6G19G22G 3G18G14
  22135723.748    22135723.240    22135722.288   -16183077.419 5 -12610183.621 5
        35.500          30.200
  25517100.662    25517100.880    25517098.633     -379012.014 2   -295334.134 2
        15.100          15.100
  21900195.064    21900194.659    21900194.048   -11587888.153 6  -9029519.716 5
        36.900          35.400
  23759065.281    23759065.042    23759064.135    -5834923.928 4  -4546683.441 4
        25.600          28.400
  23117574.150    23117573.596    23117574.081    -7539262.887 4  -5874746.514 4
        28.400          28.600
  22968668.010    22968666.318    22968664.177    -9456152.388 5  -7368427.236 5
        35.800          32.300
  20558216.132    20558215.747    20558212.645   -22768649.276 7 -17741795.788 7
        44.800          47.500
  23069821.148    23069820.252    23069820.035    -5197240.129 5  -4049794.645 4
        30.200          29.000
  20567760.879    20567760.107    20567758.219   -24310096.978 7 -18942924.310 7
        42.600          47.600
  23196511.669    23196510.902    23196510.258   -10878819.947 4  -8476998.924 4
        28.100          26.800
 09  1 18  0  2 30.0000000  0 10G21G28G 9G15G 6G19G22G 3G18G14
  22153292.435    22153291.773    22153290.613   -16090755.333 5 -12538244.336 5
        35.700          30.200
  25513389.271    25513389.126    25513389.051     -398510.158 2   -310527.442 2
        12.600          16.100
  21889087.074    21889086.741    21889086.061   -11646259.458 6  -9075003.823 5
        36.700          34.800
  23778200.878    23778201.303    23778199.411    -5734364.811 4  -4468325.689 4
        26.200          27.900
  23130203.730    23130203.206    23130202.969    -7472897.184 4  -5823032.993 4
        28.600          28.100
  22965363.457    22965361.849    22965359.156    -9473517.720 6  -7381958.652 5
        36.100          31.500
  20551618.763    20551618.474    20551615.626   -22803317.119 7 -17768809.685 7
        44.700          47.700
  23081744.498    23081744.035    23081744.262    -5134578.303 5  -4000967.243 4
        30.100          29.000
  20572651.966    20572651.297    20572649.553   -24284393.059 7 -18922895.276 7
        42.700          47.600
  23176959.550    23176959.013    23176958.573   -10981564.826 4  -8557059.848 4
        28.400          27.100
 09  1 18  0  3  0.0000000  0 10G21G28G 9G15G 6G19G22G 3G18G14
  22170925.262    22170924.535    22170922.966   -15998096.157 5 -12466042.381 5
        35.800          30.200
  25509774.628    25509774.268    25509772.470     -417513.214 2   -325334.943 2
        12.600          12.600
  21878096.977    21878096.497    21878095.363   -11704014.613 6  -9120007.820 5
        37.100          34.500
  23797371.080    23797371.413    23797369.610    -5633624.314 4  -4389826.583 4
        27.100          27.400
  23142907.692    23142907.054    23142907.138    -7406139.045 4  -5771013.675 4
        28.600          28.600
  22962169.742    22962168.540    22962166.990    -9490297.414 5  -7395033.731 5
        35.400          32.600
  20545091.666    20545091.310    20545088.155   -22837618.285 7 -17795537.856 7
        44.700          47.500
  23093753.446    23093753.072    23093752.956    -5071469.728 4  -3951791.733 4
        29.700          28.400
  20577615.314    20577614.615    20577613.131   -24258310.199 7 -18902570.966 7
        42.500          47.700
  23157451.079    23157450.149    23157449.908   -11084082.312 4  -8636943.569 4
        28.100          26.800
 09  1 18  0  3 30.0000000  0 10G21G28G 9G15G 6G19G22G 3G18G14
  22188622.036    22188621.432    22188619.817   -15905097.978 5 -12393576.267 4
        35.400          29.900
  25506253.103    25506251.485    25506252.417     -436016.420 1   -339753.005 1
         6.500          11.000
  21867225.001    21867224.565    21867223.777   -11761147.038 6  -9164526.591 5
        37.100          35.100
  23816576.327    23816576.426    23816574.902    -5532700.885 4  -4311184.942 4
        28.100          27.900
  23155686.044    23155685.282    23155685.720    -7338986.887 4  -5718687.326 4
        27.900          28.400
  22959088.496    22959087.438    22959085.516    -9506487.185 5  -7407649.137 5
        34.700          32.300
  20538634.956    20538634.556    20538631.472   -22871548.133 7 -17821976.692 7
        44.700          47.600
  23105848.582    23105848.104    23105847.338    -5007912.303 5  -3902266.464 4
        30.100          27.900
  20582651.394    20582650.727    20582649.006   -24231845.088 7 -18881948.794 7
        42.600          47.400
  23137987.065    23137986.374    23137986.075   -11186365.984 4  -8716645.108 4
        28.600          26.800
 09  1 18  0  4  0.0000000  0 10G21G28G 9G15G 6G19G22G 3G18G14
  22206384.749    22206383.679    22206381.326   -15811757.898 5 -12320843.745 4
        34.700          29.000
  25502828.263    25502826.489    25502828.240     -454014.315     -353777.265 2
         3.000          12.600
  21856473.153    21856472.399    21856471.805   -11817649.743 6  -9208554.649 5
        36.400          35.500
  23835816.868    23835816.746    23835815.056    -5431591.992 4  -4232398.776 4
        28.100          27.900
  23168538.763    23168538.870    23168539.106    -7271438.675 4  -5666052.363 4
        27.600          28.100
  22956121.639    22956120.243    22956118.158    -9522081.627 5  -7419800.649 5
        35.400          32.700
  20532250.067    20532249.620    20532246.729   -22905101.439 7 -17848122.115 7
        44.800          47.800
  23118027.849    23118027.698    23118028.247    -4943904.317 4  -3852390.110 4
        29.700          28.100
  20587761.177    20587760.501    20587758.744   -24204993.376 7 -18861025.379 7
        42.800          47.400
  23118568.516    23118567.900    23118567.551   -11288410.057 4  -8796159.940 4
        28.600          27.100
 09  1 18  0  4 30.0000000  0 10G21G28G 9G15G 6G19G22G 3G18G14
  22224208.740    22224208.363    22224206.100   -15718088.826 5 -12247854.855 4
        35.100          29.000
  25499498.828    25499498.208    25499496.495     -471517.086 1   -367415.731 1
         9.000           9.000
  21845839.090    21845838.387    21845837.738   -11873531.105 6  -9252098.546 5
        36.600          35.100
  23855090.314    23855089.877    23855088.265    -5330310.728 4  -4153478.302 4
        27.400          27.900
  23181465.620    23181465.770    23181466.235    -7203507.778 4  -5613119.210 4
        28.100          29.000
  22953265.336    22953264.209    22953262.072    -9537091.185 5  -7431496.389 5
        35.800          32.000
  20525934.862    20525934.460    20525931.434   -22938288.236 7 -17873981.951 7
        45.000          47.900
  23130292.294    23130291.528    23130292.025    -4879458.573 4  -3802172.655 4
        29.500          28.800
  20592942.515    20592941.710    20592940.110   -24177766.004 7 -18839809.242 7
        42.900          47.500
  23099194.145    23099193.598    23099193.234   -11390223.165 4  -8875494.791 4
        28.600          27.100
 09  1 18  0  5  0.0000000  0 10G21G28G 9G15G 6G19G22G 3G18G14
  22242096.680    22242096.302    22242094.494   -15624086.532 5 -12174606.300 4
        34.900          29.500
  25496262.300    25496260.611    25496260.047     -488517.754     -380662.962 1
         3.000           9.000
  21835324.269    21835324.009    21835323.519   -11928782.412 6  -9295151.495 5
        36.700          34.800
  23874397.060    23874396.345    23874395.020    -5228853.028 4  -4074420.359 4
        25.900          27.900
  23194467.062    23194466.805    23194466.691    -7135190.323 4  -5559884.842 4
        29.200          28.800
  22950521.640    22950520.496    22950518.120    -9551509.395 6  -7442731.375 5
        36.300          31.800
  20519690.589    20519690.192    20519687.234   -22971101.544 7 -17899550.760 8
        45.000          48.000
  23142639.376    23142638.760    23142639.311    -4814572.131 4  -3751611.787 4
        28.800          28.800
  20598195.823    20598195.174    20598193.869   -24150157.516 7 -18818296.132 7
        42.700          47.500
  23079865.539    23079864.697    23079864.125   -11491797.291 4  -8954643.420 4
        29.000          27.100
 09  1 18  0  5 30.0000000  0 10G21G28G 9G15G 6G19G22G 3G18G14
  22260047.947    22260047.057    22260045.166   -15529755.176 5 -12101101.356 4
        34.300          29.500
  25493120.583    25493122.374    25493119.470     -505018.069     -393520.264 1
                         6.500
  21824930.750    21824930.210    21824929.845   -11983403.542 6  -9337713.395 5
        37.000          35.400
  23893735.642    23893735.748    23893734.262    -5127223.484 4  -3995228.510 4
        25.900          27.100
  23207540.232    23207539.859    23207539.783    -7066491.376 4  -5506353.211 4
        29.000          28.800
  22947890.092    22947888.507    22947886.880    -9565338.019 5  -7453506.914 5
        35.800          32.000
  20513517.319    20513516.848    20513513.749   -23003543.812 7 -17924830.440 8
        45.100          48.100
  23155070.217    23155069.550    23155069.845    -4749249.749 4  -3700711.230 4
        29.200          29.500
  20603521.776    20603521.076    20603519.369   -24122170.519 7 -18796488.077 7
        42.700          47.200
  23060581.242    23060580.802    23060580.398   -11593133.009 4  -9033606.285 4
        29.000          27.100
 09  1 18  0  6  0.0000000  0 10G21G28G 9G15G 6G19G22G 3G18G14
  22278059.836    22278058.947    22278056.749   -15435102.063 5 -12027345.696 4
        33.900          28.600
  25490077.426    25490076.180    25490072.590     -521022.465     -405991.298 1
         3.000           6.500
  21814656.394    21814655.798    21814655.383   -12037397.229 6  -9379786.379 5
        37.700          35.600
  23913105.716    23913106.940    23913105.049    -5025429.464 4  -3915908.476 4
        26.200          27.100
  23220684.906    23220684.278    23220683.966    -6997418.629 4  -5452530.293 4
        28.800          28.600
  22945369.672    22945368.234    22945366.636    -9578582.027 5  -7463826.916 5
        35.100          32.300
  20507413.178    20507412.872    20507409.752   -23035619.226 7 -17949824.264 8
        45.000          48.000
  23167582.443    23167581.775    23167581.461    -4683499.543 4  -3649477.296 4
        29.500          28.400
  20608918.514    20608917.847    20608916.097   -24093810.604 7 -18774389.439 7
        42.800          47.100
  23041341.499    23041342.093    23041341.059   -11694234.057 4  -9112386.301 4
        29.200          26.500
 09  1 18  0  6 30.0000000  0 10G21G28G 9G15G 6G19G22G 3G18G14
  22296132.648    22296132.163    22296129.950   -15340127.138 5 -11953339.257 4
        33.900          28.800
  25487127.823    25487126.903    25487122.213     -536528.362 1   -418073.770 1
         6.500           9.000
  21804501.797    21804501.266    21804500.414   -12090759.429 6  -9421367.293 5
        37.900          34.900
  23932508.439    23932509.023    23932507.157    -4923471.232 4  -3836460.485 4
        25.900          26.800
  23233898.849    23233898.558    23233899.269    -6927972.748 4  -5398416.626 4
        27.600          29.000
  22942961.495    22942959.848    22942957.750    -9591239.191 5  -7473689.642 5
        35.100          32.100
  20501379.732    20501379.444    20501376.289   -23067325.305 7 -17974530.291 8
        45.100          48.200
  23180174.652    23180174.177    23180174.171    -4617321.967 4  -3597910.352 4
        28.400          27.400
  20614386.293    20614385.617    20614384.210   -24065076.256 7 -18751999.032 7
        42.800          47.200
  23022149.045    23022148.681    23022147.546   -11795096.188 4  -9190980.145 4
        29.000          26.800
 09  1 18  0  7  0.0000000  0 10G21G28G 9G15G 6G19G22G 3G18G14
  22314270.386    22314269.431    22314267.379   -15244816.846 5 -11879071.503 4
        33.900          29.200
  25484274.202    25484272.634    25484271.991     -551519.809     -429755.400 1
         3.000           9.000
  21794470.937    21794470.232    21794469.717   -12143472.051 6  -9462442.052 5
        37.400          35.400
  23951945.128    23951944.553    23951942.987    -4821335.788 4  -3756874.418 4
        25.300          26.800
  23247188.346    23247187.771    23247187.864    -6858140.738 4  -5344002.097 4
        27.900          28.100
  22940666.904    22940665.690    22940663.917    -9603293.762 5  -7483082.805 5
        35.300          32.100
  20495419.706    20495419.292    20495416.236   -23098646.138 7 -17998936.129 8
        45.100          48.300
  23192851.454    23192851.046    23192851.498    -4550704.306 4  -3546000.511 4
        28.400          27.600
  20619928.460    20619927.810    20619926.193   -24035952.499 7 -18729305.196 7
        42.800          46.900
  23003004.205    23003003.775    23003003.269   -11895702.609 4  -9269374.717 4
        29.200          27.100
 09  1 18  0  7 30.0000000  0 10G21G28G 9G15G 6G19G22G 3G18G14
  22332469.053    22332468.118    22332466.520   -15149180.067 5 -11804549.352 4
        33.900          29.500
  25481518.059    25481516.778    25481517.814     -566003.255     -441041.193 1
         3.000          11.000
  21784562.393    21784561.995    21784561.532   -12195539.778 6  -9503014.275 5
        37.300          35.800
  23971413.413    23971412.538    23971410.425    -4719032.014 4  -3677157.186 4
        25.300          26.200
  23260548.398    23260547.848    23260547.910    -6787932.286 4  -5289294.213 4
        28.600          27.600
  22938487.319    22938485.773    22938483.555    -9614752.650 6  -7492011.804 5
        36.600          32.300
  20489532.075    20489531.521    20489528.218   -23129587.773 7 -18023046.489 8
        45.100          48.300
  23205610.910    23205610.115    23205610.444    -4483656.008 4  -3493755.092 4
        28.600          27.100
  20625543.664    20625542.989    20625540.927   -24006446.487 7 -18706313.493 7
        43.200          46.800
  22983907.291    22983906.879    22983906.613   -11996058.278 4  -9347573.908 4
        29.900          27.400
 09  1 18  0  8  0.0000000  0 10G21G28G 9G15G 6G19G22G 3G18G14
  22350727.250    22350726.792    22350725.443   -15053228.466 5 -11729781.875 4
        34.300          28.800
  25478856.714    25478855.816    25478856.415     -579987.200     -451937.820 1
         3.000           6.500
  21774776.009    21774775.402    21774774.597   -12246969.502 6  -9543089.368 5
        37.200          35.400
  23990910.651    23990910.313    23990907.915    -4616571.457 4  -3597317.782 4
        25.300          26.200
  23273977.295    23273977.147    23273977.619    -6717359.319 4  -5234302.301 4
        28.800          28.100
  22936417.923    22936416.732    22936414.506    -9625624.619 6  -7500483.457 5
        36.500          31.800
  20483714.107    20483713.690    20483710.721   -23160159.345 7 -18046868.486 8
        45.100          48.500
  23218448.869    23218448.188    23218448.953    -4416189.316 4  -3441183.638 4
        28.400          26.800
  20631229.171    20631228.417    20631226.602   -23976568.181 7 -18683031.695 7
        43.100          46.700
  22964856.801    22964856.281    22964855.508   -12096170.776 5  -9425583.618 4
        30.400          27.400
 09  1 18  0  8 30.0000000  0 10G21G28G 9G15G 6G19G22G 3G18G14
  22369046.900    22369046.308    22369044.574   -14956959.194 5 -11654766.859 4
        34.300          27.900
  25476292.554    25476291.095    25476288.733     -593466.569 1   -462441.314
         6.500           3.000
  21765111.962    21765111.251    21765110.704   -12297754.751 6  -9582662.273 5
        37.600          35.900
  24010438.448    24010438.041    24010435.909    -4513951.870 4  -3517354.463 4
        25.300          27.100
  23287476.294    23287476.441    23287477.275    -6646419.763 4  -5179024.739 4
        28.600          28.400
  22934461.853    22934460.558    22934458.214    -9635904.915 5  -7508494.078 5
        35.500          31.800
  20477967.655    20477967.357    20477964.403   -23190355.908 7 -18070398.270 8
        45.100          48.600
  23231367.146    23231366.961    23231367.358    -4348302.264 4  -3388284.656 4
        28.400          26.800
  20636986.295    20636985.645    20636983.825   -23946313.172 7 -18659456.358 7
        43.100          46.700
  22945853.408    22945853.070    22945852.074   -12196033.918 5  -9503399.032 4
        31.000          27.600
 09  1 18  0  9  0.0000000  0 10G21G28G 9G15G 6G19G22G 3G18G14
  22387427.834    22387427.134    22387425.609   -14860366.880 5 -11579500.119 4
        33.800          27.600
  25473823.864    25473822.340    25473820.990     -606433.058 1   -472545.028 1
         9.000           6.500
  21755572.217    21755571.734    21755571.122   -12347885.316 6  -9621725.038 5
        38.100          35.900
  24029996.756    24029996.794    24029994.996    -4411167.195 4  -3437262.514 4
        24.600          26.800
  23301047.133    23301046.828    23301047.448    -6575108.493 4  -5123457.527 4
        28.400          27.900
  22932619.912    22932618.223    22932616.302    -9645585.444 5  -7516037.331 5
        34.600          31.800
  20472294.567    20472294.275    20472291.209   -23220168.349 7 -18093628.740 8
        45.100          48.500
  23244367.688    23244366.856    23244366.529    -4279989.646 4  -3335054.046 4
        28.800          27.100
  20642816.874    20642816.118    20642814.517   -23915674.084 7 -18635581.738 7
        43.200          46.800
  22926899.483    22926898.792    22926897.655   -12295638.317 5  -9581012.820 4
        30.600          27.600
 09  1 18  0  9 30.0000000  0 10G21G28G 9G15G 6G19G22G 3G18G14
  22405868.343    22405867.255    22405865.889   -14763462.710 5 -11503990.376 4
        33.000          27.600
  25471453.432    25471452.433    25471451.634     -618895.854 1   -482256.380 1
         9.000           9.000
  21746156.063    21746155.482    21746154.728   -12397367.894 6  -9660282.889 5
        37.800          35.500
  24049585.106    24049585.039    24049583.300    -4308229.501 4  -3357051.330 4
        24.600          26.500
  23314686.062    23314685.245    23314685.506    -6503437.613 4  -5067610.098 4
        27.900          27.400
  22930889.926    22930888.168    22930886.975    -9654675.605 5  -7523120.571 5
        34.600          32.000
  20466692.886    20466692.522    20466689.543   -23249606.046 7 -18116567.200 8
        45.300          48.800
  23257445.929    23257445.223    23257444.899    -4211263.859 4  -3281501.474 4
        29.900          27.100
  20648718.599    20648717.880    20648716.141   -23884661.004 7 -18611415.698 7
        43.400          46.800
  22907992.398    22907992.289    22907990.949   -12394991.585 5  -9658430.916 4
        30.200          27.400
 09  1 18  0 10  0.0000000  0 10G 9G21G28G15G 6G19G22G 3G18G14
  21736863.392    21736862.817    21736862.463   -12446200.150 6  -9698333.983 5
        37.500          35.800
  22424367.195    22424366.373    22424365.528   -14666248.232 5 -11428238.847 4
        32.800          27.600
  25469176.411    25469175.855    25469175.950     -630853.801 1   -491574.389 1
        11.000          11.000
  24069202.370    24069202.467    24069200.676    -4205140.380 4  -3276722.130 4
        24.900          26.800
  23328392.103    23328391.858    23328392.028    -6431409.260 4  -5011484.129 4
        27.900          27.400
  22929271.720    22929270.086    22929269.387    -9663174.824 5  -7529743.337 5
        34.000          32.300
  20461162.749    20461162.326    20461159.256   -23278668.170 7 -18139213.004 8
        45.500          48.900
  23270601.970    23270601.543    23270601.322    -4142127.022 4  -3227628.622 4
        29.200          27.100
  20654691.134    20654690.520    20654688.933   -23853273.645 7 -18586958.014 7
        43.400          46.600
  22889134.326    22889134.041    22889132.960   -12494091.238 5  -9735651.399 4
        30.200          27.100
 09  1 18  0 10 30.0000000  0 10G 9G21G28G15G 6G19G22G 3G18G14
  21727695.447    21727694.805    21727693.954   -12494379.715 6  -9735876.486 5
        38.000          35.600
  22442925.877    22442924.999    22442923.444   -14568725.283 5 -11352246.947 4
        33.400          27.900
  25466999.075    25466996.919    25466996.551     -642305.752 1   -500497.861 1
         9.000           9.000
  24088848.320    24088848.258    24088846.512    -4101901.608 4  -3196276.327 4
        24.200          26.800
  23342166.472    23342165.967    23342166.177    -6359025.838 4  -4955081.477 4
        27.900          27.400
  22927766.968    22927765.849    22927764.664    -9671082.676 5  -7535905.298 5
        34.600          32.700
  20455704.022    20455703.650    20455700.450   -23307353.702 7 -18161565.358 8
        45.500          48.800
  23283835.347    23283834.767    23283835.296    -4072581.699 4  -3173437.471 4
        27.600          26.800
  20660735.148    20660734.431    20660732.852   -23821512.273 7 -18562208.883 7
        43.300          46.400
  22870325.105    22870324.657    22870323.822   -12592935.191 5  -9812672.628 4
        30.600          27.100
 09  1 18  0 11  0.0000000  0 10G 9G21G28G15G 6G19G22G 3G18G14
  21718653.196    21718652.591    21718652.074   -12541896.643 6  -9772902.657 5
        38.100          35.600
  22461543.220    22461542.662    22461541.141   -14470888.068 5 -11276010.153 4
        33.200          28.100
  25464914.607    25464915.623    25464912.522     -653243.853 1   -509021.126
         6.500           3.000
  24108523.176    24108523.735    24108521.962    -3998507.544 4  -3115709.520 4
        24.200          26.500
  23356008.030    23356008.007    23356009.147    -6286282.094 4  -4898398.053 4
        28.100          27.900
  22926376.753    22926375.293    22926373.737    -9678391.200 5  -7541600.237 5
        34.700          32.700
  20450318.337    20450318.065    20450315.033   -23335653.940 7 -18183617.491 8
        45.500          48.900
  23297148.409    23297147.699    23297148.290    -4002622.897 4  -3118924.130 4
        26.800          26.200
  20666851.665    20666850.951    20666849.240   -23789369.728 7 -18537162.737 7
        43.200          46.200
  22851565.933    22851565.855    22851564.953   -12691513.960 5  -9889487.236 4
        30.800          27.900
 09  1 18  0 11 30.0000000  0 10G 9G21G28G15G 6G19G22G 3G18G14
  21709737.164    21709736.620    21709735.825   -12588751.064 6  -9809412.589 5
        38.500          35.800
  22480220.632    22480219.520    22480217.937   -14372741.086 5 -11199532.000 4
        33.000          28.100
  25462932.487    25462931.150    25462929.884     -663670.086 1   -517145.560 1
         9.000           9.000
  24128227.166    24128227.546    24128225.893    -3894962.790 3  -3035025.288 4
        22.600          26.200
  23369918.572    23369918.992    23369919.335    -6213183.066 4  -4841437.792 4
        28.800          27.900
  22925099.851    22925097.796    22925096.356    -9685102.545 5  -7546829.870 5
        34.000          32.300
  20445006.229    20445005.840    20445002.734   -23363570.945 7 -18205370.994 8
        45.600          49.100
  23310539.160    23310538.516    23310538.992    -3932255.764 4  -3064092.589 4
        27.400          26.800
  20673040.129    20673039.500    20673037.893   -23756848.688 7 -18511821.668 7
        43.200          46.300
  22832858.007    22832857.354    22832856.577   -12789828.486 5  -9966095.928 4
        31.300          28.400
 09  1 18  0 12  0.0000000  0 10G 9G21G28G15G 6G19G22G 3G18G14
  21700945.941    21700945.472    21700945.058   -12634948.113 6  -9845410.269 6
        38.400          36.400
  22498954.517    22498953.644    22498951.816   -14274293.409 5 -11122819.544 4
        33.500          28.100
  25461042.009    25461042.674    25461043.766     -673591.553 1   -524876.586 1
        11.000          11.000
  24147958.873    24147958.305    24147956.501    -3791276.506 3  -2954230.785 4
        22.100          26.200
  23383894.743    23383894.920    23383895.598    -6139738.549 4  -4784208.317 4
        27.600          28.400
  22923935.327    22923933.552    22923931.255    -9691223.848 5  -7551599.716 5
        34.100          32.100
  20439765.454    20439765.063    20439761.887   -23391111.599 7 -18226831.237 8
        45.700          49.200
  23324005.870    23324004.840    23324005.313    -3861489.833 4  -3008950.310 4
        27.600          26.800
  20679299.190    20679298.535    20679296.965   -23723956.692 7 -18486191.533 7
        43.400          46.200
  22814198.622    22814198.079    22814197.301   -12887884.201 5 -10042502.953 4
        31.500          29.000
 09  1 18  0 12 30.0000000  0 10G 9G21G28G15G 6G19G22G 3G18G14
  21692280.427    21692280.054    21692279.669   -12680485.043 6  -9880893.577 6
        38.400          36.400
  22517745.503    22517744.626    22517742.481   -14175546.377 5 -11045873.812 4
        33.600          27.400
  25459252.789    25459251.896    25459248.950     -683006.055 1   -532212.512 1
         9.000          11.000
  24167716.161    24167715.816    24167713.602    -3687450.370 3  -2873327.309 4
        23.000          26.200
  23397936.031    23397935.888    23397937.229    -6065950.420 4  -4726711.100 4
        26.500          28.100
  22922882.582    22922881.032    22922878.959    -9696754.587 5  -7555909.370 5
        34.500          31.600
  20434596.565    20434596.198    20434592.985   -23418274.246 7 -18247996.926 8
        45.800          49.200
  23337546.942    23337546.470    23337547.018    -3790327.165 4  -2953498.881 4
        27.600          27.100
  20685629.316    20685628.572    20685626.768   -23690693.668 7 -18460272.285 7
        43.500          46.100
  22795588.896    22795588.148    22795587.487   -12985678.284 5 -10118706.108 4
        31.600          29.000
 09  1 18  0 13  0.0000000  0 10G 9G21G28G15G 6G19G22G 3G18G14
  21683741.901    21683741.325    21683740.567   -12725357.835 6  -9915859.385 6
        38.800          36.400
  22536593.069    22536592.386    22536590.408   -14076500.134 5 -10968694.921 4
        33.400          26.800
  25457558.143    25457557.096    25457555.244     -691911.945 1   -539152.102 2
         6.500          12.600
  24187500.291    24187500.006    24187497.453    -3583484.132 3  -2792314.652 4
        23.800          25.900
  23412044.083    23412042.983    23412043.120    -5991819.591 4  -4668946.850 4
        26.500          27.100
  22921943.232    22921941.547    22921939.032    -9701692.868 5  -7559757.395 5
        34.600          31.600
  20429499.866    20429499.515    20429496.379   -23445056.616 7 -18268866.300 8
        45.700          49.200
  23351163.633    23351163.289    23351164.078    -3718768.793 4  -2897739.133 4
        26.500          27.400
  20692029.904    20692029.201    20692027.290   -23657057.825 7 -18434062.533 7
        43.500          45.800
  22777029.519    22777029.088    22777028.145   -13083207.346 5 -10194702.758 4
        32.000          29.000
 09  1 18  0 13 30.0000000  0 10G 9G21G28G15G 6G19G22G 3G18G14
  21675330.363    21675329.897    21675329.394   -12769557.643 6  -9950300.775 6
        38.300          36.000
  22555498.084    22555497.690    22555496.103   -13977150.269 5 -10891279.443 4
        32.000          26.800
  25455960.305    25455959.796    25455959.250     -700302.625 1   -545690.249 2
         9.000          13.900
  24207312.405    24207311.949    24207308.522    -3479373.829 3  -2711189.744 4
        23.400          24.900
  23426216.085    23426215.682    23426215.293    -5917342.237 4  -4610912.548 4
        26.800          25.900
  22921116.974    22921115.457    22921113.548    -9706031.921 5  -7563138.465 5
        34.900          32.400
  20424477.294    20424476.883    20424473.622   -23471451.843 7 -18289433.999 8
        45.900          49.300
  23364856.145    23364856.076    23364856.683    -3646811.053 4  -2841668.178 4
        26.200          26.200
  20698502.497    20698501.896    20698500.046   -23623043.346 7 -18407557.737 7
        43.600          45.700
  22758521.925    22758521.651    22758521.122   -13180463.062 5 -10270486.413 4
        32.100          29.700
 09  1 18  0 14  0.0000000  0 10G 9G21G28G15G 6G19G22G 3G18G14
  21667046.618    21667045.938    21667045.718   -12813091.118 6  -9984222.960 6
        38.300          36.500
  22574460.286    22574459.434    22574457.373   -13877507.404 5 -10813635.664 4
        32.000          26.200
  25454461.211    25454461.343    25454457.279     -708185.909 1   -551833.098 1
        11.000          11.000
  24227149.583    24227149.315    24227145.246    -3375129.569 3  -2629960.449 4
        23.800          24.200
  23440452.763    23440451.960    23440452.178    -5842529.454 4  -4552616.872 4
        27.100          26.200
  22920403.722    22920402.535    22920400.475    -9709780.306 5  -7566059.284 5
        35.600          32.300
  20419526.463    20419526.034    20419522.881   -23497467.721 7 -18309706.106 8
        45.700          49.400
  23378623.749    23378623.739    23378623.913    -3574465.228 4  -2785294.814 4
        27.600          26.200
  20705045.610    20705044.915    20705043.271   -23588659.052 7 -18380764.777 7
        43.400          45.700
  22740066.285    22740065.629    22740064.942   -13277452.148 5 -10346062.293 4
        32.600          29.900
 09  1 18  0 14 30.0000000  0 10G 9G21G28G15G 6G19G22G 3G18G14
  21658889.611    21658889.050    21658888.340   -12855957.304 6 -10017625.174 6
        38.600          36.500
  22593477.373    22593476.136    22593473.725   -13777574.748 5 -10735766.058 4
        32.300          26.200
  25453057.149    25453056.186    25453054.711     -715562.100 2   -557580.731 2
        12.600          13.900
  24247010.470    24247011.040    24247007.222    -3270754.529 4  -2548629.249 3
        24.200          23.000
  23454751.722    23454751.224    23454752.185    -5767384.811 4  -4494062.613 4
        26.200          26.200
  22919802.532    22919800.861    22919799.287    -9712939.112 5  -7568520.690 5
        34.600          31.800
  20414647.951    20414647.570    20414644.310   -23523104.717 7 -18329682.978 8
        45.800          49.400
  23392464.407    23392463.915    23392464.196    -3501734.771 4  -2728621.735 4
        27.400          26.800
  20711658.888    20711658.255    20711656.636   -23553906.081 7 -18353684.538 7
        43.500          45.800
  22721660.623    22721660.323    22721659.350   -13374173.962 5 -10421429.922 5
        32.800          30.100
 09  1 18  0 15  0.0000000  0 10G 9G21G28G15G 6G19G22G 3G18G14
  21650859.219    21650858.749    21650858.632   -12898153.444 6 -10050505.278 6
        37.800          37.100
  22612548.537    22612547.747    22612545.309   -13677353.019 5 -10657671.208 4
        32.600          25.900
  25451749.479    25451749.916    25451748.406     -722430.234 2   -562932.509 2
        12.600          16.100
  24266896.491    24266897.138    24266894.142    -3166250.331 3  -2467197.398 3
        23.000          22.100
  23469113.203    23469113.371    23469114.445    -5691910.385 4  -4435251.383 4
        26.200          25.300
  22919313.923    22919312.195    22919310.255    -9715507.563 5  -7570522.073 5
        34.600          31.500
  20409841.508    20409841.159    20409838.007   -23548361.565 7 -18349363.633 8
        45.800          49.400
  23406378.345    23406377.208    23406376.928    -3428621.904 4  -2671650.691 4
        27.600          25.900
  20718342.363    20718341.683    20718339.966   -23518784.442 7 -18326317.023 7
        43.600          45.600
  22703306.530    22703306.102    22703304.905   -13470626.278 5 -10496587.551 4
        33.000          29.900
 09  1 18  0 15 30.0000000  0 10G 9G21G28G15G 6G19G22G 3G18G14
  21642958.348    21642957.874    21642957.933   -12939674.103 6 -10082859.021 6
        38.400          37.600
  22631674.806    22631674.235    22631672.245   -13576841.231 5 -10579350.337 4
        32.300          25.900
  25450539.570    25450538.643    25450540.454     -728787.127 2   -567885.916 2
        13.900          17.800
  24286808.067    24286807.900    24286805.750    -3061615.255 3  -2385663.577 3
        22.600          21.100
  23483539.470    23483538.916    23483539.046    -5616105.345 4  -4376182.525 4
        26.200          24.200
  22918938.346    22918936.537    22918934.575    -9717482.176 5  -7572060.727 5
        34.400          31.800
  20405108.550    20405108.142    20405105.078   -23573234.117 7 -18368744.838 8
        45.800          49.600
  23420363.274    23420362.348    23420362.703    -3355126.436 4  -2614381.498 4
        26.500          26.200
  20725096.601    20725095.896    20725093.937   -23483291.079 7 -18298659.854 7
        43.500          45.300
  22685004.399    22685004.017    22685002.886   -13566803.790 5 -10571531.051 4
        33.100          29.900
 09  1 18  0 16  0.0000000  0 10G 9G21G28G15G 6G19G22G 3G18G14
  21635187.344    21635186.924    21635186.267   -12980511.360 6 -10114680.253 6
        38.900          36.700
  22650856.999    22650856.632    22650855.088   -13476035.750 5 -10500800.611 4
        31.600          25.900
  25449428.612    25449428.334    25449428.844     -734626.195 1   -572435.789 2
        11.000          17.000
  24306744.430    24306744.520    24306743.183    -2956845.517 3  -2304024.819 3
        22.600          21.600
  23498028.359    23498028.006    23498027.738    -5539966.341 4  -4316853.447 4
        25.900          24.600
  22918676.436    22918674.694    22918672.892    -9718857.260 5  -7573132.221 5
        34.300          31.800
  20400449.815    20400449.406    20400446.433   -23597715.881 7 -18387821.526 8
        45.900          49.800
  23434422.409    23434421.673    23434421.764    -3281244.302 4  -2556811.003 4
        25.300          26.200
  20731922.495    20731921.757    20731919.906   -23447420.653 7 -18270708.867 7
        43.500          45.200
  22666756.535    22666755.881    22666754.668   -13662698.619 5 -10646254.271 4
        33.100          29.900
 09  1 18  0 16 30.0000000  0 10G 9G21G28G15G 6G19G22G 3G18G14
  21627546.564    21627545.979    21627545.368   -13020665.056 6 -10145968.833 6
        38.700          36.500
  22670094.546    22670094.432    22670093.231   -13374940.212 5 -10422024.873 4
        31.000          26.200
  25448415.790    25448414.643    25448413.355     -739949.523 1   -576583.879 2
         9.000          12.600
  24326706.444    24326706.501    24326705.535    -2851945.100 3  -2222284.226 3
        23.400          21.600
  23512579.710    23512579.123    23512578.848    -5463498.134 4  -4257267.838 4
        26.200          24.200
  22918528.603    22918527.146    22918525.117    -9719634.693 5  -7573738.026 5
        34.800          31.800
  20395865.152    20395864.752    20395861.803   -23621808.173 7 -18406594.737 8
        45.900          49.900
  23448552.758    23448553.005    23448553.965    -3206980.597 4  -2498943.196 4
        25.300          26.500
  20738819.500    20738818.910    20738817.056   -23411175.268 7 -18242465.702 7
        43.500          45.100
  22648561.943    22648561.493    22648560.194   -13758310.899 5 -10720757.327 4
        33.400          29.900
 09  1 18  0 17  0.0000000  0 10G 9G21G28G15G 6G19G22G 3G18G14
  21620033.031    21620032.422    21620031.960   -13060148.108 6 -10176734.830 6
        38.600          36.700
  22689384.922    22689384.316    22689383.069   -13273571.452 5 -10343036.246 4
        30.800          26.200
  25447499.956    25447499.056    25447495.395     -744770.791 1   -580340.743 1
        11.000           9.000
  24346690.804    24346690.568    24346689.382    -2746930.650 4  -2140454.785 3
        24.600          21.600
  23527190.067    23527189.891    23527189.836    -5386718.015 4  -4197439.185 4
        26.200          24.600
  22918492.116    22918490.593    22918487.948    -9719829.419 5  -7573889.763 5
        35.500          32.300
  20391352.002    20391351.566    20391348.560   -23645525.564 7 -18425075.816 8
        45.900          49.900
  23462755.067    23462754.853    23462755.163    -3132353.526 4  -2440792.229 4
        26.500          26.200
  20745785.452    20745784.731    20745782.938   -23374570.129 7 -18213942.214 7
        43.500          45.100
  22630418.887    22630418.203    22630417.101   -13853653.624 5 -10795050.336 4
        33.400          29.900
 09  1 18  0 17 30.0000000  0 10G 9G21G28G15G 6G19G22G 3G18G14
  21612651.944    21612651.128    21612650.873   -13098937.342 6 -10206960.197 6
        38.600          37.100
  22708730.893    22708729.948    22708728.437   -13171909.927 5 -10263819.470 4
        30.600          26.200
  25446676.836    25446679.894    25446677.569     -749068.408     -583689.514 1
         3.000           9.000
  24366700.032    24366699.673    24366697.981    -2641782.767 4  -2058521.366 3
        24.200          21.100
  23541863.839    23541863.737    23541864.251    -5309607.174 4  -4137352.831 4
        26.200          25.900
  22918569.706    22918567.839    22918566.348    -9719420.174 5  -7573570.880 5
        34.800          33.100
  20386914.239    20386913.907    20386910.842   -23668845.687 7 -18443247.333 8
        46.100          50.000
  23477029.595    23477028.921    23477028.678    -3057343.602 4  -2382342.945 4
        26.500          25.300
  20752823.491    20752822.841    20752821.182   -23337584.100 7 -18185121.928 7
        43.400          45.100
  22612330.742    22612330.584    22612329.519   -13948703.737 5 -10869115.341 4
        33.500          29.900
 09  1 18  0 18  0.0000000  0 10G 9G21G28G15G 6G19G22G 3G18G14
  21605399.020    21605398.648    21605398.416   -13137046.506 6 -10236655.633 6
        37.700          36.400
  22728128.811    22728127.910    22728126.388   -13069973.531 5 -10184388.524 4
        30.400          26.500
  25445962.302    25445961.120    25445957.598     -752858.072 1   -586642.555 1
         6.500          11.000
  24386731.062    24386730.849    24386728.909    -2536518.973 3  -1976497.639 3
        23.400          21.100
  23556597.207    23556597.037    23556597.956    -5232183.992 4  -4077023.099 4
        25.300          27.100
  22918759.154    22918757.503    22918755.945    -9718422.941 5  -7572793.807 5
        34.700          32.800
  20382549.371    20382549.018    20382545.845   -23691783.443 7 -18461120.899 8
        46.100          50.000
  23491372.715    23491371.660    23491371.978    -2981969.750 4  -2323610.077 4
        25.300          24.900
  20759930.879    20759930.367    20759928.544   -23300233.389 7 -18156017.478 7
        43.500          44.800
  22594296.611    22594296.185    22594295.087   -14043475.159 5 -10942963.188 4
        33.500          29.900
 09  1 18  0 18 30.0000000  0 10G 9G21G28G15G 6G19G22G 3G18G14
  21598277.402    21598277.108    21598276.741   -13174471.815 6 -10265818.198 6
        38.400          36.600
  22747578.322    22747577.880    22747576.383   -12967762.344 5 -10104743.452 4
        30.400          26.500
  25445337.960    25445337.795    25445332.642     -756137.247 1   -589197.803 1
        11.000           9.000
  24406783.890    24406783.856    24406781.929    -2431139.229 3  -1894383.550 3
        23.800          21.600
  23571389.684    23571389.415    23571390.190    -5154449.136 4  -4016450.511 4
        24.600          26.800
  22919060.870    22919059.573    22919057.517    -9716835.450 5  -7571556.813 5
        35.200          31.800
  20378257.906    20378257.481    20378254.362   -23714336.387 7 -18478694.617 8
        46.200          50.200
  23505785.390    23505784.335    23505784.560    -2906232.269 4  -2264593.841 4
        25.300          24.600
  20767108.518    20767107.766    20767105.784   -23262516.439 7 -18126627.641 7
        43.600          44.700
  22576316.219    22576315.449    22576314.414   -14137964.251 5 -11016591.020 5
        33.500          30.200
 09  1 18  0 19  0.0000000  0 10G 9G21G28G15G 6G19G22G 3G18G14
  21591286.682    21591286.168    21591285.477   -13211211.475 6 -10294446.497 6
        39.000          36.900
  22767080.863    22767080.106    22767078.512   -12865278.243 5 -10024885.707 4
        30.400          26.500
  25444810.043    25444809.094    25444806.865     -758906.100 1   -591355.418 2
        11.000          12.600
  24426858.407    24426858.681    24426856.783    -2325645.651 3  -1812180.774 3
        23.400          21.600
  23586241.083    23586240.702    23586240.927    -5076405.291 4  -3955637.155 4
        24.600          26.200
  22919474.507    22919473.522    22919471.954    -9714658.149 5  -7569860.221 5
        34.600          31.800
  20374039.328    20374038.972    20374035.885   -23736504.389 7 -18495968.376 8
        46.100          50.200
  23520265.117    23520264.769    23520265.666    -2830134.340 4  -2205296.756 4
        24.900          24.200
  20774355.463    20774354.814    20774352.917   -23224433.802 7 -18096952.857 7
        43.800          44.800
  22558389.461    22558388.870    22558387.722   -14232169.121 5 -11089997.380 5
        33.500          30.200
 09  1 18  0 19 30.0000000  0 10G 9G21G28G15G 6G19G22G 3G18G14
  21584427.490    21584426.930    21584426.386   -13247256.585 6 -10322533.582 6
        38.600          37.000
  22786635.998    22786635.175    22786633.339   -12762516.062 4  -9944811.301 4
        29.900          26.200
  25444379.589    25444379.991    25444377.225     -761156.816 1   -593109.163 2
        11.000          12.600
  24446956.232    24446956.022    24446954.159    -2220033.062 3  -1729885.250 3
        23.800          21.600
  23601152.105    23601152.012    23601151.713    -4998047.868 4  -3894579.439 4
        25.300          25.900
  22920003.020    22920001.701    22919999.856    -9711883.656 5  -7567698.283 5
        34.700          32.300
  20369895.613    20369895.256    20369892.123   -23758279.230 7 -18512935.780 8
        46.100          50.200
  23534814.381    23534814.788    23534815.578    -2753671.240 4  -2145715.124 3
        24.900          23.800
  20781673.337    20781672.586    20781670.908   -23185978.370 7 -18066987.583 7
        43.800          44.800
  22540518.536    22540517.910    22540516.663   -14326080.793 5 -11163175.279 5
        33.600          30.100
 09  1 18  0 20  0.0000000  0 10G 9G21G28G15G 6G19G22G 3G18G14
  21577700.795    21577700.155    21577699.392   -13282606.068 6 -10350078.618 6
        38.900          37.000
  22806243.405    22806242.673    22806240.748   -12659479.259 4  -9864522.908 4
        29.900          25.600
  25444050.558    25444050.235    25444047.951     -762890.441 2   -594459.996 1
        12.600          11.000
  24467076.174    24467075.969    24467074.006    -2114304.155 3  -1647499.095 3
        23.400          22.600
  23616123.027    23616122.133    23616121.627    -4919380.643 4  -3833280.301 4
        24.200          25.900
  22920645.011    22920643.226    22920641.029    -9708513.650 5  -7565072.301 5
        34.700          32.700
  20365826.472    20365826.150    20365823.298   -23779661.627 7 -18529597.381 8
        46.000          50.300
  23549434.723    23549434.357    23549435.103    -2676846.720 4  -2085851.870 3
        24.900          23.400
  20789061.685    20789061.054    20789059.388   -23147151.694 7 -18036733.027 7
        43.800          44.600
  22522703.453    22522703.102    22522701.552   -14419698.589 5 -11236124.191 4
        33.800          29.500
 09  1 18  0 20 30.0000000  0 10G 9G21G28G15G 6G19G22G 3G18G14
  21571105.163    21571104.666    21571104.435   -13317265.804 6 -10377086.197 6
        39.100          37.700
  22825901.020    22825900.437    22825898.112   -12556176.813 5  -9784027.504 4
        30.200          24.900
  25443820.149    25443818.778    25443815.809     -764114.400 2   -595413.663 1
        12.600          11.000
  24487214.927    24487215.333    24487213.941    -2008468.142 3  -1565029.481 3
        22.600          23.400
  23631148.672    23631148.721    23631148.859    -4840413.460 4  -3771747.448 4
        24.200          24.600
  22921397.916    22921396.250    22921394.624    -9704555.487 5  -7561988.009 5
        34.600          33.200
  20361831.206    20361830.765    20361827.537   -23800658.127 7 -18545958.282 8
        46.000          50.200
  23564120.853    23564120.536    23564120.836    -2599671.197 4  -2025715.097 3
        25.600          23.400
  20796519.312    20796518.603    20796516.917   -23107961.544 7 -18006195.243 7
        43.600          44.600
  22504943.824    22504943.240    22504941.605   -14513027.904 5 -11308848.315 4
        34.100          29.900
 09  1 18  0 21  0.0000000  0 10G 9G21G28G15G 6G19G22G 3G18G14
  21564640.640    21564640.314    21564639.730   -13351235.352 6 -10403555.956 6
        38.900          37.200
  22845608.886    22845607.985    22845605.668   -12452612.328 4  -9703327.903 4
        29.900          24.600
  25443682.624    25443682.641    25443681.421     -764829.409 2   -595970.892 1
        13.900          11.000
  24507374.577    24507375.094    24507373.850    -1902528.375 3  -1482479.012 3
        21.600          23.800
  23646231.959    23646231.701    23646232.562    -4761150.510 4  -3709984.108 3
        24.200          23.400
  22922262.580    22922261.576    22922259.292    -9700010.943 5  -7558446.810 5
        35.300          33.000
  20357909.154    20357908.760    20357905.363   -23821269.593 7 -18562019.161 8
        46.100          50.300
  23578874.249    23578873.185    23578872.832    -2522148.867 4  -1965308.080 3
        26.200          23.800
  20804045.706    20804044.973    20804043.385   -23068409.580 7 -17975375.528 7
        43.500          44.400
  22487238.631    22487238.185    22487236.960   -14606068.749 5 -11381347.649 5
        34.300          30.600
 09  1 18  0 21 30.0000000  0 10G 9G21G28G15G 6G19G22G 3G18G14
  21558308.453    21558307.851    21558307.116   -13384513.161 6 -10429486.712 6
        39.300          37.100
  22865365.977    22865364.947    22865362.759   -12348788.257 4  -9622426.057 4
        28.800          24.900
  25443642.842    25443641.849    25443641.468     -765035.841 1   -596131.687 1
         6.500           9.000
  24527555.081    24527554.266    24527552.696    -1796487.319 3  -1399849.625 4
        21.600          24.200
  23661371.330    23661370.510    23661371.312    -4681595.189 3  -3647992.945 3
        23.800          22.600
  22923239.242    22923237.904    22923235.627    -9694880.671 5  -7554449.199 5
        34.800          32.400
  20354059.923    20354059.512    20354056.434   -23841495.914 7 -18577779.921 8
        46.000          50.300
  23593691.707    23593690.427    23593690.639    -2444283.271 4  -1904633.604 4
        25.600          24.600
  20811640.963    20811640.276    20811638.298   -23028496.950 7 -17944274.778 7
        43.700          44.100
  22469589.227    22469588.406    22469587.150   -14698819.792 5 -11453621.173 5
        34.500          30.600
 09  1 18  0 22  0.0000000  0 10G 9G21G28G15G 6G19G22G 3G18G14
  21552110.449    21552109.839    21552109.284   -13417084.465 6 -10454866.942 6
        39.400          37.600
  22885174.043    22885173.355    22885171.183   -12244693.506 4  -9541313.279 4
        28.600          24.900
  25443702.998    25443701.145    25443699.936     -764720.970     -595886.377 1
         3.000           9.000
  24547755.944    24547754.613    24547753.211    -1690333.442 3  -1317132.324 4
        21.100          24.600
  23676567.827    23676567.011    23676567.187    -4601736.716 4  -3585765.576 3
        24.200          22.100
  22924328.749    22924327.438    22924325.759    -9689152.183 5  -7549985.448 5
        33.600          32.400
  20350286.821    20350286.387    20350283.232   -23861323.568 7 -18593230.037 8
        45.800          50.200
  23608574.655    23608574.135    23608574.702    -2366063.568 4  -1843683.192 4
        24.900          24.200
  20819306.881    20819306.277    20819304.584   -22988210.952 7 -17912883.090 7
        43.600          44.000
  22451996.641    22451996.098    22451995.475   -14791266.042 5 -11525657.191 5
        34.400          31.000
 09  1 18  0 22 30.0000000  0 10G 9G21G28G15G 6G19G22G 3G18G14
  21546045.728    21546044.959    21546044.546   -13448954.236 6 -10479700.518 6
        38.800          37.600
  22905032.182    22905031.636    22905029.610   -12140336.309 4  -9459996.007 4
        27.900          24.600
  25443860.935    25443859.940    25443857.703     -763889.882 1   -595238.662 1
         9.000           9.000
  24567975.033    24567974.487    24567973.435    -1584075.203 3  -1234333.707 4
        20.500          24.600
  23691821.008    23691820.483    23691819.679    -4521583.884 4  -3523308.865 3
        25.600          23.000
  22925531.668    22925530.265    22925528.678    -9682831.625 5  -7545060.339 5
        34.400          32.100
  20346588.539    20346588.198    20346585.273   -23880757.836 7 -18608373.617 8
        45.900          50.500
  23623524.297    23623524.343    23623525.148    -2287498.787 4  -1782463.865 3
        24.900          23.400
  20827042.987    20827042.377    20827040.590   -22947558.041 7 -17881205.492 7
        43.700          44.000
  22434461.421    22434461.093    22434460.662   -14883412.052 5 -11597459.258 5
        34.300          31.500
 09  1 18  0 23  0.0000000  0 10G 9G21G28G15G 6G19G22G 3G18G14
  21540113.460    21540112.964    21540112.478   -13480126.411 6 -10503990.513 6
        38.600          37.000
  22924939.223    22924938.615    22924936.875   -12035724.236 4  -9378480.113 4
        28.100          24.200
  25444117.879    25444117.670    25444113.586     -762548.997 1   -594193.738 1
         9.000          11.000
  24588212.446    24588213.122    24588212.337    -1477719.920 3  -1151459.478 4
        21.100          25.300
  23707128.008    23707127.180    23707126.556    -4441145.120 4  -3460629.319 3
        25.900          23.000
  22926845.941    22926844.604    22926842.918    -9675924.829 5  -7539678.434 5
        34.600          31.600
  20342964.171    20342963.854    20342961.017   -23899803.828 7 -18623214.635 8
        46.000          50.600
  23638540.001    23638539.533    23638540.371    -2208597.713 4  -1720982.523 3
        25.600          23.800
  20834847.808    20834847.087    20834845.372   -22906543.960 7 -17849246.464 7
        43.700          44.100
  22416983.697    22416982.994    22416981.995   -14975261.696 5 -11669030.383 5
        34.700          31.300
 09  1 18  0 23 30.0000000  0 10G 9G21G28G15G 6G19G22G 3G18G14
  21534316.756    21534316.020    21534315.023   -13510590.713 6 -10527728.921 6
        38.800          36.500
  22944896.216    22944895.408    22944893.649   -11930850.792 4  -9296760.572 4
        27.900          24.200
  25444470.574    25444469.653    25444467.056     -760689.514 1   -592744.817 1
         6.500          11.000
  24608471.236    24608471.780    24608470.713    -1371260.636 3  -1068504.194 4
        21.600          25.600
  23722490.287    23722489.325    23722489.175    -4360414.385 4  -3397722.255 3
        25.300          23.400
  22928273.727    22928272.203    22928270.145    -9668423.483 5  -7533833.231 5
        34.500          31.500
  20339415.893    20339415.325    20339412.266   -23918452.368 7 -18637745.963 8
        46.000          50.600
  23653620.618    23653619.303    23653619.568    -2129354.110 4  -1659234.295 3
        25.600          23.800
  20842722.548    20842721.968    20842720.168   -22865160.802 7 -17816999.838 7
        43.600          43.800
  22399563.886    22399563.187    22399561.861   -15066804.522 5 -11740362.455 5
        34.700          31.300
 09  1 18  0 24  0.0000000  0 10G 9G21G28G15G 6G19G22G 3G18G14
  21528653.982    21528653.489    21528653.123   -13540346.171 6 -10550914.979 6
        38.600          37.100
  22964901.996    22964901.271    22964899.518   -11825718.870 4  -9214839.600 3
        28.100          23.400
  25444922.989    25444922.056    25444922.014     -758312.019 1   -590892.233 2
        11.000          13.900
  24628749.106    24628749.555    24628748.549    -1264700.056 3   -985469.963 4
        22.100          26.200
  23737908.823    23737907.814    23737907.097    -4279395.162 4  -3334590.418 4
        25.300          24.600
  22929814.241    22929812.539    22929810.617    -9660329.061 5  -7527525.888 5
        34.800          31.800
  20335942.441    20335942.072    20335938.960   -23936703.805 7 -18651967.857 8
        46.000          50.500
  23668763.948    23668763.617    23668763.713    -2049771.609 4  -1597221.966 4
        25.600          24.600
  20850667.482    20850666.793    20850665.196   -22823409.775 7 -17784466.568 7
        43.500          43.700
  22382202.066    22382201.462    22382200.587   -15158039.390 5 -11811454.538 5
        34.700          31.800
 09  1 18  0 24 30.0000000  0 10G 9G21G28G15G 6G19G22G 3G18G14
  21523125.219    21523124.787    21523123.813   -13569401.511 6 -10573555.494 6
        39.300          36.900
  22984954.919    22984954.289    22984952.473   -11720340.632 4  -9132726.685 3
        28.100          23.400
  25445471.500    25445470.276    25445471.421     -755426.464 1   -588643.829 2
        11.000          13.900
  24649043.593    24649044.317    24649043.797    -1158049.900 3   -902365.943 4
        21.600          27.100
  23753376.827    23753376.941    23753377.126    -4198100.462 4  -3271243.907 4
        24.200          25.900
  22931465.398    22931464.106    22931461.665    -9651652.128 5  -7520764.655 5
        35.500          32.100
  20332543.123    20332542.709    20332539.521   -23954567.639 7 -18665887.720 8
        46.000          50.500
  23683970.200    23683969.329    23683969.981    -1969863.482 4  -1534955.909 4
        24.600          24.200
  20858680.768    20858680.034    20858678.085   -22781301.312 7 -17751654.776 7
        43.700          43.400
  22364897.530    22364896.876    22364896.432   -15248975.064 5 -11882313.485 5
        35.100          32.400
 09  1 18  0 25  0.0000000  0 10G 9G21G28G15G 6G19G22G 3G18G14
  21517729.509    21517728.998    21517728.370   -13597755.072 6 -10595649.166 6
        39.300          36.800
  23005054.249    23005053.512    23005052.425   -11614717.862 4  -9050423.241 4
        27.600          24.200
  25446117.279    25446115.616    25446115.113     -752032.574     -585999.296 1
         3.000          11.000
  24669354.615    24669355.560    24669355.237    -1051311.982 3   -819193.538 4
        21.100          27.100
  23768899.395    23768898.931    23768898.937    -4116532.558 4  -3207684.518 4
        24.200          25.600
  22933227.169    22933225.805    22933223.708    -9642392.688 5  -7513549.499 5
        35.100          32.300
  20329217.579    20329217.213    20329214.118   -23972042.978 7 -18679504.865 8
        46.000          50.500
  23699237.816    23699237.163    23699237.090    -1889632.119 4  -1472437.976 3
        25.900          23.800
  20866761.565    20866760.961    20866759.124   -22738835.660 7 -17718564.649 7
        43.800          43.400
  22347650.258    22347649.680    22347649.102   -15339609.474 5 -11952937.674 5
        35.200          32.000
 09  1 18  0 25 30.0000000  0 10G 9G21G28G15G 6G19G22G 3G18G14
  21512468.162    21512467.897    21512467.487   -13625401.727 6 -10617191.997 6
        39.200          37.000
  23025200.877    23025199.913    23025198.484   -11508848.980 4  -8967928.031 4
        27.400          24.200
  25446860.961    25446859.452    25446858.197     -748126.671 1   -582955.745 1
         9.000           9.000
  24689683.463    24689684.150    24689683.364     -944484.525 3   -735951.363 4
        21.100          27.400
  23784473.971    23784473.190    23784473.022    -4034690.455 4  -3143911.475 4
        25.300          24.900
  22935100.240    22935099.245    22935097.208    -9632547.565 5  -7505877.993 5
        34.900          32.600
  20325966.857    20325966.458    20325963.252   -23989125.937 7 -18692816.255 8
        46.100          50.600
  23714567.194    23714566.335    23714566.162    -1809076.607 4  -1409667.455 3
        25.900          23.800
  20874911.054    20874910.378    20874908.677   -22696009.544 7 -17685193.643 7
        43.700          43.400
  22330461.680    22330461.069    22330460.256   -15429937.265 5 -12023322.950 5
        35.600          32.100
 09  1 18  0 26  0.0000000  0 10G 9G21G28G15G 6G19G22G 3G18G14
  21507344.045    21507343.468    21507342.470   -13652333.639 6 -10638177.900 6
        39.600          36.700
  23045395.047    23045394.013    23045392.269   -11402729.795 4  -8885237.770 3
        27.600          23.800
  25447703.296    25447702.680    25447700.928     -743702.629 2   -579508.523 1
        12.600           9.000
  24710031.588    24710030.974    24710029.621     -837562.882 3   -652635.792 4
        19.900          27.100
  23800100.386    23800099.784    23800099.462    -3952570.631 4  -3079922.001 4
        26.200          24.200
  22937086.651    22937085.439    22937083.242    -9622111.017 5  -7497745.625 5
        35.400          32.600
  20322792.108    20322791.727    20322788.542   -24005809.233 7 -18705816.214 8
        46.100          50.600
  23729958.011    23729957.423    23729957.154    -1728193.747 4  -1346641.841 3
        24.900          23.400
  20883130.197    20883129.622    20883127.974   -22652817.094 7 -17651537.182 7
        43.800          43.400
  22313332.313    22313332.061    22313331.389   -15519950.392 5 -12093463.024 5
        35.400          32.400
 09  1 18  0 26 30.0000000  0 10G 9G21G28G15G 6G19G22G 3G18G14
  21502353.975    21502353.560    21502352.974   -13678553.506 6 -10658608.954 6
        39.200          36.600
  23065635.413    23065634.112    23065632.659   -11296366.557 4  -8802357.332 3
        27.600          22.600
  25448642.253    25448641.419    25448639.811     -738764.563 1   -575660.683 1
         6.500           9.000
  24730395.532    24730394.619    24730392.853     -730553.043 3   -569251.503 4
        18.600          26.200
  23815777.561    23815777.409    23815778.208    -3870179.931 4  -3015721.465 4
        24.600          25.300
  22939184.386    22939182.943    22939181.619    -9611087.496 5  -7489155.877 5
        35.500          33.400
  20319692.781    20319692.341    20319689.119   -24022096.536 7 -18718507.610 8
        46.200          50.600
  23745410.619    23745410.218    23745409.859    -1646990.100 4  -1283366.267 4
        24.600          24.200
  20891418.331    20891417.789    20891415.955   -22609262.894 7 -17617598.840 7
        43.900          43.200
  22296263.274    22296262.530    22296261.719   -15609651.230 5 -12163359.757 5
        35.600          32.400
 09  1 18  0 27  0.0000000  0 10G 9G21G28G15G 6G19G22G 3G18G14
  21497499.312    21497498.761    21497498.163   -13704066.404 6 -10678489.134 6
        39.300          36.900
  23085919.636    23085919.103    23085918.109   -11189767.532 4  -8719293.156 3
        27.900          23.000
  25449679.584    25449678.456    25449677.713     -733318.938 1   -571417.292 2
         6.500          12.600
  24750774.257    24750773.636    24750771.327     -623463.333 2   -485805.000 4
        17.800          25.600
  23831505.757    23831505.515    23831507.180    -3787527.400 3  -2951316.922 4
        22.100          26.200
  22941392.847    22941390.981    22941389.851    -9599484.093 5  -7480114.267 5
        35.800          33.900
  20316667.426    20316667.119    20316664.060   -24037993.750 7 -18730895.042 8
        46.200          50.700
  23760922.844    23760921.865    23760922.499    -1565475.093 4  -1219848.090 4
        25.300          24.600
  20899774.051    20899773.351    20899771.631   -22565353.796 7 -17583383.956 7
        43.800          43.100
  22279252.361    22279251.590    22279250.616   -15699044.495 6 -12233016.828 5
        36.000          32.600
 09  1 18  0 27 30.0000000  0 10G 9G21G28G15G 6G19G22G 3G18G14
  21492779.929    21492779.505    21492778.795   -13728865.297 6 -10697812.935 6
        39.100          36.900
  23106250.049    23106249.908    23106249.034   -11082929.157 4  -8636042.475 3
        28.100          23.000
  25450811.675    25450812.109    25450812.485     -727360.208     -566774.169 2
         3.000          15.100
  24771167.970    24771168.023    24771165.362     -516289.734 2   -402293.120 4
        17.000          24.200
  23847284.421    23847283.934    23847285.621    -3704610.289 3  -2886706.187 4
        21.600          25.300
  22943711.782    22943709.914    22943708.564    -9587295.726 5  -7470616.847 5
        35.100          33.500
  20313717.781    20313717.392    20313714.212   -24053494.819 7 -18742973.791 8
        46.300          50.700
  23776494.928    23776493.816    23776494.160    -1483645.882 4  -1156085.065 4
        25.300          25.300
  20908198.275    20908197.625    20908195.593   -22521084.828 7 -17548888.656 7
        44.100          42.900
  22262301.136    22262300.357    22262299.403   -15788123.180 5 -12302428.760 5
        35.900          32.400
 09  1 18  0 28  0.0000000  0 10G 9G21G28G15G 6G19G22G 3G18G14
  21488197.803    21488197.252    21488196.710   -13752946.171 6 -10716577.252 6
        39.200          37.300
  23126627.528    23126626.315    23126625.221   -10975851.146 4  -8552605.062 3
        27.100          21.600
  25452044.461    25452043.701    25452043.362     -720885.686 1   -561729.089 2
         9.000          13.900
  24791578.578    24791578.901    24791576.073     -409031.111 2   -318714.969 3
        17.000          23.800
  23863113.979    23863113.494    23863114.206    -3621428.228 3  -2821889.020 4
        21.100          24.600
  22946142.726    22946141.119    22946139.560    -9574520.112 5  -7460661.821 5
        34.900          33.600
  20310843.973    20310843.666    20310840.599   -24068596.229 7 -18754741.114 8
        46.300          50.700
  23792124.975    23792124.369    23792124.570    -1401502.502 3  -1092077.248 4
        23.400          24.200
  20916691.096    20916690.454    20916688.824   -22476453.110 7 -17514110.689 7
        43.800          43.000
  22245410.380    22245409.956    22245409.011   -15876882.450 6 -12371591.801 5
        36.000          32.400
 09  1 18  0 28 30.0000000  0 10G 9G21G28G15G 6G19G22G 3G18G14
  21483750.934    21483750.485    21483750.028   -13776312.942 6 -10734785.115 6
        39.100          37.100
  23147048.145    23147047.064    23147045.559   -10868540.406 4  -8468986.326 3
        26.500          22.100
  25453372.144    25453371.029    25453373.019     -713900.468 1   -556286.144 1
         6.500          11.000
  24812003.896    24812005.082    24812001.369     -301694.405 2   -235075.971 3
        15.100          22.100
  23878993.845    23878992.569    23878992.431    -3537989.161 3  -2756871.575 4
        22.100          24.200
  22948684.804    22948683.226    22948681.183    -9561163.019 5  -7450253.703 5
        35.500          33.400
  20308045.656    20308045.266    20308041.947   -24083302.609 7 -18766200.623 8
        46.300          50.600
  23807815.588    23807814.778    23807814.474    -1319053.073 3  -1027830.949 4
        23.400          24.600
  20925252.317    20925251.639    20925249.874   -22431464.312 7 -17479054.486 7
        43.900          42.700
  22228579.921    22228579.518    22228578.681   -15965325.739 6 -12440508.626 5
        36.100          32.800
 09  1 18  0 29  0.0000000  0 10G 9G21G28G15G 6G19G22G 3G18G14
  21479440.246    21479439.720    21479439.045   -13798966.634 6 -10752437.341 6
        39.100          36.700
  23167511.838    23167510.996    23167509.413   -10761001.297 4  -8385189.630 3
        26.800          22.100
  25454800.872    25454798.945    25454794.044     -706406.690 1   -550446.841 1
         6.500           9.000
  24832443.931    24832444.297    24832440.808     -194283.785 2   -151379.382 3
        15.100          21.100
  23894917.656    23894917.279    23894918.248    -3454298.102 3  -2691657.772 3
        22.100          23.800
  22951336.666    22951335.109    22951333.541    -9547227.001 5  -7439394.475 5
        35.500          33.800
  20305321.935    20305321.521    20305318.205   -24097615.774 7 -18777353.732 8
        46.300          50.600
  23823562.859    23823561.741    23823561.797    -1236302.641 3   -963350.106 4
        23.400          25.300
  20933880.915    20933880.195    20933878.297   -22386121.329 7 -17443722.286 7
        44.000          42.600
  22211810.101    22211809.596    22211808.377   -16053453.904 6 -12509179.893 5
        36.500          33.100
 09  1 18  0 29 30.0000000  0 10G 9G21G28G15G 6G19G22G 3G18G14
  21475266.878    21475266.251    21475265.286   -13820901.075 6 -10769529.104 6
        39.900          36.800
  23188020.270    23188019.042    23188017.181   -10653231.369 4  -8301213.082 3
        26.200          21.600
  25456321.844    25456322.830    25456319.989     -698400.607 1   -544208.317 1
         9.000          11.000
  24852897.652    24852897.612    24852895.293      -86796.442 2    -67622.986 3
        15.100          20.500
  23910891.971    23910891.266    23910891.904    -3370353.102 3  -2626246.088 3
        22.600          23.800
  22954099.770    22954098.354    22954096.158    -9532708.291 5  -7428081.198 5
        35.800          33.900
  20302674.060    20302673.680    20302670.490   -24111530.408 7 -18788196.298 8
        46.300          50.700
  23839366.970    23839366.044    23839366.111    -1153249.312 4   -898633.227 4
        24.200          25.300
  20942577.493    20942576.843    20942574.876   -22340420.155 7 -17408110.980 7
        44.000          42.500
  22195100.936    22195100.547    22195099.143   -16141260.526 6 -12577600.617 5
        36.500          32.800
 09  1 18  0 30  0.0000000  0 10G 9G21G28G15G 6G19G22G 3G18G14
  21471229.846    21471229.207    21471228.262   -13842113.256 6 -10786058.065 6
        39.500          36.500
  23208571.200    23208570.536    23208568.462   -10545230.826 4  -8217056.825 3
        25.900          21.100
  25457942.264    25457943.074    25457942.563     -689880.125 1   -537569.064 2
        11.000          12.600
  24873365.882    24873366.584    24873364.100       20767.937 2     16193.435 3
        13.900          20.500
  23926915.105    23926913.975    23926914.771    -3286155.218 3  -2560637.357 3
        23.400          23.800
  22956972.869    22956971.724    22956970.050    -9517605.846 5  -7416313.056 5
        35.400          33.900
  20300102.158    20300101.840    20300098.771   -24125044.496 7 -18798726.754 8
        46.400          50.700
  23855228.129    23855227.694    23855227.861    -1069894.554 3   -833681.468 4
        23.800          24.600
  20951342.740    20951341.983    20951340.154   -22294359.088 7 -17372219.231 7
        43.800          42.600
  22178454.210    22178453.385    22178452.003   -16228742.278 6 -12645768.195 5
        36.800          33.200
 09  1 18  0 30 30.0000000  0 10G 9G21G28G15G 6G19G22G 3G18G14
  21467329.969    21467329.280    21467328.348   -13862608.457 6 -10802028.353 6
        39.700          36.800
  23229164.525    23229164.792    23229163.001   -10437007.814 4  -8132727.205 3
        26.200          20.500
  25459658.720    25459658.541    25459663.189     -680851.742     -530533.127 1
                         9.000
  24893848.309    24893848.231    24893846.259      128401.116 2    100063.445 3
        13.900          19.900
  23942983.054    23942982.011    23942983.520    -3201713.356 3  -2494838.525 4
        22.600          24.200
  22959956.227    22959955.336    22959953.687    -9501926.572 5  -7404095.456 5
        35.500          33.800
  20297606.046    20297605.588    20297602.358   -24138163.473 7 -18808949.331 8
        46.500          50.700
  23871145.323    23871144.899    23871145.355     -986247.144 3   -768501.679 4
        22.600          24.200
  20960174.951    20960174.230    20960172.425   -22247944.901 7 -17336052.339 7
        43.800          42.500
  22161867.482    22161867.045    22161865.868   -16315903.564 6 -12713686.050 5
        36.800          33.500
 09  1 18  0 31  0.0000000  0 10G 9G21G28G15G 6G19G22G 3G18G14
  21463566.778    21463566.261    21463565.661   -13882382.612 6 -10817436.774 6
        39.500          37.100
  23249801.863    23249801.330    23249799.610   -10328561.939 4  -8048223.927 3
        26.200          21.100
  25461476.889    25461475.858    25461477.805     -671312.685     -523099.833 1
                         6.500
  24914343.057    24914343.199    24914341.329      236104.467 2    183988.091 3
        12.600          19.900
  23959098.366    23959097.752    23959098.637    -3117027.301 3  -2428849.400 3
        22.600          23.800
  22963050.554    22963048.809    22963047.415    -9485668.124 5  -7391426.535 5
        34.900          33.100
  20295185.404    20295184.925    20295181.671   -24150884.080 7 -18818861.494 8
        46.500          50.700
  23887119.388    23887118.370    23887119.100     -902307.112 3   -703093.877 4
        22.600          24.600
  20969074.757    20969074.095    20969072.152   -22201175.357 7 -17299608.537 7
        43.800          42.000
  22145343.075    22145342.500    22145341.281   -16402740.058 6 -12781350.833 5
        36.800          33.200
 09  1 18  0 31 30.0000000  0 10G 9G21G28G15G 6G19G22G 3G18G14
  21459941.895    21459941.362    21459940.988   -13901430.810 6 -10832279.525 6
        39.500          37.200
  23270482.051    23270480.871    23270479.170   -10219891.290 4  -7963545.505 3
        26.200          21.100
  25463392.594    25463392.398    25463390.227     -661259.478 1   -515266.170 1
        11.000           9.000
  24934852.325    24934853.284    24934850.584      343880.237 2    267969.197 3
        13.900          19.300
  23975260.002    23975259.813    23975260.359    -3032095.843 3  -2362669.050 3
        22.600          23.000
  22966255.360    22966253.800    22966251.943    -9468827.445 5  -7378303.922 5
        34.700          32.300
  20292841.364    20292840.971    20292837.685   -24163202.059 7 -18828459.912 8
        46.600          50.900
  23903148.391    23903147.576    23903148.347     -818073.265 3   -637457.147 4
        22.100          24.600
  20978043.250    20978042.599    20978040.419   -22154047.219 7 -17262885.307 7
        44.000          42.100
  22128881.952    22128881.213    22128879.831   -16489245.892 6 -12848757.953 5
        36.800          33.400
 09  1 18  0 32  0.0000000  0 10G21G28G 9G15G 6G19G22G 3G18G14
  23291202.330    23291201.479    23291199.246   -10111003.427 4  -7878697.840 3
        25.900          20.500
  25465403.239    25465401.639    25465400.039     -650698.368 1   -507036.708 1
         9.000          11.000
  21456454.460    21456453.927    21456453.175   -13919758.152 6 -10846560.567 6
        39.700          36.700
  24955374.851    24955374.445    24955371.580      451720.670 2    352000.686 3
        15.100          19.300
  23991466.701    23991466.472    23991467.177    -2946927.822 3  -2296304.385 3
        22.100          21.100
  22969568.658    22969567.667    22969565.877    -9451411.352 5  -7364732.936 5
        34.300          31.500
  20290572.461    20290572.195    20290569.229   -24175122.651 7 -18837748.678 8
        46.300          50.900
  23919230.601    23919230.377    23919231.656     -733554.972 3   -571598.740 3
        22.600          23.000
  20987078.621    20987077.904    20987075.738   -22106566.891 7 -17225887.650 7
        44.100          42.200
  22112482.047    22112481.431    22112480.510   -16575425.789 6 -12915911.100 5
        36.800          33.900
 09  1 18  0 32 30.0000000  0 10G21G28G 9G15G 6G19G22G 3G18G14
  23311964.793    23311964.162    23311962.170   -10001895.207 4  -7793678.463 3
        25.900          21.100
  25467507.475    25467506.459    25467508.343     -639623.443 1   -498406.878 2
         6.500          13.900
  21453105.178    21453104.665    21453104.151   -13937357.131 6 -10860274.044 6
        39.700          36.400
  24975908.973    24975908.975    24975906.278      559630.277 2    436086.085 3
        16.100          18.600
  24007719.628    24007718.902    24007719.601    -2861519.746 3  -2229752.666 3
        22.100          20.500
  22972994.884    22972993.160    22972990.744    -9433414.356 5  -7350709.308 5
        34.900          31.500
  20288381.382    20288380.925    20288377.669   -24186639.234 7 -18846722.633 8
        46.400          50.900
  23935368.691    23935368.811    23935369.702     -648748.742 3   -505515.946 3
        23.000          21.600
  20996181.833    20996181.142    20996179.084   -22058728.234 7 -17188610.771 7
        44.000          42.100
  22096145.986    22096145.399    22096144.680   -16661271.751 6 -12982804.019 5
        36.700          34.400
 09  1 18  0 33  0.0000000  0 10G21G28G 9G15G 6G19G22G 3G18G14
  23332768.370    23332767.534    23332765.076    -9892574.082 4  -7708493.189 3
        25.900          21.600
  25469711.694    25469710.064    25469710.100     -628040.692 1   -489381.340 1
         9.000          11.000
  21449894.395    21449893.806    21449892.801   -13954232.806 6 -10873423.920 6
        40.200          36.300
  24996454.831    24996455.114    24996452.499      667601.337 2    520219.372 2
        15.100          17.800
  24024015.933    24024015.144    24024015.804    -2775880.221 3  -2163020.566 3
        21.600          20.500
  22976528.899    22976527.134    22976524.965    -9414842.966 5  -7336238.081 5
        34.000          32.000
  20286265.484    20286265.127    20286262.034   -24197757.022 7 -18855385.831 8
        46.500          50.900
  23951560.880    23951560.252    23951560.439     -563662.779 3   -439215.213 3
        23.000          19.900
  21005351.948    21005351.312    21005349.498   -22010537.260 7 -17151059.356 6
        43.800          41.900
  22079872.515    22079872.049    22079871.309   -16746787.931 6 -13049439.987 5
        37.000          34.300
 09  1 18  0 33 30.0000000  0 10G21G28G 9G15G 6G19G22G 3G18G14
  23353611.908    23353611.227    23353608.705    -9783040.129 4  -7623142.077 3
        26.200          21.100
  25472013.161    25472012.319    25472011.166     -615948.672 1   -479958.976 1
        11.000          11.000
  21446821.201    21446820.616    21446819.499   -13970382.117 6 -10886007.795 6
        39.800          36.400
  25017013.488    25017012.857    25017010.287      775634.119 2    604400.754 3
        16.100          18.600
  24040356.304    24040356.061    24040356.738    -2690010.005 3  -2096108.734 3
        21.100          20.500
  22980172.399    22980170.445    22980168.752    -9395696.252 5  -7321318.573 5
        32.800          32.600
  20284226.319    20284225.866    20284222.599   -24208473.947 7 -18863736.681 8
        46.500          51.000
  23967805.687    23967804.504    23967804.707     -478298.482 3   -372697.569 3
        22.600          19.900
  21014589.631    21014588.975    21014587.297   -21961993.262 7 -17113232.861 7
        43.800          42.000
  22063662.882    22063662.184    22063661.436   -16831970.983 6 -13115816.365 5
        37.200          34.400
 09  1 18  0 34  0.0000000  0 10G21G28G 9G15G 6G19G22G 3G18G14
  23374495.669    23374494.641    23374492.350    -9673297.332 4  -7537628.225 3
        25.900          21.600
  25474411.824    25474411.177    25474408.235     -603349.167 2   -470141.104 1
        13.900           9.000
  21443885.923    21443885.496    21443884.710   -13985805.451 6 -10898025.971 6
        39.500          36.700
  25037582.944    25037582.494    25037579.380      883725.672 2    688627.915 2
        15.100          17.000
  24056740.672    24056739.709    24056740.797    -2603913.336 3  -2029020.436 3
        21.600          20.500
  22983925.340    22983923.673    22983921.623    -9375976.406 5  -7305952.448 5
        33.900          33.200
  20282263.031    20282262.636    20282259.505   -24218790.791 7 -18871775.774 8
        46.500          51.000
  23984102.361    23984101.371    23984101.455     -392660.229 3   -305966.455 3
        22.600          19.300
  21023894.251    21023893.489    21023891.821   -21913098.260 7 -17075132.857 7
        43.800          42.100
  22047516.436    22047515.959    22047515.171   -16916820.713 6 -13181933.023 5
        37.600          34.500
 09  1 18  0 34 30.0000000  0 10G21G28G 9G15G 6G19G22G 3G18G14
  23395417.577    23395416.962    23395415.684    -9563347.886 4  -7451953.347 3
        24.600          22.100
  25476906.434    25476904.017    25476904.248     -590242.937 1   -459928.472 2
         6.500          12.600
  21441089.281    21441088.753    21441087.915   -14000502.588 6 -10909478.281 6
        39.600          36.800
  25058162.151    25058162.769    25058158.766      991873.885 2    772899.221 2
        15.100          16.100
  24073167.295    24073167.101    24073167.215    -2517593.487 3  -1961758.201 3
        22.600          21.100
  22987786.044    22987784.547    22987783.006    -9355684.767 5  -7290140.787 5
        34.700          33.200
  20280375.882    20280375.517    20280372.298   -24228707.446 7 -18879503.035 8
        46.500          51.000
  24000449.553    24000449.021    24000448.962     -306750.945 3   -239024.169 3
        23.000          20.500
  21033265.126    21033264.456    21033262.884   -21863852.773 7 -17036759.753 7
        43.500          42.000
  22031433.716    22031433.170    22031432.628   -17001335.881 6 -13247788.973 5
        37.500          34.600
 09  1 18  0 35  0.0000000  0 10G21G28G 9G15G 6G19G22G 3G18G14
  23416378.645    23416377.850    23416376.128    -9453197.604 3  -7366121.984 3
        23.800          21.600
  25479495.708    25479493.424    25479493.099     -576633.924 1   -449324.019 2
         9.000          12.600
  21438430.277    21438429.632    21438429.057   -14014476.359 6 -10920366.923 6
        39.800          37.100
  25078751.000    25078751.668    25078748.716     1100073.369 2    857210.461 2
        12.600          15.100
  24089635.179    24089634.239    24089634.482    -2431056.510 3  -1894326.817 3
        22.100          21.600
  22991754.603    22991753.632    22991752.250    -9334825.684 5  -7273886.965 5
        34.400          32.800
  20278564.156    20278563.843    20278560.664   -24238227.143 7 -18886920.976 8
        46.400          50.900
  24016848.341    24016847.885    24016847.412     -220577.483 3   -171876.026 3
        23.400          21.100
  21042701.967    21042701.423    21042699.867   -21814260.927 7 -16998116.756 6
        43.600          41.800
  22015414.407    22015413.893    22015413.136   -17085518.684 6 -13313385.940 5
        37.700          34.700
 09  1 18  0 35 30.0000000  0 10G21G28G 9G15G 6G19G22G 3G18G14
  23437378.563    23437377.775    23437376.465    -9342842.345 3  -7280130.886 3
        23.800          21.100
  25482181.210    25482179.919    25482179.820     -562516.198 2   -438323.261 2
        12.600          13.900
  21435910.023    21435909.490    21435909.018   -14027719.381 6 -10930686.162 6
        39.900          37.100
  25099350.376    25099351.175    25099348.133     1208328.797 1    941565.336 2
         9.000          15.100
  24106144.218    24106143.533    24106144.020    -2344299.149 3  -1826723.687 3
        21.600          21.100
  22995833.482    22995832.162    22995830.476    -9313393.946 5  -7257186.910 5
        34.400          32.300
  20276829.710    20276829.361    20276826.201   -24247342.902 7 -18894024.162 8
        46.500          51.000
  24033297.462    24033296.182    24033297.245     -134136.415 3   -104519.340 3
        21.600          20.500
  21052206.279    21052205.596    21052203.972   -21764317.101 7 -16959199.488 6
        43.700          41.600
  21999459.914    21999459.181    21999458.415   -17169361.122 6 -13378717.685 5
        37.700          34.900
 09  1 18  0 36  0.0000000  0 10G21G28G 9G15G 6G19G22G 3G18G14
  23458416.315    23458415.938    23458414.758    -9232287.566 4  -7193984.323 3
        24.600          21.100
  25484966.532    25484964.100    25484961.951     -547893.477 1   -426928.980 2
         9.000          12.600
  21433528.785    21433528.211    21433527.410   -14040234.287 6 -10940438.032 6
        40.200          37.200
  25119958.788    25119959.969    25119957.716     1316635.522     1025960.190 2
         3.000          12.600
  24122693.238    24122693.742    24122693.859    -2257327.325 3  -1758953.441 3
        21.100          20.500
  23000020.031    23000018.419    23000017.262    -9291393.677 5  -7240043.841 5
        34.700          32.600
  20275171.188    20275170.839    20275167.772   -24256057.804 7 -18900814.995 8
        46.500          51.000
  24049796.082    24049794.930    24049796.281      -47433.657 3    -36958.753 3
        20.500          21.100
  21061776.389    21061775.725    21061774.090   -21714024.910 7 -16920010.758 6
        43.600          41.400
  21983569.149    21983568.698    21983567.920   -17252865.044 6 -13443785.656 5
        37.700          34.800
 09  1 18  0 36 30.0000000  0 10G21G28G 9G15G 6G19G22G 3G18G14
  23479492.604    23479491.876    23479490.766    -9121532.558 4  -7107681.724 3
        25.300          20.500
  25487844.712    25487843.124    25487842.063     -532763.286     -415139.261 2
         3.000          13.900
  21431286.204    21431285.758    21431285.094   -14052017.307 6 -10949619.602 6
        40.000          37.000
  25140576.545    25140580.031    25140580.138     1424994.305     1110395.621 1
         3.000          11.000
  24139285.679    24139285.121    24139284.628    -2170140.734 3  -1691015.836 3
        20.500          20.500
  23004315.133    23004314.087    23004311.786    -9268823.056 6  -7222456.343 5
        36.100          32.300
  20273589.950    20273589.513    20273586.253   -24264368.355 7 -18907290.740 8
        46.500          51.000
  24066345.720    24066344.995    24066344.629       39530.865 3     30805.781 3
        22.100          21.100
  21071413.415    21071412.744    21071411.154   -21663381.917 7 -16880548.689 6
        43.300          41.400
  21967744.351    21967743.947    21967742.960   -17336025.709 6 -13508586.158 5
        38.100          34.900
 09  1 18  0 37  0.0000000  0 10G21G28G 9G15G 6G19G22G 3G18G14
  23500605.926    23500605.521    23500604.597    -9010578.243 4  -7021223.821 3
        24.200          19.900
  25490819.571    25490819.542    25490816.508     -517125.095 1   -402953.561 1
        11.000          11.000
  21429183.836    21429183.314    21429182.494   -14063066.848 6 -10958229.627 6
        40.200          37.000
  25161209.125    25161213.188    25161208.129     1533404.911     1194871.474 1
                        11.000
  24155916.393    24155916.326    24155916.706    -2082740.993 3  -1622912.167 3
        19.900          21.600
  23008719.043    23008717.453    23008714.850    -9245682.005 5  -7204424.362 5
        35.600          31.600
  20272085.493    20272085.099    20272081.921   -24272273.224 7 -18913450.376 8
        46.400          51.000
  24082943.047    24082942.081    24082942.381      126754.875 3     98772.527 3
        21.100          20.500
  21081117.528    21081116.842    21081114.915   -21612387.597 7 -16840812.854 6
        43.400          41.200
  21951985.417    21951984.791    21951983.582   -17418840.682 6 -13573117.286 5
        38.400          34.700
 09  1 18  0 37 30.0000000  0 10G21G28G 9G15G 6G19G22G 3G18G14
  23521756.027    23521755.540    23521754.954    -8899432.378 3  -6934616.645 3
        23.400          20.500
  25493890.643    25493889.932    25493886.372     -500984.716 1   -390376.614 1
        11.000           9.000
  21427219.876    21427219.231    21427218.809   -14073387.450 6 -10966271.661 6
        40.000          37.200
  25181849.667    25181851.065    25181847.512     1641860.202     1279382.017 1
                        11.000
  24172586.921    24172586.430    24172587.080    -1995136.951 3  -1554649.269 3
        18.600          22.100
  23013229.893    23013228.299    23013226.341    -9221976.990 5  -7185952.915 5
        34.300          32.300
  20270657.493    20270657.187    20270654.000   -24279777.276 7 -18919297.686 8
        46.500          51.000
  24099588.121    24099587.690    24099588.429      214230.078 3    166935.009 3
        19.900          21.100
  21090887.230    21090886.501    21090884.524   -21561048.191 7 -16800808.121 6
        43.600          41.100
  21936291.231    21936290.506    21936289.424   -17501313.985 6 -13637382.182 5
        38.400          34.800
 09  1 18  0 38  0.0000000  0 10G21G28G 9G15G 6G19G22G 3G18G14
  23542942.419    23542941.292    23542940.542    -8788100.735 3  -6847864.738 3
        23.000          19.900
  25497056.680    25497055.989    25497054.326     -484345.995 1   -377411.343 1
         6.500          11.000
  21425393.901    21425393.231    21425392.777   -14082982.518 6 -10973748.322 6
        39.700          37.000
  25202495.960    25202496.286    25202493.228     1750354.829     1363923.256 1
                        11.000
  24189296.422    24189295.463    24189295.239    -1907334.829 3  -1486232.044 3
        18.600          22.100
  23017847.319    23017845.681    23017843.965    -9197712.242 5  -7167045.331 5
        34.000          33.100
  20269305.429    20269305.006    20269301.698   -24286883.940 7 -18924835.344 8
        46.600          51.100
  24116281.583    24116281.229    24116281.175      301949.760 3    235287.988 3
        22.100          21.100
  21100721.460    21100720.848    21100719.134   -21509368.091 7 -16760537.917 6
        43.500          41.100
  21920661.653    21920661.076    21920660.142   -17583447.659 6 -13701382.430 5
        38.700          35.200
 09  1 18  0 38 30.0000000  0 10G21G28G 9G15G 6G19G22G 3G18G14
  23564164.392    23564163.419    23564161.988    -8676580.983 3  -6760966.246 3
        23.000          19.900
  25500318.674    25500316.859    25500315.795     -467205.714 1   -364055.241 1
         6.500          11.000
  21423707.393    21423706.829    21423705.966   -14091846.731 6 -10980655.500 6
        40.600          36.900
  25223151.785    25223151.085    25223147.968     1858891.565     1448497.271 1
                         9.000
  24206042.655    24206042.263    24206040.879    -1819332.633 3  -1417658.928 3
        21.600          20.500
  23022572.192    23022570.495    23022568.283    -9172884.810 5  -7147699.283 5
        33.900          33.000
  20268029.651    20268029.251    20268025.982   -24293587.724 7 -18930059.067 8
        46.600          51.100
  24133021.206    24133020.780    24133019.829      389915.584 3    303832.802 3
        23.000          20.500
  21110621.004    21110620.568    21110619.022   -21457342.945 7 -16719998.834 6
        43.100          40.800
  21905098.050    21905097.457    21905096.519   -17665235.615 6 -13765113.287 5
        38.900          35.500
 09  1 18  0 39  0.0000000  0 10G21G28G 9G15G 6G19G22G 3G18G14
  23585422.253    23585421.638    23585420.473    -8564867.662 3  -6673916.903 3
        23.000          19.900
  25503673.797    25503675.004    25503674.109     -449556.644 1   -350302.674 1
         6.500           9.000
  21422160.946    21422160.462    21422159.708   -14099971.671 6 -10986986.620 6
        40.300          36.600
  25243816.076    25243815.647    25243811.769     1967476.503     1533108.855 1
                         6.500
  24222826.591    24222826.946    24222825.823    -1731125.634 3  -1348926.226 3
        22.100          20.500
  23027404.385    23027402.637    23027400.991    -9147488.154 5  -7127909.685 5
        32.700          32.400
  20266831.906    20266831.552    20266828.372   -24299881.462 7 -18934963.271 8
        46.600          51.100
  24149809.057    24149808.231    24149807.058      478132.312 3    372573.105 3
        22.100          19.900
  21120588.615    21120587.869    21120586.047   -21404965.612 7 -16679185.327 6
        43.100          40.700
  21889601.912    21889601.268    21889599.992   -17746668.888 6 -13828567.768 5
        38.900          35.300
 09  1 18  0 39 30.0000000  0 10G21G28G 9G15G 6G19G22G 3G18G14
  23606716.518    23606715.508    23606714.295    -8452967.578 3  -6586722.066 3
        22.600          19.900
  25507128.725    25507129.173    25507129.027     -431404.249 1   -336157.918 1
         6.500           9.000
  21420754.389    21420753.921    21420753.753   -14107361.958 6 -10992745.277 6
        39.900          37.200
  25264486.492    25264481.369    25264484.611     2076103.256     1617753.046 1
                         6.500
  24239648.792    24239649.812    24239649.462    -1642721.646 3  -1280039.998 3
        22.100          21.100
  23032343.497    23032342.060    23032341.070    -9121528.341 5  -7107681.261 5
        32.400          32.300
  20265711.457    20265711.081    20265707.977   -24305769.249 7 -18939551.154 8
        46.600          51.200
  24166641.065    24166640.844    24166640.989      566592.110 3    441502.808 3
        22.600          20.500
  21130621.445    21130620.781    21130619.075   -21352241.742 7 -16638101.792 6
        43.200          40.600
  21874172.407    21874171.794    21874170.661   -17827750.882 6 -13891748.531 5
        38.800          35.400
 09  1 18  0 40  0.0000000  0 10G21G28G 9G15G 6G19G22G 3G18G14
  23628045.925    23628044.611    23628043.078    -8340881.809 3  -6499382.533 3
        22.100          19.300
  25510680.714    25510681.136    25510678.563     -412747.285 1   -321619.986 1
        11.000          11.000
  21419488.717    21419488.208    21419487.607   -14114015.150 6 -10997929.580 6
        40.400          37.300
  25285162.004    25285152.801    25285165.038     2184771.609     1702427.451 1
                         6.500
  24256509.445    24256509.791    24256509.255    -1554121.548 3  -1211000.969 3
        20.500          21.600
  23037390.931    23037390.057    23037388.233    -9095004.711 5  -7087013.512 5
        33.500          32.000
  20264668.827    20264668.379    20264665.124   -24311248.970 7 -18943821.060 8
        46.500          51.200
  24183521.495    24183521.088    24183520.455      655293.641 4    510620.875 3
        24.200          20.500
  21140720.858    21140720.037    21140718.160   -21299170.388 7 -16596747.489 6
        43.100          40.400
  21858810.476    21858809.839    21858808.724   -17908478.376 6 -13954653.049 5
        39.100          35.800
 09  1 18  0 40 30.0000000  0  9G21G28G 9G 6G19G22G 3G18G14
  23649407.480    23649406.914    23649404.801    -8228622.713 3  -6411907.943 3
        23.000          18.600
  25514324.020    25514324.382    25514324.164     -393596.980 1   -306697.589 2
         6.500          12.600
  21418361.435    21418360.587    21418359.431   -14119941.533 6 -11002547.526 6
        40.200          36.500
  24273403.980    24273403.514    24273404.536    -1465338.811 3  -1141819.630 3
        19.300          21.600
  23042543.105    23042542.276    23042540.813    -9067928.856 5  -7065915.452 5
        33.900          32.000
  20263701.770    20263701.367    20263698.047   -24316330.587 7 -18947780.756 8
        46.500          51.200
  24200443.297    24200442.825    24200443.296      744223.700 3    579917.021 3
        23.000          19.900
  21150883.773    21150883.236    21150881.397   -21245762.131 7 -16555130.661 6
        43.200          40.300
  21843514.253    21843513.605    21843512.344   -17988860.129 6 -14017288.172 5
        39.200          35.700
 09  1 18  0 41  0.0000000  0  9G21G28G 9G 6G19G22G 3G18G14
  23670801.458    23670801.080    23670799.026    -8116194.417 3  -6324301.491 2
        22.100          17.800
  25518062.962    25518061.859    25518060.484     -373955.722 1   -291392.741 1
        11.000          11.000
  21417371.181    21417370.569    21417369.629   -14125142.519 6 -11006600.242 6
        40.300          36.400
  24290334.064    24290333.491    24290333.887    -1376377.923 3  -1072499.477 3
        19.300          21.600
  23047800.743    23047799.386    23047797.696    -9040303.730 5  -7044389.392 5
        33.600          32.000
  20262810.020    20262809.699    20262806.630   -24321015.755 7 -18951431.534 8
        46.500          51.200
  24217408.260    24217408.092    24217409.243      833377.392 3    649387.417 3
        21.600          20.500
  21161110.865    21161110.131    21161108.402   -21192019.802 7 -16513253.522 6
        43.200          40.400
  21828283.400    21828282.903    21828282.163   -18068896.901 6 -14079654.472 6
        39.000          36.100
 09  1 18  0 41 30.0000000  0  9G21G28G 9G 6G19G22G 3G18G14
  23692232.056    23692230.383    23692228.877    -8003579.730 3  -6236549.805 2
        21.600          17.000
  25521897.990    25521897.219    25521895.627     -353805.002 2   -275690.951 1
        12.600          11.000
  21416522.981    21416522.599    21416522.045   -14129598.314 6 -11010072.284 6
        40.500          36.500
  24307298.961    24307298.805    24307299.593    -1287222.569 3  -1003027.778 3
        18.600          19.900
  23053165.087    23053163.857    23053162.646    -9012111.451 5  -7022421.381 5
        33.400          32.100
  20261997.807    20261997.412    20261994.322   -24325284.863 7 -18954758.102 8
        46.600          51.300
  24234420.790    24234419.698    24234419.544      922770.914 3    719044.651 3
        21.100          20.500
  21171404.735    21171403.941    21171402.283   -21137924.441 7 -16471101.292 6
        42.900          40.100
  21813122.501    21813122.094    21813121.220   -18148567.980 6 -14141735.812 6
        39.300          36.200
 09  1 18  0 42  0.0000000  0  9G21G28G 9G 6G19G22G 3G18G14
  23713694.750    23713693.557    23713691.623    -7890792.449 3  -6148663.636 2
        21.600          16.100
  25525826.008    25525825.408    25525824.715     -333156.988 1   -259601.597 1
         6.500          11.000
  21415815.052    21415814.390    21415813.261   -14133319.955 6 -11012972.256 5
        40.100          35.900
  24324297.926    24324298.377    24324298.963    -1197886.930 3   -933415.592 3
        18.600          19.300
  23058636.439    23058635.163    23058633.077    -8983364.758 5  -7000021.346 5
        34.600          32.300
  20261262.311    20261261.969    20261259.017   -24329148.897 7 -18957769.040 8
        46.500          51.300
  24251474.661    24251473.568    24251473.081     1012389.745 3    788877.511 3
        19.300          19.900
  21181763.541    21181762.854    21181760.906   -21083488.271 7 -16428683.495 6
        43.000          39.800
  21798029.931    21798029.153    21798027.728   -18227883.274 6 -14203539.931 6
        39.700          36.000
 09  1 18  0 42 30.0000000  0  9G21G28G 9G 6G19G22G 3G18G14
  23735187.922    23735187.775    23735185.489    -7777839.891 3  -6060648.677 2
        22.100          16.100
  25529848.809    25529847.772    25529845.935     -312017.662     -243129.384 1
         3.000           9.000
  21415245.564    21415245.041    21415243.898   -14136312.446 6 -11015304.076 6
        40.200          36.000
  24341332.772    24341331.310    24341331.375    -1108379.156 3   -863669.285 3
        18.600          19.300
  23064210.822    23064209.226    23064206.608    -8954070.148 5  -6977194.390 5
        34.100          31.000
  20260603.289    20260602.915    20260599.668   -24332612.986 7 -18960468.321 8
        46.500          51.200
  24268569.121    24268568.569    24268568.252     1102226.307 2    858880.010 3
        17.000          18.600
  21192186.415    21192185.649    21192183.782   -21028717.174 7 -16386004.723 6
        43.100          40.100
  21783003.381    21783002.891    21783001.718   -18306846.586 6 -14265069.768 6
        39.700          36.600
 09  1 18  0 43  0.0000000  0  9G21G28G 9G 6G19G22G 3G18G14
  23756715.582    23756715.127    23756713.064    -7664714.187 3  -5972498.780 2
        23.000          16.100
  25533969.304    25533967.732    25533964.464     -290377.510     -226266.971 1
         3.000          11.000
  21414816.999    21414816.270    21414815.479   -14138565.595 6 -11017059.764 6
        40.200          36.800
  24358398.996    24358398.337    24358398.629    -1018691.964 2   -793783.164 3
        17.800          19.300
  23069891.397    23069889.979    23069887.366    -8924219.002 5  -6953933.757 5
        34.400          31.100
  20260021.958    20260021.601    20260018.518   -24335666.826 7 -18962847.939 8
        46.400          51.200
  24285705.979    24285706.336    24285706.803     1192287.114 2    929057.275 2
        17.000          17.800
  21202674.643    21202673.948    21202671.835   -20973601.584 7 -16343057.508 6
        43.300          39.800
  21768046.201    21768045.641    21768044.478   -18385446.987 6 -14326316.811 6
        39.700          36.600
 09  1 18  0 43 30.0000000  0  9G21G28G 9G 6G19G22G 3G18G14
  23778275.625    23778274.887    23778273.194    -7551416.905 3  -5884215.190 2
        21.600          16.100
  25538183.108    25538180.440    25538181.090     -268236.645     -209014.365 2
         3.000          12.600
  21414528.476    21414527.937    21414527.675   -14140078.589 6 -11018238.709 6
        39.700          36.700
  24375498.797    24375498.086    24375499.052     -928827.639 2   -723759.011 3
        16.100          18.600
  23075677.215    23075676.046    23075673.933    -8893811.680 5  -6930239.751 5
        34.300          31.800
  20259519.438    20259519.030    20259515.865   -24338308.952 7 -18964906.733 8
        46.600          51.200
  24302887.230    24302887.345    24302886.630     1282569.702 3    999407.327 3
        19.300          19.300
  21213228.088    21213227.354    21213225.429   -20918141.636 7 -16299841.963 6
        43.000          39.700
  21753158.876    21753158.128    21753156.790   -18463681.610 6 -14387278.844 6
        39.800          36.500
 09  1 18  0 44  0.0000000  0  9G21G28G 9G 6G19G22G 3G18G14
  23799866.618    23799866.210    23799864.372    -7437954.965 3  -5795803.314 2
        21.100          16.100
  25542489.897    25542488.895    25542485.493     -245600.848 1   -191376.022 1
         6.500          11.000
  21414380.787    21414380.436    21414379.399   -14140855.369 6 -11018843.980 6
        40.000          36.000
  24392633.045    24392632.568    24392631.835     -838793.440 2   -653602.520 2
        17.800          17.800
  23081568.899    23081567.223    23081564.996    -8862854.433 5  -6906117.223 5
        34.600          31.600
  20259093.959    20259093.601    20259090.410   -24340544.451 7 -18966648.679 8
        46.700          51.200
  24320108.303    24320107.843    24320107.964     1373067.028 2   1069924.727 3
        17.800          19.900
  21223845.872    21223845.362    21223843.837   -20862342.795 7 -16256362.348 6
        43.000          39.700
  21738340.002    21738339.390    21738338.188   -18541554.167 6 -14447958.741 6
        39.800          36.800
 09  1 18  0 44 30.0000000  0  9G21G28G 9G 6G19G22G 3G18G14
  23821488.479    23821487.756    23821486.234    -7324331.045 3  -5707265.198 2
        20.500          16.100
  25546890.670    25546888.888    25546887.580     -222471.205 1   -173352.945 1
         9.000           9.000
  21414372.951    21414372.326    21414371.707   -14140896.793 6 -11018876.261 6
        39.800          36.300
  24409798.196    24409797.626    24409796.128     -748592.766 3   -583316.298 2
        19.900          17.800
  23087564.639    23087562.778    23087560.282    -8831348.914 5  -6881567.487 5
        35.100          31.500
  20258746.028    20258745.635    20258742.300   -24342372.876 7 -18968073.418 8
        46.600          51.000
  24337369.916    24337369.555    24337370.056     1463775.128 2   1140606.345 3
        17.000          21.100
  21234528.739    21234528.059    21234526.465   -20806205.860 7 -16212619.277 6
        43.100          39.800
  21723590.474    21723589.925    21723588.513   -18619063.653 6 -14508355.727 6
        40.000          36.900
 09  1 18  0 45  0.0000000  0  9G21G28G 9G 6G19G22G 3G18G14
  23843140.966    23843139.654    23843137.410    -7210551.643 3  -5618605.938 2
        19.900          15.100
  25551382.032    25551382.672    25551383.425     -198852.667 1   -154948.879 2
         9.000          12.600
  21414504.521    21414503.945    21414503.343   -14140206.935 6 -11018338.709 6
        40.100          36.900
  24426991.368    24426990.872    24426991.677     -658232.758 3   -512905.910 3
        19.300          18.600
  23093662.728    23093661.006    23093659.341    -8799300.613 5  -6856594.785 5
        34.100          31.500
  20258474.772    20258474.372    20258471.110   -24343798.243 7 -18969184.095 8
        46.600          51.100
  24354669.743    24354668.805    24354670.299     1554687.010 2   1211446.749 3
        17.000          21.100
  21245274.520    21245273.953    21245272.079   -20749735.544 7 -16168616.428 6
        42.900          39.300
  21708909.350    21708908.794    21708907.675   -18696212.838 6 -14568471.963 6
        40.000          37.100
 09  1 18  0 45 30.0000000  0  9G21G28G 9G 6G19G22G 3G18G14
  23864822.593    23864821.816    23864819.719    -7096611.708 3  -5529821.585 2
        19.300          16.100
  25555971.218    25555970.785    25555972.238     -174739.040 1   -136159.077 2
         9.000          12.600
  21414775.746    21414775.325    21414774.999   -14138778.165 6 -11017225.382 6
        39.700          36.800
  24444217.696    24444217.694    24444217.721     -567708.777 3   -442367.736 3
        18.600          18.600
  23099865.952    23099864.357    23099862.596    -8766703.805 5  -6831194.674 5
        34.400          32.100
  20258281.826    20258281.385    20258278.156   -24344813.104 7 -18969974.893 8
        46.700          51.200
  24372011.019    24372009.950    24372009.523     1645807.081 2   1282449.364 3
        17.800          21.100
  21256085.339    21256084.572    21256082.842   -20692925.451 7 -16124348.820 6
        42.700          39.400
  21694298.327    21694297.760    21694297.026   -18772993.284 6 -14628300.868 6
        39.900          37.300
 09  1 18  0 46  0.0000000  0  9G 9G21G28G 6G19G22G 3G18G14
  21415188.437    21415187.954    21415186.981   -14136611.440 6 -11015537.015 6
        40.000          36.400
  23886535.176    23886533.852    23886531.568    -6982514.591 3  -5440914.795 2
        18.600          15.100
  25560654.315    25560655.082    25560654.633     -150132.115 1   -116984.917 2
         6.500          12.600
  24461473.856    24461474.814    24461473.750     -477024.813 3   -371704.901 2
        18.600          17.000
  23106173.057    23106171.085    23106168.850    -8733561.138 5  -6805369.229 5
        34.000          31.600
  20258166.560    20258166.204    20258162.817   -24345418.171 7 -18970446.369 8
        46.700          51.100
  24389388.989    24389387.891    24389387.844     1737130.878 2   1353610.743 3
        17.000          21.100
  21266960.223    21266959.518    21266958.114   -20635777.222 7 -16079817.741 6
        42.800          39.700
  21679757.864    21679757.186    21679756.432   -18849404.471 6 -14687842.032 6
        40.100          37.500
 09  1 18  0 46 30.0000000  0  9G 9G21G28G 6G19G22G 3G18G14
  21415740.349    21415739.863    21415738.987   -14133711.730 6 -11013277.497 6
        40.200          36.500
  23908274.656    23908273.968    23908271.622    -6868267.538 3  -5351891.152 2
        19.300          15.100
  25565430.077    25565430.414    25565427.880     -125038.082 1    -97431.183 1
         9.000           9.000
  24478759.994    24478759.761    24478760.899     -386188.657 2   -300923.466 2
        17.000          17.800
  23112582.016    23112580.391    23112578.571    -8699878.761 5  -6779123.224 5
        34.000          31.500
  20258128.190    20258127.827    20258124.664   -24345618.728 7 -18970602.642 8
        46.500          51.000
  24406804.849    24406803.365    24406803.638     1828650.973 2   1424925.113 3
        17.000          21.100
  21277898.539    21277897.882    21277896.107   -20578296.560 7 -16035027.618 6
        43.000          39.300
  21665287.005    21665286.264    21665285.269   -18925450.312 6 -14747098.520 6
        40.300          37.600
 09  1 18  0 47  0.0000000  0  9G21G28G 9G 6G19G22G 3G18G14
  23930041.175    23930042.106    23930040.039    -6753874.946 3  -5262754.065 2
        18.600          13.900
  25570298.144    25570297.111    25570296.954      -99459.577 1    -77499.946 1
         9.000           9.000
  21416431.047    21416430.556    21416429.554   -14130081.367 6 -11010448.640 6
        40.000          36.300
  24496072.623    24496072.216    24496075.701     -295205.439 2   -230027.459 3
        15.100          19.300
  23119093.169    23119091.611    23119089.644    -8665660.461 5  -6752459.619 5
        33.500          31.000
  20258167.238    20258166.796    20258163.418   -24345415.767 7 -18970444.489 8
        46.800          51.100
  24424254.248    24424254.718    24424255.694     1920362.268 2   1496388.434 3
        16.100          19.900
  21288899.460    21288898.816    21288896.931   -20520485.797 7 -15989980.270 6
        43.000          39.100
  21650884.910    21650884.315    21650883.526   -19001131.471 6 -14806070.833 6
        40.000          37.700
 09  1 18  0 47 30.0000000  0  9G21G28G 9G 6G19G22G 3G18G14
  23951838.172    23951837.656    23951836.073    -6639335.153 2  -5173502.302 2
        17.000          13.900
  25575257.839    25575256.948    25575256.803      -73393.592      -57188.833 1
                         9.000
  21417261.381    21417261.062    21417260.039   -14125716.516 6 -11007047.458 5
        39.900          35.900
  24513417.240    24513415.332    24513416.862     -204073.935 2   -159015.910 3
        13.900          19.900
  23125707.413    23125706.136    23125703.691    -8630903.977 5  -6725376.658 5
        34.500          31.100
  20258283.208    20258282.771    20258279.482   -24344805.435 7 -18969968.905 8
        46.700          51.000
  24441743.147    24441743.541    24441743.292     2012265.191 2   1568001.085 3
        17.000          19.300
  21299963.448    21299962.955    21299961.162   -20462342.323 7 -15944673.661 6
        42.600          38.900
  21636554.200    21636553.475    21636552.216   -19076442.714 6 -14864754.906 6
        40.300          37.700
 09  1 18  0 48  0.0000000  0  8G 9G21G 6G19G22G 3G18G14
  21418232.779    21418232.314    21418231.373   -14120612.957 6 -11003070.647 6
        39.900          36.100
  23973663.454    23973661.889    23973660.814    -6524646.293 2  -5084134.378 2
        17.000          13.900
  24530787.798    24530787.005    24530785.663     -112793.097 2    -87887.985 3
        13.900          19.900
  23132424.754    23132422.875    23132421.015    -8595606.740 5  -6697872.331 5
        34.500          31.500
  20258477.484    20258477.118    20258473.909   -24343783.588 7 -18969172.661 8
        46.600          51.000
  24459268.447    24459268.422    24459268.344     2104361.011 2   1639764.082 3
        16.100          18.600
  21311091.954    21311091.307    21311089.643   -20403862.922 7 -15899105.298 6
        42.600          39.100
  21622294.510    21622293.751    21622292.321   -19151378.974 6 -14923146.780 6
        40.500          37.900
 09  1 18  0 48 30.0000000  0  8G 9G21G 6G19G22G 3G18G14
  21419341.764    21419341.233    21419340.310   -14114786.858 6 -10998530.822 6
        40.400          36.400
  23995512.911    23995511.838    23995511.478    -6409826.561 3  -4994664.477 2
        19.900          15.100
  24548182.266    24548181.098    24548181.492      -21381.390 2    -16658.075 3
        13.900          19.300
  23139241.103    23139239.140    23139237.298    -8559785.896 5  -6669959.986 5
        34.000          31.000
  20258747.359    20258746.962    20258743.795   -24342365.599 7 -18968067.732 8
        46.600          51.000
  24476827.371    24476826.843    24476828.201     2196631.054 2   1711662.812 3
        17.000          18.600
  21322280.991    21322280.455    21322278.442   -20345063.693 7 -15853287.716 6
        42.600          38.600
  21608102.671    21608102.237    21608101.235   -19225954.328 6 -14981257.431 6
        40.600          38.000
 09  1 18  0 49  0.0000000  0  9G 9G21G11G 6G19G22G 3G18G14
  21420593.309    21420592.903    21420592.056   -14108207.809 6 -10993404.287 6
        40.100          36.200
  24017393.598    24017392.661    24017390.746    -6294847.612 3  -4905070.526 2
        21.100          15.100
  24832428.948    24832427.984    24832425.970           -.6391          -.01611
                         6.500
  24565606.965    24565606.283    24565605.446       70188.880 2     54695.375 3
        15.100          18.600
  23146162.463    23146160.934    23146158.374    -8523412.456 5  -6641617.063 5
        34.600          31.000
  20259098.585    20259098.180    20259094.805   -24340520.737 7 -18966630.172 8
        46.700          51.000
  24494424.680    24494424.260    24494425.691     2289102.469 2   1783718.457 3
        17.800          19.300
  21333537.199    21333536.264    21333534.219   -20285914.698 7 -15807197.587 6
        42.500          38.600
  21593986.435    21593985.719    21593984.825   -19300137.343 6 -15039062.365 6
        40.600          38.400
 09  1 18  0 49 30.0000000  0  9G 9G21G11G 6G19G22G 3G18G14
  21421984.264    21421983.869    21421982.811   -14100898.856 6 -10987708.997 6
        40.100          36.100
  24039299.392    24039298.281    24039295.494    -6179734.562 3  -4815372.070 2
        21.100          13.900
  24813848.364    24813846.929    24813845.452      -97644.229      -76085.873
         3.000           3.000
  24583056.022    24583055.558    24583055.514      161891.751 2    126152.173 2
        13.900          17.800
  23153184.225    23153182.986    23153181.023    -8486511.370 5  -6612862.991 5
        34.700          31.600
  20259526.440    20259526.055    20259522.878   -24338271.526 7 -18964877.536 8
        46.600          51.000
  24512055.196    24512054.147    24512055.198     2381749.841 2   1855911.187 2
        17.000          17.000
  21344854.836    21344854.015    21344852.177   -20226439.818 7 -15760853.527 6
        42.300          38.800
  21579940.276    21579939.689    21579938.508   -19373949.822 6 -15096578.565 6
        40.700          38.100
 09  1 18  0 50  0.0000000  0  9G 9G21G11G 6G19G22G 3G18G14
  21423514.675    21423514.051    21423513.033   -14092858.358 6 -10981443.667 6
        40.200          36.200
  24061228.307    24061228.352    24061225.719    -6064487.855 3  -4725569.458 2
        19.900          13.900
  24795309.823    24795308.528    24795308.040     -195051.720     -151987.715 1
                         6.500
  24600529.985    24600531.252    24600531.435      253726.486 2    197711.664 2
        12.600          17.800
  23160306.748    23160305.449    23160303.478    -8449082.055 5  -6583697.292 5
        34.000          31.500
  20260031.872    20260031.431    20260028.113   -24335615.972 7 -18962808.264 8
        46.700          51.000
  24529717.227    24529716.798    24529717.451     2474571.936 2   1928240.078 2
        15.100          15.100
  21356234.459    21356233.745    21356231.953   -20166637.838 7 -15714254.585 6
        42.200          38.500
  21565965.236    21565964.773    21565963.672   -19447388.142 6 -15153803.219 6
        40.900          38.400
 09  1 18  0 50 30.0000000  0  9G 9G21G11G 6G19G22G 3G18G14
  21425185.292    21425184.706    21425183.608   -14084078.633 6 -10974602.329 6
        40.100          36.000
  24083185.663    24083185.217    24083183.428    -5949101.902 3  -4635658.352 2
        20.500          12.600
  24776817.822    24776818.897    24776819.083     -292212.671     -227697.457 1
                         6.500
  24618032.342    24618032.592    24618033.634      345697.988 2    269377.789 2
        12.600          17.800
  23167530.712    23167529.657    23167527.684    -8411118.485 5  -6554115.285 5
        33.900          31.300
  20260615.880    20260615.536    20260612.289   -24332546.247 7 -18960416.267 8
        46.600          51.000
  24547415.467    24547414.876    24547415.615     2567573.674 2   2000708.948 2
        15.100          16.100
  21367677.869    21367677.341    21367675.433   -20106501.486 7 -15667395.089 6
        42.300          38.400
  21552063.232    21552062.623    21552061.649   -19520443.559 6 -15210729.500 6
        40.900          38.400
 09  1 18  0 51  0.0000000  0  9G 9G21G11G 6G19G22G 3G18G14
  21426995.270    21426994.838    21426994.001   -14074565.842 6 -10967189.757 6
        40.200          36.100
  24105168.627    24105168.124    24105165.812    -5833584.872 3  -4545645.090 2
        21.100          13.900
  24758374.995    24758373.583    24758377.325     -389130.214     -303218.639 1
                         9.000
  24635559.390    24635558.852    24635560.571      437797.782 2    341143.844 3
        13.900          18.600
  23174855.830    23174854.363    23174852.333    -8372627.699 5  -6524122.458 5
        33.200          31.100
  20261278.022    20261277.656    20261274.378   -24329067.180 7 -18957705.300 8
        46.600          51.000
  24565146.538    24565144.909    24565145.544     2660746.100 2   2073310.813 2
        12.600          15.100
  21379184.173    21379183.406    21379181.359   -20046037.318 7 -15620280.157 6
        42.200          38.100
  21538233.430    21538232.924    21538231.605   -19593120.193 6 -15267360.628 6
        41.000          38.300
 09  1 18  0 51 30.0000000  0  9G 9G21G11G 6G19G22G 3G18G14
  21428945.033    21428944.477    21428943.244   -14064322.045 6 -10959207.575 6
        40.700          36.100
  24127175.293    24127174.435    24127172.137    -5717940.556 3  -4455532.668 2
        19.900          15.100
  24739978.779    24739977.812    24739978.860     -485803.886     -378548.738 1
         3.000           9.000
  24653108.989    24653108.655    24653109.813      530021.097 2    413006.151 2
        15.100          17.800
  23182279.759    23182277.925    23182276.322    -8333613.025 5  -6493721.420 5
        32.100          30.800
  20262017.447    20262017.071    20262013.870   -24325181.193 7 -18954677.256 8
        46.500          51.000
  24582906.307    24582906.677    24582907.281     2754084.512 1   2146042.021 2
        11.000          16.100
  21390751.727    21390751.171    21390749.097   -19985247.557 7 -15572911.510 6
        42.200          37.800
  21524475.623    21524474.932    21524473.845   -19665418.656 6 -15323697.077 6
        41.200          38.600
 09  1 18  0 52  0.0000000  0  9G 9G21G11G 6G19G22G 3G18G14
  21431034.175    21431033.784    21431032.916   -14053341.089 6 -10950650.969 6
        39.900          36.000
  24149207.070    24149206.069    24149204.220    -5602164.606 3  -4365317.674 2
        18.600          15.100
  24721633.258    24721633.236    24721631.630     -582224.411 1   -453681.572 1
         6.500           9.000
  24670685.039    24670683.641    24670683.938      622371.699 2    484967.643 2
        13.900          16.100
  23189804.204    23189802.787    23189801.010    -8294070.155 5  -6462908.801 5
        32.300          30.200
  20262835.693    20262835.331    20262832.114   -24320881.212 7 -18951326.616 8
        46.600          51.000
  24600700.387    24600700.241    24600702.045     2847592.429 2   2218905.362 2
        12.600          16.100
  21402382.831    21402382.204    21402379.984   -19924126.657 7 -15525284.831 6
        42.400          37.700
  21510790.476    21510790.249    21510789.039   -19737331.594 6 -15379733.117 6
        41.400          38.600
 09  1 18  0 52 30.0000000  0  9G 9G21G11G 6G19G22G 3G18G14
  21433262.575    21433262.142    21433261.192   -14041630.193 6 -10941525.596 5
        39.800          35.800
  24171261.379    24171261.064    24171259.101    -5486266.212 3  -4275007.280 2
        19.300          15.100
  24703332.658    24703331.481    24703330.993     -678396.242 1   -528620.608 1
         6.500          11.000
  24688278.454    24688278.744    24688279.371      714839.863 2    557020.758 2
        12.600          15.100
  23197428.345    23197426.616    23197424.730    -8254007.425 5  -6431691.113 5
        32.300          30.200
  20263731.603    20263731.147    20263727.875   -24316174.013 7 -18947658.668 8
        46.500          51.000
  24618526.738    24618526.022    24618525.861     2941260.188 2   2291893.226 2
        15.100          15.100
  21414075.120    21414074.572    21414072.788   -19862682.107 6 -15477405.961 6
        41.900          38.100
  21497178.732    21497178.093    21497176.587   -19808864.644 6 -15435473.148 6
        41.400          38.400
 09  1 18  0 53  0.0000000  0  9G 9G21G11G 6G19G22G 3G18G14
  21435630.156    21435629.494    21435628.706   -14029190.904 6 -10931832.650 6
        40.000          36.300
  24193337.987    24193338.247    24193336.520    -5370249.048 3  -4184604.290 2
        19.300          15.100
  24685077.460    24685078.066    24685077.074     -774318.074 1   -603364.871 1
         6.500          11.000
  24705895.351    24705896.082    24705897.753      807421.525 1    629162.323 2
        11.000          13.900
  23205149.843    23205148.900    23205146.973    -8213427.696 5  -6400070.548 5
        32.700          30.800
  20264704.585    20264704.178    20264700.957   -24311060.647 7 -18943674.229 8
        46.500          51.000
  24636380.145    24636379.339    24636378.886     3035083.394 2   2365002.194 2
        13.900          13.900
  21425828.840    21425828.169    21425826.772   -19800915.762 6 -15429276.342 6
        41.600          38.300
  21483638.805    21483638.231    21483636.689   -19880017.379 6 -15490916.822 6
        41.400          38.600
 09  1 18  0 53 30.0000000  0  9G 9G21G11G 6G19G22G 3G18G14
  21438136.857    21438136.342    21438135.476   -14016017.493 6 -10921567.645 6
        40.000          36.200
  24215438.569    24215438.583    24215437.033    -5254108.828 2  -4094105.404 2
        17.000          15.100
  24666872.240    24666873.250    24666872.963     -869980.839 1   -677907.246 1
         6.500          11.000
  24723535.498    24723536.838    24723538.038      900120.665 1    701395.430 2
         9.000          15.100
  23212971.446    23212970.151    23212967.903    -8172326.214 5  -6368043.428 5
        33.200          30.800
  20265756.226    20265755.781    20265752.506   -24305534.343 7 -18939368.013 8
        46.400          51.000
  24654265.269    24654264.043    24654263.677     3129065.730 2   2438235.150 2
        12.600          13.900
  21437645.015    21437644.383    21437642.869   -19738822.130 6 -15380891.698 6
        41.800          38.300
  21470172.803    21470172.096    21470170.537   -19950782.259 6 -15546058.270 6
        41.400          38.600
 09  1 18  0 54  0.0000000  0  9G 9G21G11G 6G19G22G 3G18G14
  21440783.508    21440782.823    21440781.554   -14002110.757 6 -10910731.221 5
        40.000          35.900
  24237563.600    24237562.984    24237560.823    -5137848.325 2  -4003512.830 2
        17.000          15.100
  24648719.216    24648719.598    24648718.182     -965382.703 1   -752246.355 1
         9.000          11.000
  24741198.013    24741197.210    24741198.729      992933.631 1    773717.185 2
         6.500          13.900
  23220891.850    23220890.674    23220888.875    -8130705.392 5  -6335611.622 5
        34.000          31.600
  20266886.045    20266885.757    20266882.655   -24299595.539 7 -18934740.377 8
        46.400          50.900
  24672180.494    24672179.377    24672178.865     3223203.569 2   2511589.290 2
        15.100          15.100
  21449523.255    21449522.605    21449520.790   -19676402.121 6 -15332252.734 6
        41.800          37.600
  21456780.396    21456779.735    21456778.684   -20021158.656 6 -15600897.008 6
        41.400          39.200
 09  1 18  0 54 30.0000000  0  9G 9G19G21G11G 6G22G 3G18G14
  21443569.555    21443569.025    21443567.922   -13987469.160 6 -10899322.183 6
        40.300          36.100
  23228910.900    23228909.404    23228907.810    -8088565.224 5  -6302775.137 5
        33.800          31.500
  24259712.274    24259710.416    24259706.778    -5021467.649 2  -3912826.609 2
        17.000          13.900
  24630616.356    24630616.816    24630614.595    -1060519.295 1   -826378.711 1
        11.000           9.000
  24758884.647    24758882.509    24758880.574     1085859.495      846126.921 2
         3.000          12.600
  20268095.339    20268094.922    20268091.786   -24293241.682 7 -18929789.316 8
        46.400          50.900
  24690121.066    24690120.771    24690122.369     3317496.172 2   2585064.018 2
        13.900          15.100
  21461463.613    21461462.982    21461461.025   -19613654.911 6 -15283358.800 6
        41.500          37.400
  21443462.688    21443462.048    21443461.128   -20091143.559 6 -15655430.678 6
        41.500          39.300
 09  1 18  0 55  0.0000000  0  9G 9G19G21G11G 6G22G 3G18G14
  21446494.173    21446493.737    21446493.000   -13972098.526 6 -10887345.059 6
        40.100          36.200
  23237027.621    23237026.156    23237023.786    -8045912.541 5  -6269539.284 5
        34.300          30.800
  24281879.998    24281878.152    24281875.189    -4904974.755 2  -3822052.924 2
        17.000          15.100
  24612561.830    24612561.875    24612560.744    -1155393.375 2   -900306.550 1
        12.600           9.000
  24776585.200    24776582.267    24776584.176     1178890.045      918618.267 1
                        11.000
  20269382.263    20269381.892    20269378.770   -24286478.637 7 -18924519.410 8
        46.400          51.000
  24708091.431    24708089.970    24708092.755     3411934.614 1   2658652.426 2
        11.000          13.900
  21473465.260    21473464.477    21473462.542   -19550586.520 6 -15234214.605 6
        41.600          37.500
  21430218.844    21430218.205    21430216.798   -20160740.996 6 -15709662.435 6
        41.700          39.100
 09  1 18  0 55 30.0000000  0  8G 9G19G21G11G22G 3G18G14
  21449556.559    21449556.058    21449555.192   -13956005.343 6 -10874804.910 5
        40.000          35.700
  23245239.517    23245238.375    23245236.512    -8002754.870 5  -6235909.932 5
        33.000          30.400
  24304066.486    24304065.328    24304062.796    -4788377.471 2  -3731197.922 2
        17.800          15.100
  24594558.013    24594556.755    24594556.910    -1250007.993 1   -974032.204 1
        11.000           9.000
  20270746.203    20270745.805    20270742.575   -24279311.743 7 -18918934.816 8
        46.500          50.900
  24726089.317    24726088.374    24726087.618     3506510.283 1   2732347.741 2
         9.000          13.900
  21485526.526    21485525.960    21485524.027   -19487203.012 6 -15184824.854 6
        41.900          37.300
  21417047.618    21417047.083    21417045.690   -20229955.487 6 -15763595.794 6
        41.700          39.300
 09  1 18  0 56  0.0000000  0  8G 9G19G21G11G22G 3G18G14
  21452756.211    21452755.637    21452754.543   -13939192.913 6 -10861704.313 5
        40.200          35.600
  23253547.641    23253546.386    23253544.516    -7959096.900 5  -6201890.742 5
        32.400          30.200
  24326272.169    24326271.426    24326269.685    -4671680.619 2  -3640265.315 2
        17.000          17.000
  24576604.659    24576603.559    24576602.988    -1344363.380 1  -1047555.855 1
         9.000           9.000
  20272186.279    20272185.918    20272182.730   -24271743.198 7 -18913037.244 8
        46.400          50.700
  24744113.829    24744112.173    24744110.677     3601218.220 1   2806146.121 2
         9.000          13.900
  21497647.340    21497646.497    21497644.642   -19423508.058 6 -15135192.423 6
        41.300          36.800
  21403949.302    21403948.706    21403947.226   -20298788.934 7 -15817232.231 6
        42.100          39.700
 09  1 18  0 56 30.0000000  0  8G 9G19G18G21G11G22G 3G14
  21456095.176    21456094.501    21456093.692   -13921646.328 6 -10848031.646 6
        40.100          36.000
  23261953.641    23261952.144    23261950.653    -7914924.935 5  -6167471.038 5
        32.000          30.400
  21509829.869    21509829.396    21509827.580   -19359486.624 6 -15085305.585 6
        41.400          36.700
  24348498.958    24348499.128    24348497.412    -4554870.813 2  -3549244.699 2
        12.600          16.100
  24558701.901    24558701.143    24558700.404    -1438441.376 1  -1120863.330
        11.000           3.000
  20273706.171    20273705.782    20273702.255   -24263757.226 7 -18906814.407 8
        46.500          50.600
  24762162.113    24762161.647    24762161.431     3696070.748 1   2880057.161 2
         9.000          15.100
  21390926.582    21390925.918    21390924.326   -20367224.272 7 -15870558.457 6
        42.000          39.800
 09  1 18  0 57  0.0000000  0  8G 9G19G21G11G22G 3G18G14
  21459575.613    21459575.249    21459574.174   -13903355.204 6 -10833778.817 5
        40.200          35.900
  23270458.986    23270457.536    23270455.489    -7870229.303 5  -6132643.296 4
        31.500          29.700
  24370751.454    24370751.328    24370748.940    -4437939.303 1  -3458129.292 2
         9.000          17.000
  24540853.863    24540853.197    24540852.325    -1532228.528 1  -1193944.171 1
        11.000           6.500
  20275307.112    20275306.725    20275303.613   -24255342.871 7 -18900257.762 8
        46.400          50.700
  24780240.769    24780240.728    24780240.122     3791075.880 1   2954087.137 2
         9.000          16.100
  21522077.373    21522076.538    21522074.821   -19295128.522 6 -15035156.412 6
        41.600          37.200
  21377981.461    21377980.951    21377979.680   -20435249.205 6 -15923564.883 6
        41.900          39.900
 09  1 18  0 57 30.0000000  0  8G 9G19G18G21G11G22G 3G14
  21463193.702    21463193.284    21463192.616   -13884341.063 6 -10818962.607 5
        39.900          35.600
  23279059.765    23279057.628    23279056.023    -7825033.462 5  -6097425.743 4
        31.100          29.500
  21534384.109    21534383.383    21534381.547   -19230455.672 6 -14984761.990 6
        41.400          37.100
  24393021.750    24393020.262    24393018.855    -4320909.364 1  -3366937.153 2
         6.500          15.100
  24523059.230    24523058.824    24523058.006    -1625743.794 1  -1266813.135 1
         9.000           6.500
  20276986.028    20276985.612    20276982.519   -24246521.225 7 -18893383.753 8
        46.400          50.900
  24798344.017    24798343.430    24798343.537     3886209.539 1   3028217.239 2
        11.000          15.100
  21365111.251    21365110.574    21365109.196   -20502883.818 6 -15976267.164 6
        41.900          40.100
 09  1 18  0 58  0.0000000  0  8G 9G19G18G21G11G22G 3G14
  21466950.070    21466949.331    21466948.098   -13864605.618 6 -10803584.331 5
        40.500          35.600
  23287754.535    23287752.922    23287751.233    -7779339.969 5  -6061820.426 4
        31.300          29.500
  21546750.600    21546749.834    21546747.997   -19165469.498 6 -14934123.408 6
        41.300          36.800
  24415308.981    24415307.673    24415307.645    -4203784.470 1  -3275671.041 2
         6.500          15.100
  24505315.984    24505314.958    24505314.473    -1718985.043    -1339468.575 1
         3.000           6.500
  20278742.106    20278741.682    20278738.508   -24237292.823 7 -18886192.784 8
        46.400          50.800
  24816471.972    24816471.637    24816470.668     3981467.923 1   3102444.519 2
        11.000          16.100
  21352314.822    21352314.249    21352312.950   -20570127.885 6 -16028665.126 6
        41.800          40.100
 09  1 18  0 58 30.0000000  0  8G 9G19G18G14G21G11G22G 3
  21470844.022    21470843.485    21470842.398   -13844141.565 6 -10787638.316 5
        40.300          35.800
  23296545.802    23296543.951    23296542.481    -7733142.679 5  -6025822.559 4
        31.300          29.900
  21559177.902    21559177.282    21559175.288   -19100162.646 6 -14883234.953 6
        41.200          36.500
  21339594.580    21339594.038    21339592.954   -20636971.979 6 -16080751.422 6
        41.700          40.200
  24437616.081    24437616.528    24437614.696    -4086558.605 1  -3184326.237 2
         6.500          13.900
  24487626.678    24487625.337    24487621.968    -1811941.424    -1411902.130 1
                         6.500
  20280577.217    20280576.812    20280573.515   -24227649.372 7 -18878678.408 8
        46.400          50.700
  24834621.770    24834622.319    24834622.952     4076856.532 1   3176773.276 2
         6.500          17.000
 09  1 18  0 59  0.0000000  0  8G 9G19G18G14G21G11G22G 3
  21474875.110    21474874.242    21474873.232   -13822958.750 6 -10771132.231 5
        40.000          35.900
  23305430.748    23305429.026    23305427.230    -7686452.462 5  -5989440.572 5
        32.000          30.100
  21571664.589    21571663.902    21571661.934   -19034544.906 6 -14832104.246 6
        41.100          36.500
  21326949.348    21326948.729    21326947.607   -20703424.219 6 -16132532.376 6
        41.800          40.200
  24459942.376    24459941.233    24459938.569    -3969242.770 1  -3092911.322 2
         6.500          13.900
  24469992.839    24469991.197    24469987.024    -1904619.558    -1484118.829 1
                         6.500
  20282489.649    20282489.284    20282486.066   -24217599.260 7 -18870847.142 8
        46.300          50.700
  24852798.533    24852797.538    24852798.274     4172363.283 1   3251194.072 2
         9.000          17.800
 09  1 18  0 59 30.0000000  0  8G 9G19G18G14G21G11G22G 3
  21479043.833    21479043.432    21479042.634   -13801049.053 6 -10754059.732 6
        40.000          36.000
  23314411.011    23314409.438    23314406.973    -7639262.241 5  -5952668.964 4
        32.100          29.700
  21584212.096    21584211.414    21584209.236   -18968608.045 6 -14780724.876 6
        41.200          36.300
  21314380.574    21314379.949    21314378.682   -20769474.250 6 -16183999.917 6
        41.900          40.300
  24482284.566    24482284.725    24482281.924    -3851830.326 1  -3001421.120 2
         6.500          13.900
  24452414.927    24452415.966    24452407.998    -1997008.148    -1556109.884 1
                         9.000
  20284480.864    20284480.531    20284477.493   -24207134.110 7 -18862692.480 8
        46.200          50.700
  24870995.514    24870995.231    24870995.874     4267994.115 1   3325711.583 2
         9.000          17.000
                            4  1
other post-header comments skipped                          COMMENT
 09  1 18  1  0  0.0000000  0  8G 9G19G18G14G21G 6G22G 3
  21483350.766    21483350.046    21483349.580   -13778416.972 6 -10736424.331 6
        39.700          36.000
  23323484.039    23323482.694    23323481.010    -7591578.234 5  -5915512.610 4
        31.000          29.900
  21596819.188    21596818.535    21596816.591   -18902356.953 6 -14729100.652 6
        41.100          36.300
  21301887.492    21301886.976    21301885.595   -20835125.219 6 -16235156.502 6
        41.900          40.500
  24504644.468    24504643.339    24504641.919    -3734327.526    -2909860.522 1
         3.000          11.000
  24954601.979    24954601.586    24954599.976           -.28711         -.28911
         6.500           6.500
  20286550.944    20286550.500    20286547.182   -24196257.665 7 -18854217.329 8
        46.300          50.600
  24889214.818    24889215.213    24889214.443     4363742.005 1   3400320.337 2
        11.000          15.100
 09  1 18  1  0 30.0000000  0  8G 9G19G18G14G21G 6G22G 3
  21487792.008    21487791.467    21487790.244   -13755077.917 6 -10718238.059 5
        39.700          35.400
  23332650.017    23332648.258    23332645.691    -7543416.308 5  -5877983.846 5
        31.600          30.100
  21609483.259    21609482.651    21609480.793   -18835806.575 6 -14677243.215 6
        41.300          36.200
  21289467.757    21289467.310    21289466.228   -20900390.218 6 -16286012.336 6
        41.900          40.700
  24527017.851    24527017.464    24527015.099    -3616750.647    -2818242.200 1
         3.000          11.000
  24972489.341    24972488.645    24972486.827       93994.835 1     73242.659 1
         6.500           6.500
  20288695.873    20288695.537    20288692.537   -24184983.640 7 -18845432.368 8
        46.100          50.600
  24907456.159    24907455.401    24907452.039     4459589.718 2   3475006.865 2
        12.600          12.600
 09  1 18  1  1  0.0000000  0  8G 9G19G18G14G21G 6G22G 3
  21492371.696    21492371.231    21492370.494   -13731010.862 6 -10699484.517 5
        39.500          35.700
  23341909.732    23341907.962    23341905.560    -7494756.760 5  -5840067.324 5
        31.600          30.200
  21622208.512    21622207.857    21622205.791   -18768935.905 6 -14625136.205 5
        41.300          35.900
  21277125.970    21277125.588    21277124.602   -20965246.234 7 -16336549.482 6
        42.000          40.900
  24549410.620    24549409.391    24549406.919    -3499080.680 1  -2726551.307 1
         6.500           6.500
  24990390.618    24990390.386    24990390.401      188069.174 1    146547.225 1
         6.500           6.500
  20290921.247    20290920.872    20290917.662   -24173290.626 7 -18836320.930 8
        46.200          50.500
  24925719.520    24925718.030    24925713.264     4555556.728 1   3549786.368 1
         9.000          11.000
 09  1 18  1  1 30.0000000  0  8G 9G19G18G14G21G 6G22G 3
  21497089.748    21497089.361    21497088.896   -13706215.960 6 -10680163.810 6
        39.600          36.000
  23351263.068    23351261.653    23351259.856    -7445600.878 5  -5801764.050 5
        31.500          30.400
  21634994.746    21634993.996    21634991.668   -18701744.905 6 -14572779.578 5
        41.200          35.700
  21264862.671    21264862.054    21264860.902   -21029691.829 7 -16386766.813 6
        42.000          40.800
  24571819.656    24571819.098    24571817.825    -3381318.853 1  -2634788.839 1
         6.500           6.500
  25008305.545    25008306.141    25008306.462      282220.708      219911.281 1
         3.000           6.500
  20293226.386    20293225.966    20293222.671   -24161177.541 7 -18826882.157 8
        46.200          50.400
  24943998.970    24943999.332    24944000.528     4651640.217 1   3624656.631 1
         6.500           9.000
 09  1 18  1  2  0.0000000  0  8G 9G19G18G14G21G 6G22G 3
  21501945.463    21501944.867    21501943.779   -13680702.151 6 -10660282.916 5
        39.700          35.700
  23360710.198    23360708.319    23360706.655    -7395958.231 5  -5763081.491 4
        31.500          29.900
  21647840.214    21647839.430    21647837.240   -18634241.667 6 -14520179.651 5
        41.000          35.900
  21252675.712    21252675.347    21252674.121   -21093733.153 7 -16436669.131 6
        42.100          40.900
  24594245.731    24594244.122    24594242.403    -3263474.754 1  -2542962.255 1
         9.000           6.500
  25026235.912    25026236.432    25026235.762      376439.459      293328.371 1
         3.000           6.500
  20295610.020    20295609.616    20295606.085   -24148651.906 7 -18817121.920 8
        46.200          50.300
  24962304.809    24962304.932    24962304.559     4747830.145 1   3699609.829 1
         9.000          11.000
 09  1 18  1  2 30.0000000  0  8G 9G19G18G14G21G 6G22G 3
  21506936.725    21506936.324    21506935.685   -13654470.193 6 -10639842.425 5
        39.400          35.600
  23370248.736    23370247.368    23370245.284    -7345830.906 5  -5724021.240 4
        32.000          29.200
  21660744.735    21660744.000    21660741.893   -18566427.348 6 -14467337.334 5
        41.000          35.700
  21240566.545    21240566.009    21240564.749   -21157369.149 7 -16486255.610 6
        42.400          41.100
  24616685.467    24616685.491    24616681.562    -3145550.809 1  -2451073.459 1
        11.000           9.000
  25044180.525    25044176.846    25044181.117      470722.433      366795.596
                         3.000
  20298071.845    20298071.459    20298068.165   -24135713.798 7 -18807040.271 8
        46.100          50.200
  24980630.599    24980630.540    24980629.998     4844123.595 2   3774643.628 2
        12.600          13.900
 09  1 18  1  3  0.0000000  0  8G 9G19G18G21G 6G22G 3G14
  21512064.920    21512064.162    21512063.433   -13627522.828 6 -10618844.480 5
        39.100          35.300
  23379878.913    23379877.824    23379875.726    -7295222.569 5  -5684586.182 4
        32.400          29.700
  21673707.991    21673707.277    21673705.326   -18498303.897 6 -14414254.121 5
        40.600          35.500
  24639140.359    24639140.861    24639136.921    -3027550.766 1  -2359125.329 1
        11.000           9.000
  25062130.581    25062127.394    25062133.350      565065.168      440310.185
                         3.000
  20300612.094    20300611.765    20300608.537   -24122364.410 7 -18796638.152 8
        46.100          50.200
  24998975.448    24998974.082    24998973.528     4940516.077 1   3849754.664 2
         9.000          12.600
  21228534.018    21228533.521    21228532.197   -21220600.499 7 -16535526.776 6
        42.600          41.100
 09  1 18  1  3 30.0000000  0  8G 9G18G19G21G11G22G 3G14
  21517326.269    21517325.941    21517325.361   -13599872.314 6 -10597298.613 5
        39.300          35.500
  21686727.935    21686727.079    21686725.434   -18429883.579 6 -14360939.597 5
        40.100          35.600
  23389598.729    23389597.391    23389595.120    -7244146.614 5  -5644786.739 4
        32.400          28.800
  24661608.790    24661607.725    24661603.231    -2909488.062 1  -2267128.428 1
         6.500           9.000
  24313769.478    24313769.189    24313768.284          -1.21911         -.62212
         6.500          12.600
  20303228.715    20303228.314    20303225.062   -24108615.112 7 -18785924.408 8
        46.200          50.300
  25017333.262    25017331.106    25017329.451     5036993.159     3924931.624 1
         3.000           9.000
  21216576.762    21216576.050    21216574.606   -21283437.422 7 -16584490.603 6
        42.700          41.000
 09  1 18  1  4  0.0000000  0  8G 9G18G19G21G11G22G 3G14
  21522723.474    21522722.964    21522722.003   -13571511.395 6 -10575199.205 5
        39.300          35.400
  21699805.669    21699805.055    21699803.173   -18361159.219 6 -14307388.150 5
        40.500          35.600
  23399408.331    23399406.829    23399404.515    -7192596.913 5  -5604618.146 4
        32.000          28.400
  24684089.093    24684088.873    24684083.685    -2791357.036    -2175078.290 1
         3.000          11.000
  24296695.933    24296697.226    24296694.164      -89720.182 1    -69911.475 1
         6.500          11.000
  20305922.526    20305922.148    20305919.144   -24094458.031 7 -18774892.914 8
        46.000          50.300
  25035709.629    25035707.078    25035706.592     5133560.350     4000178.725 1
         3.000           9.000
  21204695.712    21204695.224    21204693.860   -21345870.788 7 -16633139.967 6
        42.700          41.100
 09  1 18  1  4 30.0000000  0  8G 9G18G19G21G11G22G 3G14
  21528258.022    21528257.395    21528256.078   -13542428.099 6 -10552536.892 5
        39.300          35.200
  21712943.711    21712943.069    21712941.463   -18292118.285 6 -14253590.021 5
        40.400          35.800
  23409309.766    23409308.386    23409306.451    -7140562.199 5  -5564071.619 4
        32.000          28.600
  24706583.877    24706582.060    24706578.628    -2673146.320    -2082966.109 2
         3.000          12.600
  24279686.102    24279685.081    24279680.573     -179119.051 1   -139572.919 1
         6.500          11.000
  20308696.825    20308696.439    20308693.161   -24079879.473 7 -18763532.993 8
        46.000          50.100
  25054102.808    25054101.647    25054103.327     5230227.600     4075503.841 1
         3.000          11.000
  21192894.489    21192894.012    21192892.735   -21407886.356 7 -16681463.769 6
        42.700          41.300
 09  1 18  1  5  0.0000000  0  8G 9G18G19G21G11G22G 3G14
  21533928.214    21533927.768    21533926.966   -13512630.274 6 -10529317.807 5
        39.500          35.900
  21726140.655    21726139.949    21726137.961   -18222767.930 6 -14199550.793 5
        40.000          34.900
  23419302.712    23419301.133    23419298.732    -7088051.368 5  -5523154.091 4
        31.600          28.600
  24729092.224    24729090.716    24729086.755    -2554865.069 1  -1990798.940 2
         9.000          12.600
  24262732.649    24262732.854    24262729.457     -268201.856     -208988.104 2
         3.000          12.600
  20311549.933    20311549.590    20311546.351   -24064885.522 7 -18751849.393 8
        46.000          50.000
  25072513.608    25072512.385    25072512.037     5326985.573     4150899.706 1
         3.000           6.500
  21181171.808    21181171.327    21181169.869   -21469489.602 7 -16729466.286 6
        42.700          41.300
 09  1 18  1  5 30.0000000  0  8G 9G18G19G21G11G22G 3G14
  21539734.362    21539733.946    21539733.317   -13482118.675 6 -10505542.533 5
        39.500          35.900
  21739396.330    21739395.715    21739393.640   -18153108.664 6 -14145270.842 5
        40.000          34.700
  23429385.592    23429383.878    23429381.791    -7035066.220 5  -5481866.967 4
        31.300          29.000
  24751613.057    24751612.536    24751607.523    -2436515.012 1  -1898578.153 2
        11.000          12.600
  24245839.593    24245840.927    24245839.682     -356966.193 1   -278155.112 2
         6.500          13.900
  20314482.352    20314482.032    20314478.628   -24049476.194 7 -18739842.125 8
        46.100          49.900
  25090944.393    25090943.956    25090940.936     5423832.035 1   4226364.498 1
         6.500           6.500
  21169527.748    21169527.206    21169525.808   -21530679.366 7 -16777146.603 6
        42.700          41.400
 09  1 18  1  6  0.0000000  0  8G 9G18G19G21G11G22G 3G14
  21545675.456    21545674.755    21545673.849   -13450899.272 6 -10481215.724 5
        39.100          35.300
  21752710.208    21752709.380    21752707.074   -18083146.461 6 -14090754.845 5
        40.300          35.100
  23439556.909    23439555.540    23439553.483    -6981613.771 5  -5440215.722 4
        31.500          29.000
  24774144.700    24774144.933    24774141.067    -2318103.292 1  -1806309.326 2
        11.000          12.600
  24229009.164    24229008.193    24229008.955     -445414.193     -347075.614 2
         3.000          15.100
  20317492.611    20317492.223    20317488.924   -24033656.711 7 -18727515.248 8
        45.900          49.800
  25109388.456    25109387.999    25109385.955     5520758.538     4301891.570
         3.000           3.000
  21157961.930    21157961.261    21157959.865   -21591459.389 7 -16824507.642 6
        42.800          41.600
 09  1 18  1  6 30.0000000  0  8G 9G18G19G21G11G22G 3G14
  21551750.198    21551749.739    21551748.847   -13418973.376 6 -10456338.409 5
        38.900          34.800
  21766080.676    21766080.234    21766078.240   -18012881.529 6 -14036002.956 5
        40.300          35.300
  23449816.903    23449815.238    23449813.310    -6927695.603 5  -5398201.575 4
        31.300          28.800
  24796689.454    24796689.403    24796685.215    -2199631.707 1  -1713993.822 1
         9.000          11.000
  24212240.364    24212238.399    24212238.846     -533542.780     -415747.233 2
         3.000          16.100
  20320581.077    20320580.719    20320577.616   -24017426.470 7 -18714868.307 8
        45.900          49.900
  25127848.273    25127849.396    25127849.494     5617763.423     4377479.793 1
         3.000           6.500
  21146473.916    21146473.207    21146472.034   -21651828.635 7 -16871548.594 6
        42.800          41.900
 09  1 18  1  7  0.0000000  0  8G 9G18G14G21G11G19G22G 3
  21557959.661    21557959.150    21557958.579   -13386342.506 6 -10430911.749 5
        38.900          35.200
  21779509.227    21779508.532    21779506.553   -17942315.358 6 -13981016.329 5
        40.100          35.100
  21135064.248    21135063.700    21135062.453   -21711786.219 7 -16918268.774 6
        42.800          41.900
  24819243.385    24819243.425    24819242.548    -2081102.969 1  -1621633.761 1
         9.000           9.000
  24195531.445    24195530.508    24195529.297     -621350.308 1   -484168.670 2
         6.500          15.100
  23460165.263    23460164.287    23460161.659    -6873314.745 5  -5355826.887 4
        32.400          29.200
  20323747.965    20323747.555    20323744.234   -24000785.655 7 -18701901.434 8
        46.000          49.900
  25146321.831    25146320.985    25146322.564     5714843.128     4453126.329 1
         3.000           6.500
 09  1 18  1  7 30.0000000  0  7G 9G18G14G11G19G 3G22
  21564301.185    21564300.766    21564299.908   -13353018.181 6 -10404944.735 5
        38.900          34.800
  21792992.232    21792991.838    21792990.210   -17871458.606 6 -13925803.280 5
        39.800          35.100
  21123731.168    21123730.675    21123729.422   -21771341.686 7 -16964675.620 7
        42.800          42.000
  24178879.797    24178881.519    24178879.627     -708844.339 2   -552345.842 2
        12.600          17.000
  23470599.623    23470598.365    23470595.820    -6818483.322 5  -5313101.113 4
        32.300          29.200
  25164809.590    25164807.823    25164807.856     5811984.137     4528820.579 1
                         6.500
  20326990.768    20326990.370    20326986.946   -23983744.733 7 -18688622.792 8
        45.900          49.800
 09  1 18  1  8  0.0000000  0  7G 9G18G14G11G19G 3G22
  21570777.390    21570776.796    21570775.614   -13318986.914 6 -10378426.868 5
        38.900          34.500
  21806534.036    21806533.371    21806531.682   -17800297.441 6 -13870353.022 5
        39.700          34.900
  21112477.696    21112477.168    21112475.848   -21830479.232 7 -17010756.808 7
        42.800          42.000
  24162296.249    24162295.312    24162293.630     -796007.515 2   -620265.207 3
        17.000          19.300
  23481122.092    23481120.443    23481118.053    -6763188.862 5  -5270014.524 4
        31.800          29.000
  25183305.162    25183303.130    25183308.886     5909199.116     4604572.475 1
                         6.500
  20330312.331    20330311.922    20330308.776   -23966288.682 7 -18675020.671 8
        45.800          49.700
 09  1 18  1  8 30.0000000  0  7G 9G18G14G11G19G 3G22
  21577389.973    21577389.249    21577388.670   -13284237.904 6 -10351349.724 5
        38.800          34.900
  21820135.482    21820134.756    21820133.408   -17728820.803 6 -13814656.938 5
        39.200          34.800
  21101306.207    21101305.633    21101304.318   -21889185.849 7 -17056502.210 7
        42.700          42.200
  24145775.400    24145774.295    24145773.164     -882825.306 2   -687915.411 3
        17.800          20.500
  23491734.558    23491732.834    23491730.678    -6707421.389 5  -5226559.362 4
        32.100          29.500
  25201822.782    25201821.849    25201821.866     6006496.944     4680388.938 1
                        11.000
  20333715.449    20333715.079    20333711.798   -23948405.469 7 -18661085.698 8
        45.800          49.700
 09  1 18  1  9  0.0000000  0  7G 9G18G14G11G19G 3G22
  21584136.816    21584136.238    21584135.600   -13248782.199 6 -10323721.894 5
        39.000          35.200
  21833795.019    21833794.493    21833793.060   -17657038.792 6 -13758722.909 5
        39.400          34.900
  21090215.234    21090214.679    21090213.289   -21947470.215 7 -17101918.589 7
        43.000          42.400
  24129316.805    24129317.524    24129316.255     -969304.910 2   -755302.105 3
        17.800          20.500
  23502434.245    23502432.413    23502431.108    -6651192.804 5  -5182744.876 4
        30.800          29.900
  25220348.438    25220347.409    25220349.751     6103865.089     4756260.195 1
                        11.000
  20337198.015    20337197.642    20337194.291   -23930104.667 7 -18646825.330 8
        45.800          49.600
 09  1 18  1  9 30.0000000  0  7G 9G18G14G11G19G 3G22
  21591015.816    21591015.214    21591013.890   -13212634.090 6 -10295554.532 5
        39.100          34.700
  21847510.542    21847509.888    21847507.997   -17584965.193 6 -13702561.664 5
        39.200          34.600
  21079202.141    21079201.603    21079200.169   -22005344.053 7 -17147015.067 7
        42.800          42.400
  24112922.963    24112922.936    24112921.621    -1055456.449 3   -822433.157 3
        20.500          20.500
  23513218.883    23513217.592    23513215.602    -6594518.192 5  -5138582.856 4
        31.600          29.500
  25238888.673    25238887.023    25238890.091     6201288.025     4832174.107 2
         3.000          12.600
  20340757.573    20340757.154    20340754.077   -23911398.806 7 -18632249.334 8
        45.700          49.600
 09  1 18  1 10  0.0000000  0  7G 9G18G14G11G19G 3G22
  21598026.462    21598026.163    21598025.264   -13175789.115 6 -10266844.161 5
        38.600          34.500
  21861282.077    21861281.427    21861279.732   -17512594.823 6 -13646169.175 5
        38.900          34.300
  21068268.652    21068268.035    21068266.697   -22062800.346 7 -17191786.197 7
        42.800          42.400
  24096594.429    24096593.802    24096591.202    -1141271.409 3   -889301.955 3
        23.000          21.100
  23524089.195    23524087.700    23524086.063    -6537393.945 5  -5094070.472 4
        31.300          29.700
  25257438.121    25257437.665    25257439.198     6298768.723     4908133.071 2
         3.000          12.600
  20344395.396    20344394.988    20344391.776   -23892281.979 7 -18617353.111 8
        45.600          49.500
 09  1 18  1 10 30.0000000  0  7G 9G18G14G11G19G 3G22
  21605170.092    21605169.760    21605168.419   -13138251.372 6 -10237593.973 5
        38.900          34.500
  21875110.106    21875109.249    21875107.137   -17439930.905 6 -13589547.945 5
        39.200          34.300
  21057413.958    21057413.428    21057412.107   -22119840.919 7 -17236233.386 7
        42.700          42.500
  24080328.031    24080327.241    24080325.075    -1226750.000 4   -955908.630 3
        24.200          22.100
  23535043.923    23535042.768    23535041.004    -6479824.537 5  -5049211.198 4
        31.100          29.200
  25275999.775    25275998.085    25275999.646     6396301.969     4984132.979 2
                        12.600
  20348110.840    20348110.484    20348107.101   -23872757.068 7 -18602138.890 8
        45.600          49.300
 09  1 18  1 11  0.0000000  0  7G 9G18G14G11G19G 3G22
  21612445.416    21612444.652    21612443.675   -13100020.835 6 -10207803.942 5
        38.700          34.800
  21888993.260    21888992.575    21888990.660   -17366973.085 6 -13532697.701 5
        39.500          34.400
  21046638.940    21046638.374    21046637.012   -22176463.774 7 -17280355.080 7
        42.500          42.500
  24064126.395    24064126.084    24064123.980    -1311888.338 4  -1022250.194 3
        24.900          22.600
  23546084.558    23546082.817    23546080.614    -6421811.063 5  -5004005.892 4
        31.500          29.000
  25294569.815    25294569.065    25294567.473     6493886.366     5060172.705 1
                         9.000
  20351904.079    20351903.780    20351900.631   -23852822.614 7 -18586605.550 8
        45.600          49.300
 09  1 18  1 11 30.0000000  0  7G 9G18G14G11G19G 3G22
  21619851.243    21619850.866    21619850.553   -13061098.896 6 -10177475.152 5
        38.300          34.900
  21902932.259    21902931.634    21902929.854   -17293722.219 6 -13475619.104 5
        39.000          34.100
  21035943.973    21035943.218    21035941.871   -22232667.938 7 -17324150.522 7
        42.500          42.800
  24047989.482    24047989.526    24047987.734    -1396684.021 4  -1088324.724 3
        24.900          22.600
  23557207.722    23557205.969    23557203.868    -6363355.928 5  -4958456.424 4
        30.400          28.400
  25313146.988    25313145.757    25313143.844     6591518.909     5136249.876 1
                         9.000
  20355775.507    20355775.124    20355771.900   -23832478.695 7 -18570753.144 8
        45.500          49.200
 09  1 18  1 12  0.0000000  0  7G 9G18G14G11G19G 3G22
  21627390.299    21627389.834    21627388.869   -13021484.593 6 -10146606.867 5
        38.700          34.900
  21916927.884    21916927.151    21916925.042   -17220176.493 6 -13418310.760 5
        38.800          33.900
  21025328.878    21025328.231    21025326.841   -22288449.736 7 -17367616.844 7
        42.500          42.800
  24031919.892    24031919.658    24031917.347    -1481131.846 4  -1154128.198 3
        24.200          22.100
  23568415.293    23568413.714    23568411.850    -6304458.825 4  -4912562.596 4
        29.700          28.400
  25331733.175    25331731.925    25331735.424     6689199.412     5212368.627 1
                         6.500
  20359725.111    20359724.814    20359721.681   -23811722.454 7 -18554579.446 8
        45.500          49.100
 09  1 18  1 12 30.0000000  0  7G 9G18G14G11G19G 3G22
  21635060.562    21635060.072    21635059.162   -12981175.335 6 -10115197.054 5
        38.300          34.600
  21930980.017    21930979.213    21930976.853   -17146332.607 6 -13360770.072 5
        38.700          33.400
  21014795.013    21014794.401    21014793.296   -22343804.341 7 -17410750.287 7
        42.400          43.000
  24015918.480    24015917.536    24015914.547    -1565225.498 4  -1219655.705 3
        24.200          22.100
  23579706.746    23579705.509    23579704.671    -6245117.906 4  -4866322.928 4
        29.000          29.000
  25350332.068    25350334.054    25350337.168     6786929.109     5288520.412 1
                         9.000
  20363754.505    20363754.033    20363750.647   -23790550.171 7 -18538081.564 8
        45.500          49.200
 09  1 18  1 13  0.0000000  0  6G 9G18G14G11G19G22
  21642862.258    21642861.707    21642860.723   -12940178.107 6 -10083251.158 5
        38.400          34.500
  21945087.465    21945086.733    21945084.526   -17072196.624 6 -13303001.779 5
        38.800          33.400
  21004341.971    21004341.520    21004340.266   -22398736.093 7 -17453554.238 7
        42.700          43.300
  23999982.419    23999981.564    23999979.250    -1648967.673 3  -1284909.341 3
        23.800          22.100
  23591082.105    23591081.158    23591080.046    -6185340.654 4  -4819743.261 4
        29.500          29.700
  20367861.446    20367861.053    20367857.805   -23768966.780 7 -18521263.333 8
        45.300          49.100
 09  1 18  1 13 30.0000000  0  6G 9G18G14G11G19G22
  21650790.651    21650790.490    21650789.695   -12898510.698 6 -10050783.051 5
        38.100          34.300
  21959247.840    21959246.918    21959244.581   -16997785.479 6 -13245019.076 5
        38.900          33.100
  20993966.606    20993965.915    20993964.561   -22453260.255 7 -17496040.586 7
        42.700          43.200
  23984110.413    23984110.092    23984107.910    -1732372.017 3  -1349899.717 3
        23.400          22.100
  23602537.748    23602535.968    23602534.435    -6125145.660 4  -4772838.086 4
        29.000          29.000
  20372043.950    20372043.488    20372040.117   -23746988.718 7 -18504137.568 8
        45.300          49.000
 09  1 18  1 14  0.0000000  0  6G 9G18G11G19G22G14
  21658850.986    21658850.355    21658849.329   -12856157.681 6 -10017780.696 5
        38.300          34.600
  21973462.593    21973461.955    21973459.898   -16923083.074 6 -13186809.413 5
        38.400          33.000
  23968307.177    23968306.777    23968304.664    -1815419.001 3  -1414611.629 3
        23.000          22.100
  23614074.574    23614072.777    23614071.217    -6064518.511 4  -4725596.166 4
        28.800          28.400
  20376304.404    20376304.051    20376300.766   -23724599.005 7 -18486691.036 8
        45.400          49.000
  20983671.726    20983671.153    20983669.770   -22507359.021 7 -17538195.457 7
        42.600          43.200
 09  1 18  1 14 30.0000000  0  6G 9G18G11G19G22G14
  21667042.214    21667041.680    21667040.780   -12813110.623 6  -9984237.535 5
        38.000          34.500
  21987734.810    21987734.127    21987732.609   -16848079.917 6 -13128365.395 5
        37.700          33.100
  23952573.555    23952573.414    23952572.336    -1898095.790 3  -1479035.068 3
        23.000          23.000
  23625694.548    23625693.714    23625691.710    -6003450.958 4  -4678011.046 4
        28.600          27.600
  20380645.192    20380644.882    20380641.672   -23701787.401 7 -18468915.758 8
        45.300          49.000
  20973460.308    20973459.567    20973458.020   -22561021.520 7 -17580010.370 7
        42.700          43.200
 09  1 18  1 15  0.0000000  0  6G 9G18G11G19G22G14
  21675364.855    21675364.290    21675363.190   -12769375.529 6  -9950158.237 5
        38.200          34.100
  22002064.026    22002063.150    22002061.492   -16772781.411 6 -13069691.248 5
        37.800          33.000
  23936910.531    23936910.698    23936910.067    -1980404.623 3  -1543171.790 4
        23.400          24.200
  23637397.658    23637396.687    23637394.941    -5941949.921 4  -4630088.168 4
        27.600          27.600
  20385065.569    20385065.192    20385061.998   -23678558.309 7 -18450815.165 8
        45.200          48.900
  20963330.627    20963329.989    20963328.667   -22614251.138 7 -17621487.980 7
        42.600          43.100
 09  1 18  1 15 30.0000000  0  6G 9G18G11G19G22G14
  21683816.720    21683816.450    21683815.790   -12724959.181 6  -9915548.099 5
        38.200          34.500
  22016448.109    22016447.426    22016445.327   -16697193.238 6 -13010791.378 5
        38.500          32.700
  23921319.046    23921318.341    23921316.561    -2062347.746 3  -1607023.555 4
        23.400          24.600
  23649183.351    23649181.281    23649179.163    -5880022.799 4  -4581833.274 4
        27.600          27.400
  20389564.500    20389564.144    20389560.854   -23654916.708 7 -18432393.141 8
        45.200          48.900
  20953282.931    20953282.377    20953281.192   -22667052.218 7 -17662631.666 7
        42.600          43.500
 09  1 18  1 16  0.0000000  0  6G 9G18G11G19G22G14
  21692395.673    21692395.280    21692395.132   -12679874.954 6  -9880417.525 5
        37.700          34.600
  22030885.166    22030884.397    22030882.068   -16621327.811 6 -12951675.464 5
        38.600          32.700
  23905793.320    23905792.822    23905790.668    -2143934.433 3  -1670597.571 4
        22.600          24.900
  23661046.081    23661044.033    23661042.638    -5817683.579 4  -4533257.255 4
        27.900          27.900
  20394139.626    20394139.224    20394136.033   -23630874.356 7 -18413658.836 8
        45.200          48.900
  20943314.758    20943314.243    20943312.957   -22719435.161 7 -17703449.540 7
        42.700          43.600
 09  1 18  1 16 30.0000000  0  6G 9G18G11G19G22G14
  21701104.061    21701103.487    21701102.165   -12634116.175 6  -9844761.337 5
        38.100          34.000
  22045375.916    22045375.083    22045372.968   -16545177.431 6 -12892337.512 5
        37.800          32.600
  23890337.247    23890336.984    23890335.023    -2225153.917 3  -1733885.470 4
        21.600          24.900
  23672987.475    23672986.402    23672985.120    -5754925.964 4  -4484355.233 4
        28.100          27.600
  20398792.722    20398792.270    20398789.096   -23606422.841 7 -18394605.706 8
        45.100          48.900
  20933428.133    20933427.535    20933426.103   -22771391.013 7 -17743934.613 7
        42.800          43.600
 09  1 18  1 17  0.0000000  0  6G 9G18G11G19G22G14
  21709939.936    21709939.529    21709938.382   -12587682.019 6  -9808578.883 5
        37.800          34.100
  22059921.265    22059920.440    22059918.360   -16468741.059 6 -12832776.712 5
        37.400          32.600
  23874952.332    23874952.128    23874950.320    -2306001.261 3  -1796883.376 4
        20.500          25.300
  23685009.430    23685007.862    23685006.336    -5691750.508 4  -4435127.618 4
        27.100          26.500
  20403523.460    20403523.182    20403520.244   -23581559.957 7 -18375232.030 8
        44.900          48.800
  20923623.031    20923622.375    20923620.896   -22822916.741 7 -17784084.523 7
        42.900          43.600
 09  1 18  1 17 30.0000000  0  6G 9G18G11G19G22G14
  21718905.883    21718905.293    21718904.733   -12540566.626 6  -9771865.589 5
        37.900          34.600
  22074522.037    22074521.334    22074519.470   -16392011.671 6 -12772987.585 5
        37.200          32.300
  23859640.072    23859640.254    23859637.825    -2386466.226 3  -1859583.314 4
        21.600          24.200
  23697111.462    23697110.350    23697109.198    -5628151.660 4  -4385570.083 4
        26.800          27.100
  20408334.877    20408334.490    20408331.106   -23556277.991 7 -18355531.794 8
        44.900          48.600
  20913901.366    20913900.834    20913899.387   -22874003.530 7 -17823892.403 7
        42.900          43.700
 09  1 18  1 18  0.0000000  0  6G 9G18G11G19G22G14
  21727996.687    21727996.520    21727995.929   -12492790.382 6  -9734637.344 5
        37.300          34.100
  22089174.969    22089174.430    22089172.744   -16315008.149 6 -12712984.836 5
        37.300          32.300
  23844398.533    23844398.380    23844395.158    -2466564.733 3  -1921997.715 3
        23.400          22.600
  23709292.271    23709290.241    23709288.524    -5564150.201 4  -4335698.807 4
        28.600          27.600
  20413221.990    20413221.642    20413218.321   -23530595.378 7 -18335519.364 8
        44.900          48.600
  20904260.266    20904259.646    20904258.235   -22924668.880 7 -17863371.889 7
        43.000          44.000
 09  1 18  1 18 30.0000000  0  6G 9G18G11G19G22G14
  21737215.453    21737214.996    21737214.312   -12444346.942 6  -9696889.213 5
        37.100          34.300
  22103882.004    22103881.473    22103879.998   -16237723.209 6 -12652762.806 5
        37.300          32.800
  23829229.425    23829228.706    23829224.789    -2546286.236 3  -1984118.352 3
        23.000          23.000
  23721548.031    23721546.800    23721545.048    -5499740.278 4  -4285509.246 4
        28.100          27.400
  20418186.989    20418186.607    20418183.536   -23504503.895 7 -18315188.337 8
        44.800          48.700
  20894700.959    20894700.367    20894698.629   -22974904.173 7 -17902516.264 7
        43.200          43.900
 09  1 18  1 19  0.0000000  0  6G 9G18G11G19G22G14
  21746561.686    21746560.973    21746560.404   -12395233.298 6  -9658618.848 5
        36.800          34.300
  22118643.436    22118642.742    22118641.160   -16160152.898 6 -12592318.426 5
        36.500          32.600
  23814131.578    23814130.704    23814127.636    -2625623.440 3  -2045939.490 3
        22.600          23.000
  23733883.400    23733882.025    23733880.129    -5434919.566 4  -4234999.617 4
        28.400          27.400
  20423230.776    20423230.380    20423227.300   -23477998.703 7 -18294534.938 8
        44.900          48.700
  20885224.389    20885223.734    20885222.197   -23024703.635 7 -17941321.036 7
        43.000          44.100
 09  1 18  1 19 30.0000000  0  6G 9G18G11G19G22G14
  21756035.600    21756034.760    21756033.916   -12345450.223 6  -9619826.843 5
        37.600          34.300
  22133458.699    22133458.197    22133456.374   -16082297.046 6 -12531651.540 5
        36.500          32.300
  23799107.265    23799106.877    23799104.152    -2704572.519 3  -2107458.217 3
        23.400          22.100
  23746296.145    23746294.633    23746292.788    -5369689.468 4  -4184170.978 4
        28.600          27.100
  20428353.546    20428353.204    20428349.842   -23451079.092 7 -18273558.614 8
        45.100          48.500
  20875831.142    20875830.555    20875829.016   -23074065.397 7 -17979784.734 7
        43.100          44.400
 09  1 18  1 20  0.0000000  0  6G 9G18G11G19G22G14
  21765633.531    21765633.032    21765632.097   -12295010.777 6  -9580523.370 5
        37.500          33.600
  22148326.394    22148325.707    22148324.078   -16004167.355 6 -12470771.269 5
        36.800          32.400
  23784155.388    23784155.086    23784153.481    -2783142.206 3  -2168681.319 3
        23.400          21.100
  23758784.731    23758782.934    23758781.043    -5304063.130 4  -4133033.583 4
        27.400          26.800
  20433552.770    20433552.432    20433549.321   -23423755.842 7 -18252267.764 8
        44.900          48.500
  20866519.217    20866518.594    20866517.155   -23122999.685 7 -18017915.338 7
        43.000          44.500
 09  1 18  1 20 30.0000000  0  6G 9G18G11G19G22G14
  21775356.473    21775356.002    21775355.271   -12243914.783 6  -9540708.322 5
        36.900          33.400
  22163245.972    22163245.402    22163243.863   -15925762.703 6 -12409676.756 5
        36.800          32.000
  23769277.605    23769277.250    23769274.591    -2861328.392 3  -2229605.640 3
        23.800          19.900
  23771348.631    23771346.684    23771344.707    -5238041.481 4  -4081588.142 4
        27.600          26.800
  20438829.743    20438829.281    20438825.977   -23396027.187 7 -18230661.020 8
        45.100          48.500
  20857289.041    20857288.505    20857287.075   -23171503.800 7 -18055710.742 7
        43.000          44.500
 09  1 18  1 21  0.0000000  0  6G 9G18G11G19G22G14
  21785204.938    21785204.406    21785203.700   -12192162.555 6  -9500381.897 5
        37.500          33.500
  22178218.778    22178218.023    22178216.191   -15847082.216 6 -12348367.288 5
        36.500          31.600
  23754473.292    23754473.053    23754469.992    -2939126.740 3  -2290227.728 3
        23.000          19.900
  23783986.880    23783985.089    23783983.660    -5171625.158 4  -4029835.169 4
        27.900          26.800
  20444183.545    20444183.153    20444179.877   -23367891.715 7 -18208737.271 8
        44.900          48.400
  20848141.313    20848140.707    20848139.433   -23219575.436 7 -18093169.153 7
        42.900          44.700
 09  1 18  1 21 30.0000000  0  6G 9G18G11G19G22G14
  21795178.000    21795177.712    21795177.007   -12139752.007 6  -9459542.501 5
        37.500          33.500
  22193244.165    22193243.413    22193241.637   -15768123.144 6 -12286840.744 5
        36.000          31.500
  23739743.337    23739742.885    23739740.882    -3016531.037 3  -2350542.748 3
        22.100          21.600
  23796700.417    23796698.746    23796696.736    -5104812.766 4  -3977773.565 4
        27.100          25.900
  20449615.793    20449615.360    20449612.074   -23339345.443 7 -18186493.423 8
        44.900          48.300
  20839076.603    20839076.232    20839074.860   -23267210.047 7 -18130287.025 7
        42.900          44.800
 09  1 18  1 22  0.0000000  0  6G 9G18G11G19G22G14
  21805275.296    21805274.786    21805273.415   -12086691.898 6  -9418196.964 5
        37.200          33.200
  22208321.026    22208320.315    22208318.935   -15688892.781 5 -12225102.809 5
        35.500          32.000
  23725086.892    23725086.690    23725085.372    -3093544.967 3  -2410553.595 3
        22.600          22.600
  23809488.075    23809486.525    23809484.766    -5037612.858 4  -3925410.025 4
        27.600          25.600
  20455124.658    20455124.318    20455121.122   -23310395.105 7 -18163934.715 8
        44.900          48.200
  20830094.345    20830093.705    20830092.456   -23314412.979 7 -18167068.523 7
        42.800          44.900
 09  1 18  1 22 30.0000000  0  6G 9G18G11G19G22G14
  21815495.969    21815495.514    21815494.739   -12032979.992 6  -9376343.534 5
        36.800          33.100
  22223450.250    22223449.658    22223448.429   -15609387.309 5 -12163150.519 5
        35.600          32.000
  23710506.303    23710506.831    23710505.327    -3170162.034 3  -2470255.190 3
        23.000          21.600
  23822349.214    23822348.132    23822346.756    -4970023.972 4  -3872743.382 4
        27.600          25.600
  20460711.737    20460711.332    20460708.004   -23281036.080 7 -18141057.555 8
        45.000          48.200
  20821194.896    20821194.385    20821192.983   -23361179.341 7 -18203509.839 7
        42.800          44.800
 09  1 18  1 23  0.0000000  0  6G 9G18G11G19G22G14
  21825840.681    21825840.619    21825840.021   -11978615.990 6  -9333981.974 5
        36.500          33.000
  22238632.355    22238631.901    22238629.894   -15529605.404 6 -12100982.808 5
        36.000          31.100
  23696004.113    23696003.805    23696002.112    -3246377.490 4  -2529643.854 3
        24.600          21.600
  23835286.540    23835284.860    23835282.454    -4902046.454 4  -3819773.888 4
        28.400          25.300
  20466376.736    20466376.294    20466373.072   -23251266.277 7 -18117860.301 8
        45.000          48.200
  20812379.315    20812378.685    20812377.220   -23407506.276 7 -18239608.746 7
        42.700          44.900
 09  1 18  1 23 30.0000000  0  6G 9G18G11G19G22G14
  21836310.343    21836309.742    21836308.965   -11923603.065 6  -9291114.754 5
        37.100          33.400
  22253866.758    22253865.993    22253864.035   -15449549.156 5 -12038601.315 5
        35.500          30.800
  23681578.555    23681577.577    23681575.624    -3322190.076 4  -2588718.602 3
        25.300          22.100
  23848295.045    23848293.304    23848291.851    -4833683.601 4  -3766504.106 4
        27.900          25.900
  20472119.507    20472119.171    20472115.817   -23221087.224 7 -18094344.155 8
        44.900          48.000
  20803646.922    20803646.357    20803645.014   -23453394.382 7 -18275365.706 7
        42.600          45.100
 09  1 18  1 24  0.0000000  0  6G 9G18G11G19G22G14
  21846900.707    21846900.249    21846899.856   -11867947.776 6  -9247746.992 5
        36.500          33.800
  22269152.105    22269151.616    22269149.795   -15369223.526 5 -11976009.928 5
        35.700          31.100
  23667228.294    23667227.720    23667225.502    -3397601.738 4  -2647480.936 3
        26.500          23.000
  23861376.452    23861374.555    23861372.368    -4764942.464 4  -3712939.577 4
        27.400          24.900
  20477939.300    20477939.004    20477935.783   -23190503.007 7 -18070512.297 7
        44.900          47.900
  20794997.683    20794996.983    20794995.808   -23498846.832 7 -18310783.195 7
        42.500          45.300
 09  1 18  1 24 30.0000000  0  6G 9G18G11G19G22G14
  21857612.185    21857611.827    21857611.786   -11811654.306 5  -9203881.955 5
        35.300          33.600
  22284489.042    22284488.101    22284486.004   -15288631.840 5 -11913211.217 5
        35.700          31.000
  23652954.566    23652953.992    23652951.966    -3472612.465 4  -2705930.852 4
        26.500          24.600
  23874528.607    23874526.728    23874523.641    -4695828.084 4  -3659084.218 3
        27.100          23.400
  20483835.915    20483835.515    20483832.400   -23159516.703 7 -18046367.119 7
        44.900          47.900
  20786430.798    20786430.230    20786429.193   -23543865.581 7 -18345862.723 7
        42.500          45.500
 09  1 18  1 25  0.0000000  0  6G 9G18G11G19G22G14
  21868447.040    21868446.681    21868446.255   -11754720.479 6  -9159517.941 5
        36.100          33.500
  22299875.475    22299874.793    22299873.122   -15207770.908 5 -11850202.718 5
        34.800          30.600
  23638756.061    23638756.482    23638755.444    -3547215.542 4  -2764063.086 4
        25.600          24.900
  23887751.411    23887749.820    23887748.061    -4626338.549 4  -3604936.544 4
        26.200          24.200
  20489809.835    20489809.402    20489806.164   -23128123.946 7 -18021905.228 7
        44.900          47.800
  20777947.704    20777947.076    20777945.727   -23588445.574 7 -18380600.370 7
        42.400          45.500
 09  1 18  1 25 30.0000000  0  6G 9G18G11G19G22G14
  21879403.655    21879403.095    21879402.807   -11697143.768 6  -9114652.963 5
        36.200          33.200
  22315314.626    22315314.034    22315312.497   -15126636.262 5 -11786980.926 5
        34.900          30.400
  23624638.141    23624638.454    23624636.907    -3621403.671 4  -2821872.007 3
        24.900          23.400
  23901046.725    23901044.899    23901042.858    -4556471.558 4  -3550494.750 4
        26.200          24.600
  20495862.094    20495861.727    20495858.438   -23096319.558 7 -17997122.587 7
        45.000          47.700
  20769548.912    20769548.217    20769547.067   -23632581.343 7 -18414991.868 7
        42.300          45.600
 09  1 18  1 26  0.0000000  0  6G 9G18G11G19G22G14
  21890482.792    21890482.196    21890481.495   -11638923.057 6  -9069286.172 5
        36.000          32.800
  22330806.897    22330806.164    22330804.280   -15045225.465 5 -11723543.958 5
        35.100          30.200
  23610601.958    23610601.487    23610599.513    -3695171.141 4  -2879353.130 3
        24.600          23.800
  23914413.424    23914411.839    23914410.180    -4486225.995 4  -3495757.975 4
        25.900          25.300
  20501993.157    20501992.689    20501989.511   -23064100.574 7 -17972016.881 7
        44.800          47.700
  20761235.027    20761234.650    20761233.462   -23676269.110 7 -18449034.278 7
        42.300          45.600
 09  1 18  1 26 30.0000000  0  6G 9G18G11G19G22G14
  21901681.423    21901680.884    21901680.272   -11580072.585 5  -9023428.665 5
        35.300          32.700
  22346348.883    22346348.327    22346346.336   -14963551.732 5 -11659902.094 5
        35.300          30.600
  23596641.998    23596641.970    23596640.840    -3768527.717 3  -2936514.079 4
        23.400          24.200
  23927850.706    23927849.021    23927847.077    -4415616.984 4  -3440737.973 4
        25.600          26.200
  20508200.686    20508200.239    20508196.995   -23031479.424 7 -17946597.805 7
        44.800          47.500
  20753004.778    20753004.297    20753003.147   -23719520.134 7 -18482736.367 7
        42.300          45.700
 09  1 18  1 27  0.0000000  0  6G 9G18G11G19G22G14
  21913001.347    21913001.025    21913000.179   -11520585.515 6  -8977075.106 5
        36.000          32.700
  22361942.535    22361941.803    22361940.323   -14881606.972 5 -11596049.046 5
        34.700          30.800
  23582763.329    23582762.761    23582761.698    -3841462.336 3  -2993346.248 3
        23.000          23.800
  23941356.223    23941355.007    23941353.858    -4344638.340 4  -3385429.939 4
        24.600          26.800
  20514486.738    20514486.222    20514482.826   -22998447.090 7 -17920858.318 7
        44.800          47.400
  20744859.678    20744859.015    20744857.439   -23762324.956 7 -18516090.771 7
        42.400          45.600
 09  1 18  1 27 30.0000000  0  7G 9G18G11G19G12G22G14
  21924438.819    21924438.482    21924437.344   -11460483.383 6  -8930242.269 5
        37.100          32.800
  22377583.248    22377582.953    22377581.780   -14799411.397 5 -11532000.569 5
        34.300          30.100
  23568962.298    23568961.217    23568960.074    -3913991.739 3  -3049862.666 4
        23.000          24.200
  23954930.227    23954928.101    23954926.722    -4273311.624 3  -3329850.686 4
        22.600          26.800
  25268365.425    25268364.505    25268363.208           -.48511         -.25312
         9.000          13.900
  20520846.683    20520846.361    20520843.135   -22965023.431 7 -17894813.907 7
        44.700          47.300
  20736795.488    20736794.797    20736793.272   -23804702.042 7 -18549111.868 7
        42.300          45.700
 09  1 18  1 28  0.0000000  0  7G 9G11G12G19G22G18G14
  21935995.745    21935995.189    21935994.525   -11399748.430 6  -8882916.329 5
        36.000          32.600
  23555241.193    23555240.661    23555239.790    -3986093.359 4  -3106045.726 4
        24.200          25.300
  25252405.375    25252404.730    25252401.766      -83877.443 2    -65358.892 2
        12.600          15.100
  23968573.532    23968571.660    23968569.385    -4201619.443 3  -3273986.653 4
        23.400          27.100
  20527285.444    20527285.017    20527281.635   -22931188.502 7 -17868449.026 7
        44.800          47.100
  22393276.543    22393275.857    22393274.310   -14716945.920 5 -11467741.759 4
        34.000          29.700
  20728816.798    20728816.053    20728814.596   -23846631.045 7 -18581783.811 7
        42.400          46.000
 09  1 18  1 28 30.0000000  0  8G 9G18G11G12G31G19G22G14
  21947669.596    21947669.034    21947667.950   -11338404.840 6  -8835116.124 5
        36.000          32.600
  22409016.203    22409015.706    22409013.861   -14634232.868 5 -11403290.041 4
        34.500          29.700
  23541598.282    23541598.061    23541596.601    -4057787.102 4  -3161910.959 4
        25.600          25.300
  25236482.924    25236482.015    25236479.199     -167547.869 2   -130556.576 2
        12.600          13.900
  25059963.230    25059962.256    25059960.987            .08811          .07613
        11.000          21.100
  23982280.254    23982278.431    23982277.593    -4129586.097 3  -3217856.772 4
        23.400          27.900
  20533798.128    20533797.723    20533794.401   -22896964.098 7 -17841780.657 7
        44.700          47.100
  20720919.221    20720918.495    20720916.882   -23888133.078 7 -18614123.049 7
        42.300          45.900
 09  1 18  1 29  0.0000000  0  8G 9G18G11G12G31G19G22G14
  21959460.595    21959460.203    21959459.711   -11276440.861 5  -8786832.497 5
        35.800          33.100
  22424805.656    22424804.998    22424802.904   -14551259.446 5 -11338635.428 4
        34.500          29.500
  23528036.607    23528036.053    23528034.205    -4129056.567 4  -3217445.581 4
        25.900          24.900
  25220602.593    25220602.688    25220599.945     -250994.790 2   -195580.124 2
        12.600          13.900
  25037798.959    25037798.300    25037796.744     -116473.582 2    -90758.593 3
        15.100          19.900
  23996053.890    23996052.725    23996051.000    -4057200.162 4  -3161452.152 4
        24.600          26.200
  20540387.497    20540387.092    20540383.980   -22862336.245 7 -17814797.917 7
        44.700          47.200
  20713105.427    20713104.850    20713103.567   -23929193.346 7 -18646118.060 7
        42.300          46.100
 09  1 18  1 29 30.0000000  0  8G 9G11G19G12G31G22G18G14
  21971370.413    21971369.873    21971369.230   -11213855.613 5  -8738064.778 5
        35.700          33.200
  23514556.164    23514555.778    23514553.385    -4199895.799 4  -3272644.973 4
        26.800          24.200
  24009896.879    24009895.588    24009892.649    -3984460.957 4  -3104772.283 4
        25.900          25.600
  25204767.101    25204766.184    25204764.640     -334211.514 1   -260424.286 2
         9.000          16.100
  25015637.847    25015637.238    25015635.509     -232932.873 3   -181506.082 3
        18.600          18.600
  20547054.151    20547053.834    20547050.705   -22827302.238 7 -17787498.689 7
        44.600          47.000
  22440645.504    22440644.625    22440642.557   -14468022.872 5 -11273775.773 4
        34.400          29.700
  20705376.764    20705376.177    20705374.841   -23969808.018 7 -18677765.853 7
        42.300          46.100
 09  1 18  1 30  0.0000000  0  8G 9G11G12G31G19G22G18G14
  21983399.103    21983398.840    21983397.997   -11150642.935 5  -8688808.151 5
        35.900          33.000
  23501160.552    23501160.012    23501157.265    -4270294.594 4  -3327501.171 4
        27.100          24.600
  25188975.591    25188975.928    25188976.484     -417186.484 1   -325080.078 2
         6.500          16.100
  24993481.731    24993480.741    24993479.084     -349367.455 3   -272234.317 2
        20.500          17.800
  24023806.817    24023804.999    24023803.808    -3911362.996 4  -3047812.850 4
        25.900          26.200
  20553799.731    20553799.357    20553796.201   -22791854.017 7 -17759876.696 7
        44.500          46.900
  22456536.183    22456535.444    22456533.558   -14384516.018 5 -11208705.516 4
        33.600          29.700
  20697734.606    20697733.936    20697732.506   -24009968.579 7 -18709059.793 7
        42.300          46.200
 09  1 18  1 30 30.0000000  0  8G11G 9G12G31G19G22G18G14
  23487845.325    23487844.787    23487842.592    -4340265.617 4  -3382024.018 4
        27.400          24.600
  21995544.388    21995543.707    21995542.890   -11086820.956 5  -8639076.733 5
        35.500          33.000
  25173229.737    25173227.946    25173228.804     -499932.445 1   -389557.361 2
         6.500          12.600
  24971326.529    24971326.308    24971324.875     -465790.023 3   -362953.171 2
        21.100          17.800
  24037781.950    24037780.121    24037778.476    -3837924.370 4  -2990587.926 4
        25.300          25.600
  20560621.438    20560620.998    20560617.718   -22756006.892 7 -17731943.868 7
        44.400          46.900
  22472475.993    22472474.876    22472472.501   -14300755.316 5 -11143437.452 4
        33.200          29.200
  20690175.756    20690175.167    20690173.815   -24049689.596 7 -18740011.227 7
        42.300          46.300
 09  1 18  1 31  0.0000000  0  9G 9G11G 5G12G31G19G22G18G14
  22007804.926    22007804.562    22007803.767   -11022390.063 5  -8588870.835 5
        35.200          32.800
  23474611.334    23474611.159    23474609.553    -4409804.962 4  -3436210.521 4
        27.400          24.200
  25092584.370    25092584.087    25092582.091           -.0011          -.05611
         3.000           9.000
  25157531.023    25157530.350    25157526.650     -582443.574 1   -453851.705 2
         9.000          12.600
  24949174.653    24949175.147    24949173.674     -582195.807 3   -453658.957 2
        21.100          17.800
  24051821.359    24051820.173    24051818.164    -3764145.642 4  -2933098.037 4
        25.600          24.600
  20567519.153    20567518.747    20567515.561   -22719759.110 7 -17703698.847 7
        44.400          46.900
  22488462.808    22488462.209    22488459.938   -14216739.815 5 -11077970.847 4
        33.100          29.000
  20682701.482    20682700.767    20682699.142   -24088968.841 7 -18770618.424 7
        42.400          46.300
 09  1 18  1 31 30.0000000  0  9G 9G11G 5G12G31G19G22G18G14
  22020181.639    22020180.980    22020180.198   -10957351.826 5  -8538191.697 5
        35.100          33.000
  23461460.526    23461460.699    23461459.176    -4478909.811 4  -3490058.449 4
        27.600          24.200
  25074872.811    25074871.979    25074872.534      -93062.041      -72515.844 1
                         9.000
  25141875.526    25141874.336    25141872.499     -664716.146 1   -517960.157 2
         6.500          12.600
  24927027.305    24927027.984    24927026.232     -698581.852 3   -544349.353 3
        21.100          18.600
  24065924.683    24065923.219    24065922.104    -3690028.837 4  -2875344.702 3
        24.900          23.000
  20574493.019    20574492.592    20574489.420   -22683110.598 7 -17675141.565 7
        44.300          46.700
  22504498.832    22504498.205    22504496.271   -14132469.496 5 -11012305.678 4
        33.200          29.000
  20675310.993    20675310.412    20675308.965   -24127804.929 7 -18800880.307 7
        42.400          46.400
 09  1 18  1 32  0.0000000  0  9G 9G11G 5G12G31G19G22G18G14
  22032673.096    22032672.759    22032671.941   -10891706.878 5  -8487039.791 5
        34.800          33.100
  23448394.157    23448394.169    23448391.810    -4547575.863 4  -3543564.456 3
        28.400          23.000
  25057201.351    25057200.735    25057202.372     -185935.362     -144884.610 2
                        12.600
  25126262.206    25126262.027    25126262.109     -746745.349     -581879.025 2
         3.000          12.600
  24904884.321    24904884.959    24904883.988     -814943.414 3   -635020.694 3
        21.100          21.100
  24080093.040    24080091.817    24080089.143    -3615574.864 4  -2817328.642 3
        26.500          19.900
  20581543.706    20581543.303    20581540.046   -22646059.289 7 -17646270.414 7
        44.300          46.600
  22520583.466    22520582.942    22520581.095   -14047943.453 5 -10946441.236 4
        33.600          28.800
  20668005.458    20668004.886    20668003.350   -24166195.476 7 -18830795.011 7
        42.300          46.300
 09  1 18  1 32 30.0000000  0 10G 9G32G11G 5G12G31G19G22G18G14
  22045280.301    22045280.048    22045279.041   -10825455.786 5  -8435415.572 5
        34.700          33.000
  24970905.231    24970906.602    24970904.929            .04411          .33512
         6.500          12.600
  23435412.383    23435411.995    23435409.405    -4615798.693 4  -3596725.111 3
        28.400          23.000
  25039566.034    25039564.491    25039567.687     -278614.964     -217102.415 2
         3.000          12.600
  25110701.482    25110700.963    25110698.737     -828526.289 1   -645604.430 1
         9.000          11.000
  24882746.229    24882746.785    24882747.026     -931276.114 3   -725669.500 3
        19.900          21.600
  24094325.858    24094324.312    24094321.425    -3540784.304 4  -2759050.282 3
        25.900          20.500
  20588671.053    20588670.668    20588667.639   -22608603.840 7 -17617084.349 7
        44.100          46.600
  22536717.096    22536716.526    22536714.812   -13963160.747 5 -10880376.788 4
        33.400          28.400
  20660785.043    20660784.554    20660783.293   -24204138.238 7 -18860360.795 7
        42.300          46.500
 09  1 18  1 33  0.0000000  0 10G11G32G 5G 9G12G31G19G22G18G14
  23422513.535    23422512.895    23422510.615    -4683583.170 4  -3649544.168 3
        28.100          23.400
  24952648.734    24952649.974    24952649.109      -95934.488 1    -74753.809 2
         6.500          13.900
  25021964.547    25021965.152    25021965.428     -371103.813     -289171.660 2
                        13.900
  22058001.349    22058000.809    22058000.235   -10758607.677 5  -8383326.134 5
        34.700          32.800
  25095186.109    25095185.304    25095184.135     -910062.164 2   -709138.807 2
        12.600          13.900
  24860614.156    24860613.680    24860613.780    -1047584.140 3   -816299.104 3
        19.900          20.500
  24108618.878    24108617.721    24108616.043    -3465666.651 3  -2700517.060 3
        23.400          21.100
  20595874.063    20595873.761    20595870.772   -22570751.020 7 -17587588.648 7
        44.200          46.500
  22552898.118    22552897.384    22552895.935   -13878128.826 5 -10814118.157 4
        32.700          28.100
  20653648.964    20653648.346    20653647.054   -24241639.148 7 -18889582.281 7
        42.300          46.600
 09  1 18  1 33 30.0000000  0 10G11G32G 5G 9G12G31G19G22G18G14
  23409699.212    23409699.020    23409696.848    -4750920.642 4  -3702014.907 4
        27.600          24.200
  24934401.981    24934401.530    24934401.200     -191829.500 1   -149477.118 2
         9.000          15.100
  25004400.637    25004400.101    25004401.171     -463392.447     -361084.836 2
         3.000          12.600
  22070836.371    22070835.807    22070835.042   -10691158.591 5  -8330768.403 5
        34.500          32.600
  25079720.284    25079719.485    25079716.235     -991343.490 2   -772474.854 2
        13.900          12.600
  24838487.800    24838487.412    24838487.327    -1163858.312 3   -906902.331 3
        18.600          19.900
  24122977.230    24122975.676    24122973.442    -3390218.112 3  -2641725.990 3
        23.000          21.100
  20603153.977    20603153.708    20603150.503   -22532494.916 7 -17557778.696 7
        44.200          46.200
  22569127.650    22569127.140    22569125.272   -13792842.328 5 -10747661.167 4
        32.800          28.100
  20646598.050    20646597.433    20646595.937   -24278691.598 7 -18918454.318 7
        42.100          46.400
 09  1 18  1 34  0.0000000  0 10G11G32G 5G 9G12G31G19G22G18G14
  23396969.822    23396969.474    23396967.094    -4817815.846 4  -3754141.028 4
        27.400          24.600
  24916162.264    24916161.131    24916160.177     -287690.986 1   -224174.308 2
         9.000          16.100
  24986877.794    24986876.666    24986878.220     -555484.495     -432844.804 2
                        12.600
  22083784.055    22083783.673    22083782.551   -10623117.973 5  -8277749.747 5
        34.400          32.300
  25064297.982    25064298.477    25064297.027    -1072374.116 2   -835615.521 2
        12.600          12.600
  24816367.296    24816367.472    24816366.592    -1280103.082 2   -997482.657 3
        17.800          21.600
  24137395.331    24137393.165    24137391.637    -3314448.564 3  -2582684.763 3
        22.100          19.900
  20610509.288    20610508.980    20610505.829   -22493842.698 7 -17527660.086 7
        44.200          46.200
  22585404.705    22585403.949    22585401.687   -13707309.259 5 -10681012.026 4
        33.500          28.100
  20639631.101    20639630.571    20639629.352   -24315302.397 7 -18946982.212 7
        42.100          46.600
 09  1 18  1 34 30.0000000  0 10G11G32G 5G 9G12G31G19G22G18G14
  23384326.310    23384325.836    23384323.923    -4884258.346 4  -3805914.385 4
        27.600          24.600
  24897929.368    24897927.740    24897927.352     -383509.363 1   -298837.944 2
         9.000          17.000
  24969393.716    24969393.305    24969393.841     -647368.054 1   -504442.328 2
         6.500          13.900
  22096845.351    22096844.937    22096844.149   -10554479.883 5  -8224265.520 5
        34.000          32.000
  25048928.670    25048930.214    25048928.098    -1153142.912 2   -898552.195 2
        12.600          12.600
  24794253.924    24794254.299    24794253.909    -1396307.763 2  -1088031.720 3
        16.100          23.400
  24151876.367    24151874.091    24151872.503    -3238352.080 3  -2523388.842 3
        23.000          21.100
  20617941.689    20617941.282    20617937.993   -22454786.350 7 -17497226.568 7
        44.200          46.000
  22601728.768    22601728.232    22601726.801   -13621522.251 5 -10614165.024 4
        32.600          28.800
  20632750.498    20632749.859    20632748.316   -24351462.096 7 -18975158.594 7
        42.200          46.600
 09  1 18  1 35  0.0000000  0 10G11G32G 5G 9G12G31G19G22G18G14
  23371768.037    23371767.529    23371766.352    -4950250.009 4  -3857336.454 4
        26.500          25.300
  24879703.009    24879701.922    24879700.783     -479287.827 1   -373470.471 2
         9.000          17.000
  24951947.480    24951946.010    24951948.187     -739044.127 1   -575878.169 2
        11.000          15.100
  22110018.943    22110018.363    22110017.651   -10485251.343 5  -8170321.200 5
        34.000          31.600
  25033608.433    25033608.985    25033606.682    -1233650.734 2   -961285.578 2
        12.600          12.600
  24772146.590    24772148.866    24772145.804    -1512473.780 2  -1178550.618 3
        12.600          19.900
  24166417.925    24166415.935    24166414.889    -3161935.946 3  -2463843.819 3
        23.800          22.600
  20625449.976    20625449.538    20625446.208   -22415330.628 7 -17466481.851 7
        44.300          45.900
  22618100.788    22618100.384    22618098.593   -13535486.162 5 -10547123.937 4
        32.300          28.400
  20625954.736    20625954.052    20625952.467   -24387174.654 7 -19002986.560 7
        42.200          46.600
 09  1 18  1 35 30.0000000  0 10G11G32G 5G 9G12G31G19G22G18G14
  23359297.005    23359296.388    23359295.000    -5015786.980 4  -3908404.214 4
        26.200          24.900
  24861484.004    24861483.483    24861482.051     -575023.563 1   -448069.731 2
         6.500          15.100
  24934545.040    24934544.001    24934544.445     -830507.623 2   -647148.383 2
        15.100          17.000
  22123305.178    22123304.672    22123303.627   -10415433.380 5  -8115917.576 5
        34.500          31.800
  25018340.036    25018340.037    25018336.920    -1313892.720 1  -1023811.860 2
         9.000          16.100
  24750048.343    24750051.025    24750048.439    -1628596.529 2  -1269035.819 3
        15.100          20.500
  24181019.771    24181017.632    24181016.782    -3085200.761 3  -2404050.167 3
        23.000          22.600
  20633034.431    20633033.971    20633030.646   -22375473.897 7 -17435424.659 7
        44.200          45.800
  22634520.748    22634520.052    22634518.016   -13449200.515 5 -10479888.379 4
        32.400          27.600
  20619244.304    20619243.618    20619242.038   -24422438.183 7 -19030464.635 7
        42.100          46.700
 09  1 18  1 36  0.0000000  0 10G11G32G 5G 9G12G31G19G22G18G14
  23346910.781    23346910.558    23346908.869    -5080876.360 4  -3959123.203 4
        27.600          24.200
  24843272.163    24843272.248    24843270.618     -670724.867     -522642.152 2
         3.000          15.100
  24917180.020    24917178.264    24917176.619     -921764.482 2   -718257.586 2
        13.900          15.100
  22136700.774    22136700.337    22136699.251   -10345037.767 5  -8061063.863 5
        33.900          31.800
  25003118.086    25003117.664    25003114.776    -1393875.021    -1086135.603 2
         3.000          17.000
  24727958.955    24727960.257    24727958.665    -1744683.035 3  -1359492.773 4
        19.900          25.600
  24195681.127    24195679.091    24195677.443    -3008158.677 4  -2344017.362 3
        24.200          22.600
  20640693.263    20640692.916    20640689.672   -22335225.738 7 -17404062.461 7
        44.200          45.900
  22650986.069    22650985.358    22650983.323   -13362675.395 5 -10412466.209 4
        32.600          27.600
  20612617.546    20612616.875    20612615.258   -24457261.568 7 -19057599.737 7
        42.100          46.600
 09  1 18  1 36 30.0000000  0  9G11G32G 5G 9G31G19G22G18G14
  23334612.219    23334611.525    23334608.963    -5145509.137 4  -4009486.404 3
        27.400          23.400
  24825066.871    24825067.526    24825067.473     -766383.660     -597181.434 2
         3.000          13.900
  24899851.382    24899851.064    24899852.406    -1012804.468 1   -789197.790 2
         9.000          15.100
  22150207.419    22150206.905    22150206.137   -10274059.961 5  -8005756.479 5
        33.500          32.000
  24705878.951    24705878.363    24705877.900    -1860723.690 3  -1449914.038 4
        22.600          28.400
  24210399.389    24210398.137    24210397.531    -2930805.606 4  -2283742.256 3
        24.600          23.800
  20648427.857    20648427.544    20648424.497   -22294579.514 7 -17372390.077 7
        44.200          45.800
  22667497.406    22667496.979    22667495.383   -13275904.791 5 -10344852.754 4
        32.000          27.900
  20606076.124    20606075.514    20606073.731   -24491637.329 7 -19084386.038 7
        42.100          46.700
 09  1 18  1 37  0.0000000  0  9G11G32G 5G 9G31G19G22G18G14
  23322398.570    23322398.481    23322396.669    -5209687.418 4  -4059495.445 4
        27.900          24.200
  24806870.862    24806870.972    24806871.672     -862003.095 1   -671690.015 2
         6.500          16.100
  24882568.699    24882568.206    24882570.035    -1103628.421 1   -859969.656 2
         9.000          15.100
  22163823.881    22163823.165    22163822.421   -10202506.868 5  -7950000.828 5
        34.300          32.000
  24683805.997    24683805.203    24683804.539    -1976719.872 3  -1540300.652 4
        22.600          27.600
  24225177.068    24225176.535    24225174.744    -2853148.352 4  -2223230.135 3
        25.300          23.400
  20656237.630    20656237.191    20656233.788   -22253539.863 7 -17340411.133 7
        44.200          45.500
  22684055.467    22684054.669    22684053.110   -13188893.965 5 -10277052.132 4
        31.500          28.100
  20599618.899    20599618.333    20599616.700   -24525569.337 7 -19110826.560 7
        42.000          46.700
 09  1 18  1 37 30.0000000  0  9G11G32G 5G 9G31G19G22G18G14
  23310278.034    23310277.849    23310276.510    -5273380.826 4  -4109126.652 4
        27.100          24.600
  24788688.395    24788689.006    24788688.851     -957553.775 2   -746145.065 2
        13.900          15.100
  24865334.993    24865333.860    24865333.036    -1194204.549 1   -930548.460 2
         9.000          13.900
  22177554.265    22177554.021    22177552.968   -10130352.874 5  -7893776.936 5
        34.400          32.100
  24661746.517    24661745.640    24661745.083    -2092640.647 3  -1630628.489 4
        21.100          26.500
  24240018.210    24240017.017    24240015.129    -2775161.632 4  -2162461.269 3
        25.900          22.100
  20664127.464    20664127.138    20664123.720   -22212078.188 7 -17308103.328 7
        44.300          45.600
  22700663.753    22700663.189    22700661.512   -13101615.907 5 -10209043.263 4
        31.500          27.600
  20593251.578    20593251.053    20593249.540   -24559028.729 6 -19136898.813 7
        41.800          46.900
 09  1 18  1 38  0.0000000  0 10G11G32G 5G 9G12G31G19G22G18G14
  23298245.451    23298244.759    23298242.914    -5336616.967 4  -4158401.549 4
        27.600          24.600
  24770515.786    24770514.720    24770513.769    -1053064.474 2   -820568.934 2
        17.000          16.100
  24848140.017    24848139.997    24848137.782    -1284559.555 1  -1000954.884 2
        11.000          13.900
  22191393.058    22191392.329    22191391.430   -10057630.565 5  -7837110.211 5
        33.800          31.500
  24942765.158    24942763.779    24942763.077            .12912          .20413
        13.900          18.600
  24639696.266    24639696.210    24639694.887    -2208513.576 3  -1720919.032 4
        22.100          24.900
  24254914.901    24254913.596    24254911.699    -2696878.040 4  -2101461.081 3
        25.900          22.100
  20672091.690    20672091.326    20672088.232   -22170225.649 7 -17275490.968 7
        44.100          45.600
  22717317.496    22717316.675    22717315.143   -13014101.303 5 -10140850.073 4
        31.100          27.900
  20586968.685    20586968.115    20586966.729   -24592045.273 6 -19162625.984 7
        41.600          47.000
 09  1 18  1 38 30.0000000  0 10G11G32G 5G 9G12G31G19G22G18G14
  23286298.858    23286298.410    23286297.194    -5399395.672 4  -4207320.027 4
        27.600          24.900
  24752348.237    24752347.083    24752347.553    -1148535.977 3   -894962.250 2
        18.600          17.800
  24830990.426    24830988.488    24830987.736    -1374691.890 1  -1071187.806 2
         9.000          15.100
  22205338.330    22205337.955    22205337.128    -9984344.405 5  -7780004.105 5
        33.200          31.000
  24927807.909    24927807.605    24927804.695      -78595.680 2    -61243.217 2
        16.100          17.800
  24617654.990    24617655.427    24617653.924    -2324337.698 3  -1811171.581 3
        21.600          22.600
  24269867.551    24269866.183    24269864.026    -2618302.056 4  -2040233.057 3
        25.600          21.100
  20680130.046    20680129.700    20680126.285   -22127983.989 7 -17242575.387 7
        44.200          45.200
  22734015.438    22734014.691    22734013.174   -12926352.802 5 -10072474.644 4
        31.300          28.100
  20580770.142    20580769.503    20580767.891   -24624620.243 6 -19188009.082 7
        41.700          47.100
 09  1 18  1 39  0.0000000  0 10G11G32G 5G 9G12G31G19G22G18G14
  23274441.177    23274440.447    23274439.151    -5461707.784 4  -4255874.920 4
        27.100          24.900
  24734189.894    24734188.583    24734188.689    -1243960.106 3   -969318.666 3
        18.600          18.600
  24813881.681    24813880.370    24813880.177    -1464591.090 1  -1141239.132 2
         9.000          15.100
  22219392.414    22219391.969    22219391.216    -9910489.717 5  -7722454.994 5
        33.200          31.300
  24912904.057    24912904.831    24912904.613     -156906.792 2   -122264.772 3
        16.100          19.300
  24595625.087    24595625.506    24595624.230    -2440103.367 3  -1901378.585 3
        21.100          21.100
  24284875.826    24284874.231    24284873.627    -2539429.520 3  -1978773.943 3
        23.000          22.600
  20688243.893    20688243.507    20688240.002   -22085346.669 7 -17209351.498 7
        44.300          45.400
  22750758.960    22750758.517    22750756.886   -12838364.039 5 -10003911.991 4
        31.500          27.900
  20574656.695    20574656.093    20574654.611   -24656746.518 6 -19213042.537 7
        41.600          47.300
 09  1 18  1 39 30.0000000  0 10G11G32G 5G 9G12G31G19G22G18G14
  23262671.518    23262671.426    23262670.282    -5523553.310 4  -4304066.234 4
        27.600          24.900
  24716038.190    24716037.075    24716038.175    -1339337.631 2  -1043638.795 3
        17.800          18.600
  24796817.591    24796816.946    24796815.500    -1554255.890 1  -1211107.712 2
         6.500          12.600
  22233554.109    22233553.627    22233552.595    -9836071.411 5  -7664466.704 5
        33.500          31.600
  24898056.738    24898057.570    24898056.767     -234931.851 3   -183063.486 3
        18.600          20.500
  24573606.532    24573608.241    24573605.572    -2555809.744 3  -1991539.418 3
        21.100          18.600
  24299940.464    24299939.240    24299938.139    -2460264.976 3  -1917087.312 3
        23.400          22.600
  20696432.177    20696431.733    20696428.568   -22042315.886 7 -17175821.020 7
        44.000          45.400
  22767548.197    22767547.435    22767545.562   -12750138.250 5  -9935164.626 4
        32.000          27.600
  20568628.401    20568627.772    20568626.178   -24688425.576 6 -19237727.511 7
        41.500          47.400
 09  1 18  1 40  0.0000000  0 10G11G32G 5G 9G12G31G19G22G18G14
  23250991.576    23250991.668    23250990.565    -5584929.591 4  -4351891.914 4
        27.900          25.300
  24697896.198    24697896.339    24697896.762    -1434667.051 3  -1117921.415 2
        19.300          17.800
  24779799.854    24779797.149    24779800.188    -1643682.185    -1280790.531 2
         3.000          12.600
  22247821.970    22247821.654    22247821.077    -9761091.681 5  -7606040.941 5
        33.400          31.600
  24883265.515    24883265.657    24883261.559     -312667.380 3   -243636.593 3
        20.500          19.300
  24551602.827    24551602.666    24551599.752    -2671453.839 2  -2081651.731 3
        17.800          19.900
  24315060.705    24315059.358    24315057.224    -2380810.688 4  -1855174.882 3
        24.600          22.100
  20704695.640    20704695.312    20704691.902   -21998891.530 7 -17141983.863 7
        44.300          45.200
  22784381.667    22784381.153    22784379.438   -12661675.889 5  -9866232.925 4
        31.100          27.600
  20562685.181    20562684.590    20562683.311   -24719656.406 6 -19262063.218 7
        41.400          47.500
 09  1 18  1 40 30.0000000  0 10G32G11G 5G 9G12G31G19G22G18G14
  24679766.706    24679766.209    24679765.519    -1529946.987 3  -1192165.476 3
        22.100          18.600
  23239403.592    23239402.550    23239400.407    -5645834.340 4  -4399350.162 4
        28.400          24.600
  24762827.925    24762828.730    24762829.240    -1732866.733    -1350284.864 1
                        11.000
  22262196.259    22262195.862    22262195.759    -9685552.937 5  -7547179.590 5
        33.000          31.100
  24868526.619    24868526.347    24868524.902     -390110.175 2   -303981.578 3
        17.000          19.900
  24529610.220    24529609.094    24529606.035    -2787032.792 2  -2171713.218 3
        12.600          20.500
  24330235.463    24330234.288    24330231.819    -2301069.404 4  -1793038.824 3
        25.300          22.600
  20713033.860    20713033.472    20713030.033   -21955073.802 7 -17107840.177 7
        44.100          45.000
  22801260.770    22801259.947    22801257.882   -12572977.936 5  -9797117.657 4
        30.100          27.100
  20556827.527    20556826.866    20556825.599   -24750438.779 6 -19286049.477 7
        41.300          47.600
 09  1 18  1 41  0.0000000  0 10G11G32G 5G 9G12G31G19G22G18G14
  23227903.442    23227902.995    23227900.984    -5706265.956 4  -4446439.734 4
        28.400          24.900
  24661646.417    24661645.286    24661644.686    -1625176.735 3  -1266370.407 3
        23.000          19.900
  24745902.293    24745903.134    24745902.195    -1821806.207 1  -1419588.352 1
         6.500           6.500
  22276676.804    22276676.448    22276675.895    -9609458.512 5  -7487885.219 5
        33.400          31.000
  24853845.215    24853846.231    24853845.464     -467257.668 2   -364096.465 3
        13.900          21.100
  24507628.467    24507627.623    24507624.984    -2902544.356 2  -2261722.153 3
        12.600          18.600
  24345465.006    24345463.224    24345460.542    -2221044.030 4  -1730681.411 3
        25.600          23.800
  20721446.992    20721446.548    20721443.028   -21910863.211 7 -17073390.371 7
        44.100          44.900
  22818184.200    22818183.465    22818181.234   -12484045.521 5  -9727819.703 4
        30.200          26.800
  20551055.403    20551054.739    20551053.131   -24780772.580 6 -19309686.198 7
        41.300          47.700
 09  1 18  1 41 30.0000000  0 10G11G32G 5G 9G12G31G19G22G18G14
  23216494.847    23216494.171    23216492.346    -5766220.058 4  -4493157.209 4
        27.600          24.900
  24643534.697    24643533.324    24643534.362    -1720352.928 3  -1340533.652 3
        21.600          21.600
  24729028.432    24729027.414    24729026.126    -1910495.246 2  -1488696.683 1
        12.600           6.500
  22291262.791    22291262.446    22291261.792    -9532808.732 5  -7428158.123 5
        32.700          30.800
  24839222.753    24839221.640    24839221.048     -544104.406 2   -423977.004 3
        12.600          20.500
  24485660.989    24485660.102    24485657.679    -3017983.761 2  -2351674.921 2
        15.100          17.800
  24360745.957    24360744.573    24360742.533    -2140735.282 4  -1668103.172 4
        26.200          25.300
  20729934.972    20729934.658    20729931.326   -21866258.119 7 -17038633.154 7
        44.300          44.900
  22835152.577    22835151.821    22835149.274   -12394877.381 5  -9658338.044 4
        31.100          26.500
  20545368.656    20545368.112    20545366.606   -24810655.274 6 -19332971.414 7
        41.300          47.700
 09  1 18  1 42  0.0000000  0 10G11G32G 5G 9G12G31G19G22G18G14
  23205175.811    23205175.873    23205174.421    -5825693.672 4  -4539500.270 4
        26.800          24.200
  24625431.888    24625430.535    24625433.138    -1815473.523 3  -1414653.563 3
        19.300          22.100
  24712198.941    24712198.090    24712198.610    -1998929.627 2  -1557606.592 1
        12.600           9.000
  22305954.008    22305953.498    22305952.800    -9455605.601 5  -7367999.860 5
        32.000          30.200
  24824659.259    24824658.455    24824655.613     -620646.383 2   -483620.029 3
        16.100          19.300
  24463706.023    24463707.002    24463704.719    -3133347.349 2  -2441568.649 2
        17.800          17.800
  24376081.138    24376079.762    24376078.433    -2060145.397 4  -1605305.873 4
        26.200          25.600
  20738498.225    20738497.852    20738494.439   -21821258.131 7 -17003568.231 7
        44.300          44.800
  22852165.021    22852164.428    22852162.089   -12305473.749 5  -9588672.886 4
        30.400          25.900
  20539768.344    20539767.620    20539766.344   -24840085.801 6 -19355904.288 7
        41.200          47.900
 09  1 18  1 42 30.0000000  0 10G11G32G 5G 9G12G31G19G22G18G14
  23193950.044    23193950.049    23193947.796    -5884687.685 4  -4585469.641 4
        26.800          24.200
  24607340.313    24607339.649    24607342.151    -1910540.220 3  -1488731.474 3
        19.300          21.100
  24695418.156    24695417.287    24695417.096    -2087108.786 1  -1626317.616 1
        11.000           9.000
  22320749.844    22320749.249    22320748.267    -9377854.712 5  -7307414.741 4
        32.400          29.700
  24810152.995    24810152.737    24810148.834     -696883.195 2   -543025.326 3
        17.800          20.500
  24441767.774    24441767.779    24441766.215    -3248635.157 2  -2531403.305 3
        17.800          20.500
  24391470.976    24391469.187    24391466.551    -1979279.272 4  -1542293.320 4
        27.100          25.900
  20747135.817    20747135.465    20747132.070   -21775866.451 7 -16968198.094 7
        44.100          44.500
  22869222.306    22869221.382    22869219.007   -12215838.486 4  -9518827.250 4
        29.700          25.600
  20534253.350    20534252.823    20534251.509   -24869066.688 6 -19378486.791 8
        41.300          48.100
 09  1 18  1 43  0.0000000  0 10G11G32G 5G 9G12G31G19G22G18G14
  23182815.641    23182815.224    23182813.093    -5943200.231 4  -4631063.826 4
        27.100          24.600
  24589261.786    24589261.255    24589261.758    -2005551.798 3  -1562766.456 3
        21.100          20.500
  24678687.764    24678686.317    24678686.955    -2175029.285 1  -1694827.062 1
         6.500          11.000
  22335648.431    22335648.227    22335647.732    -9299558.500 5  -7246404.708 4
        32.400          29.900
  24795703.663    24795702.790    24795700.785     -772811.745 3   -602190.442 3
        19.300          19.900
  24419845.297    24419844.083    24419842.322    -3363844.852 3  -2621177.035 3
        19.300          23.000
  24406910.428    24406908.710    24406907.290    -1898140.095 4  -1479068.023 4
        24.900          27.100
  20755848.265    20755847.839    20755844.411   -21730083.268 7 -16932522.884 7
        44.200          44.600
  22886322.703    22886322.097    22886320.115   -12125972.314 4  -9448801.677 4
        29.700          26.500
  20528824.141    20528823.582    20528822.180   -24897597.624 6 -19400718.688 8
        41.300          48.100
 09  1 18  1 43 30.0000000  0 10G11G32G 5G 9G12G31G19G22G18G14
  23171773.716    23171773.363    23171770.723    -6001228.098 4  -4676280.347 4
        27.600          24.200
  24571193.202    24571192.600    24571192.080    -2100505.847 3  -1636756.595 3
        22.600          19.900
  24662005.907    24662005.438    24662007.088    -2262686.470 1  -1763131.283 2
        11.000          15.100
  22350651.720    22350650.978    22350650.201    -9220718.631 5  -7184971.042 4
        31.500          29.200
  24781314.082    24781314.149    24781310.059     -848427.910 3   -661112.110 2
        19.300          17.800
  24397937.328    24397936.631    24397934.004    -3478972.315 3  -2710886.716 3
        23.400          23.400
  24422400.963    24422400.154    24422399.594    -1816729.356 3  -1415631.108 4
        22.600          26.800
  20764634.955    20764634.620    20764631.336   -21683907.798 7 -16896542.001 7
        43.900          44.600
  22903467.285    22903466.725    22903465.373   -12035875.252 4  -9378596.188 4
        29.500          27.100
  20523480.735    20523480.248    20523478.817   -24925677.012 6 -19422598.725 8
        41.200          48.200
 09  1 18  1 44  0.0000000  0 10G11G32G 5G 9G12G31G19G22G18G14
  23160824.338    23160823.952    23160821.291    -6058766.644 4  -4721115.592 4
        27.900          24.200
  24553134.613    24553134.060    24553134.218    -2195398.757 3  -1710699.060 3
        21.100          18.600
  24645378.902    24645378.423    24645378.424    -2350074.617 2  -1831225.889 2
        13.900          17.000
  22365757.980    22365757.224    22365756.009    -9141335.609 5  -7123114.140 4
        31.800          28.800
  24766984.115    24766983.986    24766980.859     -923726.315 2   -719786.138 2
        16.100          17.800
  24376044.674    24376044.947    24376042.886    -3594012.423 4  -2800528.354 4
        24.600          25.300
  24437945.866    24437944.732    24437942.824    -1735047.348 3  -1351982.807 4
        23.000          25.600
  20773496.916    20773496.506    20773493.355   -21637337.955 7 -16860253.817 7
        43.800          44.600
  22920656.379    22920656.113    22920654.517   -11945545.789 4  -9308209.618 4
        29.500          26.500
  20518223.821    20518223.226    20518221.907   -24953302.192 6 -19444124.838 8
        41.100          48.300
 09  1 18  1 44 30.0000000  0 10G32G11G 5G 9G12G31G19G22G18G14
  24535088.149    24535087.724    24535087.940    -2290235.221 3  -1784597.547 3
        19.900          19.300
  23149966.835    23149966.644    23149965.074    -6115819.669 4  -4765572.490 4
        27.400          25.300
  24628798.971    24628798.295    24628798.995    -2437196.067 1  -1899112.732 2
        11.000          16.100
  22380965.615    22380964.938    22380964.205    -9061417.929 5  -7060840.635 4
        32.400          29.200
  24752715.066    24752714.516    24752713.819     -998709.298 2   -778214.459 3
        15.100          21.100
  24354169.167    24354169.418    24354167.948    -3708968.204 3  -2890104.251 4
        23.800          25.600
  24453540.020    24453539.162    24453536.035    -1653102.674 3  -1288129.802 4
        22.600          24.900
  20782432.932    20782432.497    20782429.208   -21590380.074 7 -16823663.263 7
        44.000          44.400
  22937888.703    22937888.457    22937886.664   -11854990.207 4  -9237646.837 4
        29.200          26.200
  20513052.308    20513051.695    20513050.426   -24980478.715 6 -19465301.342 8
        41.100          48.400
 09  1 18  1 45  0.0000000  0 10G32G11G 5G 9G12G31G19G22G18G14
  24517053.278    24517052.875    24517053.618    -2385009.827 3  -1858447.857 3
        20.500          20.500
  23139203.362    23139203.291    23139202.325    -6172381.195 4  -4809646.380 4
        27.400          25.900
  24612271.712    24612272.133    24612270.576    -2524043.426 1  -1966785.991 2
         9.000          15.100
  22396274.854    22396274.612    22396274.161    -8980964.458 5  -6998149.603 4
        32.600          29.900
  24738507.130    24738507.106    24738507.332    -1073369.753 2   -836391.403 3
        17.000          22.100
  24332311.855    24332311.388    24332309.525    -3823832.912 4  -2979609.185 4
        24.200          24.900
  24469184.759    24469182.812    24469180.330    -1570893.995 3  -1224071.114 4
        19.900          25.300
  20791443.132    20791442.670    20791439.524   -21543030.421 7 -16786767.430 7
        43.800          44.400
  22955165.102    22955164.460    22955162.226   -11764205.651 4  -9166905.646 4
        29.200          25.600
  20507967.002    20507966.536    20507965.115   -25007201.954 6 -19486124.643 8
        41.200          48.400
 09  1 18  1 45 30.0000000  0 10G32G11G 5G 9G12G31G19G22G18G14
  24499030.489    24499029.394    24499030.100    -2479725.006 3  -1932251.861 3
        19.900          22.100
  23128533.385    23128533.414    23128532.068    -6228452.967 4  -4853338.661 4
        28.600          26.200
  24595798.603    24595796.862    24595797.229    -2610616.863 1  -2034245.775 2
        11.000          17.000
  22411685.951    22411685.588    22411685.084    -8899981.195 5  -6935045.768 4
        32.100          29.900
  24724362.321    24724361.551    24724358.831    -1147708.472 3   -894317.622 3
        18.600          19.300
  24310470.957    24310470.385    24310468.273    -3938607.408 4  -3069043.839 4
        24.200          24.200
  24484876.287    24484874.607    24484872.732    -1488427.841 2  -1159811.754 4
        17.800          24.200
  20800526.943    20800526.648    20800523.426   -21495293.371 7 -16749569.732 7
        43.700          44.200
  22972483.257    22972482.546    22972480.516   -11673196.945 4  -9095989.794 4
        28.600          24.900
  20502967.440    20502966.876    20502965.381   -25033475.471 6 -19506597.513 8
        41.200          48.500
 09  1 18  1 46  0.0000000  0 10G32G11G 5G 9G12G31G19G22G18G14
  24481019.462    24481017.850    24481018.285    -2574375.091 3  -2006005.149 3
        18.600          22.600
  23117958.813    23117958.157    23117956.092    -6284028.459 4  -4896644.251 4
        29.000          25.900
  24579376.880    24579377.193    24579377.572    -2696908.432 2  -2101485.911 2
        13.900          17.800
  22427197.613    22427197.006    22427196.362    -8818466.675 5  -6871527.964 4
        31.800          29.200
  24710278.308    24710278.049    24710275.937    -1221717.329 3   -951986.867 3
        19.900          18.600
  24288647.028    24288647.749    24288646.831    -4053284.523 3  -3158402.610 4
        23.800          26.500
  24500619.989    24500618.148    24500614.895    -1405702.202 3  -1095350.239 3
        19.900          23.800
  20809685.763    20809685.387    20809682.041   -21447164.455 7 -16712066.680 7
        43.800          44.000
  22989845.361    22989844.256    22989842.438   -11581960.242 4  -9024896.281 4
        28.400          24.900
  20498054.362    20498053.718    20498052.192   -25059294.558 6 -19526716.278 8
        41.200          48.600
 09  1 18  1 46 30.0000000  0 10G32G11G 5G 9G12G31G19G22G18G14
  24463018.154    24463017.201    24463017.402    -2668966.044 2  -2079712.329 3
        17.000          22.600
  23107476.722    23107476.197    23107474.122    -6339112.859 4  -4939567.149 4
        29.900          26.500
  24563011.259    24563010.223    24563008.884    -2782922.188 2  -2168509.557 2
        12.600          16.100
  22442808.375    22442807.973    22442806.834    -8736431.283 5  -6807604.280 4
        32.000          28.800
  24696257.366    24696257.020    24696256.318    -1295400.819 3  -1009402.572 3
        20.500          19.300
  24266841.957    24266842.786    24266841.886    -4167868.844 3  -3247689.068 4
        22.100          25.300
  24516407.553    24516405.977    24516405.089    -1322727.323 3  -1030694.478 3
        19.300          23.800
  20818917.482    20818917.081    20818913.781   -21398650.956 7 -16674263.952 7
        43.600          43.800
  23007248.519    23007247.765    23007246.122   -11490504.073 4  -8953631.744 4
        28.600          24.900
  20493226.181    20493225.594    20493224.143   -25084666.310 6 -19546486.467 8
        41.200          48.700
 09  1 18  1 47  0.0000000  0 10G32G11G 5G 9G12G31G19G22G18G14
  24445028.817    24445028.044    24445028.299    -2763497.989 2  -2153373.546 3
        16.100          23.000
  23097087.887    23097087.613    23097085.307    -6393705.613 5  -4982106.946 4
        31.300          26.800
  24546693.428    24546692.860    24546694.200    -2868655.882 1  -2235315.001 2
         6.500          13.900
  22458517.965    22458517.478    22458516.699    -8653878.553 5  -6743277.474 4
        32.600          29.700
  24682297.238    24682297.415    24682296.228    -1368757.368 3  -1066563.469 3
        19.900          19.300
  24245056.234    24245055.523    24245055.052    -4282358.879 3  -3336902.071 4
        20.500          24.200
  24532242.851    24532242.498    24532240.774    -1239507.161 2   -965847.616 3
        17.800          21.600
  20828221.970    20828221.560    20828218.340   -21349755.085 7 -16636163.279 7
        43.400          43.800
  23024693.144    23024692.434    23024691.101   -11398830.506 4  -8882197.809 4
        28.600          24.900
  20488483.155    20488482.535    20488480.996   -25109591.656 6 -19565908.809 8
        41.200          48.700
 09  1 18  1 47 30.0000000  0 10G32G11G 5G 9G12G31G19G22G18G14
  24427053.561    24427053.113    24427053.512    -2857959.714 2  -2226980.068 3
        16.100          23.400
  23086795.605    23086795.022    23086792.600    -6447794.822 5  -5024254.366 4
        32.000          26.500
  24530436.719    24530435.074    24530435.244    -2954096.323 1  -2301891.885 2
         9.000          15.100
  22474326.705    22474326.052    22474325.524    -8570801.445 5  -6678542.076 4
        32.000          29.200
  24668404.007    24668403.639    24668399.686    -1441774.045 3  -1123459.573 2
        21.100          17.000
  24223290.843    24223290.001    24223288.339    -4396742.133 3  -3426031.843 4
        21.600          24.600
  24548126.032    24548127.315    24548125.124    -1156034.566 2   -900804.042 3
        17.000          19.300
  20837601.169    20837600.798    20837597.656   -21300467.118 7 -16597757.071 7
        43.600          43.900
  23042181.148    23042180.418    23042179.448   -11306930.480 4  -8810587.404 4
        28.600          24.900
  20483826.768    20483826.218    20483824.742   -25134060.278 6 -19584975.264 8
        41.200          48.700
 09  1 18  1 48  0.0000000  0 10G32G11G 5G 9G12G31G19G22G18G14
  24409089.183    24409090.125    24409090.596    -2952354.173 2  -2300534.163 3
        16.100          23.400
  23076597.647    23076597.386    23076595.130    -6501382.626 5  -5066011.107 4
        31.800          26.200
  24514234.161    24514233.452    24514232.270    -3039244.111 2  -2368240.801 2
        15.100          17.000
  22490233.473    22490233.448    22490232.604    -8487207.273 5  -6613403.759 4
        31.500          28.800
  24654572.542    24654572.110    24654570.156    -1514451.659 3  -1180091.467 2
        18.600          17.800
  24201543.518    24201544.055    24201541.690    -4511020.062 3  -3515079.562 4
        22.100          24.200
  24564059.862    24564057.986    24564056.379    -1072316.086 2   -835568.859 3
        17.000          18.600
  20847054.147    20847053.838    20847050.484   -21250791.922 7 -16559049.127 7
        43.800          43.800
  23059711.975    23059711.091    23059709.311   -11214808.957 4  -8738804.412 4
        28.400          24.900
  20479256.870    20479256.257    20479254.767   -25158076.164 6 -19603688.941 8
        41.200          48.800
 09  1 18  1 48 30.0000000  0 10G32G11G 5G 9G12G31G19G22G18G14
  24391140.134    24391139.331    24391139.605    -3046687.431 2  -2374040.547 4
        17.800          24.200
  23066494.697    23066494.337    23066492.004    -6554474.711 5  -5107381.567 4
        31.300          27.100
  24498085.538    24498084.378    24498084.296    -3124103.365 2  -2434364.871 3
        16.100          19.300
  22506238.050    22506237.326    22506237.041    -8403106.257 5  -6547870.503 4
        31.100          29.200
  24640806.490    24640805.413    24640804.032    -1586794.470 2  -1236462.472 3
        16.100          19.900
  24179815.949    24179816.770    24179814.769    -4625196.875 3  -3604048.481 4
        22.100          24.600
  24580035.545    24580033.588    24580032.068     -988362.428 3   -770150.422 3
        18.600          19.900
  20856579.309    20856578.915    20856575.525   -21200737.035 7 -16520045.320 7
        43.600          43.600
  23077282.591    23077281.690    23077280.092   -11122474.796 4  -8666855.734 4
        28.100          25.600
  20474771.537    20474771.021    20474769.401   -25181646.592 6 -19622055.503 8
        41.300          48.900
 09  1 18  1 49  0.0000000  0 10G32G11G 5G 9G12G31G19G22G18G14
  24373201.806    24373201.576    24373202.364    -3140949.154 2  -2447491.196 3
        17.800          23.400
  23056487.616    23056487.231    23056485.592    -6607060.446 5  -5148357.450 4
        31.000          27.900
  24481993.839    24481993.341    24481992.959    -3208661.533 2  -2500254.313 3
        15.100          18.600
  22522338.986    22522338.594    22522338.927    -8318492.042 5  -6481937.358 4
        31.100          29.900
  24627104.892    24627105.244    24627103.719    -1658790.477 2  -1292563.194 3
        17.000          21.600
  24158111.107    24158111.247    24158108.702    -4739261.200 3  -3692929.747 4
        22.600          24.600
  24596057.209    24596055.731    24596054.654     -904167.037 2   -704543.628 3
        17.800          19.900
  20866178.349    20866178.004    20866174.683   -21150293.734 7 -16480738.856 7
        43.700          43.600
  23094894.948    23094894.156    23094893.147   -11029919.542 4  -8594734.782 4
        27.900          25.600
  20470373.001    20470372.273    20470370.607   -25204762.167 6 -19640067.631 8
        41.200          48.900
 09  1 18  1 49 30.0000000  0 10G32G11G 5G 9G12G31G19G22G18G14
  24355277.590    24355277.839    24355278.786    -3235138.164 3  -2520885.193 3
        19.300          23.400
  23046578.379    23046577.659    23046575.127    -6659137.333 5  -5188936.834 4
        31.500          27.100
  24465960.793    24465960.348    24465960.016    -3292915.515 2  -2565906.767 3
        13.900          18.600
  22538538.795    22538538.102    22538537.407    -8233367.716 5  -6415606.715 4
        31.600          29.700
  24613473.124    24613472.947    24613470.040    -1730436.679 2  -1348391.385 3
        17.800          22.100
  24136427.948    24136427.749    24136425.098    -4853210.171 3  -3781721.140 4
        23.400          24.600
  24612123.084    24612123.154    24612120.570     -819732.958 2   -638750.828 3
        17.800          18.600
  20875851.215    20875850.826    20875847.489   -21099462.821 7 -16441130.352 7
        43.600          43.600
  23112549.313    23112548.839    23112547.314   -10937144.386 4  -8522442.487 4
        27.400          24.600
  20466060.553    20466059.982    20466058.426   -25227422.823 6 -19657725.284 8
        41.200          49.000
 09  1 18  1 50  0.0000000  0 10G32G11G 5G 9G12G31G19G22G18G14
  24337366.438    24337366.478    24337367.093    -3329262.392 3  -2594228.766 3
        21.100          23.800
  23036763.518    23036762.961    23036760.476    -6710712.895 5  -5229125.572 4
        31.300          26.800
  24449985.434    24449984.123    24449984.359    -3376870.942 2  -2631326.555 3
        12.600          19.300
  22554832.190    22554831.470    22554830.480    -8147745.229 5  -6348887.898 4
        31.000          29.000
  24599903.611    24599903.455    24599901.713    -1801739.506 2  -1403952.036 3
        17.000          22.600
  24114763.713    24114763.846    24114762.188    -4967050.624 3  -3870427.975 4
        23.800          24.600
  24628235.301    24628233.391    24628230.868     -735072.149 3   -572781.393 3
        21.100          18.600
  20885595.584    20885595.282    20885592.312   -21048253.941 7 -16401227.331 7
        43.300          43.600
  23130243.719    23130243.095    23130241.391   -10844159.528 4  -8449986.785 3
        27.100          23.800
  20461833.180    20461832.581    20461831.273   -25249637.585 6 -19675035.486 8
        41.200          49.200
 09  1 18  1 50 30.0000000  0 10G32G11G 5G 9G12G31G19G22G18G14
  24319470.175    24319469.356    24319469.365    -3423315.852 3  -2667517.168 4
        22.100          24.200
  23027045.135    23027044.845    23027043.016    -6761780.852 5  -5268918.772 4
        31.600          27.400
  24434066.713    24434066.725    24434067.358    -3460519.750 2  -2696507.387 3
        12.600          20.500
  22571219.746    22571219.299    22571219.442    -8061622.655 5  -6281779.409 4
        30.800          29.200
  24586401.850    24586402.265    24586400.380    -1872690.863 3  -1459238.730 3
        18.600          23.000
  24093123.967    24093123.265    24093121.787    -5080774.904 4  -3959044.286 4
        24.900          25.900
  24644389.041    24644387.710    24644385.977     -650182.694 3   -506633.781 3
        22.600          21.100
  20895413.356    20895412.926    20895409.838   -20996662.533 7 -16361026.238 7
        43.400          43.600
  23147978.804    23147978.282    23147976.253   -10750961.156 4  -8377364.695 3
        26.800          23.000
  20457691.754    20457691.123    20457689.460   -25271401.670 6 -19691994.508 8
        41.100          49.100
 09  1 18  1 51  0.0000000  0 10G32G11G 5G 9G12G31G19G22G18G14
  24301587.131    24301586.300    24301586.271    -3517293.669 3  -2740746.604 4
        23.400          24.900
  23017425.059    23017424.664    23017422.720    -6812335.617 5  -5308312.110 4
        31.100          26.800
  24418208.743    24418208.925    24418208.812    -3543855.001 2  -2761443.857 3
        13.900          19.900
  22587704.207    22587703.485    22587703.095    -7974999.229 5  -6214280.637 4
        30.400          28.400
  24572970.263    24572969.518    24572966.005    -1943283.943 3  -1514246.335 3
        18.600          22.100
  24071506.190    24071505.111    24071504.522    -5194376.455 4  -4047564.959 4
        24.200          25.900
  24660587.702    24660585.586    24660584.364     -565063.303 3   -440307.002 3
        21.100          21.100
  20905304.451    20905303.887    20905300.619   -20944685.488 7 -16320524.644 7
        43.400          43.400
  23165755.851    23165754.790    23165752.605   -10657546.632 4  -8304574.173 3
        26.500          22.600
  20453636.692    20453636.053    20453634.625   -25292710.909 6 -19708599.109 8
        41.100          49.200
 09  1 18  1 51 30.0000000  0 10G32G11G 5G 9G12G31G19G22G18G14
  24283717.779    24283716.655    24283717.558    -3611193.585 3  -2813915.349 4
        23.400          24.600
  23007902.752    23007902.387    23007900.675    -6862374.416 5  -5347303.382 4
        30.100          26.800
  24402413.004    24402412.850    24402410.726    -3626872.273 2  -2826132.653 3
        17.000          18.600
  22604282.477    22604282.125    22604281.382    -7887876.759 4  -6146392.990 4
        29.700          27.400
  24559604.524    24559604.169    24559601.332    -2013515.101 3  -1568971.952 3
        19.900          22.600
  24049911.238    24049911.309    24049910.626    -5307851.789 4  -4135987.268 4
        24.200          25.600
  24676827.328    24676826.277    24676823.620     -479716.087 3   -373802.677 3
        19.900          19.300
  20915268.864    20915268.326    20915264.935   -20892322.501 7 -16279722.323 7
        43.500          43.200
  23183572.345    23183571.797    23183570.054   -10563915.853 4  -8231615.133 3
        26.200          22.600
  20449668.241    20449667.698    20449666.049   -25313564.514 6 -19724848.668 8
        41.100          49.100
 09  1 18  1 52  0.0000000  0 10G32G11G 5G 9G12G31G19G22G18G14
  24265862.921    24265862.037    24265862.837    -3705018.784 3  -2887025.850 3
        23.800          23.800
  22998477.983    22998477.720    22998475.765    -6911899.882 5  -5385894.651 4
        30.100          26.500
  24386673.419    24386672.765    24386672.910    -3709572.760 2  -2890574.534 2
        12.600          17.800
  22620955.208    22620955.195    22620953.610    -7800263.045 5  -6078122.576 4
        30.100          27.600
  24546307.188    24546308.407    24546306.526    -2083385.870 3  -1623416.668 4
        23.000          24.600
  24028342.334    24028342.139    24028340.534    -5421202.361 4  -4224312.380 4
        24.600          26.500
  24693111.603    24693109.970    24693106.690     -394148.362 3   -307126.557 3
        20.500          19.300
  20925305.414    20925305.059    20925301.659   -20839578.598 7 -16238623.175 7
        43.400          43.100
  23201430.105    23201429.208    23201427.148   -10470074.629 4  -8158492.124 3
        26.500          22.100
  20445786.002    20445785.378    20445784.093   -25333966.845 6 -19740746.584 8
        41.100          48.900
 09  1 18  1 52 30.0000000  0 10G32G11G 5G 9G12G31G19G22G18G14
  24248022.268    24248021.340    24248021.655    -3798772.749 4  -2960080.860 3
        24.900          23.000
  22989151.567    22989151.147    22989148.573    -6960915.058 5  -5424088.296 4
        31.000          26.800
  24370995.474    24370993.918    24370995.238    -3791957.948 1  -2954770.719 3
        11.000          18.600
  22637719.723    22637719.491    22637718.766    -7712165.741 4  -6009475.330 4
        29.900          28.100
  24533080.483    24533080.071    24533079.145    -2152898.379 3  -1677582.215 4
        21.100          25.600
  24006796.121    24006795.814    24006793.780    -5534430.576 4  -4312542.140 4
        25.300          25.900
  24709434.117    24709432.070    24709430.857     -308367.561 3   -240284.425 3
        19.900          19.900
  20935413.851    20935413.409    20935410.178   -20786458.665 7 -16197231.029 7
        43.400          43.100
  23219326.298    23219325.579    23219323.010   -10376028.286 4  -8085209.280 3
        25.600          22.100
  20441988.743    20441988.017    20441986.160   -25353922.630 6 -19756296.548 8
        41.100          49.100
 09  1 18  1 53  0.0000000  0 10G32G11G 5G 9G12G31G19G22G18G14
  24230195.713    24230194.970    24230194.772    -3892453.614 4  -3033078.903 3
        26.200          23.400
  22979921.811    22979921.347    22979918.612    -7009417.670 5  -5461882.543 4
        31.000          26.800
  24355379.527    24355378.578    24355378.527    -3874023.807 2  -3018718.124 3
        12.600          19.900
  22654575.911    22654575.298    22654574.811    -7623587.173 4  -5940453.084 4
        29.700          27.900
  24519920.654    24519920.423    24519919.393    -2222048.175 3  -1731465.125 4
        19.300          24.200
  23985273.353    23985273.316    23985270.971    -5647532.792 4  -4400673.725 4
        24.900          26.500
  24725798.204    24725797.306    24725793.969     -222376.020 3   -173278.065 3
        19.900          19.900
  20945593.717    20945593.485    20945590.188   -20732962.622 7 -16155545.801 7
        43.600          43.100
  23237260.863    23237260.729    23237258.738   -10281777.391 4  -8011767.063 3
        25.900          23.400
  20438276.282    20438275.679    20438274.342   -25373430.577 6 -19771497.541 8
        41.100          48.800
 09  1 18  1 53 30.0000000  0 10G32G11G 5G 9G12G31G19G22G18G14
  24212383.789    24212383.463    24212383.496    -3986054.605 4  -3106014.702 3
        27.400          23.400
  22970790.587    22970789.951    22970787.732    -7057400.460 5  -5499271.718 4
        30.800          26.800
  24339824.650    24339823.868    24339825.303    -3955761.614 2  -3082409.858 3
        17.000          21.100
  22671523.045    22671522.815    22671522.570    -7534524.667 4  -5871053.734 4
        29.200          27.600
  24506834.015    24506833.666    24506831.447    -2290827.323 3  -1785059.207 4
        20.500          24.200
  23963776.432    23963776.149    23963773.898    -5760501.147 4  -4488700.982 4
        24.600          27.400
  24742201.494    24742200.809    24742199.016     -136171.087 3   -106105.407 3
        18.600          21.600
  20955846.484    20955845.975    20955842.598   -20679085.657 7 -16113563.754 7
        43.400          42.800
  23255236.859    23255236.225    23255234.483   -10187317.616 4  -7938162.082 4
        25.900          24.200
  20434650.275    20434649.615    20434647.799   -25392485.653 6 -19786345.651 8
        41.000          48.700
 09  1 18  1 54  0.0000000  0 10G32G11G 5G 9G12G31G19G22G18G14
  24194586.950    24194586.642    24194586.765    -4079577.394 4  -3178889.569 3
        27.100          23.800
  22961758.377    22961758.164    22961755.821    -7104864.844 5  -5536256.943 4
        31.300          27.100
  24324333.440    24324332.859    24324333.456    -4037171.022 3  -3145845.716 3
        19.300          19.900
  22688562.061    22688561.919    22688561.253    -7444984.169 4  -5801281.918 4
        29.900          27.100
  24493816.313    24493815.918    24493813.399    -2359235.661 3  -1838364.403 3
        19.300          23.000
  23942304.552    23942304.262    23942301.821    -5873335.958 4  -4576624.182 4
        25.300          26.200
  24758645.220    24758644.755    24758643.775      -49758.406 2    -38770.830 3
        17.000          23.400
  20966170.609    20966170.196    20966166.865   -20624831.486 7 -16071287.782 7
        43.400          42.900
  23273251.466    23273250.838    23273248.742   -10092652.899 4  -7864397.406 4
        27.100          24.200
  20431109.924    20431109.249    20431108.077   -25411090.587 6 -19800842.998 8
        41.000          48.800
 09  1 18  1 54 30.0000000  0 10G32G11G 5G 9G12G31G19G22G18G14
  24176805.424    24176805.081    24176805.416    -4173018.722 4  -3251700.953 3
        26.500          23.400
  22952825.538    22952825.149    22952823.156    -7151807.051 5  -5572835.284 4
        31.000          27.100
  24308905.934    24308905.446    24308904.445    -4118246.589 3  -3209021.474 2
        20.500          17.800
  22705692.264    22705691.907    22705691.578    -7354966.575 5  -5731138.328 4
        30.600          27.600
  24480868.563    24480868.489    24480866.625    -2427268.367 3  -1891376.910 3
        19.300          22.600
  23920857.983    23920858.047    23920856.610    -5986032.191 4  -4664439.415 4
        24.600          25.600
  24775129.961    24775128.082    24775125.848       36860.909 2     28724.733 3
        17.000          22.100
  20976566.989    20976566.539    20976563.079   -20570198.438 7 -16028716.578 7
        43.500          42.800
  23291304.699    23291304.084    23291302.046    -9997782.197 4  -7790472.214 3
        27.400          23.800
  20427655.289    20427654.777    20427653.057   -25429243.426 6 -19814988.063 8
        40.900          48.300
 09  1 18  1 55  0.0000000  0 10G22G32G11G 5G 9G12G31G19G18G14
  20987034.210    20987033.995    20987030.670   -20515190.815 7 -15985853.493 7
        43.400          42.900
  24159039.607    24159039.097    24159038.796    -4266381.029 4  -3324450.780 3
        25.600          22.600
  22943991.818    22943991.590    22943989.945    -7198229.026 5  -5609008.249 4
        31.600          27.100
  24293540.100    24293539.380    24293538.483    -4198988.865 3  -3271937.503 2
        19.300          17.000
  22722910.843    22722910.798    22722910.719    -7264478.691 5  -5660628.281 4
        30.200          27.600
  24467993.773    24467993.159    24467991.520    -2494926.564 3  -1944097.541 3
        20.500          22.100
  23899438.995    23899439.085    23899437.836    -6098590.875 4  -4752147.460 4
        25.600          26.500
  24791650.659    24791648.868    24791646.789      123680.525 3     96376.384 3
        18.600          20.500
  23309395.797    23309395.490    23309393.572    -9902710.229 4  -7716390.180 3
        27.100          23.000
  20424286.253    20424285.717    20424284.781   -25446947.748 6 -19828783.637 8
        41.000          48.100
 09  1 18  1 55 30.0000000  0 10G22G32G11G 5G 9G12G31G19G18G14
  20997574.641    20997574.312    20997570.981   -20459801.902 7 -15942693.311 7
        43.400          42.900
  24141290.210    24141289.584    24141289.298    -4359656.205 4  -3397132.723 3
        25.600          22.100
  22935259.518    22935258.926    22935256.265    -7244122.180 5  -5644769.153 4
        32.000          26.500
  24278240.680    24278239.852    24278240.050    -4279387.614 3  -3334585.835 2
        18.600          17.800
  22740220.414    22740220.553    22740219.994    -7173516.382 4  -5589748.555 4
        29.200          27.600
  24455191.828    24455191.563    24455190.776    -2562199.811 3  -1996518.198 3
        21.600          23.800
  23878048.526    23878048.036    23878046.526    -6211002.492 4  -4839740.913 4
        25.900          26.500
  24808211.391    24808209.820    24808207.697      210704.654 3    164187.387 3
        18.600          21.100
  23327527.212    23327526.481    23327524.553    -9807431.273 4  -7642146.864 3
        26.800          23.000
  20421004.042    20421003.377    20421001.479   -25464196.480 6 -19842224.207 8
        40.900          48.100
 09  1 18  1 56  0.0000000  0 10G22G32G11G 5G 9G12G31G19G18G14
  21008185.307    21008184.955    21008181.767   -20404042.015 7 -15899244.049 7
        43.200          42.700
  24123555.251    24123554.658    24123554.766    -4452852.245 4  -3469752.997 3
        24.900          21.100
  22926624.676    22926624.304    22926622.166    -7289494.119 5  -5680123.903 4
        31.300          26.800
  24263006.993    24263005.750    24263005.159    -4359449.015 3  -3396971.336 3
        19.300          19.900
  22757618.306    22757618.096    22757617.398    -7082092.478 4  -5518509.166 4
        28.600          27.600
  24442462.014    24442462.105    24442461.714    -2629094.866 3  -2048644.178 4
        22.100          24.200
  23856683.385    23856683.088    23856681.968    -6323273.451 4  -4927224.751 4
        25.900          26.800
  24824806.566    24824804.085    24824804.603      297921.194 2    232148.303 3
        15.100          21.100
  23345695.260    23345694.169    23345693.050    -9711955.909 4  -7567750.503 3
        25.300          23.400
  20417806.842    20417806.172    20417804.937   -25480998.641 6 -19855316.794 8
        40.900          48.400
 09  1 18  1 56 30.0000000  0 10G22G32G11G 5G 9G12G31G19G18G14
  21018866.792    21018866.425    21018863.068   -20347911.232 7 -15855505.782 7
        43.300          42.600
  24105836.091    24105835.368    24105835.553    -4545967.411 4  -3542310.252 3
        24.200          20.500
  22918090.325    22918090.021    22918087.985    -7334343.140 5  -5715071.190 4
        31.600          27.100
  24247835.431    24247834.492    24247834.573    -4439169.248 2  -3459090.995 2
        16.100          17.800
  22775103.487    22775102.764    22775102.271    -6990209.292 4  -5446911.886 4
        28.800          27.400
  24429804.742    24429805.121    24429804.019    -2695608.554 3  -2100473.015 3
        22.600          22.600
  23835346.407    23835346.128    23835344.989    -6435401.204 4  -5014596.999 4
        26.200          27.600
  24841438.958    24841438.392    24841438.478      385327.655 2    300257.180 3
        13.900          20.500
  23363900.144    23363899.662    23363898.912    -9616284.529 4  -7493201.418 3
        24.200          23.400
  20414694.318    20414693.769    20414691.857   -25497354.097 6 -19868061.306 8
        40.900          48.200
 09  1 18  1 57  0.0000000  0 10G22G32G11G 5G 9G12G31G19G18G14
  21029620.155    21029619.826    21029616.595   -20291400.983 7 -15811471.821 7
        43.200          42.500
  24088133.916    24088133.475    24088133.652    -4638991.151 4  -3614796.245 3
        24.600          19.900
  22909656.799    22909656.877    22909654.945    -7378658.327 5  -5749602.504 4
        31.100          27.400
  24232733.146    24232732.030    24232732.154    -4518535.858 2  -3520935.081 2
        17.800          17.800
  22792676.771    22792676.053    22792675.864    -6897860.412 4  -5374951.721 4
        28.600          27.900
  24417222.333    24417222.549    24417220.984    -2761728.784 3  -2151995.240 3
        23.400          22.600
  23814038.422    23814038.307    23814036.848    -6547373.747 4  -5101848.308 4
        27.400          27.100
  24858109.786    24858108.834    24858108.028      472930.373 2    368519.015 3
        15.100          19.900
  23382144.461    23382144.545    23382143.429    -9520408.546 3  -7418492.886 3
        23.800          22.600
  20411668.743    20411668.135    20411667.075   -25513253.840 6 -19880450.713 8
        40.900          48.100
 09  1 18  1 57 30.0000000  0 10G22G32G11G 5G 9G12G31G19G18G14
  21040445.112    21040444.765    21040441.372   -20234515.249 7 -15767145.278 7
        42.900          42.100
  24070449.149    24070448.815    24070448.946    -4731925.919 4  -3687212.928 3
        24.900          19.300
  22901325.154    22901324.886    22901323.340    -7422441.723 5  -5783719.430 4
        31.100          28.100
  24217697.186    24217696.450    24217696.765    -4597549.237 3  -3582503.939 3
        19.300          19.300
  22810337.009    22810336.657    22810336.268    -6805052.826 4  -5302634.134 4
        28.800          27.400
  24404716.114    24404716.057    24404713.653    -2827456.361 4  -2203211.535 3
        24.900          23.000
  23792760.317    23792760.230    23792758.071    -6659191.692 4  -5188979.179 4
        27.600          26.200
  24874817.069    24874815.782    24874813.408      560722.510 2    436928.429 2
        17.800          17.800
  23400428.485    23400427.487    23400425.698    -9424333.410 4  -7343629.155 3
        24.900          21.600
  20408729.059    20408728.443    20408726.534   -25528701.639 6 -19892487.958 8
        40.700          48.000
 09  1 18  1 58  0.0000000  0 10G22G32G11G 5G 9G12G31G19G18G14
  21051340.114    21051339.755    21051336.543   -20177261.600 7 -15722532.044 7
        43.100          42.300
  24052781.164    24052779.889    24052780.234    -4824777.253 4  -3759564.585 3
        24.600          19.300
  22893093.486    22893093.262    22893091.959    -7465698.822 5  -5817426.257 4
        31.100          28.800
  24202729.385    24202728.458    24202727.480    -4676213.060 3  -3643800.386 3
        21.100          19.300
  22828083.052    22828083.150    22828082.383    -6711796.362 5  -5229966.759 4
        30.100          27.400
  24392281.380    24392281.497    24392279.968    -2892795.377 3  -2254125.064 3
        21.100          22.600
  23771510.567    23771510.188    23771509.040    -6770859.336 4  -5275992.907 4
        26.800          27.400
  24891557.275    24891555.047    24891554.788      648694.431 2    505477.932 2
        15.100          17.000
  23418747.286    23418746.491    23418744.685    -9328066.683 4  -7268616.135 3
        24.600          21.600
  20405874.216    20405873.585    20405872.605   -25543704.048 6 -19904178.141 7
        40.600          47.800
 09  1 18  1 58 30.0000000  0 10G22G32G11G 5G 9G12G31G19G18G14
  21062308.268    21062307.840    21062304.747   -20119624.833 7 -15677620.282 7
        43.100          42.500
  24035130.965    24035129.970    24035130.281    -4917527.878 4  -3831837.754 3
        24.200          19.300
  22884966.199    22884965.639    22884963.913    -7508412.057 5  -5850709.298 4
        31.300          28.800
  24187829.404    24187828.427    24187828.860    -4754508.033 3  -3704809.399 3
        19.900          19.300
  22845917.738    22845917.399    22845915.971    -6618078.016 4  -5156939.474 4
        29.900          27.100
  24379926.573    24379926.116    24379923.720    -2957726.544 3  -2304720.757 3
        20.500          22.600
  23750292.732    23750292.720    23750291.270    -6882358.078 4  -5362875.012 4
        26.800          27.600
  24908334.031    24908332.386    24908332.095      736859.872 2    574178.221 2
        15.100          17.000
  23437105.558    23437104.767    23437102.907    -9231593.435 4  -7193442.207 3
        24.600          21.600
  20403107.146    20403106.589    20403104.591   -25558245.050 6 -19915508.795 7
        40.700          47.900
 09  1 18  1 59  0.0000000  0 10G22G32G11G 5G 9G12G31G19G18G14
  21073347.975    21073347.483    21073344.478   -20061610.109 7 -15632414.012 7
        42.600          42.200
  24017499.378    24017498.496    24017498.469    -5010181.020 4  -3904034.987 3
        24.200          19.300
  22876941.015    22876940.614    22876938.482    -7550584.261 5  -5883570.744 4
        31.600          28.600
  24172999.953    24172999.142    24172998.756    -4832435.512 3  -3765532.060 2
        18.600          17.800
  22863838.383    22863837.917    22863836.706    -6523905.643 4  -5083558.415 4
        28.800          27.100
  24367648.008    24367647.290    24367645.188    -3022251.878 3  -2355000.195 3
        21.100          23.000
  23729107.122    23729107.169    23729105.778    -6993689.645 4  -5449626.870 4
        27.100          28.100
  24925147.937    24925146.863    24925143.926      825210.802 2    643023.096 2
        17.000          17.000
  23455502.485    23455501.403    23455499.126    -9134919.398 4  -7118111.814 3
        24.200          21.600
  20400426.957    20400426.423    20400425.352   -25572329.194 6 -19926483.448 7
        40.700          47.700
 09  1 18  1 59 30.0000000  0 11G22G32G11G 5G 9G12G31G19G30G18G14
  21084456.001    21084455.565    21084452.367   -20003237.210 7 -15586928.642 7
        42.900          42.100
  23999882.671    23999882.034    23999882.400    -5102754.583 4  -3976170.208 3
        24.200          19.300
  22869015.775    22869015.339    22869013.332    -7592233.398 5  -5916024.626 4
        32.300          29.200
  24158238.021    24158236.988    24158235.870    -4910011.456 3  -3825980.847 2
        19.900          17.800
  22881840.860    22881840.523    22881839.805    -6429301.240 4  -5009840.723 4
        29.000          26.500
  24355443.089    24355442.573    24355440.007    -3086387.874 3  -2404976.285 3
        22.100          21.100
  23707950.083    23707950.058    23707948.502    -7104870.651 4  -5536261.394 4
        27.100          28.100
  24941990.691    24941989.378    24941988.066      913725.521 2    711995.643 2
        16.100          17.000
  25087842.262    25087842.088    25087839.667           -.6521          -.33611
                        11.000
  23473932.512    23473931.790    23473930.513    -9038064.860 3  -7042640.772 3
        23.800          21.600
  20397830.160    20397829.547    20397827.454   -25585975.984 6 -19937117.312 7
        40.600          47.700
                            4  1
other post-header comments skipped                          COMMENT
 09  1 18  2  0  0.0000000  0 11G22G32G11G 5G 9G12G31G19G30G18G14
  21095631.802    21095631.545    21095628.374   -19944507.290 7 -15541165.070 7
        43.100          42.000
  23982281.207    23982280.845    23982281.823    -5195247.547 3  -4048242.641 3
        23.400          20.500
  22861189.734    22861189.030    22861187.607    -7633358.255 5  -5948069.958 4
        31.500          29.000
  24143542.749    24143541.939    24143542.201    -4987233.012 3  -3886153.478 3
        20.500          19.300
  22899924.261    22899924.459    22899924.003    -6334268.305 4  -4935789.074 4
        29.000          25.900
  24343311.156    24343312.079    24343309.319    -3150132.077 3  -2454647.113 3
        22.100          20.500
  23686821.977    23686822.103    23686820.364    -7215898.733 4  -5622776.783 4
        27.100          27.900
  24958865.844    24958864.536    24958862.682     1002400.571 2    781093.112 2
        17.000          17.000
  25068401.266    25068401.378    25068398.745     -102160.028      -79604.967 1
                         6.500
  23492397.975    23492397.355    23492395.548    -8941031.138 4  -6967030.116 3
        24.200          21.100
  20395316.566    20395315.889    20395314.777   -25599185.639 6 -19947410.545 8
        40.600          48.100
 09  1 18  2  0 30.0000000  0 11G22G32G11G 5G 9G12G31G19G30G18G14
  21106877.253    21106876.879    21106873.628   -19885412.277 7 -15495117.008 6
        42.700          41.600
  23964697.521    23964696.718    23964698.238    -5287650.287 3  -4120244.761 3
        22.600          21.100
  22853465.253    22853465.192    22853462.922    -7673948.966 5  -5979699.068 4
        32.800          28.600
  24128917.691    24128917.309    24128916.928    -5064088.604 3  -3946040.923 3
        21.600          18.600
  22918091.690    22918091.352    22918090.600    -6238801.491 4  -4861399.353 4
        29.000          25.600
  24331259.308    24331258.660    24331256.546    -3213473.270 3  -2504003.838 3
        23.000          21.100
  23665725.568    23665725.223    23665723.708    -7326762.919 4  -5709164.465 4
        26.800          28.600
  24975771.569    24975768.903    24975768.150     1091242.003 2    850320.167 2
        16.100          16.100
  25048977.701    25048977.946    25048976.937     -204229.503     -159139.822 1
                         6.500
  23510898.821    23510897.948    23510896.105    -8843810.878 4  -6891274.101 3
        24.200          20.500
  20392887.639    20392886.899    20392884.899   -25611949.788 6 -19957356.633 8
        40.500          48.000
 09  1 18  2  1  0.0000000  0 11G22G32G11G 5G 9G12G31G19G30G18G14
  21118193.615    21118193.300    21118190.194   -19825944.551 7 -15448778.524 6
        42.900          41.900
  23947133.166    23947132.184    23947133.137    -5379953.097 3  -4192169.004 3
        22.600          22.100
  22845844.828    22845844.347    22845842.268    -7713995.943 5  -6010904.526 4
        32.700          28.400
  24114363.657    24114363.352    24114362.318    -5140566.666 3  -4005634.225 2
        21.600          17.800
  22936342.573    22936342.096    22936341.287    -6142895.427 4  -4786667.349 4
        29.500          25.600
  24319283.310    24319283.817    24319282.802    -3276400.636 3  -2553038.130 3
        23.400          22.100
  23644662.176    23644661.815    23644660.584    -7437452.263 4  -5795415.877 4
        26.500          29.000
  24992711.116    24992709.297    24992706.669     1180254.754 2    919680.788 2
        15.100          15.100
  25029574.351    25029572.281    25029573.330     -306197.269     -238599.921
                         3.000
  23529435.697    23529435.111    23529433.395    -8746396.931 3  -6815367.149 3
        23.800          21.100
  20390544.840    20390544.237    20390543.257   -25624260.340 6 -19966949.265 7
        40.500          47.500
 09  1 18  2  1 30.0000000  0 11G22G32G11G 5G 9G12G31G19G30G18G14
  21129580.205    21129579.976    21129576.887   -19766106.978 7 -15402151.847 6
        43.000          41.800
  23929586.929    23929586.447    23929587.053    -5472156.825 3  -4264016.042 3
        22.600          22.600
  22838327.263    22838326.936    22838324.935    -7753499.660 5  -6041686.641 4
        32.000          29.000
  24099883.598    24099882.491    24099881.912    -5216666.137 3  -4064932.507 2
        22.100          17.800
  22954674.800    22954674.559    22954674.323    -6046555.508 4  -4711597.275 4
        28.800          25.900
  24307388.956    24307388.742    24307387.490    -3338913.089 3  -2601749.113 3
        23.800          23.800
  23623631.944    23623631.535    23623630.366    -7547966.194 4  -5881530.590 4
        26.800          28.800
  25009680.174    25009678.836    25009677.378     1269434.281 1    989171.326 2
        11.000          16.100
  25010190.892    25010186.233    25010190.333     -408062.430     -317974.322
                         3.000
  23548008.773    23548008.285    23548007.201    -8648792.602 3  -6739311.844 3
        22.600          22.100
  20388288.189    20388287.570    20388285.462   -25636119.525 6 -19976190.190 7
        40.500          47.700
 09  1 18  2  2  0.0000000  0 11G22G32G11G 5G 9G12G31G19G30G18G14
  21141037.500    21141037.138    21141033.810   -19705899.160 7 -15355236.672 6
        42.800          41.400
  23912059.752    23912059.891    23912060.564    -5564258.812 3  -4335783.814 3
        23.400          23.000
  22830913.475    22830913.220    22830911.580    -7792457.242 5  -6072043.194 4
        31.300          28.800
  24085475.772    24085474.315    24085474.683    -5292382.579 3  -4123932.319 3
        22.100          19.300
  22973090.642    22973089.948    22973089.218    -5949783.466 4  -4636190.502 4
        28.400          26.500
  24295572.488    24295572.484    24295571.243    -3401006.585 3  -2650133.655 3
        23.000          23.800
  23602635.574    23602635.534    23602635.077    -7658300.755 4  -5967505.556 4
        27.400          29.700
  25026682.609    25026679.963    25026678.352     1358778.902 1   1058790.511 2
         9.000          16.100
  24990824.943    24990827.251    24990823.840     -509820.497     -397266.210 1
                         6.500
  23566617.649    23566617.167    23566617.239    -8550997.739 3  -6663108.088 3
        21.100          22.600
  20386117.255    20386116.782    20386115.821   -25647526.025 6 -19985078.370 7
        40.400          47.000
 09  1 18  2  2 30.0000000  0 11G22G32G11G 5G 9G12G31G19G30G18G14
  21152565.575    21152565.280    21152561.816   -19645319.821 7 -15308031.992 6
        43.100          41.300
  23894554.454    23894553.461    23894554.346    -5656256.198 3  -4407470.061 3
        23.800          23.400
  22823605.299    22823604.566    22823602.361    -7830866.103 5  -6101972.170 4
        31.800          28.100
  24071140.946    24071140.075    24071139.062    -5367711.226 3  -4182629.942 3
        20.500          19.300
  22991587.702    22991587.084    22991586.227    -5852580.883 4  -4560448.251 4
        28.800          27.100
  24283836.597    24283835.963    24283835.258    -3462677.357 3  -2698188.787 3
        19.900          23.800
  23581675.115    23581674.960    23581673.670    -7768451.577 4  -6053337.333 4
        28.800          29.200
  25043714.803    25043714.151    25043710.778     1448287.339 1   1128537.275 2
        11.000          16.100
  24971483.705    24971483.319    24971480.198     -611466.151     -476470.569 1
                         6.500
  23585264.686    23585263.965    23585263.159    -8453011.642 3  -6586755.314 3
        22.100          22.100
  20384033.390    20384032.803    20384030.753   -25658478.300 6 -19993612.609 7
        40.500          47.500
 09  1 18  2  3  0.0000000  0 11G22G32G11G 5G 9G12G31G19G30G18G14
  21164162.569    21164162.211    21164158.921   -19584376.711 7 -15260543.860 6
        42.900          41.400
  23877067.011    23877066.019    23877066.840    -5748154.397 4  -4479079.010 3
        24.200          23.800
  22816399.467    22816399.028    22816396.816    -7868731.693 5  -6131477.830 4
        32.100          28.800
  24056878.480    24056878.187    24056877.802    -5442655.722 3  -4241028.229 3
        18.600          19.900
  23010164.196    23010163.769    23010163.335    -5754957.448 4  -4484378.058 4
        28.100          26.500
  24272180.155    24272180.186    24272179.424    -3523928.957 3  -2745917.259 3
        21.100          23.000
  23560748.688    23560748.162    23560746.758    -7878422.870 4  -6139029.240 4
        29.000          29.000
  25060776.651    25060774.999    25060774.452     1537949.564 2   1198403.930 2
        13.900          17.000
  24952160.185    24952161.788    24952160.026     -713003.156     -555590.260 1
         3.000           6.500
  23603945.836    23603944.882    23603943.914    -8354842.394 3  -6510259.827 3
        22.100          21.100
  20382034.364    20382033.834    20382032.634   -25668983.414 6 -20001798.410 7
        40.500          47.500
 09  1 18  2  3 30.0000000  0 11G22G32G11G 5G 9G12G31G19G30G18G14
  21175828.391    21175828.015    21175824.706   -19523071.976 7 -15212773.942 6
        42.800          41.100
  23859598.001    23859597.529    23859598.216    -5839953.695 4  -4550610.912 3
        24.600          23.800
  22809297.255    22809296.882    22809294.689    -7906054.088 5  -6160560.216 4
        32.000          29.500
  24042691.457    24042690.148    24042689.810    -5517214.564 3  -4299126.009 3
        20.500          20.500
  23028820.474    23028820.172    23028819.380    -5656917.886 4  -4407983.597 4
        27.600          25.600
  24260606.809    24260606.198    24260603.509    -3584760.464 4  -2793318.408 3
        24.900          23.000
  23539855.667    23539855.546    23539854.174    -7988213.183 4  -6224580.123 4
        29.000          29.000
  25077867.429    25077865.975    25077864.259     1627761.685 1   1268387.343 2
        11.000          17.000
  24932856.668    24932858.775    24932860.082     -814429.784     -634624.031 1
                         6.500
  23622660.553    23622660.132    23622659.162    -8256492.572 3  -6433623.617 3
        22.100          19.900
  20380120.107    20380119.446    20380117.324   -25679043.108 6 -20009637.130 7
        40.400          47.600
 09  1 18  2  4  0.0000000  0 11G22G32G11G 5G 9G12G31G19G30G18G14
  21187563.013    21187562.643    21187559.417   -19461405.800 7 -15164722.376 6
        42.700          41.000
  23842149.887    23842148.732    23842148.593    -5931652.263 4  -4622064.316 3
        25.600          23.800
  22802298.105    22802298.002    22802296.763    -7942831.765 5  -6189218.135 5
        32.100          30.400
  24028578.081    24028576.810    24028575.162    -5591384.002 3  -4356920.341 3
        22.600          20.500
  23047555.613    23047555.371    23047554.395    -5558464.777 4  -4331266.899 4
        27.100          24.900
  24249110.464    24249110.671    24249107.757    -3645168.630 4  -2840389.718 3
        25.900          22.600
  23518997.509    23518997.983    23518996.428    -8097819.551 4  -6309987.673 4
        28.400          28.800
  25094985.698    25094985.068    25094982.233     1717721.137 1   1338485.633 2
        11.000          15.100
  24913579.318    24913576.996    24913575.466     -915741.700     -713568.358 1
                         6.500
  23641411.396    23641410.685    23641408.595    -8157962.822 3  -6356847.199 3
        23.000          21.100
  20378290.546    20378289.921    20378289.030   -25688656.917 6 -20017128.406 7
        40.300          47.400
 09  1 18  2  4 30.0000000  0 11G22G32G11G 5G 9G12G31G19G30G18G14
  21199365.881    21199365.577    21199362.375   -19399381.440 7 -15116391.707 6
        42.700          41.100
  23824719.303    23824718.161    23824717.415    -6023251.260 4  -4693440.134 3
        26.500          23.800
  22795403.307    22795402.849    22795401.667    -7979065.506 5  -6217452.209 5
        32.100          30.200
  24014536.686    24014535.200    24014534.628    -5665163.414 3  -4414410.813 3
        20.500          19.900
  23066369.480    23066368.536    23066366.467    -5459603.689 4  -4254232.291 4
        26.800          24.900
  24237695.822    24237695.298    24237693.202    -3705153.309 4  -2887131.009 3
        24.200          22.600
  23498175.544    23498175.305    23498173.964    -8207241.905 4  -6395251.829 4
        27.900          28.600
  25112132.109    25112131.023    25112129.303     1807822.616 1   1408694.525 2
        11.000          15.100
  24894323.925    24894324.277    24894324.627    -1016938.716     -792423.102 1
                         9.000
  23660194.983    23660194.158    23660191.485    -8059256.548 3  -6279933.254 3
        22.600          21.600
  20376545.463    20376544.862    20376542.680   -25697827.491 6 -20024274.310 7
        40.400          47.300
 09  1 18  2  5  0.0000000  0 11G22G32G11G 5G 9G12G31G19G30G18G14
  21211238.363    21211237.960    21211234.967   -19336991.546 7 -15067776.209 6
        42.500          41.200
  23807308.514    23807307.728    23807306.986    -6114741.307 4  -4764731.073 3
        26.800          23.800
  22788613.735    22788613.335    22788611.650    -8014746.246 5  -6245255.376 4
        32.300          29.500
  24000573.380    24000572.651    24000572.369    -5738541.762 3  -4471588.718 3
        21.100          23.000
  23085259.295    23085259.214    23085257.946    -5360330.063 4  -4176876.246 4
        27.100          25.600
  24226365.524    24226364.750    24226360.722    -3764703.725 3  -2933533.904 3
        23.800          22.600
  23477390.217    23477390.210    23477388.442    -8316469.732 4  -6480364.401 4
        28.100          28.600
  25129305.660    25129304.250    25129305.534     1898071.146 1   1479018.038 2
         9.000          15.100
  24875085.259    24875088.640    24875090.253    -1118009.186     -871178.038 1
                         6.500
  23679012.626    23679011.873    23679009.588    -7960367.186 3  -6202876.647 3
        22.100          22.600
  20374886.216    20374885.632    20374884.600   -25706546.993 6 -20031068.721 7
        40.400          47.400
 09  1 18  2  5 30.0000000  0 11G22G32G11G 5G 9G12G31G19G30G18G14
  21223179.573    21223179.179    21223176.280   -19274240.158 7 -15018879.032 6
        42.500          41.400
  23789917.894    23789917.540    23789917.884    -6206124.341 4  -4835938.615 4
        25.900          24.200
  22781928.893    22781928.558    22781926.683    -8049876.150 5  -6272629.327 4
        32.600          29.000
  23986687.045    23986686.180    23986686.014    -5811519.133 3  -4528454.185 4
        23.800          24.600
  23104227.508    23104227.442    23104226.541    -5260650.158 4  -4099203.596 4
        25.900          25.900
  24215115.274    24215114.869    24215110.487    -3823820.755 3  -2979599.109 3
        23.400          21.600
  23456641.858    23456641.896    23456639.894    -8425503.425 4  -6565325.704 4
        28.600          28.400
  25146505.080    25146505.158    25146501.842     1988460.695     1549451.446 1
         3.000          11.000
  24855882.869    24855882.175    24855881.864    -1218952.875     -949834.643 1
                        11.000
  23697864.189    23697863.141    23697862.125    -7861299.077 3  -6125680.763 3
        22.100          22.600
  20373312.282    20373311.662    20373309.524   -25714818.884 6 -20037514.351 7
        40.400          47.800
 09  1 18  2  6  0.0000000  0 11G22G32G11G 5G 9G12G31G19G30G18G14
  21235188.055    21235187.563    21235184.422   -19211135.273 7 -14969706.401 6
        42.200          40.900
  23772547.534    23772547.117    23772547.268    -6297406.572 4  -4907067.608 4
        24.900          24.900
  22775347.749    22775347.346    22775345.004    -8084461.377 5  -6299578.863 4
        32.700          28.800
  23972875.057    23972873.802    23972873.741    -5884100.001 3  -4585010.690 4
        23.400          24.600
  23123272.168    23123271.135    23123270.937    -5160574.592 4  -4021222.664 4
        25.300          26.200
  24203946.279    24203946.002    24203943.118    -3882509.093 3  -3025330.292 3
        22.100          22.600
  23435929.630    23435929.306    23435927.369    -8534348.006 4  -6650139.657 4
        28.600          27.900
  25163732.520    25163729.859    25163727.132     2078980.816 1   1619986.621 1
         6.500          11.000
  24836693.940    24836695.529    24836695.288    -1319774.343    -1028396.808 2
         3.000          13.900
  23716748.902    23716748.058    23716746.459    -7762060.861 3  -6048352.300 3
        22.100          22.600
  20371821.983    20371821.331    20371820.020   -25722650.792 6 -20043617.132 7
        40.300          47.700
 09  1 18  2  6 30.0000000  0 11G22G32G11G 5G 9G12G31G19G30G18G14
  21247265.309    21247264.962    21247261.992   -19147667.092 7 -14920250.678 6
        42.100          40.700
  23755199.518    23755198.322    23755198.089    -6388575.734 4  -4978108.477 4
        24.200          24.900
  22768871.731    22768871.579    22768869.582    -8118489.739 5  -6326094.461 4
        32.700          28.800
  23959141.101    23959140.167    23959140.084    -5956270.487 3  -4641247.376 4
        22.600          24.200
  23142391.253    23142391.284    23142391.208    -5060095.635 4  -3942927.391 4
        24.900          26.500
  24192861.310    24192861.154    24192859.904    -3940755.451 3  -3070717.032 4
        19.900          24.900
  23415255.361    23415255.097    23415253.248    -8642990.135 4  -6734795.834 4
        28.400          28.400
  25180987.488    25180983.492    25180981.065     2169639.722 1   1690629.824 2
        11.000          12.600
  24817535.425    24817534.982    24817534.175    -1420459.135 1  -1106852.474 2
         9.000          13.900
  23735667.244    23735666.219    23735665.047    -7662642.890 3  -5970883.779 3
        21.100          22.100
  20370417.120    20370416.530    20370414.258   -25730032.107 6 -20049368.807 7
        40.400          47.400
 09  1 18  2  7  0.0000000  0 11G22G32G11G 5G 9G12G31G19G30G18G14
  21259411.118    21259410.686    21259407.828   -19083841.750 7 -14870516.654 6
        42.200          41.100
  23737870.843    23737870.002    23737869.905    -6479636.010 4  -5049064.511 4
        24.200          25.300
  22762502.057    22762501.656    22762499.135    -8151965.666 5  -6352179.595 4
        33.200          28.800
  23945485.481    23945484.560    23945483.901    -6028032.889 3  -4697166.110 3
        23.400          23.400
  23161586.461    23161586.489    23161587.010    -4959221.543 4  -3864324.211 4
        24.900          26.200
  24181860.725    24181860.944    24181859.309    -3998562.844 3  -3115761.727 4
        20.500          24.600
  23394618.955    23394619.096    23394617.690    -8751432.415 4  -6819296.303 4
        29.200          29.000
  25198260.339    25198258.647    25198257.460     2260429.318 2   1761374.957 2
        12.600          12.600
  24798402.092    24798401.595    24798399.608    -1521009.504 1  -1185203.380 2
        11.000          13.900
  23754617.364    23754617.603    23754616.433    -7563051.550 3  -5893280.181 3
        19.900          20.500
  20369096.985    20369096.468    20369095.307   -25736968.547 6 -20054773.818 7
        40.300          47.100
 09  1 18  2  7 30.0000000  0 11G22G32G11G 5G 9G12G31G19G30G18G14
  21271625.180    21271624.940    21271621.927   -19019656.170 7 -14820501.924 6
        42.300          41.100
  23720564.491    23720563.646    23720563.727    -6570582.129 4  -5119931.591 4
        24.200          25.600
  22756237.720    22756237.379    22756235.353    -8184884.082 5  -6377830.299 4
        33.800          29.200
  23931908.147    23931907.448    23931906.832    -6099380.259 3  -4752761.450 3
        23.000          22.600
  23180859.625    23180858.470    23180858.246    -4857951.687 4  -3785412.638 4
        25.300          26.200
  24170946.758    24170946.337    24170943.855    -4055924.213 3  -3160458.880 3
        22.600          23.800
  23374021.627    23374021.986    23374021.019    -8859668.310 4  -6903635.959 4
        28.800          29.700
  25215561.694    25215560.935    25215557.308     2351350.154 2   1832222.339 1
        12.600           9.000
  24779294.658    24779294.502    24779292.440    -1621418.127 1  -1263443.868 2
        11.000          12.600
  23773603.537    23773602.460    23773601.945    -7463284.254 3  -5815539.449 3
        20.500          19.900
  20367862.552    20367861.922    20367859.716   -25743456.432 6 -20059829.314 7
        40.300          47.400
 09  1 18  2  8  0.0000000  0 11G22G32G11G 5G 9G12G31G19G30G18G14
  21283907.588    21283907.214    21283904.179   -18955112.452 7 -14770208.122 6
        42.200          40.800
  23703279.942    23703279.171    23703278.759    -6661414.096 4  -5190709.736 4
        24.600          25.900
  22750079.550    22750079.321    22750077.108    -8217245.515 5  -6403046.993 4
        34.000          28.800
  23918410.992    23918410.009    23918408.667    -6170311.070 3  -4808032.190 3
        23.800          22.100
  23200205.431    23200204.605    23200203.915    -4756290.831 4  -3706196.406 4
        25.900          25.900
  24160115.872    24160115.442    24160113.794    -4112838.983 3  -3204808.031 3
        22.600          23.400
  23353465.211    23353465.030    23353463.991    -8967696.830 4  -6987814.001 4
        29.000          29.900
  25232888.173    25232886.711    25232884.132     2442397.985 2   1903168.711 1
        12.600           9.000
  24760214.485    24760213.954    24760212.415    -1721682.871 1  -1341572.207 2
        11.000          13.900
  23792621.824    23792620.910    23792619.864    -7363343.797 3  -5737663.800 3
        21.100          19.300
  20366712.927    20366712.400    20366711.203   -25749497.558 6 -20064536.684 7
        40.300          47.100
 09  1 18  2  8 30.0000000  0 11G22G32G11G 5G 9G12G31G19G30G18G14
  21296257.966    21296257.563    21296254.568   -18890211.019 7 -14719635.587 6
        42.200          40.800
  23686016.895    23686016.225    23686016.405    -6752130.425 3  -5261397.759 4
        23.800          25.600
  22744028.090    22744027.634    22744024.989    -8249048.245 5  -6427828.344 4
        33.500          28.600
  23904992.853    23904992.063    23904991.841    -6240822.031 4  -4862975.804 3
        24.200          23.800
  23219624.583    23219623.695    23219622.599    -4654242.015 4  -3626677.850 4
        26.500          24.900
  24149370.336    24149370.417    24149368.250    -4169304.293 3  -3248806.965 4
        22.600          24.600
  23332948.042    23332948.252    23332946.727    -9075515.026 4  -7071828.177 4
        29.200          29.500
  25250237.883    25250235.991    25250234.735     2533570.146 1   1974211.950 1
         9.000          11.000
  24741162.599    24741162.303    24741161.074    -1821800.511 2  -1419585.852 2
        12.600          15.100
  23811672.268    23811671.677    23811670.753    -7263230.729 3  -5659653.642 2
        21.600          17.800
  20365648.535    20365647.874    20365645.756   -25755091.788 6 -20068895.826 7
        40.300          47.600
 09  1 18  2  9  0.0000000  0 11G22G32G11G 5G 9G12G31G19G30G18G14
  21308674.581    21308674.336    21308671.071   -18824959.983 7 -14668790.624 6
        42.100          40.300
  23668774.806    23668774.223    23668774.779    -6842736.782 4  -5332000.085 4
        25.300          25.900
  22738081.091    22738080.597    22738078.345    -8280298.458 5  -6452179.153 4
        33.000          28.400
  23891654.363    23891653.399    23891653.514    -6310917.179 4  -4917595.384 4
        24.900          25.300
  23239115.606    23239114.666    23239112.859    -4551815.394 4  -3546864.892 4
        26.800          24.200
  24138709.489    24138709.372    24138707.850    -4225324.572 3  -3292459.135 4
        21.600          24.200
  23312470.411    23312470.429    23312468.763    -9183127.189 4  -7155681.797 4
        29.500          29.900
  25267606.792    25267606.480    25267606.233     2624856.957     2045344.494 1
                        11.000
  24722137.062    24722136.879    24722137.722    -1921774.380 1  -1497487.530 2
        11.000          17.800
  23830754.055    23830754.053    23830752.154    -7162953.376 3  -5581515.462 2
        21.600          17.000
  20364667.540    20364666.929    20364665.802   -25760246.414 6 -20072912.415 7
        40.300          47.300
 09  1 18  2  9 30.0000000  0 11G22G32G11G 5G 9G12G31G19G30G18G14
  21321158.645    21321158.251    21321155.150   -18759355.653 6 -14617670.376 6
        41.700          40.400
  23651555.509    23651554.247    23651554.615    -6933227.260 4  -5402512.138 4
        27.100          25.900
  22732240.537    22732240.046    22732238.317    -8310990.393 5  -6476094.940 4
        33.000          28.100
  23878396.866    23878395.693    23878394.830    -6380588.981 4  -4971885.081 4
        26.200          24.200
  23258679.073    23258678.476    23258676.287    -4449009.517 4  -3466756.419 3
        27.100          23.800
  24128135.824    24128135.604    24128134.909    -4280892.666 3  -3335758.937 4
        22.100          24.200
  23292033.523    23292033.521    23292031.157    -9290526.077 5  -7239369.241 4
        30.100          29.700
  25285000.630    25285000.082    25284999.130     2716259.898     2116567.567 1
         3.000          11.000
  24703143.335    24703142.334    24703140.842    -2021596.586 1  -1575271.052 2
         9.000          16.100
  23849868.091    23849867.950    23849866.958    -7062508.639 3  -5503246.867 2
        20.500          17.800
  20363771.205    20363770.592    20363768.159   -25764957.051 6 -20076583.041 7
        40.400          47.300
 09  1 18  2 10  0.0000000  0 11G22G32G11G 5G 9G12G31G19G30G18G14
  21333709.412    21333709.189    21333706.167   -18693400.137 6 -14566276.480 6
        41.800          40.400
  23634357.543    23634356.807    23634356.698    -7023602.042 4  -5472934.045 4
        28.600          25.900
  22726505.356    22726505.299    22726503.622    -8341124.780 5  -6499576.285 4
        32.700          28.100
  23865219.081    23865218.348    23865217.903    -6449836.012 4  -5025843.780 3
        25.900          23.400
  23278313.591    23278312.729    23278311.062    -4345828.990 4  -3386356.014 3
        26.800          23.800
  24117647.801    24117647.888    24117644.691    -4336007.679 3  -3378705.687 3
        23.400          23.000
  23271636.820    23271636.676    23271634.842    -9397710.711 5  -7322889.727 4
        30.100          29.900
  25302415.829    25302415.844    25302411.301     2807774.844     2187877.845 1
         3.000           9.000
  24684176.972    24684175.510    24684175.278    -2121265.558 1  -1652935.119 2
         6.500          16.100
  23869013.406    23869012.891    23869012.374    -6961899.071 3  -5424849.831 2
        19.900          17.800
  20362958.712    20362958.273    20362957.093   -25769225.606 6 -20079909.186 7
        40.400          47.200
 09  1 18  2 10 30.0000000  0 11G22G32G11G 5G 9G12G31G19G30G18G14
  21346330.227    21346330.033    21346326.811   -18627078.026 7 -14514596.917 6
        42.000          40.400
  23617185.099    23617184.266    23617184.595    -7113843.387 4  -5543251.972 4
        28.600          25.900
  22720879.725    22720880.339    22720878.690    -8370683.991 5  -6522609.444 4
        33.200          28.600
  23852125.146    23852124.033    23852125.224    -6518638.894 4  -5079456.404 4
        24.200          24.200
  23298020.970    23298020.635    23298019.674    -4242260.573 4  -3305653.358 3
        26.500          23.800
  24107249.758    24107249.514    24107246.248    -4390651.049 3  -3421284.941 3
        23.000          23.000
  23251284.296    23251284.375    23251282.928    -9504662.445 5  -7406228.719 5
        30.100          30.400
  25319856.719    25319853.957    25319854.899     2899415.219     2259285.926 1
                        11.000
  24665241.171    24665240.789    24665242.343    -2220761.528 1  -1730464.404 2
         6.500          15.100
  23888193.952    23888192.680    23888191.855    -6861109.457 3  -5346312.492 3
        18.600          18.600
  20362233.718    20362233.147    20362230.930   -25773036.139 6 -20082878.431 7
        40.300          47.400
 09  1 18  2 11  0.0000000  0 12G22G32G11G 5G 9G12G31G19G30G17G18G14
  21359018.311    21359017.968    21359014.698   -18560403.190 6 -14462642.509 6
        41.900          40.300
  23600035.861    23600035.112    23600035.099    -7203962.872 4  -5613474.926 4
        28.600          25.600
  22715363.682    22715363.141    22715361.017    -8399680.038 5  -6545203.767 4
        34.100          28.800
  23839115.688    23839114.697    23839115.288    -6587007.594 4  -5132730.692 4
        24.900          24.900
  23317800.460    23317799.770    23317799.074    -4138320.592 4  -3224661.178 3
        25.900          23.400
  24096938.576    24096938.688    24096937.439    -4444833.084 3  -3463504.684 4
        22.100          24.900
  23230974.762    23230974.900    23230972.878    -9611391.566 5  -7489394.253 5
        31.100          30.200
  25337313.989    25337311.717    25337314.680     2991165.100     2330780.209 1
                         9.000
  24646339.023    24646340.893    24646337.996    -2320093.900 1  -1807866.189 2
         6.500          13.900
  25289421.615    25289420.927    25289419.519           -.37411         -.41812
         6.500          17.800
  23907406.221    23907404.736    23907403.372    -6760153.903 2  -5267645.880 3
        17.000          19.300
  20361593.511    20361592.815    20361591.576   -25776401.856 6 -20085501.065 7
        40.400          47.800
 09  1 18  2 11 30.0000000  0 12G22G32G11G 5G 9G12G31G19G30G17G18G14
  21371770.651    21371770.276    21371766.899   -18493389.921 6 -14410424.382 6
        41.900          40.100
  23582908.055    23582907.070    23582906.445    -7293972.766 4  -5683612.502 4
        28.800          25.600
  22709950.572    22709950.252    22709947.930    -8428125.672 5  -6567369.188 4
        34.700          28.600
  23826185.746    23826185.200    23826185.621    -6654952.852 4  -5185675.021 4
        25.900          25.300
  23337647.180    23337646.768    23337645.613    -4034025.593 4  -3143392.353 3
        26.200          22.600
  24086715.629    24086714.714    24086712.288    -4498564.682 3  -3505373.453 4
        21.600          25.300
  23210705.359    23210705.316    23210703.314    -9717908.873 5  -7572394.741 5
        31.300          30.400
  25354792.147    25354788.517    25354786.192     3083008.029     2402346.181 1
                         9.000
  24627466.295    24627466.987    24627465.303    -2419273.095 1  -1885148.673 2
         6.500          16.100
  25280658.158    25280657.481    25280653.461      -46061.432 1    -35892.147 2
         9.000          17.000
  23926645.180    23926644.609    23926643.903    -6659047.261 2  -5188861.527 3
        17.000          19.300
  20361034.912    20361034.253    20361032.062   -25779336.630 6 -20087787.903 7
        40.300          47.600
 09  1 18  2 12  0.0000000  0 12G22G32G11G 5G 9G12G31G19G30G17G18G14
  21384589.062    21384588.666    21384585.416   -18426029.119 6 -14357935.457 6
        41.800          40.200
  23565803.051    23565802.075    23565801.016    -7383861.671 4  -5753655.788 4
        29.200          25.600
  22704644.168    22704643.985    22704641.466    -8456009.849 5  -6589097.115 4
        34.800          28.600
  23813339.733    23813339.189    23813338.712    -6722461.638 4  -5238279.251 4
        25.900          24.200
  23357563.160    23357562.468    23357561.348    -3929368.754 4  -3061841.569 3
        24.600          22.100
  24076578.125    24076577.465    24076573.741    -4551833.502 3  -3546881.619 3
        22.600          23.000
  23190478.735    23190478.457    23190476.169    -9824201.820 5  -7655220.398 5
        31.600          30.200
  25372288.677    25372287.303    25372281.129     3174951.375     2473992.407
                         3.000
  24608625.292    24608625.582    24608624.299    -2518285.540 1  -1962301.176 2
        11.000          16.100
  25271986.880    25271986.857    25271984.164      -91627.065 1    -71397.905 2
        11.000          17.000
  23945914.205    23945914.563    23945915.297    -6557780.656 2  -5109952.500 3
        17.800          19.300
  20360560.237    20360559.698    20360558.503   -25781830.652 6 -20089731.296 7
        40.400          47.400
 09  1 18  2 12 30.0000000  0 12G22G32G11G 5G 9G12G31G19G30G17G18G14
  21397471.816    21397471.534    21397468.294   -18358328.627 6 -14305181.831 6
        41.900          40.000
  23548720.071    23548719.039    23548717.788    -7473635.105 4  -5823609.094 4
        29.900          25.900
  22699443.799    22699443.528    22699441.065    -8483338.458 5  -6610392.145 4
        34.900          29.200
  23800575.422    23800574.745    23800573.291    -6789537.984 4  -5290546.518 3
        26.800          22.600
  23377544.368    23377544.154    23377543.547    -3824360.148 3  -2980016.691 3
        23.800          22.100
  24066528.747    24066528.135    24066525.938    -4604644.230 3  -3588032.857 4
        23.000          24.600
  23170293.389    23170293.286    23170291.268    -9930274.700 5  -7737874.580 5
        31.500          30.200
  25389806.167    25389802.165    25389801.706     3266985.284     2545710.180 1
                         6.500
  24589813.892    24589814.762    24589814.269    -2617134.726 1  -2039326.480 2
        11.000          16.100
  25263408.668    25263407.644    25263408.953     -136702.051 1   -106521.206 2
         9.000          15.100
  23965214.406    23965213.974    23965213.919    -6456362.117 3  -5030925.096 2
        18.600          17.800
  20360168.050    20360167.459    20360165.082   -25783891.266 6 -20091336.966 7
        40.400          47.300
 09  1 18  2 13  0.0000000  0 11G22G32G11G 5G 9G12G31G30G17G18G14
  21410420.613    21410420.188    21410416.939   -18290283.411 6 -14252159.587 6
        41.900          40.000
  23531659.355    23531658.498    23531657.744    -7563285.864 4  -5893466.817 4
        29.000          25.600
  22694350.388    22694349.946    22694348.108    -8510105.041 5  -6631249.225 5
        34.000          30.200
  23787895.940    23787894.752    23787893.666    -6856173.088 4  -5342469.991 3
        27.400          23.400
  23397594.600    23397593.726    23397592.731    -3718997.141 3  -2897915.648 3
        23.800          21.600
  24056567.726    24056567.422    24056565.812    -4656988.744 3  -3628820.777 4
        23.800          25.900
  23150151.612    23150151.888    23150149.587   -10036119.052 5  -7820350.702 5
        32.000          30.200
  24571037.343    24571037.810    24571036.001    -2715811.790 2  -2116217.644 2
        12.600          15.100
  25254924.799    25254925.179    25254923.888     -181279.372 1   -141256.718 1
        11.000          11.000
  23984543.315    23984542.449    23984542.933    -6354787.297 2  -4951775.910 2
        17.000          16.100
  20359859.466    20359858.841    20359857.715   -25785512.832 6 -20092600.519 7
        40.400          47.300
 09  1 18  2 13 30.0000000  0 11G22G32G11G 5G 9G12G31G30G17G18G14
  21423436.000    21423435.640    21423432.394   -18221886.779 6 -14198863.516 6
        41.700          40.100
  23514623.737    23514622.933    23514623.176    -7652805.139 4  -5963222.071 4
        28.400          25.900
  22689365.045    22689364.772    22689363.145    -8536301.150 5  -6651661.772 4
        34.300          29.900
  23775301.388    23775300.549    23775299.863    -6922356.719 4  -5394041.644 4
        27.400          24.200
  23417712.952    23417712.154    23417710.386    -3613275.469 3  -2815535.137 3
        22.600          21.600
  24046696.718    24046696.938    24046694.201    -4708857.361 4  -3669237.874 4
        24.900          24.600
  23130055.593    23130055.614    23130053.688   -10141725.165 5  -7902641.175 5
        32.000          31.000
  24552294.514    24552294.652    24552293.383    -2814305.884 2  -2192966.246 2
        12.600          13.900
  25246539.269    25246539.892    25246537.539     -225349.675 2   -175597.176 1
        13.900          11.000
  24003902.776    24003902.440    24003902.274    -6253049.846 2  -4872499.977 2
        17.000          16.100
  20359635.741    20359635.153    20359632.940   -25786688.545 6 -20093516.661 7
        40.500          47.400
 09  1 18  2 14  0.0000000  0 11G22G32G11G 5G 9G12G31G30G17G18G14
  21436519.509    21436519.091    21436515.876   -18153131.950 6 -14145288.337 6
        41.600          39.800
  23497615.323    23497614.889    23497614.779    -7742183.623 4  -6032867.634 4
        29.000          25.900
  22684490.831    22684490.443    22684487.920    -8561918.053 5  -6671623.000 4
        34.800          29.000
  23762794.361    23762793.320    23762793.667    -6988078.055 4  -5445253.057 4
        25.300          24.900
  23437899.895    23437899.479    23437898.011    -3507190.407 3  -2732871.464 3
        22.600          21.100
  24036919.067    24036919.010    24036916.088    -4760239.439 4  -3709275.852 4
        25.900          24.200
  23110006.908    23110007.027    23110005.161   -10247082.469 5  -7984737.766 5
        32.100          31.500
  24533587.764    24533588.079    24533588.082    -2912605.906 2  -2269563.646 2
        12.600          12.600
  25238249.078    25238250.093    25238246.611     -268903.419     -209535.205 1
         3.000          11.000
  24023296.113    24023295.115    24023294.620    -6151143.127 3  -4793092.165 2
        18.600          16.100
  20359498.321    20359497.729    20359496.608   -25787410.717 6 -20094079.393 7
        40.500          47.400
 09  1 18  2 14 30.0000000  0 11G22G32G11G 5G 9G12G31G30G17G18G14
  21449667.522    21449667.286    21449664.193   -18084037.279 6 -14091448.336 6
        41.600          39.700
  23480631.443    23480630.792    23480630.154    -7831437.691 4  -6102416.245 4
        28.800          26.500
  22679723.133    22679722.582    22679720.456    -8586972.494 5  -6691145.946 4
        34.500          29.200
  23750373.110    23750372.502    23750372.437    -7053351.959 4  -5496115.819 4
        25.600          24.600
  23458152.010    23458151.548    23458150.925    -3400762.731 3  -2649940.806 3
        22.100          21.600
  24027232.421    24027231.711    24027228.761    -4811150.530 4  -3748946.817 4
        26.500          24.900
  23090003.032    23090002.734    23090000.863   -10352205.963 5  -8066652.166 5
        32.100          32.000
  24514917.888    24514916.765    24514915.522    -3010726.016 1  -2346020.807 2
        11.000          12.600
  25230058.082    25230058.739    25230057.291     -311956.743     -243083.305 2
         3.000          13.900
  24042717.422    24042716.690    24042715.423    -6049085.856 3  -4713567.039 2
        18.600          16.100
  20359443.736    20359443.221    20359441.084   -25787697.522 6 -20094302.876 7
        40.600          47.600
 09  1 18  2 15  0.0000000  0 11G22G32G11G 5G 9G12G31G30G17G18G14
  21462880.376    21462880.116    21462877.116   -18014603.701 6 -14037344.253 6
        41.400          39.500
  23463671.058    23463670.228    23463669.802    -7920565.855 4  -6171866.742 4
        28.800          27.400
  22675062.670    22675062.318    22675059.927    -8611463.524 5  -6710229.862 4
        35.200          29.900
  23738038.673    23738037.752    23738036.374    -7118175.462 4  -5546627.624 3
        26.800          23.000
  23478469.781    23478469.544    23478468.281    -3293995.859 3  -2566745.834 3
        21.600          21.600
  24017633.656    24017633.348    24017630.301    -4861588.006 4  -3788248.760 4
        26.500          24.200
  23070043.419    23070043.438    23070041.343   -10457093.032 5  -8148382.327 5
        32.400          32.000
  24496281.342    24496280.657    24496279.371    -3108662.395 2  -2422334.865 1
        12.600          11.000
  25221961.371    25221960.594    25221959.652     -354507.846 1   -276239.934 2
         6.500          12.600
  24062166.266    24062165.784    24062164.679    -5946879.084 2  -4633925.410 2
        17.000          17.000
  20359471.954    20359471.418    20359470.205   -25787549.213 6 -20094187.310 7
        40.500          47.400
 09  1 18  2 15 30.0000000  0 11G22G32G11G 5G 9G12G31G30G17G18G14
  21476158.297    21476157.976    21476155.015   -17944827.662 6 -13982973.321 6
        41.200          39.500
  23446735.320    23446734.489    23446734.320    -8009562.293 4  -6241214.588 4
        28.600          28.400
  22670510.414    22670509.821    22670507.311    -8635386.080 5  -6728870.813 4
        34.500          29.500
  23725789.275    23725788.460    23725788.076    -7182541.443 4  -5596782.934 4
        25.900          24.200
  23498852.295    23498851.508    23498850.214    -3186888.268 3  -2483285.378 3
        21.100          21.600
  24008127.047    24008126.657    24008123.893    -4911545.519 4  -3827176.678 4
        25.600          24.900
  23050130.440    23050130.423    23050128.128   -10561736.733 5  -8229922.863 5
        33.000          32.100
  24477678.851    24477679.325    24477679.291    -3206407.478 1  -2498499.851 2
        11.000          13.900
  25213962.225    25213961.114    25213960.211     -396550.858 1   -309000.713 2
        11.000          13.900
  24081642.674    24081642.287    24081642.776    -5844519.868 2  -4554165.015 2
        13.900          16.100
  20359583.867    20359583.234    20359580.948   -25786961.540 6 -20093729.380 7
        40.500          47.600
