     2.11           OBSERVATION DATA    G (GPS)             RINEX VERSION / TYPE
teqc  2008Oct2      WCDA Operator       20090129 00:18:43UTCPGM / RUN BY / DATE
Solaris x86 5.10|AMD64|cc SC5.8 -xarch=amd64|=+|=+          COMMENT
teqc  2008Oct2      WCDA Operator       20090128 01:18:15UTCCOMMENT
flin  WCDA-ACP   965000   CFS Flin Flon SASK Canada         MARKER NAME
40135M001                                                   MARKER NUMBER
PGC-WCDA            GEOL. SURV. CANADA                      OBSERVER / AGENCY
1115                AOA BENCHMARK ACT   3.3.32.4            REC # / TYPE / VERS
231                 AOAD/M_T        SCIS                    ANT # / TYPE
  -766174.4630 -3611375.3160  5184056.2210                  APPROX POSITION XYZ
        0.1500        0.0000        0.0000                  ANTENNA: DELTA H/E/N
     1     1                                                WAVELENGTH FACT L1/2
     7    C1    P1    P2    L1    L2    S1    S2            # / TYPES OF OBSERV
STATION INFORMATION EFFECTIVE FROM: 2001/01/13 18:20:00     COMMENT
                                TO: CURRENT DATE (above)    COMMENT
BIT 2 OF LLI FLAGS (+4) DATA COLLECTED UNDER 'AS' CONDITION COMMENT
L1 PHASE CENTRE 0.110m ABOVE ARP                            COMMENT
L2 PHASE CENTRE 0.128m ABOVE ARP                            COMMENT
where ARP is the Antenna Reference Point for HI measurement COMMENT
CONTACT gps@pgc.nrcan.gc.ca FOR ADDITIONAL INFORMATION      COMMENT
    P1 =    P1  TurboRogue; =    Y1  Benchmark              COMMENT
    L1 = L1(CA)                                             COMMENT
    P2 =    P2  TurboRogue; =    Y2  Benchmark              COMMENT
    L2 = L2(P2) TurboRogue; = L2(Y2) Benchmark              COMMENT
 SNR is mapped to RINEX snr flag value [0-9]                COMMENT
  L1 & L2: min(max(int(snr_dBHz/6), 0), 9)                  COMMENT
  2009     1    28     0     0    0.0000000     GPS         TIME OF FIRST OBS
                                                            END OF HEADER
 09  1 28  0  0  0.0000000  0 10G28G19G15G 6G21G 3G14G 9G18G22
  25520626.857    25520626.592    25520626.476      361553.500 1    281729.868 1
         9.000           6.500
  23049133.571    23049132.211    23049130.471   -10078646.484 5  -7853486.759 5
        32.000          30.100
  25371029.804    25371031.054    25371027.353      902485.718 1    703246.036 1
        11.000           9.000
  24287153.872    24287153.252    24287155.377    -4769336.920 2  -3716354.071 3
        17.800          19.300
  23681473.336    23681472.384    23681471.527    -9758102.225 3  -7603712.671 2
        19.300          16.100
  24205941.291    24205940.401    24205942.395    -1528060.861 3  -1190694.909 3
        19.300          18.600
  21798678.719    21798678.269    21798677.391   -16742482.739 6 -13046084.004 5
        37.400          34.600
  21417899.520    21417899.177    21417898.406   -18110972.707 6 -14112437.936 5
        37.800          35.400
  21138861.805    21138861.206    21138859.552   -22361296.257 6 -17424378.001 6
        41.500          39.200
  20262436.874    20262436.523    20262433.462   -25704898.285 7 -20029782.175 8
        44.800          50.000
 09  1 28  0  0 30.0000000  0 10G28G19G15G 6G21G 3G14G 9G18G22
  25524476.352    25524475.910    25524476.725      381776.219 1    297487.776 1
         9.000           9.000
  23054327.145    23054325.831    23054324.000   -10051354.867 5  -7832220.565 4
        32.400          29.700
  25391747.029    25391749.601    25391749.754     1011375.052      788094.863 1
         3.000          11.000
  24304097.825    24304096.732    24304098.074    -4680298.067 2  -3646973.180 2
        17.000          17.800
  23702910.802    23702910.503    23702909.658    -9645443.995 2  -7515927.042 2
        17.000          16.100
  24222919.069    24222917.949    24222918.263    -1438848.900 2  -1121179.137 2
        17.800          17.800
  21783630.804    21783630.384    21783629.553   -16821559.884 6 -13107702.536 5
        37.600          34.900
  21417055.422    21417055.024    21417054.149   -18115409.529 6 -14115895.192 5
        38.100          35.300
  21149022.269    21149021.666    21149019.878   -22307903.419 6 -17382773.186 6
        41.500          39.100
  20261619.417    20261619.137    20261616.143   -25709193.531 7 -20033129.113 8
        44.800          50.100
 09  1 28  0  1  0.0000000  0  9G28G19G 6G21G 3G14G 9G18G22
  25528417.595    25528414.503    25528415.830      402491.692      313629.643 1
                         6.500
  23059625.740    23059624.356    23059622.517   -10023511.343 5  -7810524.306 4
        32.300          29.900
  24321074.877    24321075.051    24321074.766    -4591081.849 2  -3577454.063 2
        17.800          17.000
  23724380.268    23724379.992    23724379.381    -9532618.738 2  -7428011.290 2
        16.100          16.100
  24239937.607    24239937.008    24239937.368    -1349413.389 2  -1051489.172 2
        17.800          17.800
  21768650.512    21768649.956    21768649.043   -16900282.615 6 -13169044.902 5
        37.700          34.900
  21416349.797    21416349.377    21416348.635   -18119116.961 6 -14118784.093 5
        37.800          35.300
  21159246.635    21159246.083    21159244.516   -22254172.737 6 -17340905.117 6
        41.300          39.100
  20260878.260    20260877.965    20260874.923   -25713088.421 7 -20036164.086 8
        44.800          50.000
 09  1 28  0  1 30.0000000  0  9G28G19G 6G21G 3G14G 9G18G22
  25532456.139    25532454.406    25532452.470      423699.917      330155.643 1
         3.000           9.000
  23065029.162    23065027.751    23065026.202    -9995115.907 5  -7788397.998 4
        32.000          29.900
  24338085.080    24338085.728    24338086.130    -4501689.987 3  -3507798.082 2
        18.600          17.000
  23745882.717    23745881.906    23745880.690    -9419627.387 2  -7339966.096 2
        17.000          15.100
  24256999.206    24256998.412    24256998.597    -1259756.533 2   -981626.711 3
        17.000          18.600
  21753737.888    21753737.376    21753736.586   -16978648.546 6 -13230109.239 5
        37.800          35.200
  21415783.421    21415782.996    21415782.045   -18122093.450 6 -14121103.429 5
        37.800          35.200
  21169535.825    21169535.245    21169533.579   -22200103.401 6 -17298773.165 6
        41.300          38.900
  20260213.555    20260213.256    20260210.210   -25716581.401 7 -20038885.882 8
        44.800          50.000
 09  1 28  0  2  0.0000000  0  9G28G19G 6G21G 3G14G 9G18G22
  25536587.674    25536586.532    25536585.196      445412.936 1    347074.819 1
         9.000           9.000
  23070539.763    23070538.456    23070536.635    -9966156.906 5  -7765832.538 4
        31.800          29.500
  24355133.422    24355132.082    24355131.842    -4412112.423 2  -3437997.428 2
        17.800          16.100
  23767418.237    23767417.828    23767416.188    -9306459.332 2  -7251783.210 2
        17.000          15.100
  24274103.505    24274102.598    24274104.219    -1169867.760 2   -911583.539 3
        15.100          18.600
  21738896.021    21738895.547    21738894.696   -17056643.194 6 -13290884.273 5
        37.900          35.200
  21415358.600    21415358.112    21415357.736   -18124325.596 6 -14122842.758 5
        37.600          35.800
  21179891.616    21179890.984    21179889.360   -22145683.402 6 -17256367.970 6
        41.300          38.700
  20259627.853    20259627.484    20259624.417   -25719659.531 7 -20041284.419 8
        44.800          50.000
 09  1 28  0  2 30.0000000  0  9G28G19G 6G21G 3G14G 9G18G22
  25540815.167    25540813.319    25540813.606      467626.185 1    364383.823 1
         9.000          11.000
  23076156.889    23076155.248    23076153.979    -9936639.833 5  -7742832.217 5
        32.000          30.200
  24372211.186    24372210.758    24372212.615    -4322355.781 2  -3368057.210 2
        15.100          17.000
  23788985.166    23788985.035    23788983.914    -9193120.410 2  -7163467.186 2
        17.000          15.100
  24291251.422    24291250.709    24291252.238    -1079754.245 2   -841365.243 3
        15.100          19.300
  21724124.128    21724123.612    21724122.891   -17134269.015 6 -13351371.906 5
        37.700          35.300
  21415074.717    21415074.275    21415073.875   -18125816.950 6 -14124004.845 5
        37.700          35.800
  21190313.317    21190312.771    21190311.005   -22090916.764 6 -17213692.663 6
        41.400          38.600
  20259120.319    20259120.068    20259117.049   -25722325.941 7 -20043362.132 8
        44.900          50.000
 09  1 28  0  3  0.0000000  0  9G28G19G 6G21G 3G14G 9G18G22
  25545132.770    25545132.655    25545131.020      490334.929      382079.040 1
                         6.500
  23081878.890    23081877.359    23081876.002    -9906569.655 5  -7719400.907 5
        32.000          30.400
  24389323.331    24389323.553    24389324.566    -4232427.113 2  -3297982.954 2
        15.100          16.100
  23810584.254    23810584.013    23810582.029    -9079617.208 2  -7075023.145 2
        17.800          13.900
  24308441.403    24308440.468    24308441.447     -989423.190 2   -770977.440 3
        17.800          19.300
  21709422.022    21709421.515    21709420.855   -17211529.380 6 -13411574.768 5
        37.800          35.600
  21414931.395    21414930.843    21414930.221   -18126571.757 6 -14124592.995 5
        38.000          35.700
  21200800.157    21200799.524    21200797.769   -22035808.351 6 -17170751.034 6
        41.300          38.400
  20258690.734    20258690.373    20258687.241   -25724584.298 7 -20045121.884 8
        44.800          49.900
 09  1 28  0  3 30.0000000  0  9G28G19G 6G21G 3G14G 9G18G22
  25549547.593    25549548.108    25549547.579      513533.231      400155.568 1
         3.000          11.000
  23087705.037    23087703.879    23087702.103    -9875952.699 5  -7695543.535 5
        32.300          30.400
  24406467.938    24406468.246    24406468.606    -4142334.300 2  -3227780.748 2
        17.800          16.100
  23832213.340    23832212.398    23832211.062    -8965957.117 3  -6986456.832 2
        18.600          12.600
  24325670.674    24325670.540    24325670.588     -898882.277 2   -700426.129 3
        17.800          19.300
  21694789.004    21694788.412    21694787.552   -17288427.222 6 -13471495.140 5
        37.900          35.800
  21414926.785    21414926.367    21414925.783   -18126594.490 6 -14124610.707 5
        37.700          35.500
  21211350.655    21211350.105    21211348.572   -21980364.039 6 -17127547.672 6
        41.100          38.600
  20258337.640    20258337.329    20258334.151   -25726439.604 7 -20046567.571 8
        44.900          49.900
 09  1 28  0  4  0.0000000  0  9G28G19G 6G21G 3G14G 9G18G22
  25554055.503    25554055.446    25554054.942      537219.596      418612.446 2
         3.000          13.900
  23093635.000    23093633.397    23093631.800    -9844791.250 5  -7671261.893 5
        31.800          30.400
  24423644.081    24423643.640    24423643.054    -4052080.901 3  -3157453.419 2
        19.300          17.000
  23853871.673    23853870.854    23853869.692    -8852142.813 2  -6897770.365 2
        17.800          13.900
  24342939.274    24342938.728    24342940.186     -808135.287 2   -629714.236 3
        17.800          19.900
  21680224.719    21680224.136    21680223.318   -17364962.310 6 -13531132.854 5
        37.800          35.700
  21415061.430    21415061.126    21415060.730   -18125886.067 6 -14124058.678 5
        37.700          35.600
  21221965.230    21221964.598    21221963.011   -21924585.049 6 -17084083.524 6
        41.200          38.400
  20258061.339    20258060.965    20258057.812   -25727891.997 7 -20047699.299 8
        44.800          49.900
 09  1 28  0  4 30.0000000  0  9G28G19G 6G21G 3G14G 9G18G22
  25558656.223    25558655.773    25558656.415      561397.138      437452.034 2
         3.000          12.600
  23099668.950    23099667.663    23099665.751    -9813082.810 5  -7646554.013 5
        32.000          30.400
  24440848.476    24440848.379    24440848.980    -3961665.660 2  -3087000.045 2
        17.000          16.100
  23875559.154    23875558.722    23875557.332    -8738172.805 2  -6808962.580 2
        17.800          15.100
  24360248.111    24360247.174    24360248.353     -717181.271 2   -558840.999 3
        17.800          20.500
  21665730.738    21665730.221    21665729.199   -17441129.188 6 -13590483.657 5
        38.200          35.900
  21415336.483    21415335.864    21415335.298   -18124442.172 6 -14122933.558 5
        37.700          35.600
  21232643.864    21232643.260    21232641.674   -21868468.027 6 -17040355.968 6
        41.200          38.200
  20257862.256    20257861.934    20257858.894   -25728937.506 7 -20048513.976 8
        44.800          50.000
 09  1 28  0  5  0.0000000  0  9G28G19G 6G21G 3G14G 9G18G22
  25563350.760    25563350.330    25563347.141      586070.003      456676.947 1
                         6.500
  23105807.716    23105806.285    23105804.303    -9780823.854 5  -7621417.160 5
        31.600          30.400
  24458085.173    24458084.814    24458086.031    -3871086.401 2  -3016418.814 2
        16.100          16.100
  23897278.006    23897277.020    23897275.674    -8624043.971 3  -6720031.037 2
        18.600          17.000
  24377595.198    24377594.336    24377595.474     -626018.546 2   -487805.171 3
        16.100          19.900
  21651308.057    21651307.494    21651306.415   -17516921.435 6 -13649542.533 6
        38.300          36.000
  21415752.201    21415751.705    21415750.884   -18122257.912 6 -14121231.525 5
        38.000          35.500
  21243387.789    21243387.224    21243385.497   -21812008.311 6 -16996361.377 6
        41.100          38.100
  20257741.817    20257741.483    20257738.390   -25729570.527 7 -20049007.231 8
        44.800          49.900
 09  1 28  0  5 30.0000000  0  9G28G19G 6G21G 3G14G 9G18G22
  25568140.673    25568141.526    25568138.494      611228.686      476280.968 1
                         9.000
  23112049.051    23112047.632    23112045.991    -9748024.065 5  -7595858.898 5
        31.000          30.400
  24475351.807    24475351.127    24475351.769    -3780354.472 2  -2945718.607 2
        16.100          15.100
  23919024.237    23919023.381    23919021.103    -8509767.215 2  -6630984.234 2
        17.800          15.100
  24394980.714    24394980.167    24394980.346     -534658.382 2   -416615.494 2
        17.000          17.800
  21636955.114    21636954.542    21636953.639   -17592346.241 6 -13708315.089 6
        38.200          36.200
  21416306.968    21416306.442    21416305.870   -18119341.967 6 -14118959.352 5
        37.700          35.500
  21254195.236    21254194.598    21254193.014   -21755215.461 6 -16952107.203 6
        41.200          38.200
  20257698.184    20257697.888    20257694.822   -25729799.533 7 -20049185.675 8
        44.800          49.900
 09  1 28  0  6  0.0000000  0  9G19G28G 6G21G 3G14G 9G18G22
  23118395.504    23118393.937    23118392.283    -9714675.202 5  -7569872.786 5
        31.500          30.400
  25573019.689    25573022.128    25573020.290      636882.012      496270.507 1
                        11.000
  24492647.131    24492647.059    24492646.910    -3689463.008 2  -2874894.108 2
        17.000          17.000
  23940799.356    23940799.102    23940797.062    -8395335.179 2  -6541816.441 2
        17.000          13.900
  24412405.027    24412404.158    24412404.686     -443093.691 2   -345266.427 3
        17.000          18.600
  21622674.160    21622673.596    21622672.628   -17667392.742 6 -13766792.857 6
        38.400          36.300
  21417002.810    21417002.464    21417001.709   -18115684.348 6 -14116109.250 5
        37.700          35.300
  21265067.611    21265067.079    21265065.365   -21698080.403 6 -16907586.374 6
        41.200          38.100
  20257733.429    20257733.124    20257729.929   -25729614.670 7 -20049041.619 8
        44.900          49.900
 09  1 28  0  6 30.0000000  0  9G19G28G 6G21G 3G14G 9G18G22
  23124843.537    23124842.444    23124840.485    -9680788.100 5  -7543467.245 4
        31.600          29.900
  25577993.506    25577996.146    25577995.340      663019.641      516637.406 2
                        12.600
  24509971.304    24509971.426    24509972.134    -3598424.215 2  -2803954.812 2
        17.000          17.800
  23962602.177    23962602.077    23962600.188    -8280759.225 2  -6452536.484 2
        17.000          13.900
  24429865.227    24429864.725    24429865.133     -351336.927 2   -273767.656 2
        17.800          17.000
  21608463.560    21608463.092    21608462.344   -17742068.826 6 -13824981.988 6
        38.400          36.500
  21417838.346    21417837.900    21417837.125   -18111294.341 6 -14112688.457 5
        37.800          35.200
  21276003.233    21276002.635    21276001.014   -21640612.954 6 -16862806.537 6
        41.000          37.800
  20257845.613    20257845.307    20257842.276   -25729024.745 7 -20048581.933 8
        44.900          49.900
 09  1 28  0  7  0.0000000  0  9G19G11G 6G21G 3G14G 9G18G22
  23131394.141    23131392.656    23131390.607    -9646366.007 5  -7516644.841 4
        31.600          29.900
  24861137.508    24861137.020    24861134.651           -.0451          -.08111
         3.000           9.000
  24527322.791    24527321.757    24527323.109    -3507242.776 2  -2732904.387 3
        15.100          18.600
  23984432.515    23984432.043    23984429.968    -8166043.801 2  -6363147.866 2
        17.000          13.900
  24447361.377    24447360.831    24447361.600     -259393.067 2   -202123.083 3
        17.800          18.600
  21594323.587    21594323.058    21594322.179   -17816375.215 6 -13882883.039 6
        38.500          36.500
  21418812.656    21418812.151    21418811.395   -18106174.026 6 -14108698.594 5
        37.700          35.100
  21287001.839    21287001.165    21286999.437   -21582815.673 6 -16817769.694 6
        40.900          37.700
  20258034.803    20258034.434    20258031.234   -25728031.527 7 -20047807.991 8
        45.000          49.800
 09  1 28  0  7 30.0000000  0  9G19G11G 6G21G 3G14G 9G18G22
  23138044.319    23138043.072    23138041.024    -9611419.760 5  -7489413.998 5
        32.400          30.200
  24842473.311    24842473.385    24842471.546      -98076.731 1    -76423.443 1
         6.500          11.000
  24544698.754    24544698.577    24544699.742    -3415930.684 2  -2661752.138 3
        15.100          19.300
  24006286.787    24006285.875    24006283.959    -8051199.990 2  -6273659.192 2
        17.000          13.900
  24464890.931    24464890.516    24464891.438     -167274.293 2   -130342.251 2
        17.800          17.800
  21580252.499    21580251.924    21580251.027   -17890319.696 6 -13940502.083 6
        38.700          36.500
  21419924.226    21419923.849    21419923.064   -18100332.428 6 -14104146.693 5
        37.700          35.200
  21298061.058    21298060.479    21298058.810   -21524698.319 6 -16772483.442 6
        40.900          37.600
  20258298.753    20258298.422    20258295.236   -25726643.855 7 -20046726.682 8
        44.900          49.800
 09  1 28  0  8  0.0000000  0  9G19G11G 6G21G 3G14G 9G18G22
  23144799.178    23144797.888    23144796.423    -9575920.915 5  -7461752.566 5
        32.000          30.400
  24823859.081    24823859.673    24823858.726     -195902.136 1   -152651.005 1
         9.000          11.000
  24562105.340    24562104.341    24562106.182    -3324460.664 2  -2590476.835 2
        12.600          17.800
  24028170.152    24028169.494    24028167.303    -7936200.028 2  -6184048.885 2
        16.100          12.600
  24482459.606    24482458.766    24482459.580      -74953.388 2    -58403.874 2
        17.000          17.000
  21566256.191    21566255.655    21566254.807   -17963870.837 6 -13997814.640 6
        38.900          36.700
  21421178.624    21421178.185    21421177.641   -18093739.989 6 -14099009.721 5
        37.700          35.300
  21309186.949    21309186.355    21309184.642   -21466231.611 6 -16726924.965 6
        40.800          37.400
  20258643.591    20258643.255    20258640.174   -25724831.481 7 -20045314.436 8
        44.800          49.800
 09  1 28  0  8 30.0000000  0  9G19G11G 6G21G 3G14G 9G18G22
  23151656.917    23151655.603    23151653.830    -9539883.053 5  -7433671.120 4
        31.800          29.900
  24805289.109    24805288.805    24805289.736     -293486.174 1   -228690.512 2
         6.500          12.600
  24579536.847    24579536.885    24579537.779    -3232847.681 1  -2519090.081 2
         9.000          16.100
  24050081.333    24050080.343    24050077.570    -7821058.313 2  -6094328.100 1
        17.000          11.000
  24500062.427    24500062.069    24500063.457       17554.350 2     13680.084 2
        15.100          15.100
  21552332.455    21552332.028    21552331.230   -18037039.547 6 -14054829.190 6
        38.900          37.000
  21422573.781    21422573.313    21422572.749   -18086408.947 6 -14093297.215 5
        37.900          35.300
  21320376.993    21320376.395    21320374.556   -21407428.197 6 -16681104.116 6
        41.000          37.400
  20259067.000    20259066.718    20259063.599   -25722606.107 7 -20043580.373 8
        44.800          49.800
 09  1 28  0  9  0.0000000  0  9G19G11G 6G21G 3G14G 9G18G22
  23158616.587    23158615.308    23158613.590    -9503309.867 5  -7405172.539 4
        32.100          29.700
  24786765.952    24786765.445    24786766.300     -390828.346 1   -304541.565 2
        11.000          12.600
  24596998.035    24596998.058    24596997.995    -3141096.788 1  -2447595.910 2
        11.000          15.100
  24072017.549    24072017.497    24072015.380    -7705779.272 2  -6004500.290 1
        17.000           6.500
  24517700.539    24517700.070    24517701.688      110243.723 2     85905.579 2
        16.100          15.100
  21538481.840    21538481.270    21538480.239   -18109826.766 6 -14111546.476 6
        39.200          37.000
  21424109.026    21424108.560    21424107.846   -18078341.704 6 -14087011.042 5
        37.900          35.100
  21331630.351    21331629.794    21331628.028   -21348291.017 6 -16635023.193 6
        40.900          37.300
  20259568.704    20259568.383    20259565.332   -25719969.779 7 -20041526.086 8
        44.700          49.900
 09  1 28  0  9 30.0000000  0  9G19G11G 6G21G 3G14G 9G18G22
  23165677.468    23165676.146    23165674.267    -9466206.072 5  -7376260.500 4
        32.400          29.500
  24768288.863    24768287.554    24768289.819     -487929.538 1   -380204.822 1
        11.000          11.000
  24614483.956    24614483.511    24614482.960    -3049213.973 2  -2375998.974 2
        12.600          17.000
  24093980.402    24093979.163    24093978.060    -7590368.439 2  -5914569.788 1
        17.000           6.500
  24535373.526    24535372.819    24535373.494      203109.035 2    158268.158 2
        17.000          16.100
  21524703.027    21524702.411    21524701.468   -18182234.537 6 -14167968.085 6
        39.100          37.100
  21425783.740    21425783.208    21425782.271   -18069541.809 6 -14080153.976 5
        37.800          34.800
  21342946.377    21342945.817    21342944.145   -21288824.123 6 -16588685.349 6
        40.600          37.200
  20260147.961    20260147.674    20260144.647   -25716925.461 7 -20039153.883 8
        44.700          49.800
 09  1 28  0 10  0.0000000  0  9G19G11G 6G21G 3G14G 9G18G22
  23172838.467    23172837.069    23172835.350    -9428574.127 5  -7346936.915 4
        31.600          29.000
  24749856.813    24749856.921    24749855.560     -584788.064 1   -455678.994 1
         9.000           9.000
  24631991.450    24631991.800    24631992.287    -2957202.827 1  -2304302.043 2
         9.000          17.800
  24115967.160    24115965.706    24115964.649    -7474828.751 3  -5824538.895 1
        18.600           9.000
  24553076.833    24553076.425    24553077.664      296145.829 2    230764.356 2
        17.000          16.100
  21510996.515    21510995.930    21510994.906   -18254262.386 6 -14224093.655 6
        39.100          37.100
  21427597.016    21427596.669    21427596.083   -18060010.261 6 -14072726.787 5
        37.500          34.800
  21354325.154    21354324.466    21354322.847   -21229028.932 6 -16542091.689 6
        40.500          37.100
  20260805.027    20260804.654    20260801.497   -25713473.518 7 -20036464.053 8
        44.700          49.700
 09  1 28  0 10 30.0000000  0  9G19G11G 6G21G 3G14G 9G18G22
  23180100.334    23180098.894    23180096.841    -9390413.763 5  -7317201.561 4
        31.500          28.800
  24731471.918    24731471.198    24731468.566     -681399.276 1   -530960.433 1
         6.500           9.000
  24649522.374    24649523.195    24649526.064    -2865064.487 1  -2232505.901 2
         6.500          16.100
  24137977.230    24137976.502    24137976.080    -7359160.863 3  -5734408.109 1
        18.600          11.000
  24570813.685    24570813.218    24570813.453      389353.230 2    303393.506 2
        15.100          13.900
  21497362.598    21497362.165    21497361.342   -18325907.294 6 -14279920.834 6
        39.100          37.200
  21429550.802    21429550.309    21429549.606   -18049745.423 6 -14064728.209 5
        38.100          35.200
  21365766.395    21365765.794    21365764.220   -21168904.402 6 -16495241.408 6
        40.600          37.200
  20261539.761    20261539.429    20261536.195   -25709612.467 7 -20033455.435 8
        44.800          49.800
 09  1 28  0 11  0.0000000  0  9G19G11G 6G21G 3G14G 9G18G22
  23187462.911    23187461.249    23187459.296    -9351724.832 5  -7287054.351 4
        31.100          29.200
  24713136.082    24713134.483    24713131.981     -777758.942 1   -606045.856 1
         9.000           9.000
  24667082.955    24667082.888    24667083.286    -2772799.789 2  -2160611.326 2
        12.600          17.800
  24160010.831    24160011.183    24160010.389    -7243365.015 2  -5644177.635 1
        17.800          11.000
  24588583.302    24588582.262    24588582.678      482730.211 2    376154.784 2
        15.100          15.100
  21483802.553    21483802.111    21483801.224   -18397166.038 6 -14335447.106 6
        39.300          37.200
  21431643.809    21431643.412    21431642.741   -18038745.665 6 -14056156.955 5
        37.800          35.100
  21377270.689    21377270.147    21377268.317   -21108449.343 6 -16448133.560 6
        40.600          36.900
  20262352.660    20262352.355    20262349.273   -25705339.734 7 -20030126.029 8
        44.700          49.800
 09  1 28  0 11 30.0000000  0  9G19G11G 6G21G 3G14G 9G18G22
  23194925.840    23194924.177    23194922.809    -9312505.049 5  -7256493.481 4
        31.000          29.900
  24694848.425    24694848.235    24694844.840     -873860.487 1   -680930.132 1
         9.000          11.000
  24684665.905    24684665.398    24684665.066    -2680407.465 2  -2088617.313 2
        12.600          16.100
  24182070.285    24182071.036    24182070.722    -7127439.413 3  -5553846.037 1
        19.900           9.000
  24606383.720    24606383.773    24606385.203      576277.803 2    449049.036 2
        13.900          16.100
  21470317.018    21470316.512    21470315.548   -18468033.316 6 -14390668.340 6
        39.300          37.400
  21433877.301    21433876.985    21433876.420   -18027007.389 6 -14047010.243 5
        37.600          35.100
  21388838.357    21388837.742    21388836.081   -21047660.049 6 -16400765.278 6
        40.300          36.700
  20263244.899    20263244.567    20263241.538   -25700651.213 7 -20026472.630 8
        44.700          49.800
 09  1 28  0 12  0.0000000  0  9G19G11G 6G21G 3G14G 9G18G22
  23202487.220    23202485.987    23202484.683    -9272766.076 5  -7225528.031 4
        30.600          29.700
  24676608.195    24676607.549    24676605.221     -969711.718 1   -755619.380 2
        11.000          12.600
  24702266.731    24702266.394    24702267.550    -2587900.561 1  -2016534.061 2
        11.000          13.900
  24204154.322    24204153.458    24204152.642    -7011396.294 3  -5463422.848 1
        21.100           9.000
  24624216.783    24624215.959    24624215.900      669982.744 2    522065.905 2
        15.100          17.000
  21456904.132    21456903.661    21456902.687   -18538518.214 6 -14445591.620 6
        39.300          37.600
  21436249.873    21436249.360    21436248.728   -18014541.147 6 -14037296.278 5
        37.800          35.200
  21400467.811    21400467.198    21400465.371   -20986547.494 6 -16353145.097 6
        40.400          36.600
  20264214.356    20264214.023    20264210.944   -25695556.741 7 -20022502.906 8
        44.700          49.800
 09  1 28  0 12 30.0000000  0  9G19G14G11G 6G21G 3G 9G18G22
  23210149.194    23210147.589    23210145.827    -9232505.643 5  -7194156.276 4
        30.800          29.500
  21443564.952    21443564.516    21443563.537   -18608615.742 6 -14500213.052 6
        39.300          37.700
  24658417.344    24658417.034    24658415.060    -1065305.948 2   -830108.391 2
        13.900          12.600
  24719893.234    24719892.905    24719892.613    -2495277.999 1  -1944360.664 2
         9.000          13.900
  24226259.229    24226258.486    24226257.885    -6895234.140 3  -5372906.889 1
        20.500           9.000
  24642078.875    24642077.930    24642077.637      763846.207 2    595206.271 2
        17.000          15.100
  21438761.397    21438760.975    21438760.103   -18001343.585 6 -14027012.460 5
        38.200          35.100
  21412159.104    21412158.532    21412156.936   -20925108.575 6 -16305270.613 6
        40.100          36.700
  20265261.785    20265261.477    20265258.282   -25690052.604 7 -20018213.962 8
        44.700          49.700
 09  1 28  0 13  0.0000000  0  9G19G14G11G 6G21G 3G 9G18G22
  23217909.051    23217907.831    23217906.158    -9191725.780 5  -7162379.778 4
        30.400          29.500
  21430299.899    21430299.405    21430298.342   -18678324.550 6 -14554531.590 6
        39.400          37.600
  24640277.040    24640276.638    24640273.671    -1160640.973 2   -904395.394 2
        16.100          13.900
  24737540.452    24737540.360    24737541.500    -2402542.665 2  -1872099.357 2
        13.900          17.000
  24248386.113    24248385.291    24248385.405    -6778955.377 3  -5282300.112 1
        19.300          11.000
  24659968.995    24659968.304    24659968.924      857865.358 2    668467.901 2
        13.900          13.900
  21441411.704    21441411.282    21441410.706   -17987415.356 6 -14016159.290 5
        38.100          35.200
  21423912.754    21423912.076    21423910.382   -20863343.947 6 -16257142.330 6
        40.200          36.600
  20266387.239    20266386.906    20266383.798   -25684138.310 7 -20013605.415 8
        44.700          49.700
 09  1 28  0 13 30.0000000  0  9G19G14G11G 6G21G 3G 9G18G22
  23225769.084    23225767.741    23225765.960    -9150422.605 5  -7130195.478 4
        30.800          29.200
  21417110.104    21417109.575    21417108.454   -18747637.974 6 -14608542.033 6
        39.500          37.800
  24622186.213    24622185.935    24622182.837    -1255708.486 2   -978473.963 2
        17.000          12.600
  24755209.592    24755209.644    24755211.037    -2309691.798 2  -1799748.081 2
        12.600          15.100
  24270535.783    24270535.765    24270534.567    -6662556.344 3  -5191599.588 1
        19.300           9.000
  24677889.106    24677888.700    24677890.845      952042.207 2    741852.403 2
        13.900          15.100
  21444202.077    21444201.638    21444201.079   -17972751.063 6 -14004732.567 5
        38.000          35.200
  21435728.804    21435728.286    21435726.632   -20801248.752 6 -16208756.459 6
        40.000          36.500
  20267591.741    20267591.423    20267588.359   -25677808.339 7 -20008672.965 8
        44.600          49.700
 09  1 28  0 14  0.0000000  0  9G19G14G11G 6G21G 3G 9G18G22
  23233725.742    23233724.383    23233722.542    -9108608.417 5  -7097612.988 4
        30.400          28.600
  21403993.362    21403992.931    21403992.103   -18816565.444 6 -14662251.735 6
        39.400          38.200
  24604143.979    24604143.530    24604140.562    -1350516.758 2  -1052350.504 2
        15.100          12.600
  24772899.195    24772898.294    24772897.940    -2216738.751 1  -1727317.228 2
        11.000          15.100
  24292706.184    24292706.453    24292705.395    -6546050.223 3  -5100815.630 2
        19.300          12.600
  24695839.239    24695838.770    24695839.129     1046363.499 2    815349.504 2
        15.100          16.100
  21447130.546    21447130.146    21447129.718   -17957362.064 6 -13992741.129 5
        37.900          35.200
  21447606.009    21447605.412    21447603.734   -20738834.635 6 -16160122.080 6
        39.900          36.500
  20268873.491    20268873.185    20268870.106   -25671072.652 7 -20003424.371 8
        44.600          49.700
 09  1 28  0 14 30.0000000  0  9G19G14G11G 6G21G 3G 9G18G22
  23241780.677    23241779.603    23241777.970    -9066279.175 5  -7064629.183 4
        30.600          28.800
  21390951.724    21390951.228    21390950.421   -18885099.878 6 -14715655.171 6
        39.500          38.300
  24586154.265    24586153.798    24586151.863    -1445057.147 2  -1126018.290 1
        13.900          11.000
  24790606.433    24790605.497    24790606.313    -2123680.535    -1654804.341 2
                        12.600
  24314898.184    24314897.625    24314897.111    -6429433.520 3  -5009945.503 2
        19.900          13.900
  24713815.849    24713815.127    24713816.182     1140832.103 2    888961.386 2
        13.900          17.800
  21450197.922    21450197.429    21450197.001   -17941243.303 6 -13980181.052 5
        37.900          35.100
  21459544.699    21459544.108    21459542.431   -20676096.228 6 -16111235.005 6
        39.800          36.300
  20270233.495    20270233.199    20270230.113   -25663925.911 7 -19997855.476 8
        44.600          49.700
 09  1 28  0 15  0.0000000  0  9G19G14G 9G11G 6G21G 3G18G22
  23249933.810    23249932.608    23249930.924    -9023435.748 5  -7031244.697 4
        31.100          29.000
  21377985.293    21377984.823    21377983.812   -18953239.290 6 -14768750.801 6
        39.600          38.400
  21453404.116    21453403.720    21453403.149   -17924394.070 6 -13967051.769 5
        37.700          34.900
  24568215.723    24568215.385    24568212.808    -1539326.617 2  -1199474.981 1
        12.600           9.000
  24808334.354    24808334.906    24808335.796    -2030518.868    -1582210.921 2
                        12.600
  24337110.937    24337109.989    24337109.706    -6312707.330 3  -4918990.075 2
        19.900          16.100
  24731819.440    24731819.765    24731820.902     1235446.246 1    962686.664 2
        11.000          17.800
  21471545.234    21471544.654    21471542.799   -20613033.121 6 -16062094.918 6
        39.700          36.000
  20271671.895    20271671.584    20271668.346   -25656367.194 7 -19991965.559 8
        44.700          49.600
 09  1 28  0 15 30.0000000  0  9G19G14G 9G11G 6G21G 3G18G22
  23258184.530    23258183.010    23258181.000    -8980078.749 5  -6997460.023 4
        31.000          28.600
  21365094.444    21365093.978    21365092.941   -19020981.466 6 -14821536.897 6
        39.700          38.600
  21456749.446    21456749.015    21456748.493   -17906813.981 6 -13953352.995 5
        37.700          34.800
  24550327.535    24550327.281    24550325.988    -1633321.305 1  -1272717.557 1
        11.000           6.500
  24826081.627    24826081.116    24826081.583    -1937255.739    -1509538.348 1
         3.000          11.000
  24359344.309    24359343.431    24359342.537    -6195872.650 3  -4827950.114 2
        18.600          16.100
  24749852.060    24749851.349    24749851.792     1330203.813 1   1036523.739 2
        11.000          16.100
  21483607.602    21483606.895    21483605.238   -20549645.222 6 -16012701.747 6
        39.500          36.000
  20273189.048    20273188.755    20273185.575   -25648394.184 7 -19985752.818 8
        44.700          49.600
 09  1 28  0 16  0.0000000  0  9G19G14G 9G11G 6G21G 3G18G22
  23266532.437    23266531.052    23266529.194    -8936209.302 5  -6963276.060 4
        30.400          28.600
  21352279.550    21352279.009    21352277.966   -19088324.434 6 -14874011.918 6
        39.700          38.600
  21460234.063    21460233.526    21460232.944   -17888503.042 6 -13939084.718 5
        37.800          34.700
  24532492.184    24532492.434    24532491.271    -1727037.958 1  -1345743.489 1
         9.000           6.500
  24843848.310    24843848.107    24843847.346    -1843892.931 1  -1436788.070 1
         6.500           9.000
  24381597.787    24381596.576    24381595.383    -6078931.259 2  -4736827.016 2
        17.000          15.100
  24767911.003    24767910.789    24767910.663     1425102.648 2   1110470.859 2
        12.600          15.100
  21495731.590    21495731.083    21495729.234   -20485932.583 6 -15963055.530 5
        39.700          35.800
  20274785.251    20274784.912    20274781.767   -25640006.520 7 -19979216.969 8
        44.600          49.600
 09  1 28  0 16 30.0000000  0  9G19G14G 9G18G11G 6G21G 3G22
  23274976.169    23274974.847    23274973.167    -8891836.743 5  -6928700.046 4
        30.200          28.800
  21339539.426    21339538.878    21339537.733   -19155274.485 6 -14926180.777 6
        39.700          38.600
  21463855.878    21463855.496    21463854.807   -17869469.324 6 -13924253.253 5
        37.900          34.600
  21507915.876    21507915.276    21507913.654   -20421903.273 6 -15913162.554 5
        39.300          35.700
  24514710.055    24514710.395    24514710.635    -1820481.492    -1418556.596 1
         3.000          11.000
  24861632.102    24861631.802    24861631.566    -1750440.971 1  -1363968.392 1
         6.500           9.000
  24403868.889    24403868.551    24403866.943    -5961892.625 2  -4645628.127 2
        17.000          12.600
  24785994.328    24785993.639    24785994.771     1520132.393 2   1184519.976 2
        12.600          16.100
  20276458.769    20276458.421    20276455.317   -25631211.797 7 -19972363.931 8
        44.600          49.600
 09  1 28  0 17  0.0000000  0  9G19G14G 9G18G11G 6G21G 3G22
  23283514.150    23283512.673    23283511.292    -8846969.825 5  -6893738.827 4
        30.400          28.600
  21326872.668    21326872.193    21326871.313   -19221837.358 6 -14978047.931 6
        39.700          38.800
  21467614.336    21467613.833    21467613.015   -17849720.163 6 -13908864.282 5
        38.200          34.700
  21520159.262    21520158.581    21520156.961   -20357564.863 6 -15863028.729 5
        39.300          35.800
  24496979.783    24496981.517    24496978.892    -1913656.247    -1491160.267 1
         3.000           9.000
  24879430.223    24879430.795    24879430.224    -1656909.177    -1291086.514 1
         3.000          11.000
  24426157.397    24426156.658    24426155.993    -5844765.877 2  -4554360.555 1
        15.100          11.000
  24804099.964    24804100.049    24804100.638     1615283.133 1   1258663.381 2
        11.000          15.100
  20278208.570    20278208.241    20278205.254   -25622016.223 7 -19965198.541 8
        44.500          49.600
 09  1 28  0 17 30.0000000  0  9G19G14G 9G18G11G 6G21G 3G22
  23292149.660    23292148.169    23292145.987    -8801591.919 5  -6858379.429 4
        30.800          28.400
  21314283.552    21314283.058    21314282.242   -19287993.327 6 -15029598.017 6
        39.700          38.900
  21471511.922    21471511.447    21471510.779   -17829238.015 6 -13892904.162 5
        38.100          34.800
  21532464.617    21532464.073    21532462.419   -20292899.372 6 -15812640.030 5
        39.300          35.600
  24479307.049    24479307.306    24479304.306    -2006540.998    -1563538.019 1
                        11.000
  24897244.483    24897244.124    24897248.775    -1563281.803    -1218130.072 1
                         9.000
  24448464.908    24448464.856    24448464.291    -5727534.661 2  -4463011.562 1
        13.900          11.000
  24822232.974    24822232.851    24822233.392     1710570.735 2   1332913.426 2
        12.600          15.100
  20280038.336    20280038.041    20280034.950   -25612400.854 7 -19957706.040 8
        44.600          49.600
 09  1 28  0 18  0.0000000  0  9G19G14G 9G18G11G 6G21G 3G22
  23300879.673    23300878.301    23300876.479    -8755713.362 5  -6822629.915 4
        30.400          28.600
  21301770.463    21301770.017    21301769.016   -19353750.083 6 -15080837.030 6
        39.800          39.000
  21475547.227    21475546.627    21475546.006   -17808032.419 6 -13876380.317 5
        37.800          34.700
  21544830.368    21544829.792    21544828.108   -20227916.225 6 -15762003.805 5
        39.100          35.300
  24461686.431    24461686.424    24461683.452    -2099142.006    -1635694.615 2
                        12.600
  24915079.703    24915078.862    24915080.719    -1469570.221 1  -1145108.071 2
         6.500          12.600
  24470791.831    24470791.297    24470789.774    -5610209.885 2  -4371589.727 1
        15.100          11.000
  24840389.018    24840389.438    24840390.578     1805983.439 1   1407260.902 2
        11.000          15.100
  20281946.326    20281945.968    20281942.873   -25602374.603 7 -19949893.372 8
        44.500          49.500
 09  1 28  0 18 30.0000000  0  9G14G19G 9G18G11G 6G21G 3G22
  21289334.531    21289333.988    21289332.863   -19419102.318 6 -15131760.834 6
        40.000          39.100
  23309705.925    23309704.639    23309702.646    -8709331.570 5  -6786488.270 4
        30.800          28.400
  21479720.610    21479720.194    21479719.554   -17786099.646 6 -13859289.837 5
        37.600          34.600
  21557257.361    21557256.758    21557255.119   -20162612.210 6 -15711117.557 5
        39.100          35.200
  24444121.723    24444120.748    24444116.277    -2191452.593    -1707624.940 2
                        12.600
  24932928.314    24932927.694    24932929.290    -1375773.240 1  -1072019.544 1
        11.000          11.000
  24493136.358    24493136.016    24493134.362    -5492789.694 2  -4280093.525 1
        13.900          11.000
  24858571.168    24858570.219    24858571.250     1901522.468 2   1481706.901 2
        12.600          16.100
  20283933.266    20283932.924    20283929.798   -25591933.244 7 -19941757.243 8
        44.500          49.500
 09  1 28  0 19  0.0000000  0  9G14G19G 9G18G11G 6G21G 3G22
  21276974.114    21276973.585    21276972.252   -19484057.307 6 -15182375.094 6
        40.100          39.100
  23318625.612    23318624.315    23318622.441    -8662457.478 5  -6749963.021 4
        30.400          28.400
  21484031.010    21484030.505    21484029.985   -17763449.311 6 -13841640.222 5
        37.600          34.800
  21569743.742    21569743.113    21569741.378   -20096996.237 6 -15659988.226 5
        39.100          35.100
  24426609.121    24426608.851    24426604.578    -2283478.700    -1779333.592 2
                        12.600
  24950791.540    24950791.129    24950791.754    -1281902.076 2   -998873.231 1
        13.900           9.000
  24515496.102    24515496.660    24515493.611    -5375284.395 2  -4188531.002 1
        12.600           6.500
  24876773.660    24876772.417    24876772.628     1997176.569 2   1556242.530 2
        13.900          13.900
  20285997.540    20285997.224    20285994.126   -25581084.979 7 -19933304.043 8
        44.400          49.500
 09  1 28  0 19 30.0000000  0  9G14G19G 9G18G11G 6G21G 3G22
  21264689.477    21264689.013    21264687.864   -19548612.837 6 -15232678.087 6
        40.100          39.300
  23327638.921    23327637.441    23327635.810    -8615091.898 4  -6713054.788 4
        29.700          28.400
  21488477.732    21488477.259    21488476.632   -17740081.444 6 -13823431.490 5
        37.600          34.600
  21582289.676    21582289.008    21582286.976   -20031067.817 6 -15608615.426 5
        39.100          34.700
  24409150.512    24409150.198    24409147.075    -2375216.945    -1850817.888 1
                        11.000
  24968668.270    24968667.899    24968668.067    -1187958.537 2   -925670.538 1
        13.900           6.500
  24537872.529    24537872.467    24537870.876    -5257696.032 2  -4096903.770 1
        12.600           6.500
  24894996.411    24894996.000    24894997.153     2092943.897 2   1630866.432 1
        17.000          11.000
  20288139.305    20288139.031    20288136.093   -25569829.105 7 -19924533.229 8
        44.400          49.500
 09  1 28  0 20  0.0000000  0  9G14G19G 9G18G11G 6G21G 3G22
  21252482.908    21252482.355    21252481.321   -19612758.323 6 -15282661.567 6
        40.100          39.300
  23336747.506    23336745.682    23336744.573    -8567227.097 4  -6675757.561 4
        29.200          29.000
  21493062.734    21493062.333    21493061.520   -17715986.684 6 -13804656.345 5
        37.700          34.400
  21594896.394    21594895.862    21594893.926   -19964818.426 6 -15556992.519 5
        39.200          34.700
  24391747.235    24391748.481    24391745.232    -2466654.843    -1922068.111 1
                         9.000
  24986558.793    24986559.197    24986560.164    -1093935.541 2   -852405.869 1
        12.600           6.500
  24560266.862    24560266.024    24560265.924    -5140016.365 2  -4005205.305
        12.600           3.000
  24913243.569    24913243.245    24913244.380     2188831.328 2   1705583.903 1
        17.000           9.000
  20290360.924    20290360.568    20290357.521   -25558155.075 7 -19915436.576 8
        44.300          49.400
 09  1 28  0 20 30.0000000  0  9G14G19G 9G11G 6G21G 3G18G22
  21240354.034    21240353.480    21240352.336   -19676496.159 6 -15332327.395 6
        40.200          39.500
  23345949.619    23345948.112    23345946.687    -8518868.338 4  -6638075.422 4
        29.500          28.800
  21497785.218    21497784.925    21497784.107   -17691169.938 6 -13785318.625 5
        37.800          34.400
  24374407.120    24374406.438    24374403.734    -2557793.490    -1993085.204 1
         3.000          11.000
  25004466.645    25004466.116    25004467.357     -999839.261 2   -779084.108 1
        12.600           6.500
  24582677.646    24582676.594    24582677.011    -5022251.592 2  -3913440.528
        13.900
  24931511.584    24931511.215    24931512.216     2284831.936 2   1780389.579 1
        16.100           9.000
  21607563.494    21607562.908    21607561.211   -19898252.078 6 -15505122.639 5
        38.900          34.800
  20292661.366    20292661.035    20292657.859   -25546066.723 7 -19906017.076 8
        44.400          49.400
 09  1 28  0 21  0.0000000  0  8G14G19G 9G11G 6G 3G18G22
  21228302.457    21228301.989    21228300.897   -19739827.206 6 -15381676.248 6
        40.400          39.600
  23355245.364    23355244.147    23355242.324    -8470019.630 5  -6600011.507 4
        30.200          28.400
  21502644.741    21502644.218    21502643.413   -17665633.874 6 -13765420.381 5
        37.700          34.100
  24357120.647    24357120.322    24357117.859    -2648632.063 1  -2063868.501 1
         9.000          11.000
  25022384.254    25022385.023    25022386.311     -905674.344 1   -705708.891 1
        11.000           6.500
  24949799.826    24949799.681    24949801.030     2380941.386 2   1855280.071 1
        13.900          11.000
  21620290.566    21620289.939    21620288.190   -19831371.245 6 -15453007.704 5
        38.800          34.800
  20295040.158    20295039.857    20295036.804   -25533565.471 7 -19896275.834 8
        44.400          49.300
 09  1 28  0 21 30.0000000  0  9G14G19G 9G21G11G 6G 3G18G22
  21216328.939    21216328.458    21216327.309   -19802748.320 6 -15430705.670 6
        40.500          39.600
  23364634.119    23364632.742    23364631.360    -8420681.068 5  -6561565.883 4
        30.100          28.800
  21507641.049    21507640.546    21507639.854   -17639377.386 6 -13744960.779 5
        37.400          34.300
  24627543.412    24627542.845    24627542.811          -1.21812         -.9681
        16.100           3.000
  24339893.741    24339892.839    24339890.837    -2739166.054 2  -2134414.491 1
        12.600          11.000
  25040318.289    25040318.636    25040316.940     -811441.480 1   -632280.740 1
        11.000           6.500
  24968108.441    24968108.135    24968111.700     2477158.587 1   1930254.536 2
        11.000          12.600
  21633077.621    21633076.992    21633075.306   -19764175.203 6 -15400647.148 5
        38.900          34.800
  20297497.940    20297497.639    20297494.569   -25520649.530 7 -19886211.460 8
        44.300          49.200
 09  1 28  0 22  0.0000000  0  9G14G19G 9G21G11G 6G 3G18G22
  21204433.075    21204432.533    21204431.397   -19865261.973 6 -15479417.589 6
        40.500          39.800
  23374115.268    23374113.822    23374111.890    -8370857.897 5  -6522742.654 4
        30.400          28.100
  21512773.535    21512773.087    21512772.585   -17612404.945 6 -13723943.290 5
        37.100          34.300
  24649998.059    24649998.025    24649996.304      118001.362 1     91949.079 1
        11.000           6.500
  24322723.844    24322722.866    24322720.688    -2829396.386 2  -2204723.838 2
        12.600          12.600
  25058261.189    25058260.674    25058262.975     -717146.907 1   -558804.557 1
         6.500           9.000
  24986438.881    24986438.700    24986439.539     2573477.323 2   2005308.064 2
        13.900          12.600
  21645923.645    21645923.083    21645921.381   -19696667.854 6 -15348044.019 5
        38.600          34.500
  20300034.062    20300033.773    20300030.665   -25507322.269 7 -19875826.577 8
        44.300          49.100
 09  1 28  0 22 30.0000000  0  9G14G 9G19G21G11G 6G 3G18G22
  21192614.102    21192613.709    21192612.613   -19927369.864 6 -15527813.327 6
        40.500          39.900
  21518041.881    21518041.372    21518040.741   -17584720.622 6 -13702371.086 5
        37.200          34.300
  23383688.018    23383686.366    23383684.823    -8320554.809 5  -6483545.447 4
        31.100          28.400
  24672466.865    24672467.032    24672464.414      236074.459 1    183954.063 1
         6.500           9.000
  24305608.299    24305608.667    24305606.907    -2919323.286 1  -2274796.716 2
         6.500          12.600
  25076215.060    25076212.379    25076216.869     -622796.265     -485284.659 1
                         9.000
  25004788.000    25004786.841    25004787.420     2669892.171 2   2080436.486 2
        15.100          15.100
  21658828.559    21658827.905    21658826.088   -19628852.719 6 -15295201.056 5
        38.500          34.300
  20302648.041    20302647.693    20302644.469   -25493586.166 7 -19865123.113 8
        44.300          49.000
 09  1 28  0 23  0.0000000  0  9G14G19G 9G21G11G 6G 3G18G22
  21180874.737    21180874.198    21180873.048   -19989062.140 6 -15575885.211 6
        40.700          40.100
  23393352.882    23393351.375    23393349.413    -8269765.427 5  -6443969.311 4
        30.400          28.100
  21523447.120    21523446.657    21523445.535   -17556316.518 6 -13680238.015 5
        37.300          33.800
  24694950.659    24694949.000    24694947.476      354224.397      276018.862 1
         3.000          11.000
  24288554.045    24288555.070    24288553.747    -3008935.561 1  -2344624.418 1
         6.500           9.000
  25094180.784    25094180.104    25094181.925     -528383.448     -411716.284 1
                         6.500
  25023152.680    25023152.855    25023154.132     2766408.690 1   2155644.163 2
        11.000          13.900
  21671793.415    21671792.716    21671790.974   -19560721.703 6 -15242111.948 5
        38.400          34.100
  20305341.318    20305341.012    20305337.848   -25479432.491 7 -19854094.268 8
        44.300          49.000
 09  1 28  0 23 30.0000000  0  9G14G19G 9G21G11G 6G 3G18G22
  21169212.991    21169212.394    21169211.307   -20050344.845 6 -15623637.945 6
        40.600          40.200
  23403108.020    23403107.033    23403105.161    -8218498.345 4  -6404020.953 4
        29.700          27.900
  21528987.675    21528987.089    21528986.107   -17527200.591 6 -13657550.277 5
        37.000          33.900
  24717449.468    24717447.500    24717444.010      472442.188      368136.551 2
                        13.900
  24271560.653    24271561.671    24271558.747    -3098237.489 1  -2414210.343 1
         9.000           9.000
  25112161.481    25112161.318    25112157.212     -433917.912     -338106.821 1
                        11.000
  25041534.151    25041534.256    25041536.140     2863017.032     2230923.334 2
         3.000          12.600
  21684817.034    21684816.346    21684814.560   -19492282.596 6 -15188782.773 5
        38.400          34.300
  20308112.749    20308112.489    20308109.440   -25464867.996 7 -19842745.303 8
        44.200          49.000
 09  1 28  0 24  0.0000000  0  8G14G 9G19G21G11G 3G18G22
  21157628.201    21157627.707    21157626.499   -20111222.988 6 -15671075.440 6
        40.700          40.200
  21534662.047    21534661.823    21534661.082   -17497380.216 6 -13634313.617 5
        37.200          34.300
  23412953.832    23412952.342    23412950.436    -8166761.792 4  -6363706.767 4
        29.200          28.400
  24739955.827    24739954.456    24739951.056      590719.716 1    460300.812 2
         6.500          15.100
  24254627.645    24254627.318    24254624.477    -3187232.687 1  -2483557.258 1
        11.000          11.000
  25059937.963    25059937.629    25059936.954     2959708.812 1   2306267.572 2
         9.000          12.600
  21697897.755    21697897.198    21697895.495   -19423542.091 6 -15135218.742 5
        38.300          34.300
  20310961.550    20310961.177    20310957.972   -25449898.470 7 -19831080.734 8
        44.300          48.900
 09  1 28  0 24 30.0000000  0  8G14G 9G19G21G11G 3G18G22
  21146119.558    21146119.038    21146117.810   -20171701.108 6 -15718201.231 6
        40.600          40.200
  21540469.658    21540469.214    21540468.399   -17466862.041 6 -13610533.212 5
        37.200          34.100
  23422886.467    23422885.031    23422883.425    -8114563.710 4  -6323032.954 4
        28.800          28.400
  24762471.223    24762471.386    24762468.538      709048.880 1    552505.292 2
         9.000          15.100
  24237750.002    24237750.320    24237747.814    -3275924.040 1  -2552667.357 2
        11.000          13.900
  25078351.726    25078351.756    25078352.424     3056475.316 1   2381670.007 2
        11.000          15.100
  21711034.812    21711034.236    21711032.346   -19354506.661 6 -15081424.904 5
        38.100          33.900
  20313885.937    20313885.681    20313882.549   -25434530.075 7 -19819105.353 8
        44.300          48.900
 09  1 28  0 25  0.0000000  0  8G14G 9G19G21G11G 3G18G22
  21134690.153    21134689.676    21134688.524   -20231762.554 6 -15765002.340 6
        40.700          40.300
  21546412.457    21546411.914    21546411.392   -17435631.721 6 -13586197.890 5
        36.900          34.100
  23432909.821    23432908.225    23432906.812    -8061890.255 4  -6281988.704 4
        28.800          28.600
  24785001.028    24785001.117    24784999.139      827443.415 1    644760.732 2
        11.000          13.900
  24220933.452    24220933.120    24220932.252    -3364293.848 2  -2621526.910 2
        12.600          16.100
  25096779.473    25096778.344    25096782.430     3153329.259     2457140.679 2
         3.000          12.600
  21724230.779    21724230.116    21724228.176   -19285161.604 6 -15027389.791 5
        38.000          33.500
  20316889.576    20316889.215    20316886.111   -25418746.068 7 -19806806.123 8
        44.100          48.800
 09  1 28  0 25 30.0000000  0  8G14G 9G18G21G11G19G 3G22
  21123343.072    21123342.465    21123341.242   -20291392.576 6 -15811467.273 6
        40.600          40.400
  21552493.165    21552492.772    21552491.994   -17403676.665 6 -13561297.847 5
        37.000          33.800
  21737487.975    21737487.367    21737485.756   -19215493.664 6 -14973103.080 5
        37.900          33.600
  24807545.044    24807544.919    24807543.305      945914.845 1    737076.110 2
        11.000          12.600
  24204181.224    24204181.287    24204180.249    -3452325.318 2  -2690122.825 2
        13.900          16.100
  23443026.331    23443024.697    23443023.238    -8008730.041 4  -6240565.173 4
        29.500          29.200
  25115229.832    25115229.607    25115229.710     3250281.614     2532687.938 1
                         9.000
  20319974.774    20319974.466    20319971.275   -25402533.214 7 -19794172.723 8
        44.100          48.700
 09  1 28  0 26  0.0000000  0  8G14G 9G18G21G11G19G 3G22
  21112075.051    21112074.501    21112073.395   -20350605.389 6 -15857607.103 6
        40.500          40.500
  21558709.097    21558708.623    21558707.727   -17371012.850 6 -13535845.521 5
        37.100          33.600
  21750803.837    21750803.255    21750801.555   -19145518.481 6 -14918576.963 5
        37.800          33.600
  24830101.126    24830100.492    24830099.942     1064445.877 1    829437.928 2
        11.000          12.600
  24187493.059    24187492.325    24187490.765    -3540031.060 2  -2758464.955 2
        17.000          17.000
  23453231.731    23453230.254    23453228.398    -7955099.908 4  -6198775.473 4
        29.900          28.600
  25133696.250    25133695.381    25133695.708     3347314.886     2608298.185 1
         3.000          11.000
  20323138.763    20323138.438    20323135.302   -25385906.371 7 -19781216.734 8
        44.100          48.700
 09  1 28  0 26 30.0000000  0  7G14G 9G18G11G19G 3G22
  21100883.601    21100883.129    21100882.040   -20409416.396 6 -15903433.841 6
        40.500          40.600
  21565056.016    21565055.656    21565055.033   -17337658.554 6 -13509855.144 5
        36.900          33.900
  21764174.985    21764174.371    21764172.440   -19075253.649 6 -14863825.144 5
        37.900          33.400
  24170862.154    24170861.907    24170860.915    -3627425.343 3  -2826564.359 3
        18.600          18.600
  23463522.970    23463521.541    23463519.864    -7901018.788 4  -6156634.360 4
        29.700          28.600
  25152172.959    25152172.048    25152172.870     3444408.826     2683955.794 2
         3.000          12.600
  20326378.377    20326378.023    20326374.829   -25368882.245 7 -19767951.177 8
        44.100          48.600
 09  1 28  0 27  0.0000000  0  7G14G 9G18G11G19G 3G22
  21089769.965    21089769.460    21089768.298   -20467819.483 6 -15948942.720 6
        40.500          40.700
  21571535.509    21571534.999    21571534.175   -17303610.109 6 -13483323.888 5
        36.800          33.800
  21777602.014    21777601.271    21777599.440   -19004694.795 6 -14808844.215 5
        37.700          33.400
  24154291.472    24154291.392    24154291.492    -3714500.538 3  -2894415.118 3
        19.900          19.900
  23473900.618    23473899.057    23473897.186    -7846483.985 4  -6114139.705 4
        29.000          28.400
  25170661.946    25170661.189    25170662.784     3541565.615 1   2759662.438 2
         6.500          12.600
  20329694.366    20329694.052    20329690.904   -25351456.173 7 -19754372.415 8
        44.000          48.600
 09  1 28  0 27 30.0000000  0  7G14G 9G18G11G19G 3G22
  21078739.383    21078738.906    21078737.716   -20525785.033 6 -15994110.660 6
        40.400          40.700
  21578151.757    21578151.357    21578150.813   -17268839.934 6 -13456230.240 5
        36.700          33.800
  21791089.995    21791089.314    21791087.727   -18933814.021 6 -14753612.445 5
        37.400          33.500
  24137788.568    24137788.377    24137787.137    -3801225.106 3  -2961992.648 3
        20.500          19.900
  23484369.386    23484368.056    23484366.346    -7791468.559 4  -6071270.533 4
        28.800          28.100
  25189167.171    25189166.908    25189166.252     3638812.021     2835438.890 1
                         9.000
  20333092.572    20333092.307    20333089.118   -25333598.314 7 -19740457.193 8
        44.000          48.500
 09  1 28  0 28  0.0000000  0  7G14G 9G18G11G19G 3G22
  21067790.324    21067789.843    21067788.601   -20583322.837 6 -16038945.294 6
        40.300          40.800
  21584903.628    21584903.188    21584902.396   -17233359.697 6 -13428583.292 5
        36.700          33.800
  21804637.211    21804636.652    21804634.929   -18862622.629 6 -14698138.641 5
        37.500          33.400
  24121350.741    24121350.482    24121348.436    -3887607.284 3  -3029303.386 3
        19.300          18.600
  23494927.633    23494926.140    23494924.604    -7735985.433 4  -6028036.920 4
        29.000          28.100
  25207687.192    25207685.591    25207688.189     3736134.652     2911275.087 1
                         6.500
  20336570.902    20336570.607    20336567.386   -25315319.828 7 -19726214.214 8
        44.000          48.500
 09  1 28  0 28 30.0000000  0  7G14G 9G18G11G19G 3G22
  21056920.833    21056920.337    21056919.161   -20640441.968 6 -16083453.691 6
        40.300          40.900
  21591788.115    21591787.740    21591787.023   -17197181.052 6 -13400392.142 5
        36.700          33.800
  21818241.438    21818240.945    21818239.274   -18791131.416 6 -14642431.201 5
        37.400          33.400
  24104975.990    24104976.010    24104974.010    -3973654.603 3  -3096353.207 3
        19.300          18.600
  23505572.760    23505571.083    23505569.210    -7680046.880 4  -5984448.439 4
        28.800          27.900
  25226222.527    25226222.361    25226218.484     3833520.381     2987160.625 2
                        12.600
  20340127.320    20340127.031    20340123.885   -25296630.714 7 -19711651.261 8
        44.000          48.400
 09  1 28  0 29  0.0000000  0  7G14G 9G18G11G19G 3G22
  21046130.338    21046129.796    21046128.643   -20697146.829 6 -16127639.276 6
        40.300          41.000
  21598804.066    21598803.797    21598803.169   -17160310.611 6 -13371661.921 5
        36.600          33.800
  21831901.685    21831901.093    21831899.438   -18719346.674 6 -14586495.041 5
        37.200          33.200
  24088664.783    24088664.600    24088663.125    -4059369.850 3  -3163144.299 3
        19.300          19.300
  23516302.436    23516300.929    23516299.372    -7623660.141 4  -5940510.721 4
        28.600          28.100
  25244760.130    25244758.732    25244760.420     3930960.561     3063087.875 2
                        13.900
  20343760.846    20343760.569    20343757.432   -25277536.184 7 -19696772.402 8
        44.000          48.400
 09  1 28  0 29 30.0000000  0  7G14G 9G18G11G19G 3G22
  21035419.274    21035418.762    21035417.726   -20753433.551 6 -16171499.038 6
        40.300          41.200
  21605952.725    21605952.177    21605951.135   -17122747.082 6 -13342391.631 5
        37.100          33.600
  21845618.309    21845617.694    21845615.866   -18647265.821 6 -14530328.145 5
        37.100          33.000
  24072418.652    24072418.024    24072416.451    -4144747.414 3  -3229672.233 3
        19.300          19.300
  23527118.004    23527116.626    23527114.663    -7566824.621 4  -5896223.301 4
        28.600          27.600
  25263311.284    25263310.363    25263315.038     4028455.104     3139057.526 2
                        13.900
  20347472.186    20347471.851    20347468.690   -25258033.115 7 -19681575.201 8
        43.800          48.200
 09  1 28  0 30  0.0000000  0  7G14G 9G18G11G19G 3G22
  21024788.948    21024788.478    21024787.196   -20809296.791 6 -16215028.818 6
        40.400          41.300
  21613232.859    21613232.497    21613231.865   -17084487.376 6 -13312578.869 5
        36.600          33.500
  21859391.984    21859391.326    21859389.346   -18574885.332 6 -14473927.770 5
        37.100          32.700
  24056237.311    24056236.786    24056235.102    -4229780.809 3  -3295931.981 3
        18.600          19.300
  23538018.759    23538017.558    23538015.665    -7509538.381 4  -5851584.666 4
        27.900          27.100
  25281879.176    25281877.637    25281876.993     4126006.578     3215071.730 2
         3.000          17.000
  20351261.988    20351261.699    20351258.536   -25238117.230 7 -19666056.325 8
        43.800          48.200
 09  1 28  0 30 30.0000000  0  7G14G 9G18G11G19G 3G22
  21014239.202    21014238.594    21014237.319   -20864736.876 6 -16258228.868 6
        40.300          41.400
  21620645.485    21620644.943    21620644.546   -17045533.808 6 -13282225.436 5
        36.200          33.600
  21873222.028    21873221.454    21873219.589   -18502207.237 6 -14417295.495 5
        37.100          32.700
  24040120.822    24040120.578    24040119.361    -4314468.239 3  -3361922.163 3
        19.300          19.300
  23549005.787    23549004.365    23549002.593    -7451804.474 4  -5806597.221 4
        28.400          27.400
  25300448.978    25300448.480    25300449.893     4223611.298     3291127.313 2
                        13.900
  20355130.197    20355129.922    20355126.797   -25217789.362 7 -19650216.421 8
        43.800          48.100
 09  1 28  0 31  0.0000000  0  7G14G 9G18G11G19G 3G22
  21003768.935    21003768.412    21003767.212   -20919757.721 6 -16301102.237 6
        40.300          41.600
  21628189.022    21628188.575    21628187.732   -17005893.508 6 -13251336.882 5
        36.600          33.500
  21887107.933    21887107.271    21887105.264   -18429237.296 6 -14360435.798 5
        37.000          32.600
  24024071.007    24024070.540    24024069.424    -4398812.434 3  -3427644.890 3
        19.900          19.900
  23560075.693    23560074.205    23560072.362    -7393630.197 4  -5761266.620 4
        27.600          27.100
  25319031.276    25319030.858    25319030.293     4321260.796     3367217.843 1
                        11.000
  20359075.961    20359075.658    20359072.490   -25197054.727 7 -19634059.561 8
        43.800          48.100
 09  1 28  0 31 30.0000000  0  7G14G 9G18G11G19G 3G22
  20993379.553    20993379.013    20993377.959   -20974353.500 6 -16343644.388 6
        40.300          41.600
  21635863.554    21635863.199    21635862.538   -16965562.817 6 -13219910.366 5
        36.500          33.600
  21901049.806    21901049.195    21901047.380   -18355971.687 6 -14303345.716 5
        36.700          32.600
  24008088.564    24008088.212    24008086.042    -4482805.853 3  -3493094.283 3
        20.500          20.500
  23571230.006    23571228.762    23571226.913    -7335013.003 4  -5715590.903 4
        27.100          27.400
  25337623.461    25337622.506    25337623.272     4418957.534 1   3443345.074 1
         6.500          11.000
  20363100.064    20363099.709    20363096.541   -25175908.195 7 -19617581.738 8
        43.800          48.100
 09  1 28  0 32  0.0000000  0  7G 9G18G11G19G 3G14G22
  21643668.844    21643668.347    21643667.876   -16924545.912 6 -13187949.139 5
        36.300          33.600
  21915047.463    21915046.826    21915045.013   -18282413.197 6 -14246027.415 5
        36.500          32.400
  23992171.612    23992170.881    23992169.088    -4566448.345 3  -3558270.231 3
        20.500          20.500
  23582467.549    23582466.350    23582465.189    -7275957.509 4  -5669573.653 4
        26.800          27.400
  25356222.231    25356221.386    25356223.805     4516696.258     3519505.164 1
         3.000          11.000
  20983070.939    20983070.447    20983069.261   -21028525.721 6 -16385856.492 6
        40.400          41.600
  20367201.935    20367201.603    20367198.448   -25154352.362 7 -19600784.982 8
        43.700          48.000
 09  1 28  0 32 30.0000000  0  6G 9G18G11G19G14G22
  21651604.144    21651603.727    21651603.162   -16882845.017 6 -13155454.924 5
        36.100          33.400
  21929100.468    21929099.886    21929098.138   -18208563.639 6 -14188482.304 5
        36.400          32.300
  23976322.140    23976321.532    23976319.336    -4649738.357 3  -3623171.495 3
        21.100          21.100
  23593789.231    23593787.384    23593785.789    -7216466.943 4  -5623217.372 4
        27.900          27.400
  20972842.870    20972842.299    20972841.045   -21082274.747 6 -16427738.836 6
        40.400          41.600
  20371381.485    20371381.218    20371378.129   -25132388.253 7 -19583670.087 7
        43.600          47.900
 09  1 28  0 33  0.0000000  0  6G 9G18G11G19G14G22
  21659669.818    21659669.341    21659668.900   -16840459.880 6 -13122427.542 5
        36.200          33.200
  21943209.343    21943208.718    21943206.767   -18134422.064 6 -14130709.656 5
        36.600          32.000
  23960539.525    23960539.703    23960538.052    -4732671.423 3  -3687794.647 3
        20.500          20.500
  23605191.997    23605190.784    23605188.940    -7156541.880 4  -5576522.532 4
        28.400          26.800
  20962695.768    20962695.296    20962694.059   -21135597.505 6 -16469289.021 6
        40.400          41.800
  20375639.367    20375639.025    20375635.839   -25110013.761 7 -19566235.413 7
        43.600          47.800
 09  1 28  0 33 30.0000000  0  6G 9G18G11G19G14G22
  21667866.734    21667866.200    21667865.415   -16797385.410 6 -13088863.011 5
        36.200          33.100
  21957374.809    21957374.036    21957372.226   -18059982.329 6 -14072704.668 5
        36.500          32.000
  23944827.833    23944827.507    23944826.009    -4815238.567 3  -3752132.664 3
        20.500          21.100
  23616679.148    23616677.801    23616676.149    -7096177.719 4  -5529485.527 4
        28.100          26.500
  20952631.285    20952630.794    20952629.705   -21188486.743 6 -16510501.398 6
        40.600          41.900
  20379976.323    20379976.006    20379972.931   -25087221.931 7 -19548475.539 7
        43.400          47.700
 09  1 28  0 34  0.0000000  0  6G 9G18G11G19G14G22
  21676193.752    21676193.365    21676192.774   -16753625.605 6 -13054764.457 5
        36.200          33.100
  21971595.945    21971595.342    21971593.764   -17985247.773 5 -14014469.954 5
        35.800          31.800
  23929185.121    23929184.968    23929183.963    -4897439.123 3  -3816185.014 3
        19.900          22.600
  23628248.696    23628247.027    23628245.584    -7035378.949 4  -5482109.890 4
        27.600          26.500
  20942649.098    20942648.686    20942647.433   -21240943.432 6 -16551376.725 7
        40.600          42.000
  20384392.502    20384392.178    20384389.024   -25064015.372 7 -19530392.502 7
        43.500          47.700
 09  1 28  0 34 30.0000000  0  6G 9G18G11G19G14G22
  21684651.688    21684651.142    21684650.536   -16709180.576 6 -13020131.962 5
        36.000          33.400
  21985873.726    21985873.195    21985871.502   -17910217.473 5 -13956004.786 5
        35.900          31.500
  23913612.751    23913613.065    23913612.311    -4979269.253 3  -3879948.737 3
        19.300          23.000
  23639900.714    23639899.536    23639897.692    -6974146.508 4  -5434396.312 4
        28.100          26.800
  20932749.800    20932749.246    20932747.938   -21292965.541 6 -16591913.418 7
        40.700          42.100
  20388887.729    20388887.451    20388884.206   -25040392.738 7 -19511985.251 7
        43.500          47.600
 09  1 28  0 35  0.0000000  0  6G 9G18G11G19G14G22
  21693237.602    21693237.147    21693236.840   -16664059.365 5 -12984972.578 5
        35.700          33.400
  22000206.602    22000205.866    22000203.846   -17834899.308 6 -13897315.301 5
        36.000          31.100
  23898111.321    23898111.206    23898109.825    -5060734.022 3  -3943427.763 3
        18.600          22.600
  23651633.755    23651632.508    23651631.023    -6912489.772 4  -5386352.125 4
        28.400          27.100
  20922931.755    20922931.161    20922930.004   -21344559.494 6 -16632116.487 7
        40.600          42.300
  20393460.853    20393460.506    20393457.332   -25016360.982 7 -19493259.204 7
        43.400          47.600
 09  1 28  0 35 30.0000000  0  6G 9G18G11G19G14G22
  21701951.283    21701950.863    21701950.246   -16618269.744 5 -12949292.345 5
        35.900          33.100
  22014592.658    22014591.949    22014590.009   -17759300.597 5 -13838407.219 5
        35.800          31.300
  23882677.002    23882676.998    23882676.308    -5141837.098 2  -4006624.956 3
        17.000          22.100
  23663445.912    23663444.184    23663442.661    -6850417.636 4  -5337984.230 4
        27.600          26.500
  20913194.221    20913193.681    20913192.456   -21395730.602 6 -16671990.068 7
        40.700          42.500
  20398110.513    20398110.143    20398107.073   -24991926.577 7 -19474219.401 7
        43.300          47.600
 09  1 28  0 36  0.0000000  0  6G 9G18G11G19G14G22
  21710792.862    21710792.412    21710791.873   -16571805.886 5 -12913086.742 5
        35.700          33.100
  22029033.488    22029032.715    22029030.857   -17683413.921 5 -13779274.748 5
        35.700          31.300
  23867315.037    23867314.821    23867313.682    -5222567.803 2  -4069531.974 3
        17.800          21.600
  23675338.044    23675336.730    23675334.762    -6787924.843 4  -5289288.576 4
        27.100          26.800
  20903538.730    20903538.225    20903536.990   -21446470.223 6 -16711527.426 7
        40.700          42.500
  20402838.332    20402837.982    20402834.925   -24967081.662 7 -19454859.725 7
        43.300          47.600
 09  1 28  0 36 30.0000000  0  6G 9G18G11G19G14G22
  21719762.646    21719762.079    21719761.412   -16524671.036 5 -12876358.286 5
        35.700          33.000
  22043528.189    22043527.658    22043525.882   -17607241.735 5 -13719919.798 5
        35.500          31.100
  23852024.472    23852023.373    23852022.160    -5302925.190 2  -4132148.090 3
        17.800          21.100
  23687308.989    23687307.653    23687306.323    -6725014.606 4  -5240267.634 4
        27.100          26.500
  20893965.284    20893964.822    20893963.503   -21496778.934 6 -16750729.006 7
        40.700          42.600
  20407643.996    20407643.680    20407640.579   -24941827.617 7 -19435181.243 7
        43.200          47.500
 09  1 28  0 37  0.0000000  0  6G 9G18G11G19G14G22
  21728859.240    21728858.678    21728858.146   -16476867.308 5 -12839108.626 5
        35.600          32.800
  22058077.616    22058076.940    22058075.116   -17530785.403 5 -13660343.446 5
        35.600          30.800
  23836804.231    23836803.799    23836801.990    -5382907.092 3  -4194471.607 3
        18.600          20.500
  23699359.621    23699358.333    23699356.360    -6661689.593 4  -5190923.474 4
        26.800          25.600
  20884473.930    20884473.424    20884472.146   -21546656.260 6 -16789594.449 7
        40.700          42.700
  20412527.535    20412527.197    20412524.038   -24916164.699 7 -19415184.162 7
        43.100          47.400
 09  1 28  0 37 30.0000000  0  6G 9G18G11G19G14G22
  21738082.758    21738082.291    21738081.662   -16428397.180 5 -12801339.692 5
        35.500          32.800
  22072680.897    22072680.024    22072678.003   -17454046.209 5 -13600546.671 5
        35.300          30.800
  23821656.416    23821656.287    23821653.353    -5462512.417 3  -4256501.713 3
        19.900          20.500
  23711488.248    23711486.650    23711484.455    -6597953.338 4  -5141258.879 4
        27.400          24.900
  20875064.723    20875064.239    20875062.980   -21596102.260 6 -16828123.784 7
        40.700          43.000
  20417488.511    20417488.205    20417485.101   -24890094.277 7 -19394869.543 7
        43.200          47.400
 09  1 28  0 38  0.0000000  0  6G 9G18G11G19G14G22
  21747432.172    21747431.699    21747430.983   -16379265.429 5 -12763055.208 5
        35.700          32.600
  22087336.517    22087335.935    22087334.306   -17377027.737 5 -13540532.284 5
        35.100          31.000
  23806578.924    23806578.728    23806576.842    -5541740.753 3  -4318238.052 3
        19.300          19.900
  23723693.779    23723692.144    23723690.949    -6533811.077 4  -5091277.912 4
        26.500          25.600
  20865737.106    20865736.581    20865735.310   -21645119.162 6 -16866318.758 7
        40.700          43.000
  20422526.583    20422526.311    20422523.148   -24863618.864 7 -19374239.348 7
        43.100          47.300
 09  1 28  0 38 30.0000000  0  6G 9G18G11G19G14G22
  21756909.116    21756908.693    21756907.574   -16329465.132 5 -12724249.778 5
        35.600          32.100
  22102047.272    22102046.626    22102045.011   -17299722.405 5 -13480294.364 5
        34.900          30.800
  23791575.459    23791575.257    23791573.747    -5620581.237 3  -4379672.157 3
        18.600          19.300
  23735978.522    23735976.931    23735975.473    -6469256.383 4  -5040975.578 4
        26.200          25.900
  20856492.990    20856492.447    20856491.163   -21693697.212 6 -16904171.775 7
        40.700          43.100
  20427643.537    20427643.226    20427640.054   -24836729.749 7 -19353286.787 7
        43.100          47.300
 09  1 28  0 39  0.0000000  0  6G 9G18G11G19G14G22
  21766513.375    21766512.897    21766511.850   -16278994.043 5 -12684921.658 5
        35.400          32.000
  22116813.225    22116812.517    22116810.825   -17222127.281 5 -13419830.634 5
        34.700          30.600
  23776648.045    23776647.777    23776646.127    -5699027.434 3  -4440799.023 3
        20.500          18.600
  23748341.185    23748339.969    23748338.318    -6404288.023 4  -4990350.905 4
        26.500          25.600
  20847333.300    20847332.800    20847331.430   -21741831.760 6 -16941679.205 7
        40.600          43.200
  20432839.789    20432839.467    20432836.304   -24809422.972 7 -19332008.776 7
        43.100          47.300
 09  1 28  0 39 30.0000000  0  6G 9G18G11G19G14G22
  21776242.644    21776242.177    21776241.425   -16227865.901 5 -12645081.542 5
        35.100          32.300
  22131632.097    22131631.351    22131629.669   -17144254.182 5 -13359150.300 5
        34.900          30.800
  23761794.201    23761793.902    23761791.639    -5777088.337 3  -4501625.704 3
        22.100          18.600
  23760780.730    23760779.090    23760777.487    -6338919.419 4  -4939414.343 4
        25.900          25.300
  20838255.835    20838255.348    20838254.045   -21789533.751 6 -16978849.578 7
        40.600          43.300
  20438113.234    20438112.945    20438109.875   -24781710.292 7 -19310414.476 7
        43.100          47.300
 09  1 28  0 40  0.0000000  0  6G 9G18G11G19G14G22
  21786096.765    21786096.391    21786096.119   -16176080.693 5 -12604729.432 5
        34.900          32.400
  22146503.825    22146503.112    22146501.433   -17066101.897 5 -13298252.417 5
        34.500          30.400
  23747013.542    23747013.300    23747011.278    -5854759.430 3  -4562148.634 3
        21.100          19.300
  23773295.719    23773294.326    23773293.032    -6273151.016 4  -4888166.253 4
        25.900          25.600
  20829261.344    20829260.845    20829259.555   -21836800.042 6 -17015680.443 7
        40.500          43.400
  20443464.587    20443464.251    20443461.193   -24753589.186 7 -19288501.924 7
        43.100          47.200
 09  1 28  0 40 30.0000000  0  6G 9G18G11G19G14G22
  21796075.537    21796075.097    21796074.340   -16123643.717 5 -12563869.446 5
        35.300          32.300
  22161427.847    22161427.238    22161425.655   -16987674.679 5 -13237140.307 5
        34.300          30.200
  23732306.847    23732306.501    23732304.947    -5932042.075 3  -4622368.857 3
        20.500          19.900
  23785885.929    23785884.471    23785883.286    -6206989.154 4  -4836611.576 4
        26.200          25.900
  20820349.233    20820348.615    20820347.344   -21883633.811 6 -17052174.279 7
        40.500          43.400
  20448892.853    20448892.488    20448889.258   -24725064.075 7 -19266274.563 7
        43.100          47.100
 09  1 28  0 41  0.0000000  0  6G 9G18G11G19G14G22
  21806178.500    21806178.130    21806177.332   -16070551.448 5 -12522498.846 5
        35.200          32.100
  22176405.026    22176404.541    22176403.025   -16908968.023 5 -13175810.453 5
        34.000          30.200
  23717675.751    23717675.351    23717674.195    -6008928.021 3  -4682279.984 3
        21.600          20.500
  23798551.931    23798550.447    23798548.641    -6140430.719 4  -4784747.862 4
        25.600          25.300
  20811520.518    20811519.966    20811518.687   -21930028.710 6 -17088326.137 7
        40.500          43.600
  20454398.878    20454398.542    20454395.436   -24696129.028 7 -19243727.768 7
        43.100          47.000
 09  1 28  0 41 30.0000000  0  6G 9G18G11G19G14G22
  21816404.940    21816404.399    21816403.688   -16016811.543 5 -12480623.593 5
        34.800          31.600
  22191434.466    22191433.799    22191432.314   -16829988.384 5 -13114267.880 5
        33.900          30.100
  23703120.454    23703119.852    23703118.586    -6085420.258 3  -4741884.310 3
        22.100          20.500
  23811291.870    23811290.184    23811288.699    -6073483.343 4  -4732581.092 4
        25.300          25.600
  20802774.584    20802774.026    20802772.690   -21975989.341 6 -17124139.603 7
        40.300          43.700
  20459982.113    20459981.818    20459978.626   -24666789.366 7 -19220865.690 7
        43.100          47.100
 09  1 28  0 42  0.0000000  0  6G 9G18G11G19G14G22
  21826755.778    21826755.245    21826754.536   -15962417.116 5 -12438238.325 5
        34.600          31.600
  22206517.257    22206516.697    22206515.021   -16750727.694 5 -13052506.305 5
        33.800          30.100
  23688641.046    23688640.945    23688639.354    -6161508.060 3  -4801173.492 3
        22.600          20.500
  23824106.551    23824105.108    23824103.801    -6006141.022 4  -4680106.572 4
        26.200          25.600
  20794112.736    20794112.327    20794111.091   -22021506.465 6 -17159607.481 7
        40.300          43.800
  20465643.747    20465643.433    20465640.334   -24637037.122 7 -19197682.120 7
        43.100          47.000
 09  1 28  0 42 30.0000000  0  6G 9G18G11G19G14G22
  21837229.596    21837229.009    21837228.067   -15907378.811 5 -12395351.326 5
        34.800          31.800
  22221652.155    22221651.447    22221649.691   -16671195.325 5 -12990533.034 5
        34.000          30.100
  23674237.450    23674237.177    23674235.746    -6237197.068 3  -4860151.930 3
        22.600          21.100
  23836994.528    23836992.902    23836991.008    -5938414.687 4  -4627332.819 4
        26.500          24.600
  20785533.906    20785533.507    20785532.446   -22066587.756 6 -17194735.749 7
        40.200          44.000
  20471382.203    20471381.881    20471378.796   -24606881.213 7 -19174184.008 7
        43.100          47.000
 09  1 28  0 43  0.0000000  0  6G 9G18G11G19G14G22
  21847825.662    21847825.185    21847824.508   -15851695.405 5 -12351961.655 5
        34.700          32.100
  22236838.609    22236838.059    22236836.429   -16591388.633 5 -12928346.016 4
        33.500          29.900
  23659912.018    23659911.606    23659909.648    -6312481.402 3  -4918815.025 3
        23.000          22.100
  23849956.056    23849954.496    23849952.506    -5870303.168 4  -4574258.940 4
        26.800          24.200
  20777039.087    20777038.527    20777037.438   -22111229.260 6 -17229521.322 7
        40.000          44.100
  20477198.240    20477197.925    20477194.793   -24576317.718 7 -19150368.295 7
        43.100          46.900
 09  1 28  0 43 30.0000000  0  6G 9G18G11G19G14G22
  21858543.020    21858542.511    21858541.867   -15795373.573 5 -12308074.522 5
        34.000          31.500
  22252076.550    22252075.876    22252074.419   -16511312.803 5 -12865949.279 4
        33.500          29.700
  23645662.163    23645661.652    23645659.901    -6387363.536 3  -4977164.726 3
        23.000          22.100
  23862989.051    23862987.458    23862985.693    -5801813.820 4  -4520890.610 3
        26.500          23.800
  20768627.008    20768626.542    20768625.321   -22155434.847 6 -17263967.222 7
        40.100          44.100
  20483090.895    20483090.611    20483087.487   -24545351.260 7 -19126238.582 7
        43.100          46.800
 09  1 28  0 44  0.0000000  0  6G 9G18G11G19G14G22
  21869383.151    21869382.854    21869382.078   -15738407.455 5 -12263685.330 5
        34.000          31.300
  22267367.100    22267366.383    22267364.510   -16430961.418 5 -12803337.806 4
        33.600          29.500
  23631490.329    23631490.327    23631489.280    -6461833.258 3  -5035193.055 3
        22.100          22.600
  23876094.399    23876092.758    23876092.069    -5732940.757 4  -4467223.289 4
        24.900          24.200
  20760299.665    20760299.123    20760297.892   -22199195.791 6 -17298066.646 7
        40.100          44.200
  20489061.812    20489061.563    20489058.481   -24513973.621 7 -19101788.469 7
        43.100          46.700
 09  1 28  0 44 30.0000000  0  6G 9G18G11G19G14G22
  21880346.985    21880346.543    21880345.959   -15680792.799 5 -12218790.791 5
        34.000          31.500
  22282710.723    22282710.178    22282708.474   -16350328.530 5 -12740506.989 4
        32.800          29.000
  23617399.886    23617399.773    23617398.273    -6535881.471 3  -5092892.937 3
        22.100          22.600
  23889274.972    23889273.311    23889271.465    -5663680.990 4  -4413254.642 4
        26.500          24.200
  20752058.025    20752057.544    20752056.339   -22242505.152 6 -17331814.191 7
        40.000          44.300
  20495112.157    20495111.861    20495108.735   -24482179.221 7 -19077013.607 7
        43.100          46.600
 09  1 28  0 45  0.0000000  0  6G 9G18G11G19G14G22
  21891430.654    21891430.209    21891429.597   -15622548.618 5 -12173405.710 5
        34.000          31.600
  22298104.959    22298104.469    22298102.717   -16269431.662 5 -12677470.474 4
        33.200          29.200
  23603386.767    23603386.408    23603384.843    -6609522.668 3  -5150275.667 3
        22.100          22.100
  23902523.313    23902522.210    23902520.965    -5594053.288 4  -4358999.305 3
        24.900          23.800
  20743899.297    20743898.880    20743897.697   -22285379.048 6 -17365222.410 7
        40.000          44.300
  20501238.631    20501238.297    20501235.149   -24449984.753 7 -19051927.007 7
        43.100          46.600
 09  1 28  0 45 30.0000000  0  6G 9G18G11G19G14G22
  21902636.052    21902635.634    21902635.037   -15563662.774 5 -12127520.639 5
        33.800          31.300
  22313552.110    22313551.559    22313549.666   -16188257.595 5 -12614217.959 4
        33.500          29.000
  23589454.347    23589453.533    23589451.862    -6682740.466 3  -5207328.467 3
        22.100          22.600
  23915845.378    23915844.156    23915842.687    -5524046.367 3  -4304448.450 3
        23.800          23.000
  20735826.392    20735825.880    20735824.663   -22327802.888 6 -17398279.934 7
        40.000          44.300
  20507443.638    20507443.347    20507440.327   -24417376.621 7 -19026518.071 7
        43.000          46.500
 09  1 28  0 46  0.0000000  0  7G 9G18G11G19G32G14G22
  21913960.774    21913960.182    21913959.343   -15504152.787 5 -12081149.216 5
        34.000          31.300
  22329048.798    22329048.207    22329046.208   -16106822.565 5 -12550762.091 4
        33.200          29.000
  23575598.666    23575598.794    23575596.718    -6755547.566 3  -5264061.257 3
        22.100          22.100
  23929237.094    23929235.264    23929233.843    -5453677.835 4  -4249615.843 3
        24.900          23.400
  25167918.488    25167922.600    25167916.765            .1121          -.4261
                         3.000
  20727836.429    20727836.012    20727834.654   -22369791.008 6 -17430997.938 7
        40.200          44.500
  20513724.705    20513724.407    20513721.228   -24384369.872 7 -19000798.520 7
        43.000          46.400
 09  1 28  0 46 30.0000000  0  7G 9G18G11G19G32G14G22
  21925408.037    21925407.675    21925406.940   -15443994.701 5 -12034272.779 5
        33.800          31.300
  22344599.843    22344599.232    22344597.285   -16025101.198 5 -12487083.125 4
        33.000          29.000
  23561828.006    23561827.714    23561825.859    -6827915.512 3  -5320451.845 3
        23.000          23.000
  23942700.469    23942698.789    23942697.569    -5382924.067 4  -4194483.035 3
        24.200          23.800
  25149598.368    25149599.612    25149600.729      -96281.441      -75023.862 1
                         6.500
  20719934.398    20719933.846    20719932.447   -22411317.005 6 -17463355.846 7
        40.200          44.400
  20520086.411    20520086.133    20520083.015   -24350938.407 7 -18974748.025 7
        42.900          46.200
 09  1 28  0 47  0.0000000  0  8G 9G18G11G19G32G31G14G22
  21936971.188    21936970.869    21936969.879   -15383230.761 5 -11986924.255 5
        33.900          31.000
  22360197.578    22360197.085    22360195.225   -15943133.990 5 -12423212.586 4
        33.200          28.800
  23548133.392    23548132.972    23548131.040    -6899881.979 3  -5376529.587 3
        23.000          23.400
  23956229.778    23956228.454    23956226.991    -5311827.626 4  -4139083.218 4
        24.200          24.200
  25131278.512    25131276.716    25131278.096     -192555.785     -150042.958 1
                         6.500
  25068805.628    25068806.905    25068805.328           -.91411         -.80513
        11.000          19.900
  20712112.639    20712112.160    20712110.779   -22452419.915 6 -17495384.077 7
        40.200          44.500
  20526521.452    20526521.137    20526518.019   -24317122.386 7 -18948397.874 7
        42.900          46.100
 09  1 28  0 47 30.0000000  0  9G 9G18G11G19G32G12G31G14G22
  21948651.207    21948650.591    21948649.608   -15321854.363 5 -11939098.480 5
        33.900          31.100
  22375843.760    22375843.044    22375841.205   -15860913.307 5 -12359144.526 4
        32.700          28.800
  23534517.068    23534516.777    23534514.910    -6971435.759 3  -5432285.758 3
        23.000          23.000
  23969825.518    23969824.475    23969822.652    -5240381.962 3  -4083411.297 4
        23.800          25.300
  25112961.678    25112964.039    25112962.231     -288813.304     -225047.881 1
                        11.000
  25247267.868    25247267.286    25247268.063           -.65811         -.45712
         6.500          15.100
  25046640.997    25046642.039    25046640.098     -116478.791 2    -90762.644 3
        12.600          21.600
  20704373.334    20704372.865    20704371.424   -22493090.496 6 -17527075.431 7
        40.200          44.600
  20533031.247    20533030.887    20533027.748   -24282913.350 7 -18921741.480 7
        42.800          46.100
 09  1 28  0 48  0.0000000  0  9G 9G11G19G32G12G31G14G18G22
  21960449.307    21960448.768    21960448.317   -15259851.596 5 -11890784.635 5
        32.800          31.300
  23520982.697    23520982.212    23520980.969    -7042557.997 3  -5487705.663 3
        23.400          23.400
  23983490.187    23983488.176    23983487.133    -5168573.591 3  -4027456.715 4
        22.600          24.900
  25094652.759    25094652.728    25094652.487     -385036.696 1   -300027.090 2
         6.500          12.600
  25231339.676    25231339.091    25231335.360      -83720.240 2    -65236.491 2
        16.100          12.600
  25024480.115    25024479.531    25024478.811     -232941.355 2   -181512.561 3
        17.000          20.500
  20696719.444    20696718.947    20696717.656   -22533311.649 6 -17558416.579 7
        40.100          44.700
  22391540.818    22391540.324    22391538.499   -15778423.355 5 -12294866.643 4
        32.600          28.400
  20539618.940    20539618.607    20539615.425   -24248295.036 7 -18894766.168 7
        42.800          46.000
 09  1 28  0 48 30.0000000  0 10G 9G11G19G 5G32G12G31G14G18G22
  21972365.074    21972364.627    21972364.126   -15197233.869 5 -11841991.606 5
        32.800          31.300
  23507529.428    23507528.876    23507527.365    -7113255.815 4  -5542794.853 3
        24.200          22.600
  23997222.298    23997220.228    23997219.295    -5096414.256 3  -3971228.685 4
        23.000          25.600
  25155931.910    25155930.815    25155931.388           -.5921          -.1611
         3.000           3.000
  25076346.437    25076346.260    25076345.762     -481233.832 1   -374985.847 2
         9.000          12.600
  25215447.340    25215447.255    25215445.301     -167219.566 2   -130300.913 2
        12.600          13.900
  25002319.806    25002319.334    25002318.728     -349395.047 3   -272255.588 3
        18.600          19.300
  20689149.480    20689148.976    20689147.714   -22573091.956 6 -17589414.208 7
        40.100          44.800
  22407287.382    22407286.768    22407285.013   -15695675.081 5 -12230387.475 4
        32.400          28.400
  20546282.617    20546282.323    20546279.141   -24213276.744 7 -18867479.183 7
        42.700          45.900
 09  1 28  0 49  0.0000000  0 10G 9G11G 5G19G32G12G31G14G18G22
  21984398.017    21984397.318    21984396.635   -15134002.686 5 -11792720.545 5
        33.400          31.300
  23494157.266    23494156.878    23494155.430    -7183525.906 4  -5597550.749 3
        24.200          23.000
  25138135.210    25138134.060    25138133.399      -93534.861 1    -72883.954 1
         6.500           6.500
  24011019.204    24011017.739    24011016.902    -5023905.961 3  -3914728.720 4
        22.100          24.900
  25058045.941    25058045.901    25058045.522     -577403.010 1   -449922.783 2
        11.000          12.600
  25199601.447    25199602.225    25199600.993     -250494.125 1   -195190.242 2
        11.000          15.100
  24980160.721    24980160.164    24980161.427     -465836.117 3   -362988.787 2
        19.300          17.800
  20681663.697    20681663.273    20681661.870   -22612430.330 6 -17620067.478 7
        40.200          44.900
  22423083.351    22423082.557    22423080.995   -15612667.720 5 -12165706.428 4
        32.100          28.600
  20553022.473    20553022.190    20553019.064   -24177857.966 7 -18839880.131 7
        42.600          45.800
 09  1 28  0 49 30.0000000  0 10G 9G11G 5G19G32G12G31G14G18G22
  21996547.403    21996546.971    21996546.188   -15070155.760 5 -11742969.692 5
        33.200          31.100
  23480867.236    23480867.519    23480866.764    -7253361.137 4  -5651967.801 3
        24.900          23.400
  25120368.384    25120367.363    25120368.337     -186887.464 1   -145626.234
         6.500           3.000
  24024883.584    24024882.438    24024880.991    -4951046.571 3  -3857955.159 3
        22.100          23.400
  25039750.423    25039750.610    25039752.477     -673538.346 1   -524833.389 1
         9.000          11.000
  25183798.729    25183799.192    25183798.763     -333536.376 1   -259898.470 2
         6.500          13.900
  24958005.733    24958005.090    24958007.207     -582257.569 3   -453706.689 2
        19.300          15.100
  20674262.944    20674262.433    20674261.109   -22651321.434 6 -17650372.224 7
        40.100          44.900
  22438929.340    22438928.617    22438926.536   -15529397.361 5 -12100820.448 4
        32.000          28.100
  20559839.553    20559839.319    20559836.197   -24142033.969 7 -18811965.325 7
        42.600          45.800
 09  1 28  0 50  0.0000000  0 10G 9G11G 5G19G32G12G31G14G18G22
  22008814.712    22008814.275    22008813.540   -15005689.930 5 -11692736.576 5
        32.700          31.000
  23467662.988    23467662.775    23467661.103    -7322754.236 4  -5706040.329 3
        25.300          22.600
  25102640.922    25102639.391    25102639.346     -280049.692     -218220.210 1
         3.000           6.500
  24038816.774    24038815.069    24038813.496    -4877832.801 3  -3800905.489 3
        22.600          23.400
  25021463.690    25021463.676    25021464.656     -769633.444     -599712.753 1
         3.000          11.000
  25168045.194    25168043.997    25168039.854     -416337.486     -324418.848 1
                         9.000
  24935856.071    24935856.091    24935857.724     -698651.294 2   -544403.040 2
        17.800          12.600
  20666948.466    20666947.950    20666946.569   -22689759.338 6 -17680323.827 7
        40.100          45.000
  22454825.515    22454825.012    22454823.248   -15445859.957 5 -12035726.369 4
        31.600          27.900
  20566734.736    20566734.430    20566731.361   -24105799.734 7 -18783730.855 7
        42.500          45.700
 09  1 28  0 50 30.0000000  0  9G 9G11G 5G19G32G31G14G18G22
  22021198.568    22021198.056    22021197.376   -14940613.032 5 -11642027.299 5
        32.600          31.000
  23454541.686    23454541.244    23454539.296    -7391707.891 4  -5759770.433 3
        26.200          22.100
  25084947.821    25084947.146    25084946.766     -373023.637     -290667.390 1
         3.000           6.500
  24052814.907    24052813.079    24052811.824    -4804272.818 3  -3743586.042 3
        22.600          23.400
  25003186.489    25003184.687    25003186.424     -865692.450 1   -674563.923 1
         9.000          11.000
  24913712.430    24913712.619    24913713.623     -815020.083 2   -635079.958 2
        17.800          15.100
  20659719.496    20659718.945    20659717.380   -22727748.506 6 -17709925.768 7
        40.100          44.900
  22470772.086    22470771.426    22470769.818   -15362061.405 5 -11970428.814 4
        31.500          28.100
  20573707.070    20573706.670    20573703.407   -24069160.739 7 -18755180.986 7
        42.500          45.500
 09  1 28  0 51  0.0000000  0  9G 9G11G 5G19G32G31G14G18G22
  22033695.497    22033695.072    22033694.150   -14874941.230 5 -11590854.463 5
        32.800          31.000
  23441501.802    23441501.205    23441499.539    -7460233.681 4  -5813167.143 3
        26.200          21.600
  25067287.364    25067286.869    25067289.024     -465819.594     -362975.879 1
                         6.500
  24066874.664    24066873.101    24066872.154    -4730383.179 3  -3686009.725 3
        21.600          22.600
  24984910.676    24984910.222    24984910.632     -961728.056 2   -749396.846 1
        12.600          11.000
  24891571.084    24891570.686    24891571.198     -931375.209 2   -725746.179 2
        16.100          16.100
  20652573.220    20652572.620    20652571.053   -22765302.437 6 -17739188.563 7
        40.100          45.000
  22486765.418    22486764.770    22486763.087   -15278016.181 5 -11904939.048 4
        31.100          27.600
  20580753.487    20580753.148    20580749.993   -24032131.064 7 -18726326.691 7
        42.400          45.500
 09  1 28  0 51 30.0000000  0  9G 9G 5G11G19G32G31G14G18G22
  22046309.855    22046309.421    22046308.377   -14808653.298 5 -11539201.531 5
        32.800          31.000
  25049670.235    25049668.783    25049670.520     -558410.421 1   -435124.607 1
        11.000          11.000
  23428547.582    23428547.315    23428545.729    -7528305.705 4  -5866210.268 3
        25.900          21.100
  24081002.512    24081001.402    24080999.589    -4656142.603 3  -3628159.948 3
        22.600          21.100
  24966644.825    24966644.511    24966644.235    -1057715.715 2   -824192.375 1
        12.600           9.000
  24869436.855    24869436.433    24869436.589    -1047689.948 2   -816380.909 2
        15.100          15.100
  20645514.159    20645513.687    20645512.185   -22802396.943 6 -17768093.365 7
        40.000          45.000
  22502809.695    22502809.133    22502807.572   -15193701.960 5 -11839239.668 4
        31.000          27.900
  20587878.794    20587878.473    20587875.345   -23994687.231 7 -18697149.677 7
        42.400          45.400
 09  1 28  0 52  0.0000000  0  9G11G 5G19G32G31G14G 9G18G22
  23415678.406    23415678.378    23415676.146    -7595933.091 4  -5918906.924 3
        25.600          21.100
  25032087.964    25032087.104    25032087.329     -650804.204 1   -507119.769 1
        11.000          11.000
  24095193.578    24095191.864    24095191.293    -4581565.334 3  -3570047.814 3
        21.600          21.600
  24948386.861    24948385.218    24948387.098    -1153665.426 2   -898958.379 1
        12.600          11.000
  24847309.120    24847308.310    24847307.683    -1163973.157 2   -906991.105 2
        16.100          15.100
  20638540.667    20638540.182    20638538.765   -22839042.971 6 -17796648.704 7
        40.000          45.100
  22059038.592    22059038.196    22059037.449   -14741762.612 5 -11487078.916 5
        32.700          31.100
  22518902.975    22518902.309    22518900.989   -15109130.733 5 -11773340.026 4
        30.800          27.600
  20595080.689    20595080.364    20595077.231   -23956840.734 7 -18667658.898 7
        42.300          45.300
 09  1 28  0 52 30.0000000  0  9G11G 5G19G32G31G14G 9G18G22
  23402893.734    23402893.955    23402891.574    -7663115.096 4  -5971256.521 3
        24.900          22.100
  25014541.551    25014541.729    25014542.666     -742999.101 1   -578959.885 1
         9.000          11.000
  24109449.628    24109448.234    24109446.278    -4506655.615 4  -3511676.589 3
        24.200          21.600
  24930134.974    24930133.837    24930134.775    -1249577.877 2   -973695.275 2
        13.900          12.600
  24825186.982    24825186.617    24825185.003    -1280224.026 2   -997576.125 2
        15.100          13.900
  20631652.397    20631651.892    20631650.381   -22875241.559 6 -17824855.391 7
        39.900          45.200
  22071881.217    22071880.834    22071880.144   -14674273.544 5 -11434490.024 5
        32.400          30.600
  22535044.911    22535044.421    22535042.522   -15024304.975 5 -11707242.036 4
        30.800          26.800
  20602358.763    20602358.506    20602355.506   -23918593.482 7 -18637855.840 7
        42.200          45.300
 09  1 28  0 53  0.0000000  0 10G11G 5G19G32G12G31G14G 9G18G22
  23390194.545    23390194.378    23390192.385    -7729851.349 4  -6023258.780 3
        24.200          22.100
  24997038.265    24997036.993    24997035.822     -834993.342 2   -650643.658 1
        12.600          11.000
  24123766.894    24123765.559    24123763.037    -4431417.630 3  -3453049.627 3
        23.000          21.100
  24911890.625    24911889.618    24911889.643    -1345453.471 2  -1048403.444 2
        15.100          12.600
  25074471.605    25074471.963    25074469.065           -.00612         -.32412
        13.900          13.900
  24803071.657    24803071.009    24803069.136    -1396441.328 2  -1088135.014 2
        13.900          15.100
  20624848.863    20624848.377    20624846.951   -22910993.929 6 -17852714.373 7
        39.800          45.300
  22084837.108    22084836.758    22084835.829   -14606190.482 5 -11381438.287 5
        32.600          30.600
  22551234.621    22551234.008    22551231.941   -14939227.243 5 -11640947.700 4
        30.200          26.200
  20609713.047    20609712.752    20609709.608   -23879947.364 7 -18607741.980 7
        42.300          45.200
 09  1 28  0 53 30.0000000  0 10G11G 5G19G32G12G31G14G 9G18G22
  23377580.040    23377579.811    23377578.230    -7796142.042 4  -6074913.849 3
        24.600          22.600
  24979570.291    24979569.778    24979569.368     -926786.448 2   -722170.760 2
        13.900          12.600
  24138144.636    24138143.244    24138142.059    -4355856.938 3  -3394171.193 3
        21.600          21.600
  24893653.731    24893652.559    24893652.394    -1441293.986 2  -1123084.268 2
        17.000          15.100
  25059042.907    25059042.088    25059040.757      -81082.159 2    -63181.132 2
        13.900          16.100
  24780963.493    24780962.858    24780960.462    -1512625.452 2  -1178668.010 2
        12.600          17.800
  20618129.739    20618129.299    20618127.984   -22946302.419 6 -17880227.478 7
        39.700          45.400
  22097904.990    22097904.426    22097903.682   -14537518.531 5 -11327927.677 5
        32.400          30.400
  22567471.692    22567470.911    22567469.237   -14853901.512 5 -11574460.136 4
        30.200          26.500
  20617142.419    20617142.122    20617139.020   -23840905.467 7 -18577319.722 7
        42.400          45.100
 09  1 28  0 54  0.0000000  0 10G11G 5G19G32G12G31G14G 9G18G22
  23365051.467    23365051.005    23365049.411    -7861982.933 4  -6126218.422 3
        25.300          23.000
  24962142.404    24962141.230    24962143.023    -1018372.625 2   -793536.633 2
        15.100          15.100
  24152585.307    24152583.967    24152582.379    -4279973.701 3  -3335041.384 3
        22.600          22.100
  24875423.011    24875421.676    24875422.164    -1537096.044 2  -1197735.188 2
        17.000          15.100
  25043659.020    25043658.222    25043659.945     -161908.260 1   -126162.437 2
         9.000          17.000
  24758862.609    24758861.537    24758858.339    -1628771.333 1  -1269171.227 3
        11.000          19.300
  20611495.840    20611495.261    20611493.910   -22981164.332 6 -17907392.597 7
        39.600          45.400
  22111084.631    22111084.176    22111083.719   -14468257.642 5 -11273958.145 5
        32.300          30.400
  22583756.037    22583755.588    22583753.819   -14768326.106 5 -11507778.027 4
        30.400          26.800
  20624647.523    20624647.306    20624644.165   -23801465.597 7 -18546587.353 7
        42.300          44.900
 09  1 28  0 54 30.0000000  0 10G11G 5G19G32G12G31G14G 9G18G22
  23352608.565    23352607.936    23352606.133    -7927370.958 4  -6177170.107 3
        25.300          23.400
  24944753.314    24944752.551    24944754.359    -1109747.648 2   -864737.909 2
        12.600          16.100
  24167086.302    24167084.629    24167083.728    -4203770.018 3  -3275661.905 3
        21.600          21.600
  24857200.466    24857199.049    24857199.483    -1632857.684 2  -1272354.597 2
        15.100          16.100
  25028331.928    25028331.101    25028328.567     -242474.681 2   -188941.441 2
        12.600          17.000
  24736766.883    24736766.230    24736764.437    -1744875.373 1  -1359641.781 3
        11.000          21.600
  20604947.076    20604946.578    20604945.090   -23015578.501 6 -17934208.827 7
        39.700          45.500
  22124376.436    22124375.972    22124375.254   -14398409.512 5 -11219531.023 5
        32.000          30.400
  22600088.075    22600087.427    22600085.585   -14682501.235 5 -11440901.531 4
        30.100          26.500
  20632228.519    20632228.215    20632225.107   -23761627.240 7 -18515544.474 7
        42.300          44.800
 09  1 28  0 55  0.0000000  0 10G11G 5G19G32G12G31G14G 9G18G22
  23340251.659    23340251.200    23340249.770    -7992303.918 4  -6227767.203 3
        24.900          22.600
  24927404.091    24927403.749    24927405.537    -1200908.273 1   -935772.167 2
         6.500          15.100
  24181647.688    24181646.056    24181644.766    -4127248.489 3  -3216034.759 3
        22.100          20.500
  24838983.042    24838982.208    24838983.894    -1728577.785 1  -1346941.632 2
        11.000          16.100
  25013049.012    25013048.767    25013044.293     -322777.737 1   -251515.254 1
        11.000          11.000
  24714681.445    24714681.152    24714679.623    -1860935.050 2  -1450077.774 3
        12.600          22.600
  20598483.701    20598483.159    20598481.748   -23049544.095 6 -17960675.520 7
        39.700          45.600
  22137779.121    22137778.666    22137777.829   -14327977.375 5 -11164648.845 5
        31.500          30.100
  22616467.723    22616467.102    22616464.933   -14596427.606 5 -11373831.179 4
        30.600          26.500
  20639885.352    20639885.068    20639881.925   -23721390.682 7 -18484191.309 7
        42.300          44.700
 09  1 28  0 55 30.0000000  0 10G11G 5G19G32G12G31G14G 9G18G22
  23327982.427    23327982.024    23327979.755    -8056780.964 4  -6278009.047 3
        25.300          23.000
  24910099.671    24910098.844    24910099.420    -1291852.304    -1006637.604 2
         3.000          13.900
  24196268.738    24196267.295    24196266.057    -4050413.032 3  -3156163.008 3
        22.100          21.100
  24820774.677    24820773.681    24820776.597    -1824256.485 1  -1421496.448 2
         9.000          15.100
  24997817.822    24997816.473    24997814.348     -402815.648 1   -313882.559 2
         9.000          12.600
  24692604.750    24692604.321    24692602.229    -1976948.970 2  -1540478.168 4
        15.100          24.200
  20592105.281    20592104.774    20592103.485   -23083062.161 6 -17986793.489 7
        39.500          45.700
  22151292.360    22151291.865    22151291.318   -14256964.819 5 -11109314.388 5
        31.600          30.100
  22632893.792    22632893.101    22632891.495   -14510107.686 5 -11306568.922 4
        30.200          26.500
  20647617.567    20647617.322    20647614.148   -23680757.459 7 -18452529.058 7
        42.300          44.700
 09  1 28  0 56  0.0000000  0 10G11G 5G19G32G12G31G14G 9G18G22
  23315799.839    23315799.619    23315797.652    -8120799.811 4  -6327893.839 4
        25.600          24.200
  24892835.847    24892834.474    24892835.199    -1382576.088    -1077331.437 2
         3.000          15.100
  24210949.701    24210948.472    24210946.838    -3973266.062 3  -3096048.537 3
        22.600          21.600
  24802577.386    24802576.927    24802577.131    -1919892.544 1  -1496017.999 2
        11.000          13.900
  24982637.828    24982638.183    24982637.393     -482585.200 1   -376040.580 3
        11.000          19.900
  24670535.766    24670535.562    24670534.684    -2092914.196 2  -1630840.642 3
        15.100          22.600
  20585812.181    20585811.724    20585810.436   -23116132.267 6 -18012562.394 7
        39.500          45.800
  22164915.766    22164915.417    22164914.666   -14185373.978 5 -11053529.311 5
        31.600          30.200
  22649366.596    22649365.935    22649364.257   -14423542.152 4 -11239115.280 4
        29.900          26.800
  20655425.379    20655425.117    20655421.801   -23639727.736 7 -18420557.844 7
        42.400          44.500
 09  1 28  0 56 30.0000000  0 10G11G 5G19G32G12G31G14G 9G18G22
  23303706.189    23303705.840    23303703.934    -8184353.253 4  -6377415.977 4
        25.600          24.200
  24875613.913    24875614.507    24875614.263    -1473071.454 1  -1147847.285 2
         6.500          16.100
  24225690.054    24225688.330    24225686.939    -3895805.832 3  -3035689.946 3
        23.400          22.100
  24784389.248    24784387.855    24784386.116    -2015480.022 2  -1570501.633 2
        13.900          12.600
  24967509.067    24967510.127    24967509.713     -562078.183 1   -437983.089 3
        11.000          18.600
  24648477.208    24648477.987    24648475.112    -2208823.433 2  -1721159.466 3
        12.600          19.900
  20579605.652    20579605.096    20579603.655   -23148748.805 6 -18037977.875 7
        39.500          45.800
  22178649.733    22178649.111    22178648.370   -14113202.597 5 -10997291.880 5
        31.300          30.100
  22665886.496    22665886.049    22665884.586   -14336726.676 4 -11171466.868 4
        29.200          26.500
  20663309.255    20663308.940    20663305.814   -23598297.097 7 -18388274.226 7
        42.200          44.500
 09  1 28  0 57  0.0000000  0 10G11G 5G19G32G12G31G14G 9G18G22
  23291701.528    23291701.419    23291699.568    -8247437.192 4  -6426572.281 4
        25.900          24.600
  24858439.467    24858438.250    24858439.046    -1563333.062 1  -1218180.961 3
        11.000          18.600
  24240490.337    24240488.611    24240486.803    -3818032.891 4  -2975087.697 3
        24.600          22.100
  24766208.331    24766207.492    24766206.601    -2111015.674 1  -1644944.917 2
        11.000          12.600
  24952438.048    24952437.096    24952435.467     -641289.777 2   -499706.364 3
        13.900          19.300
  24626432.744    24626433.427    24626432.764    -2324671.723 2  -1811430.809 3
        12.600          19.900
  20573485.442    20573484.946    20573483.586   -23180909.949 6 -18063038.503 7
        39.300          46.000
  22192493.703    22192492.923    22192492.567   -14040451.275 5 -10940602.530 4
        31.000          29.900
  22682454.816    22682454.240    22682452.760   -14249660.474 4 -11103623.078 4
        29.200          25.900
  20671269.962    20671269.626    20671266.309   -23556463.970 7 -18355676.986 7
        42.200          44.400
 09  1 28  0 57 30.0000000  0 10G11G 5G19G32G12G31G14G 9G18G22
  23279783.749    23279783.776    23279782.786    -8310062.141 4  -6475370.922 4
        25.900          24.900
  24841306.336    24841305.760    24841305.441    -1653370.153 2  -1288339.710 2
        12.600          17.800
  24255346.141    24255344.692    24255343.045    -3739962.538 4  -2914253.689 3
        24.600          21.600
  24748034.690    24748034.384    24748035.292    -2206511.128 1  -1719356.920 2
         6.500          13.900
  24937416.288    24937416.612    24937413.716     -720229.348 2   -561217.710 2
        15.100          17.000
  24604398.045    24604398.338    24604397.322    -2440469.338 2  -1901662.692 3
        13.900          20.500
  20567449.773    20567449.258    20567447.931   -23212627.641 6 -18087753.582 7
        39.200          46.100
  22206444.892    22206444.452    22206444.202   -13967135.506 5 -10883473.359 4
        30.400          29.500
  22699068.633    22699067.693    22699066.072   -14162357.381 4 -11035594.705 4
        29.500          25.900
  20679304.623    20679304.350    20679301.080   -23514241.268 7 -18322776.177 7
        42.300          44.400
 09  1 28  0 58  0.0000000  0 10G11G 5G19G32G12G31G14G 9G18G22
  23267956.282    23267956.091    23267954.789    -8372216.081 4  -6523802.561 4
        25.600          24.200
  24824216.920    24824215.801    24824216.023    -1743169.402 1  -1358313.137 2
         9.000          16.100
  24270260.382    24270258.953    24270257.251    -3661587.534 3  -2853182.275 3
        23.800          19.900
  24729872.757    24729872.041    24729873.309    -2301955.283 1  -1793728.928 2
         9.000          17.000
  24922447.876    24922448.004    24922445.883     -798883.824 2   -622506.945 2
        15.100          17.000
  24582375.018    24582375.019    24582373.813    -2556203.501 2  -1991845.135 3
        17.000          19.900
  20561500.467    20561500.007    20561498.596   -23243891.524 6 -18112115.045 7
        39.200          46.200
  22220505.899    22220505.213    22220504.173   -13893247.786 5 -10825898.509 4
        31.100          29.200
  22715728.432    22715727.753    22715726.151   -14074808.411 4 -10967374.745 4
        29.000          26.200
  20687415.436    20687415.097    20687411.855   -23471619.022 7 -18289564.033 7
        42.300          44.300
 09  1 28  0 58 30.0000000  0 10G11G 5G19G32G12G31G14G 9G18G22
  23256218.359    23256218.147    23256216.564    -8433900.264 4  -6571868.141 4
        25.300          24.600
  24807174.368    24807174.313    24807172.513    -1832730.732 1  -1428101.175 2
         6.500          15.100
  24285231.140    24285230.352    24285228.442    -3582913.903 3  -2791878.176 3
        23.800          19.900
  24711720.430    24711719.976    24711720.491    -2397350.270 1  -1868062.646 2
         9.000          17.800
  24907536.393    24907535.889    24907532.914     -877253.314 2   -683574.060 2
        13.900          17.800
  24560363.652    24560363.505    24560362.611    -2671875.127 3  -2081978.830 3
        18.600          19.300
  20555636.775    20555636.277    20555635.049   -23274705.014 6 -18136125.555 7
        39.100          46.300
  22234673.714    22234673.171    22234672.200   -13818794.154 5 -10767882.691 4
        31.000          29.200
  22732434.247    22732433.730    22732431.971   -13987017.473 4 -10898966.235 4
        29.200          25.900
  20695601.345    20695601.042    20695597.972   -23428601.050 7 -18256043.534 7
        42.200          44.300
 09  1 28  0 59  0.0000000  0 10G11G 5G19G32G12G31G14G 9G18G22
  23244569.749    23244569.388    23244568.313    -8495113.945 4  -6619567.082 4
        25.300          24.600
  24790173.793    24790173.720    24790177.748    -1922052.262    -1497702.318 2
         3.000          12.600
  24300258.028    24300257.304    24300255.551    -3503945.922 3  -2730344.729 3
        22.600          19.900
  24693576.356    24693575.199    24693575.666    -2492696.519 2  -1942358.407 2
        12.600          17.800
  24892673.391    24892674.754    24892679.999     -955336.278 1   -744417.857 2
         6.500          17.000
  24538363.988    24538364.535    24538363.212    -2787482.841 3  -2172062.732 3
        19.900          19.900
  20549858.704    20549858.261    20549857.062   -23305068.782 6 -18159785.628 7
        39.100          46.400
  22248948.376    22248947.927    22248947.322   -13743778.928 5 -10709429.271 4
        31.000          29.200
  22749185.943    22749185.457    22749183.737   -13898987.272 4 -10830371.281 4
        29.500          25.900
  20703862.512    20703862.188    20703858.915   -23385189.226 7 -18222216.138 7
        42.300          44.200
 09  1 28  0 59 30.0000000  0 10G11G 5G19G32G12G31G14G 9G18G22
  23233010.438    23233010.066    23233008.504    -8555860.238 4  -6666901.843 4
        25.300          24.200
  24773225.409    24773224.164    24773222.428    -2011135.686 1  -1567117.932 1
         6.500          11.000
  24315340.240    24315338.897    24315337.585    -3424691.569 3  -2668588.134 3
        22.100          19.900
  24675441.387    24675440.341    24675440.488    -2587997.844 2  -2016619.146 3
        13.900          18.600
  24877870.259    24877871.302    24877870.176    -1033134.602 1   -805039.905 3
        11.000          19.300
  24516376.544    24516377.113    24516375.549    -2903028.641 3  -2262098.366 3
        19.900          19.300
  20544165.401    20544164.988    20544163.594   -23334987.596 6 -18183098.988 7
        39.100          46.500
  22263329.023    22263328.420    22263327.737   -13668209.770 5 -10650544.204 4
        31.100          29.000
  22765981.946    22765981.425    22765979.797   -13810723.611 4 -10761594.424 4
        28.800          25.900
  20712197.448    20712197.080    20712193.858   -23341388.788 7 -18188085.925 7
        42.200          44.100
                            4 15
RINEX FILE SPLICE                                           COMMENT
teqc  2008Oct2      WCDA Operator       20090128 02:18:41UTCCOMMENT
STATION INFORMATION EFFECTIVE FROM: 2001/01/13 18:20:00     COMMENT
                                TO: CURRENT DATE (above)    COMMENT
BIT 2 OF LLI FLAGS (+4) DATA COLLECTED UNDER 'AS' CONDITION COMMENT
L1 PHASE CENTRE 0.110m ABOVE ARP                            COMMENT
L2 PHASE CENTRE 0.128m ABOVE ARP                            COMMENT
where ARP is the Antenna Reference Point for HI measurement COMMENT
CONTACT gps@pgc.nrcan.gc.ca FOR ADDITIONAL INFORMATION      COMMENT
    P1 =    P1  TurboRogue; =    Y1  Benchmark              COMMENT
    L1 = L1(CA)                                             COMMENT
    P2 =    P2  TurboRogue; =    Y2  Benchmark              COMMENT
    L2 = L2(P2) TurboRogue; = L2(Y2) Benchmark              COMMENT
 SNR is mapped to RINEX snr flag value [0-9]                COMMENT
  L1 & L2: min(max(int(snr_dBHz/6), 0), 9)                  COMMENT
 09  1 28  1  0  0.0000000  0 10G11G 5G19G32G12G31G14G 9G18G22
  23221541.398    23221540.972    23221539.512    -8616131.158 4  -6713866.185 4
        25.600          24.600
  24756320.602    24756320.090    24756317.881    -2099971.663 2  -1636340.744 1
        12.600          11.000
  24330477.400    24330476.221    24330474.295    -3345147.287 3  -2606605.596 3
        21.600          19.900
  24657316.035    24657315.651    24657315.651    -2683247.094 2  -2090839.283 3
        16.100          19.900
  24863124.769    24863124.709    24863120.480    -1110638.989 2   -865432.911 3
        17.000          19.900
  24494402.098    24494402.378    24494401.411    -3018504.360 3  -2352079.385 3
        19.900          18.600
  20538557.945    20538557.412    20538556.304   -23364455.300 6 -18206060.830 7
        39.100          46.500
  22277814.998    22277814.571    22277814.045   -13592082.934 5 -10591224.577 4
        30.600          29.500
  22782823.206    22782822.743    22782821.040   -13722221.271 4 -10692631.588 4
        27.900          25.300
  20720607.230    20720606.912    20720603.717   -23297194.323 7 -18153648.678 7
        42.200          43.900
 09  1 28  1  0 30.0000000  0 10G11G 5G19G32G12G31G14G 9G18G22
  23210163.517    23210162.972    23210161.047    -8675923.022 4  -6760457.234 4
        24.900          24.200
  24739463.401    24739462.024    24739463.279    -2188555.191 1  -1705366.911 1
        11.000          11.000
  24345668.200    24345667.380    24345665.862    -3265314.428 3  -2544398.203 3
        19.900          19.900
  24639199.083    24639199.595    24639200.983    -2778441.603 2  -2165016.780 3
        16.100          19.900
  24848429.967    24848429.923    24848427.611    -1187844.827 1   -925593.269 3
        11.000          19.900
  24472441.899    24472442.312    24472441.954    -3133905.634 3  -2442002.425 2
        19.900          16.100
  20533036.678    20533036.113    20533034.814   -23393469.889 6 -18228669.597 7
        39.100          46.600
  22292407.264    22292406.974    22292406.449   -13515400.289 5 -10531471.877 4
        30.100          29.000
  22799710.270    22799709.594    22799707.847   -13633480.062 4 -10623482.614 4
        27.900          24.600
  20729092.336    20729092.047    20729088.853   -23252604.814 7 -18118903.604 7
        42.200          43.800
 09  1 28  1  1  0.0000000  0 10G11G 5G19G32G12G31G14G 9G18G22
  23198875.816    23198875.677    23198874.127    -8735235.972 4  -6806675.108 3
        24.600          23.800
  24722655.444    24722654.514    24722651.837    -2276884.927 1  -1774195.261 1
         9.000           9.000
  24360915.044    24360913.441    24360910.566    -3185197.701 3  -2481969.661 3
        20.500          19.900
  24621094.747    24621094.711    24621096.505    -2873582.258 2  -2239152.307 3
        17.000          21.100
  24833793.616    24833795.152    24833794.287    -1264751.282 1   -985520.349 2
         6.500          17.800
  24450496.150    24450496.330    24450495.720    -3249231.775 2  -2531866.937 2
        17.800          17.000
  20527601.282    20527600.705    20527599.582   -23422033.431 6 -18250926.893 7
        39.100          46.700
  22307104.562    22307104.212    22307103.396   -13438166.594 5 -10471289.774 4
        30.100          28.800
  22816642.130    22816641.540    22816639.874   -13544502.936 4 -10554149.792 4
        28.800          24.900
  20737652.214    20737651.917    20737648.684   -23207622.445 7 -18083852.404 7
        42.100          43.700
 09  1 28  1  1 30.0000000  0 10G11G 5G19G32G12G31G14G 9G18G22
  23187681.185    23187680.938    23187679.461    -8794065.872 4  -6852516.569 4
        25.600          24.200
  24705894.489    24705893.680    24705893.373    -2364955.489 1  -1842821.662 1
         9.000          11.000
  24376214.988    24376213.155    24376211.210    -3104798.054 3  -2419320.624 3
        21.100          21.600
  24603002.281    24603001.959    24603002.120    -2968665.877 3  -2313243.404 3
        18.600          21.100
  24819220.471    24819220.559    24819218.457    -1341353.184 2  -1045210.090 3
        15.100          20.500
  24428565.535    24428564.787    24428564.947    -3364478.222 2  -2621669.319 3
        16.100          19.300
  20522252.058    20522251.537    20522250.051   -23450143.373 6 -18272830.741 7
        39.000          46.500
  22321906.768    22321906.188    22321905.222   -13360382.169 5 -10410678.529 4
        30.200          28.600
  22833618.976    22833618.414    22833617.195   -13455288.625 4 -10484632.174 4
        28.400          25.600
  20746287.098    20746286.803    20746283.671   -23162245.571 7 -18048493.802 7
        42.100          43.600
 09  1 28  1  2  0.0000000  0 10G11G 5G19G32G12G31G14G 9G18G22
  23176578.246    23176577.732    23176575.976    -8852414.832 4  -6897983.271 4
        26.500          24.600
  24689184.618    24689183.164    24689184.957    -2452767.709 1  -1911246.750 2
        11.000          16.100
  24391565.575    24391564.725    24391564.018    -3024122.218 3  -2356456.365 3
        20.500          22.600
  24584919.000    24584918.306    24584919.013    -3063695.556 3  -2387292.459 3
        19.300          20.500
  24804701.077    24804699.747    24804697.951    -1417651.542 2  -1104663.292 3
        15.100          19.300
  24406648.841    24406648.454    24406648.916    -3479646.582 2  -2711410.819 3
        16.100          20.500
  20516988.467    20516987.970    20516986.936   -23477803.757 6 -18294384.280 7
        39.000          46.300
  22336811.711    22336811.273    22336810.566   -13282054.006 4 -10349643.604 4
        29.700          28.400
  22850639.945    22850639.428    22850638.065   -13365842.269 4 -10414933.749 4
        27.900          25.300
  20754996.371    20754996.022    20754992.889   -23116478.496 7 -18012831.142 7
        42.200          43.600
 09  1 28  1  2 30.0000000  0 10G11G 5G19G32G12G31G14G 9G18G22
  23165567.412    23165567.036    23165564.789    -8910278.164 4  -6943071.574 4
        27.100          24.200
  24672526.626    24672525.713    24672524.728    -2540315.543 2  -1979465.780 2
        15.100          16.100
  24406969.682    24406969.234    24406967.546    -2943170.347 3  -2293377.003 3
        20.500          22.600
  24566846.716    24566845.864    24566846.409    -3158667.292 3  -2461296.338 3
        19.900          19.900
  24790239.325    24790239.798    24790240.469    -1493640.554 2  -1163875.509 3
        16.100          22.100
  24384748.320    24384748.236    24384748.787    -3594731.170 2  -2801087.071 3
        16.100          22.100
  20511810.951    20511810.464    20511808.904   -23505011.491 6 -18315585.107 7
        39.000          46.100
  22351820.853    22351820.383    22351819.300   -13203182.133 4 -10288184.988 4
        29.500          28.100
  22867705.610    22867704.924    22867703.466   -13276162.299 4 -10345053.274 4
        27.900          24.900
  20763780.069    20763779.780    20763776.567   -23070319.310 7 -17976862.943 7
        42.000          43.400
 09  1 28  1  3  0.0000000  0 10G 5G11G19G32G12G31G14G 9G18G22
  24655915.499    24655914.644    24655915.420    -2627597.334 2  -2047477.590 2
        13.900          15.100
  23154648.207    23154647.791    23154646.075    -8967655.786 4  -6987781.399 4
        26.200          24.200
  24422427.700    24422426.619    24422424.480    -2861947.097 3  -2230086.169 4
        21.600          24.200
  24548785.019    24548784.345    24548783.769    -3253581.869 3  -2535255.688 3
        18.600          19.300
  24775840.316    24775840.350    24775838.686    -1569319.099 3  -1222845.794 3
        21.600          21.600
  24362864.607    24362864.601    24362865.171    -3709731.129 2  -2890697.367 3
        17.000          23.000
  20506719.437    20506718.947    20506717.959   -23531767.977 6 -18336434.314 7
        39.100          46.200
  22366932.265    22366931.623    22366931.064   -13123771.543 4 -10226306.612 4
        29.500          28.400
  22884814.903    22884814.232    22884812.821   -13186251.789 4 -10274993.153 4
        27.400          24.600
  20772638.194    20772637.859    20772634.660   -23023770.204 7 -17940590.913 7
        42.000          43.400
 09  1 28  1  3 30.0000000  0 10G 5G11G19G32G12G31G14G 9G18G22
  24639357.159    24639356.878    24639357.649    -2714610.357 2  -2115279.914 2
        12.600          13.900
  23143822.095    23143821.899    23143820.226    -9024546.012 4  -7032111.440 4
        26.500          24.200
  24437934.564    24437932.812    24437932.205    -2780455.567 3  -2166586.310 4
        21.100          24.200
  24530733.398    24530732.407    24530733.361    -3348438.485 2  -2609169.884 3
        17.000          19.300
  24761497.151    24761497.244    24761493.821    -1644684.159 3  -1281571.750 2
        19.300          17.000
  24340996.602    24340997.255    24340997.715    -3824644.550 2  -2980240.235 3
        17.000          22.600
  20501713.597    20501713.079    20501711.368   -23558073.787 6 -18356932.343 7
        39.000          46.200
  22382145.280    22382144.872    22382144.187   -13043825.311 5 -10164010.856 4
        30.100          28.600
  22901968.202    22901967.581    22901965.813   -13096111.472 4 -10204753.961 4
        26.500          24.600
  20781570.240    20781569.907    20781566.688   -22976831.801 6 -17904015.531 7
        41.900          43.300
 09  1 28  1  4  0.0000000  0 10G 5G11G19G32G12G31G14G 9G18G22
  24622851.493    24622850.675    24622850.457    -2801352.242 2  -2182870.980 1
        12.600          11.000
  23133088.755    23133088.721    23133087.109    -9080948.200 4  -7076061.180 4
        26.800          24.200
  24453492.376    24453490.808    24453489.539    -2698699.769 3  -2102880.508 3
        22.100          23.400
  24512693.007    24512692.524    24512694.125    -3443237.145 2  -2683038.918 3
        17.000          20.500
  24747215.232    24747215.533    24747213.888    -1719734.122 2  -1340052.227 2
        16.100          17.800
  24319147.021    24319147.075    24319146.611    -3939469.763 3  -3069714.369 3
        18.600          23.000
  20496793.279    20496792.833    20496791.912   -23583929.721 6 -18377079.818 7
        39.000          45.900
  22397459.325    22397459.012    22397458.722   -12963347.271 4 -10101300.685 4
        29.700          28.400
  22919164.600    22919164.015    22919162.270   -13005743.911 4 -10134337.700 4
        26.500          24.600
  20790575.963    20790575.651    20790572.646   -22929505.910 6 -17867138.210 7
        41.800          43.400
 09  1 28  1  4 30.0000000  0 10G 5G11G19G32G12G31G14G 9G18G22
  24606397.243    24606396.887    24606395.592    -2887817.868 2  -2250246.775 2
        13.900          12.600
  23122450.244    23122449.971    23122447.565    -9136858.417 4  -7119627.575 3
        27.900          23.800
  24469100.211    24469098.428    24469097.013    -2616680.750 3  -2038969.565 3
        22.100          23.000
  24494665.577    24494665.469    24494665.704    -3537974.702 2  -2756860.379 3
        17.800          20.500
  24732995.265    24732994.823    24732994.607    -1794463.993 2  -1398283.309 3
        15.100          20.500
  24297314.911    24297314.424    24297314.467    -4054202.281 3  -3159116.292 4
        19.300          24.600
  20491959.125    20491958.622    20491956.907   -23609333.798 6 -18396875.198 7
        39.000          45.900
  22412874.743    22412874.616    22412874.164   -12882338.241 4 -10038176.766 4
        29.500          27.900
  22936404.673    22936403.974    22936401.911   -12915148.254 4 -10063743.694 4
        26.800          24.600
  20799655.749    20799655.472    20799652.396   -22881791.054 6 -17829957.805 7
        41.800          43.200
 09  1 28  1  5  0.0000000  0 10G 5G11G19G32G12G31G14G 9G18G22
  24589997.306    24589995.939    24589994.994    -2974005.775 2  -2317406.147 2
        13.900          12.600
  23111904.622    23111904.149    23111902.037    -9192276.816 4  -7162810.735 4
        27.900          24.200
  24484756.197    24484755.423    24484753.694    -2534402.992 3  -1974857.062 3
        21.600          22.600
  24476649.876    24476649.410    24476649.514    -3632652.089 3  -2830634.968 3
        19.900          21.600
  24718835.867    24718835.820    24718833.865    -1868872.928 3  -1456264.268 2
        18.600          17.800
  24275499.320    24275499.623    24275499.660    -4168841.311 3  -3248445.342 4
        20.500          25.600
  20487210.597    20487210.125    20487209.148   -23634287.670 6 -18416319.768 7
        39.000          46.200
  22428390.800    22428390.538    22428389.604   -12800802.965 4  -9974642.779 4
        29.900          27.600
  22953687.230    22953686.557    22953684.700   -12824327.560 4  -9992974.331 4
        27.600          24.600
  20808809.317    20808808.992    20808805.768   -22833689.429 6 -17792476.015 7
        41.800          43.100
 09  1 28  1  5 30.0000000  0 10G 5G11G19G32G12G31G14G 9G18G22
  24573649.562    24573648.295    24573649.913    -3059908.207 1  -2384343.082 2
        11.000          15.100
  23101453.276    23101453.201    23101451.173    -9247197.092 4  -7205605.751 4
        28.400          24.600
  24500463.115    24500461.977    24500461.122    -2451864.889 3  -1910541.656 3
        20.500          22.600
  24458645.794    24458645.070    24458645.763    -3727263.548 3  -2904358.179 3
        18.600          22.600
  24704739.366    24704739.378    24704736.443    -1942953.241 2  -1513989.146 2
        17.800          17.000
  24253703.654    24253703.781    24253703.592    -4283379.734 3  -3337695.996 4
        19.900          24.600
  20482548.575    20482548.057    20482546.323   -23658786.601 6 -18435409.840 7
        38.900          46.000
  22444007.516    22444006.801    22444005.370   -12718740.438 4  -9910697.944 4
        29.900          27.400
  22971012.952    22971012.470    22971010.693   -12733278.107 4  -9922026.717 4
        26.200          24.200
  20818037.166    20818036.815    20818033.557   -22785197.013 6 -17754689.716 7
        41.700          43.000
 09  1 28  1  6  0.0000000  0 10G 5G11G19G32G12G31G14G 9G18G22
  24557358.147    24557356.851    24557358.021    -3145519.651 1  -2451053.242 2
         9.000          13.900
  23091097.916    23091097.724    23091095.770    -9301615.235 4  -7248009.484 4
        28.600          24.900
  24516218.581    24516217.766    24516216.906    -2369067.271 3  -1846023.989 3
        18.600          22.600
  24440655.144    24440654.329    24440655.478    -3821805.708 2  -2978027.357 3
        17.800          22.600
  24690703.944    24690703.960    24690703.281    -2016699.962 2  -1571454.108 2
        16.100          16.100
  24231927.439    24231928.050    24231927.103    -4397812.599 3  -3426864.398 3
        19.300          23.800
  20477973.631    20477973.066    20477972.097   -23682828.439 6 -18454143.734 7
        39.000          46.000
  22459722.776    22459722.666    22459722.067   -12636150.997 4  -9846342.535 4
        29.500          27.900
  22988382.789    22988382.101    22988380.906   -12641998.745 4  -9850899.971 3
        25.300          23.800
  20827339.426    20827339.125    20827336.019   -22736312.369 6 -17716597.783 7
        41.600          42.900
 09  1 28  1  6 30.0000000  0 10G 5G11G19G32G12G31G14G 9G18G22
  24541123.132    24541121.743    24541121.256    -3230840.616 1  -2517537.089 2
        11.000          13.900
  23080837.580    23080837.413    23080835.345    -9355533.163 4  -7290023.441 4
        28.600          24.600
  24532023.130    24532021.711    24532019.284    -2286016.933 3  -1781309.445 3
        18.600          20.500
  24422677.495    24422676.181    24422676.743    -3916281.342 2  -3051644.706 3
        17.800          22.600
  24676736.427    24676735.904    24676733.185    -2090113.342 3  -1628659.367 2
        19.300          17.000
  24210172.244    24210172.407    24210170.534    -4512141.328 3  -3515951.658 3
        20.500          22.600
  20473484.851    20473484.347    20473482.515   -23706416.752 6 -18472524.233 7
        39.000          45.800
  22475538.292    22475537.944    22475537.330   -12553041.381 4  -9781581.797 4
        29.000          27.600
  23005795.607    23005795.009    23005793.509   -12550494.429 4  -9779597.934 3
        25.600          23.400
  20836715.818    20836715.517    20836712.345   -22687039.560 6 -17678203.388 7
        41.600          42.800
 09  1 28  1  7  0.0000000  0 10G 5G11G19G32G12G31G14G 9G18G22
  24524940.012    24524939.485    24524941.133    -3315873.053 1  -2583796.097 2
         9.000          16.100
  23070671.906    23070671.705    23070669.664    -9408954.171 4  -7331650.210 4
        28.800          24.600
  24547875.285    24547872.777    24547870.960    -2202721.747 3  -1716404.097 3
        18.600          20.500
  24404710.699    24404709.573    24404711.021    -4010694.417 3  -3125213.315 3
        18.600          23.400
  24662827.903    24662827.659    24662827.243    -2163195.838 2  -1685606.705 3
        17.800          20.500
  24188436.077    24188435.934    24188434.159    -4626368.132 3  -3604959.521 3
        21.600          23.400
  20469081.489    20469081.007    20469080.088   -23729556.676 6 -18490555.337 7
        39.000          45.800
  22491450.927    22491450.708    22491450.147   -12469419.724 4  -9716422.065 4
        29.000          27.900
  23023249.925    23023249.479    23023247.912   -12458771.668 4  -9708125.668 3
        25.600          23.400
  20846164.791    20846164.479    20846161.285   -22637384.610 6 -17639511.218 7
        41.600          42.600
 09  1 28  1  7 30.0000000  0 10G 5G11G19G32G12G31G14G 9G18G22
  24508816.531    24508815.546    24508815.811    -3400611.501 2  -2649826.015 2
        13.900          17.000
  23060601.775    23060601.449    23060599.276    -9461874.368 4  -7372886.717 4
        28.400          24.900
  24563770.690    24563769.848    24563768.260    -2119182.366 3  -1651308.496 3
        19.900          19.900
  24386756.486    24386755.683    24386757.371    -4105041.711 2  -3198730.652 3
        17.800          23.000
  24648985.197    24648984.814    24648983.720    -2235942.375 2  -1742292.246 3
        17.800          20.500
  24166719.393    24166719.396    24166717.743    -4740488.556 3  -3693884.472 3
        21.600          23.800
  20464763.809    20464763.309    20464761.512   -23752245.859 6 -18508235.217 7
        39.000          45.800
  22507460.547    22507460.155    22507459.946   -12385286.942 4  -9650864.051 4
        28.400          27.900
  23040746.090    23040745.490    23040743.905   -12366828.977 4  -9636482.033 3
        25.600          23.400
  20855686.868    20855686.580    20855683.442   -22587345.588 6 -17600519.770 7
        41.500          42.600
 09  1 28  1  8  0.0000000  0 10G 5G11G19G32G12G31G14G 9G18G22
  24492748.220    24492747.869    24492746.574    -3485051.248 2  -2715623.209 2
        15.100          15.100
  23050626.931    23050626.703    23050625.263    -9514290.495 4  -7413730.437 4
        27.600          24.900
  24579713.217    24579711.998    24579710.929    -2035400.416 3  -1586023.881 3
        18.600          18.600
  24368816.754    24368816.011    24368816.171    -4199320.696 3  -3272194.743 3
        19.900          22.100
  24635206.561    24635206.186    24635203.458    -2308348.852 3  -1798712.913 2
        18.600          17.800
  24145024.910    24145024.477    24145022.754    -4854498.664 3  -3782723.463 4
        22.600          24.600
  20460532.331    20460531.785    20460530.899   -23774483.037 6 -18525562.880 7
        39.000          46.000
  22523568.129    22523567.449    22523567.051   -12300644.511 4  -9584908.908 4
        28.600          28.100
  23058284.655    23058283.747    23058281.896   -12274666.251 4  -9564666.936 3
        25.900          23.800
  20865281.990    20865281.842    20865278.771   -22536922.084 6 -17561228.733 7
        41.500          42.600
 09  1 28  1  8 30.0000000  0 10G 5G11G19G32G12G31G14G 9G18G22
  24476735.081    24476734.532    24476735.306    -3569192.595 2  -2781187.889 2
        12.600          16.100
  23040748.178    23040748.009    23040746.536    -9566204.600 4  -7454182.968 4
        27.900          25.600
  24595702.345    24595701.358    24595699.212    -1951382.167 3  -1520555.113 3
        20.500          19.900
  24350887.835    24350887.468    24350887.186    -4293533.585 3  -3345607.335 3
        19.300          20.500
  24621493.306    24621493.627    24621489.271    -2380415.552 3  -1854868.800 2
        19.300          17.800
  24123349.843    24123349.470    24123347.909    -4968399.147 3  -3871477.032 3
        23.000          23.800
  20456386.089    20456385.571    20456383.637   -23796271.456 6 -18542540.867 7
        39.000          45.700
  22539770.437    22539770.169    22539769.317   -12215498.874 4  -9518561.662 4
        28.600          27.600
  23075863.875    23075863.182    23075861.213   -12182287.895 4  -9492683.824 3
        26.500          23.800
  20874949.870    20874949.592    20874946.553   -22486117.849 6 -17521641.012 7
        41.500          42.600
 09  1 28  1  9  0.0000000  0 10G 5G11G19G32G12G31G14G 9G18G22
  24460783.017    24460782.745    24460783.077    -3653026.421 1  -2846512.896 2
        11.000          17.800
  23030965.776    23030965.510    23030964.376    -9617608.607 4  -7494238.035 4
        27.400          25.300
  24611736.570    24611734.497    24611732.808    -1867124.721 3  -1454899.958 3
        21.100          20.500
  24332973.278    24332972.239    24332972.530    -4387673.352 2  -3418962.956 3
        17.800          19.300
  24607843.934    24607843.630    24607843.102    -2452133.792 2  -1910753.083 3
        12.600          19.900
  24101696.989    24101697.253    24101695.807    -5082181.429 3  -3960138.521 4
        23.400          24.600
  20452326.377    20452325.875    20452325.087   -23817605.305 6 -18559164.639 7
        39.000          45.700
  22556069.121    22556068.911    22556068.352   -12129847.152 4  -9451820.061 4
        28.400          27.100
  23093484.270    23093483.809    23093482.375   -12089689.174 4  -9420528.996 3
        25.900          23.800
  20884691.157    20884690.827    20884687.688   -22434927.514 6 -17481752.443 7
        41.600          42.400
 09  1 28  1  9 30.0000000  0 10G 5G11G19G32G12G31G14G 9G18G22
  24444889.282    24444888.437    24444889.148    -3736547.848 1  -2911594.486 2
        11.000          17.000
  23021281.633    23021281.498    23021280.050    -9668499.662 4  -7533893.387 4
        28.100          25.300
  24627814.335    24627813.118    24627812.506    -1782629.231 3  -1389059.316 3
        19.900          21.100
  24315073.756    24315072.748    24315073.148    -4481737.261 2  -3492259.455 3
        16.100          18.600
  24594264.734    24594264.294    24594262.686    -2523499.027 2  -1966362.329 3
        13.900          19.300
  24080068.210    24080068.240    24080067.197    -5195841.597 3  -4048704.832 4
        23.000          24.600
  20448353.554    20448353.077    20448351.058   -23838482.891 6 -18575432.883 7
        39.000          45.900
  22572464.823    22572464.475    22572463.304   -12043690.947 4  -9384685.351 4
        28.800          27.100
  23111146.793    23111146.304    23111145.116   -11996869.690 4  -9348202.161 3
        24.900          23.000
  20894505.890    20894505.606    20894502.551   -22383350.059 6 -17441562.216 7
        41.500          42.300
 09  1 28  1 10  0.0000000  0 10G 5G11G19G32G12G31G14G 9G18G22
  24429055.980    24429054.894    24429054.138    -3819759.301 2  -2976434.565 2
        12.600          15.100
  23011694.212    23011694.036    23011692.507    -9718881.571 4  -7573152.010 4
        28.100          25.600
  24643937.753    24643936.456    24643935.357    -1697904.375 3  -1323039.952 3
        20.500          22.600
  24297186.954    24297186.604    24297187.414    -4575729.951 2  -3565500.468 3
        16.100          18.600
  24580751.911    24580751.682    24580748.522    -2594513.911 3  -2021698.614 3
        18.600          20.500
  24058462.631    24058462.216    24058460.966    -5309382.194 3  -4137177.976 4
        22.600          24.200
  20444466.469    20444465.974    20444464.917   -23858909.880 6 -18591350.013 7
        38.900          45.700
  22588953.872    22588953.595    22588952.743   -11957038.590 4  -9317164.038 4
        27.900          27.100
  23128850.834    23128850.415    23128848.546   -11903836.392 4  -9275708.708 3
        24.600          22.100
  20904393.219    20904392.992    20904389.812   -22331391.725 6 -17401075.203 7
        41.400          42.200
 09  1 28  1 10 30.0000000  0 10G 5G11G19G32G12G31G14G 9G18G22
  24413280.282    24413279.333    24413279.669    -3902654.267 1  -3041028.056 2
         9.000          15.100
  23002205.012    23002204.824    23002202.770    -9768749.310 4  -7612009.975 4
        28.100          24.900
  24660104.049    24660102.785    24660101.479    -1612949.838 3  -1256841.635 3
        19.300          22.600
  24279316.471    24279315.269    24279315.110    -4669646.922 2  -3638682.514 3
        15.100          18.600
  24567303.629    24567304.174    24567304.362    -2665172.404 2  -2076757.132 3
        17.000          22.100
  24036879.758    24036879.411    24036878.459    -5422797.558 3  -4225553.537 4
        23.400          24.900
  20440665.696    20440665.174    20440663.220   -23878883.147 6 -18606913.595 7
        38.900          45.900
  22605537.657    22605537.102    22605536.429   -11869890.180 4  -9249256.179 4
        27.400          26.800
  23146595.703    23146595.093    23146593.212   -11810586.835 3  -9203046.726 3
        23.800          21.600
  20914353.629    20914353.326    20914350.038   -22279050.169 6 -17360289.572 7
        41.400          42.000
 09  1 28  1 11  0.0000000  0 10G 5G11G19G32G12G31G14G 9G18G22
  24397565.367    24397563.826    24397565.959    -3985234.075 1  -3105375.931 2
         9.000          16.100
  22992813.038    22992812.754    22992810.501    -9818105.979 4  -7650469.714 4
        29.000          25.300
  24676312.932    24676311.413    24676309.532    -1527772.968 3  -1190470.032 3
        19.300          21.600
  24261457.910    24261456.544    24261456.478    -4763491.540 2  -3711808.127 3
        17.800          18.600
  24553927.257    24553927.211    24553925.107    -2735476.068 2  -2131539.181 3
        17.800          21.100
  24015320.276    24015320.502    24015319.415    -5536089.934 3  -4313833.259 4
        23.400          24.600
  20436950.409    20436949.866    20436948.954   -23898406.908 6 -18622126.910 7
        38.900          45.700
  22622214.583    22622213.861    22622213.229   -11782253.089 4  -9180967.537 4
        27.100          27.100
  23164380.555    23164379.624    23164378.110   -11717126.648 3  -9130220.629 3
        23.800          21.100
  20924385.778    20924385.509    20924382.347   -22226330.233 6 -17319209.102 7
        41.400          42.000
 09  1 28  1 11 30.0000000  0 10G 5G11G19G32G12G31G14G 9G18G22
  24381912.262    24381911.911    24381912.460    -4067492.973 2  -3169473.739 2
        12.600          17.000
  22983519.072    22983518.707    22983516.608    -9866947.193 4  -7688527.792 4
        29.000          25.600
  24692563.055    24692560.990    24692560.736    -1442373.994 2  -1123925.376 3
        17.800          21.100
  24243614.062    24243613.296    24243613.065    -4857260.164 3  -3784874.523 3
        19.300          19.300
  24540616.132    24540616.125    24540613.060    -2805419.737 2  -2186040.729 2
        17.000          17.800
  23993786.023    23993786.037    23993784.466    -5649254.051 3  -4402013.058 3
        23.400          23.400
  20433321.145    20433320.665    20433318.530   -23917478.638 6 -18636987.996 7
        38.900          45.600
  22638983.901    22638983.624    22638983.211   -11694127.703 4  -9112298.407 4
        27.100          27.100
  23182205.477    23182205.099    23182203.354   -11623454.389 4  -9057229.279 3
        24.200          21.100
  20934490.491    20934490.194    20934487.080   -22173229.933 6 -17277832.245 7
        41.400          42.000
 09  1 28  1 12  0.0000000  0 10G 5G11G19G32G12G31G14G 9G18G22
  24366322.822    24366321.965    24366320.881    -4149423.420 2  -3233315.637 2
        15.100          17.000
  22974323.792    22974323.490    22974321.513    -9915266.868 4  -7726179.479 4
        29.200          25.600
  24708856.283    24708856.123    24708854.210    -1356751.613 3  -1057206.656 3
        18.600          21.100
  24225785.803    24225785.165    24225785.361    -4950947.205 3  -3857877.367 3
        21.100          19.300
  24527376.209    24527376.270    24527374.224    -2874995.905 2  -2240255.902 3
        17.000          19.900
  23972277.337    23972277.256    23972276.328    -5762282.538 3  -4490087.176 4
        23.000          24.900
  20429778.797    20429778.290    20429777.160   -23936094.364 6 -18651493.752 7
        38.900          45.700
  22655847.179    22655846.570    22655846.040   -11605513.154 4  -9043248.112 4
        27.100          26.800
  23200072.044    23200071.119    23200069.391   -11529567.004 3  -8984070.287 3
        23.800          21.600
  20944668.168    20944667.944    20944664.798   -22119745.692 6 -17236156.212 7
        41.400          42.000
 09  1 28  1 12 30.0000000  0 10G 5G11G19G32G12G31G14G 9G18G22
  24350792.231    24350791.394    24350792.222    -4231031.493 2  -3296906.310 2
        15.100          17.800
  22965226.556    22965226.380    22965224.440    -9963072.854 4  -7763430.888 4
        29.900          25.900
  24725188.913    24725187.825    24725187.504    -1270918.243 2   -990323.517 3
        16.100          19.300
  24207972.310    24207971.475    24207971.064    -5044560.857 3  -3930823.039 3
        23.000          19.900
  24514205.747    24514204.920    24514204.980    -2944211.317 2  -2294189.985 3
        17.000          23.000
  23950792.340    23950792.702    23950792.158    -5875182.472 3  -4578061.080 4
        22.600          24.900
  20426321.315    20426320.883    20426318.716   -23954263.216 6 -18665651.296 7
        38.900          45.800
  22672799.855    22672799.821    22672799.406   -11516421.792 4  -8973826.273 4
        27.400          26.500
  23217977.306    23217976.621    23217974.730   -11435474.635 3  -8910751.584 3
        23.400          21.600
  20954917.081    20954916.791    20954913.603   -22065887.456 6 -17194188.754 6
        41.400          41.800
 09  1 28  1 13  0.0000000  0 10G 5G11G19G32G12G31G14G 9G18G22
  24335325.784    24335325.326    24335325.202    -4312309.865 2  -3360240.069 2
        16.100          17.000
  22956228.501    22956228.058    22956226.078   -10010359.665 4  -7800277.746 4
        29.700          25.900
  24741562.812    24741562.394    24741560.775    -1184872.522 2   -923274.904 2
        15.100          17.000
  24190173.050    24190172.101    24190172.281    -5138095.829 3  -4003707.394 3
        23.800          21.600
  24501102.858    24501102.643    24501102.925    -3013058.926 2  -2347837.440 3
        15.100          22.100
  23929334.505    23929334.687    23929333.721    -5987947.356 3  -4665929.790 4
        23.000          24.600
  20422949.689    20422949.156    20422948.218   -23971981.038 6 -18679457.384 7
        38.800          45.400
  22689845.355    22689844.782    22689843.658   -11426852.271 4  -8904031.830 4
        28.100          26.200
  23235922.341    23235921.530    23235919.595   -11341174.640 4  -8837271.099 3
        24.200          22.100
  20965237.848    20965237.577    20965234.368   -22011651.616 6 -17151927.061 6
        41.400          41.800
 09  1 28  1 13 30.0000000  0 10G 5G11G19G32G12G31G14G 9G18G22
  24319923.267    24319922.583    24319921.598    -4393251.134 2  -3423311.164 2
        16.100          15.100
  22947329.479    22947329.213    22947327.436   -10057121.545 4  -7836715.576 4
        29.200          25.600
  24757980.056    24757978.358    24757975.765    -1098613.233 2   -856059.908 2
        12.600          17.000
  24172389.893    24172389.277    24172389.370    -5231546.698 4  -4076526.211 3
        24.200          22.100
  24488074.806    24488074.264    24488072.529    -3081531.526 2  -2401192.650 3
        17.800          21.100
  23907903.139    23907903.196    23907902.722    -6100570.159 3  -4753687.770 4
        23.000          24.600
  20419664.646    20419664.135    20419662.037   -23989243.869 6 -18692908.940 7
        38.800          45.500
  22706980.718    22706980.344    22706979.443   -11336803.386 4  -8833863.862 4
        27.600          25.900
  23253906.970    23253906.510    23253904.288   -11246664.072 4  -8763626.522 3
        24.900          22.100
  20975631.068    20975630.835    20975627.547   -21957034.697 6 -17109368.419 6
        41.400          41.600
 09  1 28  1 14  0.0000000  0 10G22G 5G11G19G32G12G31G14G 9G18
  20986096.244    20986095.969    20986092.760   -21902040.083 6 -17066515.474 6
        41.400          41.700
  24304583.350    24304582.549    24304583.863    -4473855.033 2  -3486119.390 2
        13.900          17.000
  22938531.028    22938530.571    22938528.728   -10103359.645 4  -7872745.249 4
        29.200          25.600
  24774434.282    24774432.062    24774429.670    -1012146.148 2   -788683.033 3
        13.900          18.600
  24154622.869    24154621.771    24154621.746    -5324915.396 3  -4149281.024 3
        23.000          21.600
  24475116.150    24475116.476    24475113.354    -3149629.390 3  -2454255.934 3
        18.600          19.900
  23886498.700    23886498.763    23886498.402    -6213051.363 3  -4841335.409 4
        23.800          24.900
  20416465.713    20416465.224    20416464.244   -24006054.721 6 -18706008.300 7
        38.800          45.500
  22724207.027    22724206.380    22724205.315   -11246281.302 4  -8763327.168 4
        27.600          25.900
  23271930.787    23271930.357    23271928.604   -11151946.897 4  -8689820.951 3
        24.600          22.100
 09  1 28  1 14 30.0000000  0 10G22G 5G11G19G32G12G31G14G 9G18
  20996632.682    20996632.469    20996629.252   -21846669.976 6 -17023369.935 6
        41.300          41.600
  24289311.389    24289310.327    24289310.239    -4554119.617 2  -3548663.198 2
        17.800          17.000
  22929831.937    22929831.643    22929829.504   -10149073.421 4  -7908366.365 4
        29.200          25.600
  24790925.544    24790923.249    24790923.981     -925475.790 2   -721147.699 3
        12.600          21.100
  24136870.406    24136869.276    24136870.068    -5418201.728 3  -4221971.634 3
        21.600          21.100
  24462228.559    24462227.951    24462227.254    -3217350.873 2  -2507025.892 3
        17.000          21.100
  23865120.871    23865121.343    23865120.712    -6325389.405 3  -4928871.511 4
        23.400          24.600
  20413352.471    20413352.010    20413349.838   -24022414.662 6 -18718756.303 7
        38.900          45.400
  22741521.473    22741521.130    22741520.462   -11155290.614 4  -8692425.329 4
        27.400          25.900
  23289993.376    23289993.260    23289991.820   -11057025.284 3  -8615856.088 3
        23.400          22.100
 09  1 28  1 15  0.0000000  0 10G22G 5G11G19G32G12G31G14G 9G18
  21007241.143    21007240.864    21007237.684   -21790922.754 6 -16979930.542 6
        41.300          41.600
  24274102.163    24274101.621    24274101.689    -4634039.494 3  -3610938.414 2
        19.300          17.000
  22921233.225    22921232.789    22921230.963   -10194259.541 4  -7943576.322 4
        29.000          25.300
  24807457.248    24807455.291    24807454.612     -838602.530 1   -653454.245 3
        11.000          21.100
  24119135.079    24119133.547    24119133.975    -5511402.385 3  -4294595.499 3
        21.100          19.900
  24449413.794    24449413.856    24449412.226    -3284691.115 3  -2559498.770 3
        18.600          21.600
  23843771.903    23843772.193    23843771.295    -6437579.228 3  -5016292.111 4
        23.000          24.600
  20410325.440    20410324.905    20410323.962   -24038321.772 6 -18731151.450 7
        38.700          45.400
  22758925.515    22758924.843    22758924.739   -11063832.195 4  -8621159.033 4
        26.500          26.500
  23308095.836    23308094.922    23308093.970   -10961898.035 3  -8541730.986 3
        22.100          21.100
 09  1 28  1 15 30.0000000  0 10G22G 5G11G19G32G12G31G14G 9G18
  21017919.602    21017919.334    21017916.194   -21734806.755 6 -16936203.788 6
        41.200          41.400
  24258958.698    24258958.039    24258957.897    -4713619.558 3  -3672948.817 2
        18.600          17.000
  22912733.606    22912733.439    22912731.325   -10238924.361 4  -7978380.071 4
        29.700          25.900
  24824025.367    24824023.087    24824022.396     -751537.282 1   -585611.188 3
         9.000          19.300
  24101414.257    24101413.495    24101413.221    -5604524.258 3  -4367157.967 3
        21.100          19.300
  24436671.387    24436671.034    24436669.472    -3351655.314 2  -2611678.628 3
        17.800          22.100
  23822450.238    23822450.363    23822449.303    -6549626.595 3  -5103601.684 4
        23.800          25.300
  20407383.109    20407382.640    20407380.435   -24053784.123 6 -18743200.034 7
        38.700          45.400
  22776416.142    22776415.727    22776415.336   -10971916.976 4  -8549536.785 4
        26.200          26.800
  23326235.042    23326234.244    23326233.476   -10866574.456 3  -8467452.898 3
        22.600          21.600
 09  1 28  1 16  0.0000000  0 10G22G 5G11G19G32G12G31G14G 9G18
  21028669.654    21028669.368    21028666.252   -21678314.589 6 -16892183.921 6
        41.100          41.300
  24243882.704    24243881.650    24243880.852    -4792848.224 3  -3734685.440 2
        19.300          17.000
  22904334.929    22904334.940    22904333.345   -10283058.316 4  -8012770.158 4
        29.500          26.500
  24840629.556    24840629.354    24840629.547     -664274.398 1   -517614.161 2
        11.000          17.800
  24083710.202    24083709.652    24083709.927    -5697557.736 3  -4439651.579 3
        21.100          19.300
  24424001.431    24424001.793    24424000.981    -3418232.231 3  -2663556.719 3
        18.600          23.000
  23801157.710    23801157.620    23801156.726    -6661520.489 4  -5190791.675 4
        24.200          25.300
  20404527.051    20404526.481    20404525.531   -24068793.167 6 -18754895.387 7
        38.600          45.500
  22793994.628    22793994.321    22793994.129   -10879539.522 4  -8477554.353 4
        26.200          26.500
  23344413.664    23344412.938    23344411.293   -10771047.478 3  -8393016.319 3
        22.600          21.100
 09  1 28  1 16 30.0000000  0 10G22G 5G11G19G32G12G31G14G 9G18
  21039490.950    21039490.658    21039487.441   -21621448.917 6 -16847873.005 6
        41.100          41.200
  24228872.557    24228871.381    24228871.855    -4871724.343 3  -3796147.339 2
        18.600          17.800
  22896038.237    22896037.939    22896035.862   -10326661.603 4  -8046746.731 4
        29.700          27.100
  24857272.678    24857270.817    24857269.815     -576819.098 1   -449467.227 3
        11.000          18.600
  24066023.563    24066022.647    24066023.446    -5790503.464 3  -4512076.788 3
        20.500          19.900
  24411407.289    24411407.158    24411405.211    -3484420.739 3  -2715132.137 3
        19.300          22.600
  23779893.697    23779893.890    23779893.376    -6773260.243 3  -5277861.560 4
        23.800          25.300
  20401756.525    20401755.997    20401753.861   -24083351.487 6 -18766239.529 7
        38.500          45.200
  22811661.000    22811660.459    22811659.809   -10786704.986 4  -8405215.754 4
        26.500          26.200
  23362629.986    23362629.397    23362627.689   -10675320.045 3  -8318423.538 3
        22.600          21.600
 09  1 28  1 17  0.0000000  0 10G22G 5G11G19G32G12G31G14G 9G18
  21050382.490    21050382.150    21050379.043   -21564213.676 6 -16803274.117 6
        41.200          41.300
  24213929.077    24213928.479    24213929.575    -4950248.098 2  -3857334.626 3
        13.900          19.300
  22887840.936    22887840.756    22887839.477   -10369735.877 4  -8080311.099 4
        29.000          27.600
  24873949.913    24873949.083    24873948.112     -489177.804 2   -381175.303 2
        17.000          17.000
  24048353.246    24048352.457    24048352.879    -5883363.770 3  -4584435.438 3
        19.900          19.900
  24398885.973    24398885.425    24398883.394    -3550221.741 3  -2766405.618 3
        21.100          23.000
  23758659.596    23758659.510    23758659.028    -6884846.489 3  -5364811.815 4
        23.400          25.600
  20399071.273    20399070.820    20399069.839   -24097462.409 6 -18777235.050 7
        38.600          45.100
  22829412.520    22829412.069    22829411.654   -10693420.044 4  -8332526.190 4
        26.800          26.200
  23380883.605    23380882.860    23380881.599   -10579396.759 3  -8243678.140 3
        22.600          21.100
 09  1 28  1 17 30.0000000  0 10G22G 5G11G19G32G12G31G14G 9G18
  21061348.820    21061348.562    21061345.546   -21506584.668 6 -16758368.396 6
        41.000          41.300
  24199059.342    24199058.750    24199058.630    -5028391.240 2  -3918225.345 3
        16.100          18.600
  22879750.089    22879749.708    22879748.131   -10412255.165 4  -8113442.987 4
        29.200          27.100
  24890668.250    24890666.693    24890664.660     -401328.268 3   -312721.100 2
        20.500          13.900
  24030702.967    24030702.803    24030703.328    -5976112.263 3  -4656706.953 3
        19.300          19.900
  24386442.554    24386442.714    24386440.984    -3615607.330 3  -2817355.409 3
        20.500          22.100
  23737460.415    23737460.256    23737458.976    -6996251.755 4  -5451621.047 4
        24.200          25.600
  20396475.880    20396475.412    20396473.092   -24111101.000 6 -18787862.523 7
        38.500          44.900
  22847253.839    22847253.380    22847252.700   -10599662.611 4  -8259468.441 4
        25.900          25.600
  23399178.718    23399178.123    23399176.811   -10483253.818 3  -8168761.585 3
        23.000          20.500
 09  1 28  1 18  0.0000000  0 10G22G 5G11G19G32G12G31G14G 9G18
  21072383.606    21072383.293    21072380.291   -21448596.426 6 -16713182.758 6
        40.700          41.100
  24184256.307    24184255.514    24184254.602    -5106184.264 2  -3978843.265 2
        17.800          17.000
  22871758.435    22871758.179    22871756.211   -10454251.384 4  -8146167.314 4
        29.900          26.500
  24907418.129    24907416.485    24907414.432     -313306.787 3   -244132.902 1
        21.100          11.000
  24013068.424    24013067.677    24013068.956    -6068781.359 3  -4728916.594 3
        19.300          19.900
  24374073.493    24374073.133    24374071.132    -3680608.494 3  -2868005.631 3
        18.600          21.100
  23716289.736    23716289.411    23716287.995    -7107506.927 4  -5538313.345 4
        25.300          25.600
  20393964.069    20393963.637    20393962.634   -24124300.602 6 -18798147.918 7
        38.400          44.800
  22865178.367    22865177.971    22865177.462   -10505469.235 4  -8186071.016 4
        25.600          25.300
  23417509.614    23417509.038    23417507.067   -10386925.597 3  -8093700.636 3
        23.000          19.900
 09  1 28  1 18 30.0000000  0 10G22G 5G11G19G32G12G31G14G 9G18
  21083486.983    21083486.750    21083483.725   -21390247.745 6 -16667716.255 6
        41.000          41.100
  24169520.184    24169519.036    24169518.447    -5183622.525 2  -4039184.757 2
        17.800          17.800
  22863867.086    22863866.729    22863864.649   -10495721.708 4  -8178481.851 4
        29.700          26.500
  24924199.981    24924198.399    24924197.363     -225114.966 3   -175412.049 1
        22.100          11.000
  23995449.390    23995448.731    23995450.385    -6161368.394 3  -4801062.286 3
        18.600          19.900
  24361778.629    24361778.655    24361775.982    -3745220.905 3  -2918352.971 3
        21.600          21.100
  23695147.314    23695147.326    23695145.862    -7218608.293 4  -5624885.783 4
        25.300          25.600
  20391535.997    20391535.522    20391533.222   -24137060.403 6 -18808090.621 7
        38.400          44.900
  22883185.268    22883185.049    22883184.019   -10410841.806 4  -8112335.351 4
        24.900          24.600
  23435875.394    23435874.804    23435873.194   -10290412.373 3  -8018495.540 3
        22.100          19.900
 09  1 28  1 19  0.0000000  0 10G22G 5G11G19G32G12G31G14G 9G18
  21094660.690    21094660.372    21094657.180   -21331530.240 6 -16621962.354 6
        40.900          40.900
  24154853.411    24154852.716    24154853.419    -5260693.666 2  -4099240.165 3
        17.800          19.900
  22856077.400    22856077.174    22856075.239   -10536655.169 4  -8210378.034 4
        29.200          26.800
  24941016.534    24941014.737    24941013.318     -136746.417 3   -106553.492 1
        22.100           9.000
  23977849.056    23977848.380    23977848.324    -6253862.890 3  -4873135.887 3
        19.900          19.900
  24349559.090    24349559.160    24349556.985    -3809432.836 3  -2968388.228 3
        21.100          22.100
  23674037.424    23674037.227    23674035.887    -7329543.377 4  -5711328.660 4
        26.200          26.200
  20389193.371    20389192.849    20389191.935   -24149371.093 6 -18817683.361 7
        38.400          44.800
  22901275.735    22901275.534    22901274.600   -10315774.377 4  -8038256.837 4
        25.300          24.200
  23454277.713    23454277.528    23454276.282   -10193705.838 3  -7943139.824 3
        21.100          21.100
 09  1 28  1 19 30.0000000  0 10G22G 5G11G19G32G12G31G14G 9G18
  21105904.491    21105904.172    21105900.954   -21272443.585 6 -16575920.809 6
        40.900          40.700
  24140258.019    24140257.760    24140258.011    -5337393.510 3  -4159006.227 3
        18.600          19.900
  22848390.741    22848390.458    22848388.390   -10577049.873 4  -8241854.416 4
        29.700          26.500
  24957866.452    24957864.747    24957862.080      -48203.022 3    -37558.645 1
        22.100          11.000
  23960266.587    23960265.363    23960265.720    -6346262.348 3  -4945135.443 3
        19.900          20.500
  24337416.130    24337416.155    24337414.942    -3873240.166 3  -3018108.195 3
        19.300          21.100
  23652959.254    23652959.119    23652957.817    -7440308.739 4  -5797639.281 4
        25.900          26.200
  20386936.548    20386936.001    20386933.672   -24161231.628 6 -18826925.333 7
        38.500          45.200
  22919449.987    22919449.918    22919449.141   -10220269.140 4  -7963837.164 4
        26.500          24.900
  23472717.652    23472717.049    23472715.789   -10096805.688 3  -7867633.262 3
        20.500          21.100
 09  1 28  1 20  0.0000000  0 10G22G 5G11G19G32G12G31G14G 9G18
  21117219.338    21117219.081    21117215.853   -21212983.588 6 -16529588.346 6
        41.000          40.700
  24125734.829    24125734.248    24125732.889    -5413713.902 2  -4218476.647 2
        17.800          17.000
  22840807.574    22840807.223    22840805.116   -10616899.268 4  -8272905.889 4
        29.500          26.200
  24974747.850    24974746.497    24974745.514       40517.179 3     31574.006 2
        19.300          12.600
  23942701.738    23942701.032    23942701.601    -6438560.707 3  -5017056.202 3
        20.500          21.100
  24325353.118    24325353.260    24325349.910    -3936635.236 3  -3067506.938 3
        19.900          19.900
  23631914.496    23631914.613    23631913.610    -7550897.169 4  -5883812.043 4
        25.300          26.200
  20384766.033    20384765.531    20384764.447   -24172637.414 6 -18835812.953 7
        38.400          45.100
  22937707.688    22937707.448    22937707.078   -10124324.219 4  -7889074.874 4
        26.200          25.300
  23491194.981    23491194.150    23491192.827    -9999708.286 3  -7791972.987 3
        21.100          20.500
 09  1 28  1 20 30.0000000  0 10G22G 5G11G19G32G12G31G14G 9G18
  21128603.854    21128603.633    21128600.458   -21153156.736 6 -16482970.021 6
        40.700          40.600
  24111283.136    24111282.553    24111282.110    -5489657.641 2  -4277653.585 2
        17.800          17.000
  22833327.131    22833326.931    22833325.014   -10656207.968 4  -8303536.045 4
        29.200          26.500
  24991662.991    24991661.172    24991661.114      129405.348 2    100837.548 2
        17.000          15.100
  23925155.869    23925155.547    23925155.875    -6530762.671 3  -5088901.864 3
        20.500          21.600
  24313367.596    24313367.451    24313365.970    -3999621.587 3  -3116587.161 3
        22.100          23.000
  23610903.474    23610903.618    23610902.744    -7661311.753 4  -5969849.337 4
        25.900          27.400
  20382681.018    20382680.490    20382678.034   -24183594.527 6 -18844350.961 7
        38.500          45.200
  22956047.548    22956047.066    22956046.760   -10027948.024 4  -7813976.539 4
        25.300          24.900
  23509707.842    23509707.498    23509705.719    -9902420.985 3  -7716164.720 3
        22.100          19.900
 09  1 28  1 21  0.0000000  0 10G22G 5G11G19G32G12G31G14G 9G18
  21140057.333    21140057.075    21140053.885   -21092968.598 6 -16436070.178 6
        40.700          40.400
  24096903.184    24096902.149    24096902.153    -5565226.523 2  -4336538.414 2
        16.100          17.800
  22825948.957    22825948.631    22825947.090   -10694979.492 4  -8333747.605 4
        28.600          26.500
  25008608.563    25008606.977    25008606.611      218453.898 2    170226.008 2
        17.800          17.000
  23907628.233    23907627.832    23907628.556    -6622871.765 3  -5160675.164 3
        21.100          22.100
  24301458.154    24301458.034    24301457.042    -4062201.084 3  -3165350.380 3
        19.900          22.600
  23589924.520    23589924.804    23589924.060    -7771554.359 4  -6055752.615 4
        25.300          27.600
  20380680.263    20380679.803    20380678.726   -24194107.955 6 -18852543.236 7
        38.600          45.000
  22974468.293    22974467.643    22974467.178    -9931149.156 4  -7738548.856 4
        25.300          25.300
  23528255.549    23528255.356    23528254.112    -9804949.716 3  -7640213.084 3
        21.600          19.900
 09  1 28  1 21 30.0000000  0 10G22G 5G11G19G32G12G31G14G 9G18
  21151581.176    21151580.909    21151577.827   -21032410.350 6 -16388881.937 6
        40.700          40.400
  24082596.227    24082595.121    24082595.713    -5640407.863 2  -4395121.237 3
        16.100          18.600
  22818674.982    22818674.811    22818673.317   -10733203.100 4  -8363532.219 4
        28.400          26.200
  25025585.912    25025583.796    25025582.779      307669.411 2    239744.585 3
        16.100          18.600
  23890120.513    23890119.783    23890120.229    -6714877.149 3  -5232367.635 3
        21.100          22.600
  24289630.077    24289629.393    24289627.821    -4124361.432 3  -3213786.987 3
        19.900          22.100
  23568981.470    23568981.450    23568980.214    -7881613.268 4  -6141512.758 4
        25.600          26.800
  20378765.749    20378765.285    20378762.990   -24204168.128 6 -18860382.329 7
        38.400          44.800
  22992969.692    22992969.251    22992968.818    -9833920.967 4  -7662786.628 4
        24.600          24.600
  23546839.953    23546839.767    23546839.193    -9707285.762 3  -7564111.323 3
        18.600          19.900
 09  1 28  1 22  0.0000000  0 10G22G 5G11G19G32G12G31G14G 9G18
  21163176.143    21163175.905    21163172.792   -20971478.735 6 -16341402.757 6
        40.700          40.300
  24068364.685    24068364.216    24068364.426    -5715194.524 2  -4453396.530 3
        16.100          18.600
  22811506.977    22811506.748    22811504.888   -10770873.118 4  -8392885.479 4
        29.500          26.800
  25042595.302    25042593.982    25042591.683      397052.972 2    309394.074 3
        15.100          18.600
  23872633.937    23872633.098    23872633.008    -6806773.553 3  -5303975.186 3
        21.600          23.000
  24277882.209    24277882.354    24277879.932    -4186096.080 3  -3261891.908 3
        20.500          22.100
  23548073.982    23548073.931    23548073.083    -7991481.598 4  -6227124.397 4
        25.600          27.400
  20376938.440    20376937.970    20376936.945   -24213771.315 6 -18867865.328 7
        38.400          45.000
  23011552.960    23011552.767    23011552.029    -9736262.621 4  -7586689.221 3
        24.200          23.800
  23565462.554    23565461.859    23565460.485    -9609426.501 3  -7487857.388 3
        19.300          18.600
 09  1 28  1 22 30.0000000  0 11G22G 5G11G19G32G12G31G30G14G 9G18
  21174840.135    21174839.847    21174836.670   -20910184.154 6 -16293640.748 6
        40.700          40.200
  24054207.714    24054206.822    24054206.469    -5789593.001 2  -4511369.312 3
        17.800          19.300
  22804442.877    22804442.404    22804440.440   -10807997.876 4  -8421813.859 4
        29.900          26.800
  25059632.511    25059630.965    25059630.753      486592.036 2    379164.805 3
        13.900          18.600
  23855165.601    23855164.758    23855164.845    -6898569.234 3  -5375504.253 3
        21.600          23.000
  24266214.630    24266214.970    24266211.881    -4247412.038 3  -3309670.573 3
        20.500          22.100
  23527201.660    23527201.848    23527200.760    -8101166.450 4  -6312593.074 4
        26.200          27.100
  24931743.999    24931744.610    24931744.701          -1.08711         -.40311
         9.000           9.000
  20375196.092    20375195.610    20375193.160   -24222927.622 6 -18875000.111 7
        38.400          45.100
  23030215.319    23030215.918    23030215.313    -9638186.893 3  -7510266.568 3
        23.000          23.800
  23584120.486    23584119.798    23584117.549    -9511382.567 3  -7411459.535 2
        19.900          17.800
 09  1 28  1 23  0.0000000  0 11G22G 5G11G19G32G12G31G30G14G 9G18
  21186571.670    21186571.392    21186568.265   -20848534.578 6 -16245602.116 6
        40.700          40.100
  24040123.390    24040122.539    24040121.992    -5863607.436 2  -4569042.882 3
        16.100          18.600
  22797480.655    22797480.131    22797478.571   -10844583.750 4  -8450322.317 4
        29.700          27.400
  25076700.970    25076698.866    25076696.425      576276.745 2    449048.951 3
        16.100          19.300
  23837714.532    23837714.217    23837714.834    -6990270.251 3  -5446959.546 3
        22.100          23.400
  24254623.818    24254624.340    24254623.158    -4308313.964 3  -3357126.592 3
        18.600          23.400
  23506362.866    23506363.166    23506362.702    -8210672.304 4  -6397922.262 4
        25.900          27.400
  24912469.185    24912468.595    24912466.243     -101301.064 1    -78935.480
         6.500           3.000
  20373537.387    20373536.819    20373535.784   -24231644.063 6 -18881792.138 7
        38.400          44.800
  23048957.094    23048956.691    23048955.966    -9539704.297 3  -7433526.891 3
        23.000          23.800
  23602811.203    23602810.314    23602808.517    -9413162.505 3  -7334924.420 3
        19.300          18.600
 09  1 28  1 23 30.0000000  0 11G22G 5G11G19G32G12G31G30G14G 9G18
  21198372.671    21198372.344    21198369.195   -20786520.219 6 -16197279.241 6
        40.600          40.000
  24026113.111    24026112.787    24026113.080    -5937224.395 2  -4626406.748 2
        16.100          17.800
  22790623.340    22790623.016    22790621.098   -10880619.134 4  -8478401.829 4
        29.900          27.100
  25093796.287    25093794.714    25093793.655      666114.456 2    519052.302 3
        13.900          21.100
  23820285.298    23820284.744    23820284.510    -7081864.811 3  -5518331.881 3
        23.400          23.000
  24243117.037    24243116.781    24243115.590    -4368788.773 3  -3404249.756 3
        19.900          23.000
  23485561.868    23485561.854    23485560.931    -8319986.372 4  -6483102.012 4
        27.400          27.600
  24893214.386    24893214.799    24893215.145     -202478.989     -157775.487 1
         3.000           6.500
  20371964.239    20371963.793    20371961.413   -24239910.936 6 -18888233.857 7
        38.400          44.900
  23067777.114    23067776.364    23067775.301    -9440807.373 4  -7356464.351 3
        24.200          23.800
  23621536.398    23621535.921    23621534.667    -9314757.043 3  -7258244.870 3
        18.600          19.900
 09  1 28  1 24  0.0000000  0 11G22G 5G11G19G32G12G31G30G14G 9G18
  21210243.809    21210243.447    21210240.401   -20724136.831 6 -16148668.810 6
        40.400          40.000
  24012182.831    24012181.729    24012181.610    -6010435.505 2  -4683454.323 3
        17.000          19.300
  22783871.422    22783871.212    22783869.770   -10916097.370 4  -8506047.206 4
        29.900          26.800
  25110921.242    25110919.182    25110919.147      756107.361 1    589176.648 3
        11.000          19.900
  23802876.661    23802875.992    23802875.887    -7173346.353 4  -5589616.173 3
        24.200          22.600
  24231692.213    24231692.153    24231688.812    -4428828.192 3  -3451033.720 3
        21.600          21.100
  23464798.059    23464798.115    23464797.182    -8429100.789 4  -6568126.197 4
        27.400          27.900
  24873983.439    24873984.789    24873987.261     -303526.486     -236513.783 1
                         9.000
  20370477.713    20370477.210    20370476.125   -24247722.733 6 -18894320.968 7
        38.400          44.800
  23086675.601    23086675.179    23086674.020    -9341494.128 4  -7279077.407 3
        24.900          23.800
  23640298.046    23640297.561    23640296.637    -9216162.300 2  -7181417.836 3
        17.800          19.900
 09  1 28  1 24 30.0000000  0 11G22G 5G11G19G32G12G31G30G14G 9G18
  21222183.155    21222182.828    21222179.760   -20661395.235 6 -16099779.263 6
        40.400          40.000
  23998325.625    23998325.112    23998326.131    -6083247.921 2  -4740191.247 3
        16.100          20.500
  22777224.792    22777224.582    22777222.639   -10951027.374 5  -8533265.387 4
        30.200          26.800
  25128072.151    25128071.882    25128068.945      846242.382 2    659411.704 2
        12.600          16.100
  23785488.070    23785487.455    23785487.503    -7264723.833 4  -5660819.372 3
        24.200          23.000
  24220348.593    24220348.514    24220345.650    -4488440.148 3  -3497484.587 3
        21.100          21.100
  23444070.903    23444070.661    23444069.711    -8538022.945 4  -6653000.548 4
        27.400          27.600
  24854780.509    24854780.830    24854780.151     -404450.639     -315155.891 1
                         9.000
  20369075.825    20369075.338    20369072.955   -24255089.956 6 -18900061.661 7
        38.400          45.100
  23105650.868    23105650.704    23105649.535    -9241777.896 4  -7201376.446 3
        24.600          23.400
  23659094.924    23659094.107    23659092.814    -9117389.229 3  -7104451.853 3
        19.300          19.900
 09  1 28  1 25  0.0000000  0 11G22G 5G11G19G32G12G31G30G14G 9G18
  21234189.108    21234188.760    21234185.645   -20598303.236 6 -16050616.663 6
        40.200          39.700
  23984545.681    23984544.911    23984545.238    -6155665.885 2  -4796620.793 3
        17.800          21.100
  22770680.978    22770680.716    22770678.775   -10985415.222 5  -8560061.120 4
        30.800          26.800
  25145252.085    25145250.224    25145246.229      936509.596 2    729749.791 2
        12.600          13.900
  23768117.693    23768117.408    23768117.812    -7356003.179 3  -5731946.116 3
        23.000          23.400
  24209084.849    24209084.703    24209083.531    -4547629.084 3  -3543605.823 3
        19.900          22.600
  23423379.079    23423379.103    23423378.026    -8646757.538 4  -6737728.765 4
        27.400          27.400
  24835599.828    24835599.114    24835599.027     -505255.054 2   -393704.807 1
        12.600           9.000
  20367756.999    20367756.501    20367755.433   -24262020.286 6 -18905461.911 7
        38.400          45.000
  23124701.149    23124700.564    23124699.190    -9141669.309 4  -7123369.770 3
        24.200          23.400
  23677923.077    23677922.533    23677921.047    -9018446.449 3  -7027353.612 3
        20.500          19.900
 09  1 28  1 25 30.0000000  0 11G22G 5G11G19G32G12G31G30G14G 9G18
  21246263.310    21246262.994    21246259.993   -20534852.771 6 -16001174.748 6
        40.200          39.700
  23970842.854    23970841.913    23970841.934    -6227677.398 2  -4852733.647 3
        17.800          21.100
  22764242.373    22764242.145    22764239.989   -11019250.904 5  -8586426.565 4
        31.100          26.800
  25162453.636    25162451.958    25162450.918     1026914.940 1    800195.484 2
        11.000          12.600
  23750768.825    23750768.232    23750768.655    -7447174.171 3  -5802988.408 3
        23.400          23.400
  24197904.134    24197903.789    24197902.488    -4606383.658 3  -3589388.559 3
        18.600          22.600
  23402725.222    23402725.307    23402724.298    -8755293.184 4  -6822301.953 4
        27.100          27.600
  24816441.101    24816440.918    24816441.547     -605927.455 2   -472150.814 2
        12.600          12.600
  20366522.942    20366522.422    20366520.019   -24268505.011 6 -18910514.943 7
        38.400          44.900
  23143825.962    23143825.701    23143825.402    -9041162.214 3  -7045052.563 3
        23.000          23.000
  23696785.091    23696784.213    23696783.381    -8919326.177 3  -6950117.043 3
        19.900          19.900
 09  1 28  1 26  0.0000000  0 11G22G 5G11G19G32G12G31G30G14G 9G18
  21258407.440    21258407.106    21258403.951   -20471035.280 6 -15951446.837 6
        40.200          39.500
  23957218.873    23957218.058    23957217.886    -6299269.793 2  -4908519.894 3
        17.800          21.600
  22757911.104    22757910.764    22757908.435   -11052523.335 5  -8612353.133 4
        31.800          26.800
  25179680.896    25179680.350    25179683.468     1117464.971      870753.938 1
         3.000          11.000
  23733442.591    23733441.833    23733441.920    -7538225.800 3  -5873937.698 3
        23.800          23.800
  24186809.056    24186808.558    24186805.962    -4664691.709 3  -3634823.398 3
        18.600          22.100
  23382111.899    23382111.808    23382111.034    -8863617.586 4  -6906710.528 4
        27.400          28.400
  24797311.724    24797311.267    24797310.143     -706454.691 2   -550483.717 2
        13.900          12.600
  20365375.462    20365375.031    20365373.896   -24274534.916 6 -18915213.567 7
        38.500          44.800
  23163029.360    23163029.248    23163028.827    -8940250.340 4  -6966419.923 3
        24.200          23.800
  23715682.070    23715681.209    23715680.549    -8820020.104 3  -6872735.730 3
        19.300          18.600
 09  1 28  1 26 30.0000000  0 11G22G 5G11G19G32G12G31G30G14G 9G18
  21270619.896    21270619.508    21270616.515   -20406858.073 6 -15901438.625 6
        40.000          39.500
  23943674.622    23943674.119    23943673.589    -6370446.591 3  -4963982.294 3
        19.300          21.100
  22751685.744    22751685.451    22751682.991   -11085238.243 5  -8637845.265 4
        32.000          26.800
  25196941.651    25196939.794    25196938.580     1208150.430      941417.934 2
         3.000          12.600
  23716137.373    23716136.681    23716136.841    -7629163.382 3  -5944798.133 3
        23.400          23.000
  24175797.760    24175797.726    24175795.545    -4722557.201 3  -3679913.387 3
        21.100          23.400
  23361537.568    23361537.721    23361536.950    -8971734.677 4  -6990957.565 4
        27.900          28.800
  24778209.331    24778209.241    24778207.494     -806840.203 2   -628706.208 2
        13.900          13.900
  20364313.381    20364312.863    20364310.351   -24280116.579 6 -18919562.913 7
        38.500          44.900
  23182308.041    23182307.323    23182307.072    -8838943.184 3  -6887479.271 3
        23.400          23.400
  23734613.441    23734613.130    23734610.981    -8720536.034 3  -6795215.694 2
        19.300          17.000
 09  1 28  1 27  0.0000000  0 11G22G 5G11G19G32G12G31G30G14G 9G18
  21282900.365    21282900.040    21282896.820   -20342324.554 6 -15851152.770 6
        40.100          39.400
  23930208.999    23930208.098    23930208.406    -6441207.439 3  -5019120.612 3
        18.600          20.500
  22745566.032    22745565.773    22745563.483   -11117397.308 5  -8662904.271 4
        32.000          26.800
  25214224.525    25214223.038    25214218.979     1298965.737 2   1012183.103 1
        12.600          11.000
  23698853.650    23698852.999    23698853.555    -7719988.117 3  -6015570.633 3
        23.000          23.400
  24164869.577    24164869.252    24164867.875    -4779980.266 3  -3724658.624 3
        20.500          23.000
  23341003.325    23341003.385    23341002.322    -9079644.302 4  -7075042.940 4
        27.900          29.000
  24759133.251    24759133.416    24759132.767     -907083.558 1   -706817.850 2
        11.000          17.000
  20363335.887    20363335.468    20363334.373   -24285252.957 6 -18923565.279 7
        38.400          44.800
  23201659.909    23201659.663    23201659.276    -8737246.792 4  -6808235.331 3
        24.600          23.400
  23753578.184    23753577.699    23753574.684    -8620877.483 3  -6717559.681 2
        19.300          16.100
 09  1 28  1 27 30.0000000  0 11G22G 5G11G19G32G12G31G30G14G 9G18
  21295247.807    21295247.452    21295244.221   -20277438.225 6 -15800591.992 6
        40.000          39.300
  23916822.955    23916822.114    23916822.386    -6511552.166 3  -5073934.677 3
        19.900          20.500
  22739551.662    22739551.379    22739549.207   -11149002.153 5  -8687531.425 4
        31.600          27.100
  25231528.884    25231527.382    25231524.341     1389905.140 2   1083044.966 2
        12.600          12.600
  23681591.839    23681591.067    23681591.457    -7810701.576 3  -6086256.427 3
        22.600          23.800
  24154026.134    24154025.968    24154024.426    -4836961.122 3  -3769059.270 3
        20.500          23.000
  23320508.159    23320508.299    23320506.756    -9187346.903 4  -7158967.006 4
        28.100          28.400
  24740082.491    24740083.661    24740084.893    -1007184.012 1   -784818.191 3
         9.000          18.600
  20362442.692    20362442.186    20362439.618   -24289947.117 6 -18927223.063 7
        38.500          44.900
  23221085.934    23221085.214    23221083.663    -8635167.100 4  -6728692.706 3
        24.600          22.100
  23772574.616    23772574.246    23772571.695    -8521048.637 3  -6639770.982 2
        19.300          16.100
 09  1 28  1 28  0.0000000  0 11G22G 5G11G19G32G12G31G30G14G 9G18
  21307662.207    21307661.896    21307658.719   -20212199.659 6 -15749756.756 6
        40.000          39.300
  23903517.786    23903516.920    23903515.297    -6581477.365 3  -5128421.811 3
        22.100          21.100
  22733642.976    22733642.718    22733640.792   -11180051.307 5  -8711725.565 4
        31.300          26.800
  25248857.563    25248855.555    25248855.248     1480966.491 2   1154001.909 2
        13.900          13.900
  23664350.626    23664350.158    23664350.874    -7901301.899 3  -6156854.056 4
        22.100          24.200
  24143268.182    24143268.146    24143266.420    -4893497.141 3  -3813113.275 3
        21.100          23.000
  23300053.006    23300053.044    23300051.476    -9294839.398 4  -7242727.349 4
        28.400          28.400
  24721064.906    24721064.776    24721063.956    -1107138.109 1   -862704.443 3
        11.000          18.600
  20361633.639    20361633.103    20361632.008   -24294198.946 6 -18930536.171 7
        38.400          45.000
  23240583.614    23240582.742    23240581.237    -8532706.813 4  -6648853.534 3
        24.600          22.100
  23791603.959    23791603.538    23791601.231    -8421050.009 3  -6561849.999 2
        18.600          17.000
 09  1 28  1 28 30.0000000  0 11G22G 5G11G19G32G12G31G30G14G 9G18
  21320143.334    21320143.034    21320139.955   -20146610.674 6 -15698648.458 6
        39.900          39.300
  23890289.847    23890289.346    23890290.205    -6650981.203 3  -5182580.614 3
        20.500          21.600
  22727840.264    22727840.111    22727837.976   -11210544.824 5  -8735486.741 4
        31.300          27.100
  25266208.256    25266206.932    25266204.921     1572145.418 2   1225050.401 2
        15.100          15.100
  23647131.637    23647131.157    23647131.834    -7991789.049 3  -6227363.501 3
        23.000          23.800
  24132595.270    24132594.948    24132591.916    -4949586.299 3  -3856819.108 3
        21.600          22.600
  23279637.762    23279637.826    23279636.402    -9402120.375 4  -7326322.873 4
        27.400          28.100
  24702072.215    24702071.886    24702070.766    -1206943.381 1   -940474.746 2
         9.000          17.800
  20360908.292    20360907.795    20360905.351   -24298010.146 6 -18933505.936 7
        38.400          45.000
  23260151.574    23260151.301    23260150.320    -8429870.603 3  -6568721.412 3
        23.400          21.600
  23810664.349    23810663.875    23810662.968    -8320884.113 2  -6483798.675 2
        16.100          17.800
 09  1 28  1 29  0.0000000  0 11G22G 5G11G19G32G12G31G30G14G 9G18
  21332692.416    21332692.037    21332688.861   -20080665.870 6 -15647262.900 6
        40.000          39.100
  23877146.851    23877146.189    23877145.895    -6720054.518 3  -5236403.937 3
        20.500          20.500
  22722144.665    22722144.458    22722142.490   -11240475.500 5  -8758809.348 4
        31.100          27.100
  25283581.180    25283580.706    25283578.020     1663445.332 2   1296193.194 2
        12.600          13.900
  23629936.255    23629935.477    23629935.184    -8082155.378 4  -6297778.796 3
        24.600          23.400
  24122006.962    24122007.245    24122006.116    -5005220.079 3  -3900170.120 3
        20.500          23.000
  23259264.461    23259264.776    23259263.687    -9509180.981 4  -7409746.673 4
        27.400          29.000
  24683108.307    24683107.774    24683108.008    -1306590.111    -1018121.559 2
         3.000          15.100
  20360268.090    20360267.564    20360266.440   -24301374.572 6 -18936127.563 7
        38.600          45.000
  23279792.791    23279792.407    23279791.511    -8326654.990 3  -6488293.659 3
        23.000          21.100
  23829758.541    23829757.768    23829756.387    -8220545.977 2  -6405613.167 2
        17.000          17.800
 09  1 28  1 29 30.0000000  0 11G22G 5G11G19G32G12G31G30G14G 9G18
  21345309.767    21345309.434    21345306.133   -20014361.194 6 -15595596.918 6
        40.000          39.000
  23864085.842    23864084.566    23864084.023    -6788689.269 3  -5289885.562 3
        19.900          19.300
  22716557.539    22716557.356    22716555.224   -11269837.126 5  -8781688.523 4
        31.500          27.400
  25300979.187    25300978.041    25300976.870     1754868.853     1367432.237 2
         3.000          13.900
  23612764.124    23612763.625    23612763.127    -8172394.445 4  -6368094.943 3
        25.900          23.800
  24111509.351    24111509.381    24111507.524    -5060391.223 3  -3943160.580 3
        21.600          23.000
  23238935.101    23238935.137    23238934.086    -9616013.729 4  -7492992.920 4
        28.400          29.000
  24664178.314    24664178.001    24664178.815    -1406070.148    -1095638.442 2
         3.000          15.100
  20359713.716    20359713.222    20359710.804   -24304287.460 6 -18938397.345 7
        38.500          44.900
  23299506.943    23299506.493    23299505.538    -8223058.391 3  -6407569.026 3
        23.000          21.600
  23848886.032    23848885.811    23848883.562    -8120031.832 3  -6327290.490 2
        18.600          17.800
 09  1 28  1 30  0.0000000  0 12G22G 5G11G19G32G12G31G30G17G14G 9G18
  21357993.962    21357993.661    21357990.567   -19947704.314 6 -15543656.496 6
        39.700          38.900
  23851107.749    23851106.900    23851106.321    -6856889.681 3  -5343028.699 3
        21.100          19.900
  22711077.373    22711077.126    22711074.865   -11298636.191 5  -8804129.352 4
        32.000          27.400
  25318395.524    25318393.828    25318395.780     1846405.162     1438759.282 1
         3.000           9.000
  23595615.102    23595614.685    23595614.280    -8262512.127 4  -6438316.499 4
        26.200          24.200
  24101098.548    24101098.228    24101094.909    -5115104.425 3  -3985794.240 3
        21.600          22.600
  23218647.706    23218648.096    23218646.912    -9722623.087 4  -7576065.106 4
        28.400          29.200
  24645279.132    24645278.963    24645278.707    -1505387.263 1  -1173028.354 2
         6.500          15.100
  25283642.143    25283639.893    25283638.221           -.31011         -.13512
         6.500          17.000
  20359243.922    20359243.452    20359242.274   -24306756.405 6 -18940321.195 7
        38.500          44.900
  23319291.178    23319290.787    23319290.054    -8119090.900 3  -6326555.404 3
        23.000          21.600
  23868044.643    23868044.199    23868042.508    -8019349.989 2  -6248837.116 2
        17.800          17.800
 09  1 28  1 30 30.0000000  0 12G22G 5G11G19G32G12G31G30G17G14G 9G18
  21370743.991    21370743.771    21370740.599   -19880702.778 6 -15491447.515 6
        39.800          38.900
  23838211.096    23838210.426    23838210.709    -6924659.304 3  -5395836.178 3
        21.600          19.900
  22705702.858    22705702.594    22705700.862   -11326878.128 5  -8826136.056 4
        31.800          27.900
  25335838.608    25335835.359    25335833.358     1938045.089     1510167.040
                         3.000
  23578488.773    23578487.824    23578487.479    -8352513.418 4  -6508447.355 4
        25.600          24.200
  24090772.650    24090772.174    24090770.181    -5169363.707 3  -4028074.194 3
        21.100          23.000
  23198402.905    23198402.876    23198401.715    -9829012.974 4  -7658966.278 4
        29.200          29.500
  24626411.356    24626410.953    24626409.628    -1604544.666    -1250293.847 2
         3.000          15.100
  25274907.171    25274906.216    25274905.343      -45897.842 1    -35764.541 2
         6.500          17.000
  20358857.271    20358856.754    20358854.290   -24308788.233 6 -18941904.439 7
        38.600          44.900
  23339144.454    23339143.674    23339143.256    -8014762.273 3  -6245260.374 3
        22.600          21.100
  23887233.943    23887233.619    23887232.502    -7918507.915 2  -6170258.915 2
        17.800          17.000
 09  1 28  1 31  0.0000000  0 12G22G 5G11G19G32G12G31G30G17G14G 9G18
  21383558.740    21383558.438    21383555.251   -19813361.031 6 -15438973.432 6
        39.700          38.800
  23825396.981    23825396.139    23825395.520    -6991998.478 3  -5448308.253 3
        20.500          19.300
  22700434.510    22700434.163    22700432.264   -11354565.102 5  -8847710.324 4
        32.100          28.100
  25353291.436    25353288.721    25353293.785     2029782.964     1581650.891 1
                         6.500
  23561383.330    23561382.545    23561382.695    -8442400.481 4  -6578489.202 4
        25.300          24.600
  24080533.799    24080533.653    24080531.537    -5223169.662 3  -4070000.884 3
        21.600          23.000
  23178199.854    23178199.500    23178197.870    -9935183.917 4  -7741696.845 4
        29.700          29.500
  24607569.269    24607570.042    24607569.843    -1703542.108    -1327434.683 2
                        13.900
  25266261.523    25266263.658    25266259.824      -91306.398      -71147.856 1
                         9.000
  20358553.174    20358552.688    20358551.573   -24310386.481 6 -18943149.822 7
        38.600          45.100
  23359064.065    23359063.955    23359063.941    -7910079.009 3  -6163689.004 3
        21.600          21.100
  23906454.000    23906453.692    23906451.961    -7817510.385 3  -6091559.555 2
        19.300          17.800
 09  1 28  1 31 30.0000000  0 12G22G 5G11G19G32G12G31G30G17G14G 9G18
  21396439.340    21396439.060    21396435.932   -19745672.490 6 -15386229.114 6
        39.400          38.600
  23812666.638    23812665.947    23812665.435    -7058897.384 3  -5500437.256 3
        21.100          19.300
  22695272.459    22695272.323    22695270.471   -11381689.177 5  -8868845.961 4
        31.800          28.400
  25370766.589    25370766.760    25370769.506     2121622.671     1653214.289 1
         3.000          11.000
  23544301.837    23544301.304    23544301.201    -8532164.751 4  -6648435.360 4
        25.300          24.600
  24070382.508    24070382.697    24070380.184    -5276512.980 3  -4111567.101 3
        22.100          22.100
  23158039.040    23158039.110    23158037.745   -10041126.558 4  -7824249.510 4
        29.700          29.900
  24588764.554    24588765.752    24588765.546    -1802369.288    -1404442.819 2
         3.000          15.100
  25257719.396    25257718.898    25257718.190     -136217.454 2   -106143.348 1
        12.600           9.000
  20358332.847    20358332.291    20358329.870   -24311544.696 6 -18944052.327 7
        38.700          45.200
  23379052.998    23379052.647    23379053.017    -7805037.214 3  -6081838.242 3
        20.500          21.600
  23925704.223    23925703.586    23925701.986    -7716351.294 3  -6012734.313 2
        18.600          17.800
 09  1 28  1 32  0.0000000  0 11G22G 5G11G32G12G31G30G17G14G 9G18
  21409385.942    21409385.532    21409382.425   -19677638.576 6 -15333215.676 6
        39.400          38.600
  23800020.314    23800019.803    23800019.126    -7125353.378 3  -5552221.131 3
        22.100          19.300
  22690218.438    22690218.080    22690216.241   -11408250.025 5  -8889542.726 4
        31.600          28.400
  23527243.806    23527242.930    23527242.775    -8621805.242 4  -6718285.075 4
        24.900          24.600
  24060319.682    24060319.545    24060317.298    -5329391.837 3  -4152771.382 3
        21.600          22.100
  23137922.790    23137922.610    23137921.494   -10146838.686 4  -7906622.559 4
        29.700          29.700
  24569993.232    24569992.925    24569993.034    -1901023.429 2  -1481316.119 2
        13.900          17.000
  25249267.776    25249267.194    25249263.565     -180629.284 1   -140749.945 2
        11.000          12.600
  20358196.050    20358195.531    20358194.396   -24312263.389 6 -18944612.346 7
        38.700          45.300
  23399109.931    23399108.994    23399108.873    -7699640.187 3  -5999710.686 3
        19.900          21.100
  23944983.644    23944983.264    23944982.433    -7615032.463 2  -5933784.611 2
        16.100          17.800
 09  1 28  1 32 30.0000000  0 11G22G 5G11G32G12G31G30G17G14G 9G18
  21422398.418    21422398.147    21422395.006   -19609257.171 6 -15279931.470 6
        39.500          38.600
  23787459.768    23787459.176    23787457.832    -7191360.689 3  -5603655.406 3
        21.600          18.600
  22685271.815    22685271.516    22685269.558   -11434243.901 5  -8909797.681 4
        31.600          27.900
  23510210.052    23510209.370    23510209.310    -8711317.773 4  -6788035.075 4
        25.300          24.600
  24050347.961    24050347.219    24050345.398    -5381800.671 3  -4193609.436 3
        22.600          23.800
  23117850.639    23117850.963    23117850.106   -10252314.675 4  -7988811.592 5
        29.200          30.100
  24551254.712    24551254.430    24551252.985    -1999497.499 2  -1558049.163 2
        16.100          12.600
  25240908.898    25240909.047    25240910.200     -224537.517     -174964.122 2
         3.000          15.100
  20358143.335    20358142.851    20358140.457   -24312540.201 6 -18944828.043 7
        38.600          45.200
  23419233.424    23419233.062    23419232.379    -7593888.652 3  -5917306.898 3
        20.500          21.100
  23964294.563    23964293.787    23964293.133    -7513552.203 2  -5854709.120 2
        16.100          17.800
 09  1 28  1 33  0.0000000  0 11G22G 5G11G32G12G31G30G17G14G 9G18
  21435479.064    21435478.780    21435475.615   -19540517.377 6 -15226367.997 6
        39.300          38.400
  23774986.214    23774985.564    23774985.865    -7256904.602 3  -5654728.570 3
        20.500          19.900
  22680436.188    22680435.809    22680433.359   -11459657.885 5  -8929600.785 4
        32.300          27.600
  23493203.722    23493202.751    23493202.797    -8800688.975 4  -6857674.955 4
        26.200          24.900
  24040466.133    24040465.938    24040463.971    -5433725.379 3  -4234070.234 3
        22.600          22.600
  23097826.595    23097827.245    23097826.109   -10357540.140 4  -8070805.423 4
        29.200          29.900
  24532549.879    24532549.804    24532549.341    -2097776.891 1  -1634630.511 1
         9.000           6.500
  25232654.288    25232655.746    25232652.404     -267928.360     -208775.226 2
         3.000          13.900
  20358176.993    20358176.435    20358175.331   -24312363.584 6 -18944690.416 7
        38.600          45.200
  23439426.961    23439426.702    23439425.342    -7487773.768 3  -5834619.965 3
        21.100          20.500
  23983639.452    23983638.520    23983636.884    -7411899.716 2  -5775499.402 2
        16.100          17.000
 09  1 28  1 33 30.0000000  0 11G22G 5G11G32G12G31G30G17G14G 9G18
  21448626.646    21448626.308    21448623.208   -19471427.246 6 -15172531.537 6
        39.300          38.500
  23762602.128    23762601.268    23762600.647    -7321989.884 3  -5705444.351 3
        21.600          20.500
  22675708.888    22675708.614    22675706.408   -11484498.878 5  -8948957.398 4
        32.300          27.900
  23476222.542    23476221.559    23476221.833    -8889925.016 4  -6927209.520 4
        26.800          24.900
  24030675.950    24030676.131    24030674.128    -5485171.049 3  -4274157.757 3
        23.400          22.100
  23077850.168    23077850.129    23077848.784   -10462520.112 4  -8152607.955 5
        29.500          30.100
  24513883.968    24513884.633    24513884.311    -2195865.901 1  -1711063.490 1
         9.000           9.000
  25224495.371    25224494.969    25224493.272     -310808.120     -242187.941 1
         3.000          11.000
  20358295.440    20358294.891    20358292.402   -24311741.294 6 -18944205.511 7
        38.700          45.300
  23459688.034    23459686.893    23459685.463    -7381305.930 3  -5751658.011 3
        19.900          20.500
  24003014.517    24003013.625    24003011.450    -7310083.948 2  -5696162.451 2
        16.100          15.100
 09  1 28  1 34  0.0000000  0 11G22G 5G11G32G12G31G30G17G14G 9G18
  21461838.298    21461838.120    21461834.949   -19401998.560 6 -15118431.269 6
        39.300          38.300
  23750301.836    23750301.377    23750301.049    -7386623.945 3  -5755808.568 3
        21.100          19.900
  22671088.822    22671088.653    22671086.613   -11508776.401 5  -8967874.942 4
        32.100          28.400
  23459265.170    23459264.527    23459265.069    -8979034.940 4  -6996645.808 4
        26.200          25.900
  24020975.751    24020975.661    24020974.336    -5536145.908 3  -4313878.412 3
        23.800          23.000
  23057918.809    23057918.692    23057916.981   -10567262.521 5  -8234225.370 5
        30.100          30.200
  24495255.937    24495255.292    24495255.084    -2293771.434 2  -1787353.548 2
        16.100          12.600
  25216432.763    25216430.987    25216429.841     -353185.401     -275209.207 2
         3.000          12.600
  20358496.523    20358496.073    20358494.901   -24310684.152 6 -18943381.760 7
        38.800          45.200
  23480011.424    23480010.801    23480010.028    -7274499.233 3  -5668432.014 3
        18.600          19.900
  24022417.677    24022417.203    24022415.628    -7208116.386 2  -5616707.217 2
        13.900          15.100
 09  1 28  1 34 30.0000000  0 11G22G 5G11G32G12G31G30G17G14G 9G18
  21475115.284    21475114.933    21475111.719   -19332228.984 6 -15064065.373 6
        39.300          38.300
  23738089.088    23738088.210    23738088.746    -7450800.750 3  -5805816.428 3
        19.900          20.500
  22666576.763    22666576.561    22666574.750   -11532486.415 5  -8986350.275 4
        31.800          28.400
  23442333.161    23442332.391    23442332.847    -9068014.072 4  -7065980.172 4
        26.500          26.500
  24011366.576    24011366.650    24011364.490    -5586644.416 4  -4353227.897 3
        24.600          23.400
  23038033.370    23038033.330    23038031.653   -10671761.222 5  -8315652.900 5
        30.600          30.400
  24476659.809    24476660.085    24476659.820    -2391486.506 2  -1863495.158 2
        16.100          13.900
  25208463.734    25208463.865    25208461.371     -395054.948 1   -307834.951 2
         6.500          13.900
  20358781.150    20358780.538    20358778.193   -24309189.379 6 -18942217.001 7
        38.800          45.600
  23500399.708    23500399.685    23500399.665    -7167353.157 2  -5584941.541 3
        17.800          19.900
  24041850.560    24041849.294    24041848.434    -7105994.890 2  -5537132.050 2
        13.900          13.900
 09  1 28  1 35  0.0000000  0 11G22G 5G11G32G12G31G30G17G14G 9G18
  21488456.254    21488456.066    21488453.029   -19262120.284 6 -15009435.228 6
        39.100          38.400
  23725965.379    23725964.170    23725963.529    -7514518.456 3  -5855466.583 3
        22.100          20.500
  22662173.063    22662172.742    22662170.831   -11555629.324 5  -9004383.715 4
        31.800          28.400
  23425425.570    23425425.120    23425425.187    -9156862.049 4  -7135212.337 4
        26.800          26.500
  24001848.052    24001847.745    24001845.985    -5636664.889 4  -4392204.879 3
        24.600          23.400
  23018194.280    23018194.306    23018192.825   -10776015.012 5  -8396889.578 5
        30.800          30.600
  24458102.696    24458102.948    24458102.740    -2489009.221 2  -1939486.876 2
        17.000          15.100
  25200591.113    25200591.782    25200590.040     -436416.745 1   -340064.830 2
         6.500          13.900
  20359148.489    20359147.969    20359146.801   -24307258.660 6 -18940712.539 7
        38.800          45.400
  23520853.935    23520853.205    23520852.727    -7059872.012 2  -5501190.015 3
        17.000          20.500
  24061312.694    24061311.907    24061310.831    -7003722.096 2  -5457438.976 2
        12.600          13.900
 09  1 28  1 35 30.0000000  0 11G22G 5G11G32G12G31G30G17G14G 9G18
  21501861.772    21501861.417    21501858.264   -19191674.557 6 -14954542.458 6
        38.900          38.100
  23713927.591    23713926.616    23713926.019    -7577775.609 3  -5904757.843 3
        21.100          20.500
  22657876.540    22657876.312    22657874.773   -11578205.290 5  -9021975.362 4
        30.800          28.600
  23408543.311    23408542.829    23408542.637    -9245578.812 4  -7204342.263 4
        27.600          26.200
  23992420.395    23992419.731    23992418.254    -5686206.706 3  -4430808.881 3
        23.000          23.800
  22998402.124    22998402.166    22998400.649   -10880022.526 5  -8477934.353 5
        30.600          30.600
  24439581.808    24439581.950    24439581.427    -2586337.350 2  -2015326.994 2
        15.100          12.600
  25192814.548    25192817.045    25192815.753     -477270.685     -371899.113 1
         3.000          11.000
  20359598.424    20359597.919    20359595.517   -24304893.843 6 -18938869.824 7
        38.800          45.400
  23541370.571    23541369.610    23541368.246    -6952060.084 2  -5417180.723 3
        17.000          19.300
  24080802.678    24080801.949    24080801.167    -6901299.971 2  -5377629.574 2
        12.600          15.100
 09  1 28  1 36  0.0000000  0 11G22G 5G11G32G12G31G30G17G14G 9G18
  21515331.408    21515331.079    21515328.015   -19120890.883 6 -14899386.353 6
        39.000          37.900
  23701978.070    23701977.471    23701976.838    -7640567.556 3  -5953686.625 3
        21.100          19.900
  22653689.062    22653688.841    22653687.083   -11600211.591 5  -9039123.122 4
        31.000          28.400
  23391687.106    23391686.427    23391686.004    -9334160.931 4  -7273367.279 4
        27.600          26.200
  23983084.537    23983084.265    23983082.761    -5735265.613 3  -4469036.591 4
        22.600          24.200
  22978658.018    22978658.021    22978656.266   -10983779.310 5  -8558783.753 5
        30.600          30.600
  24421097.650    24421097.292    24421096.366    -2683465.521    -2091011.310 1
         3.000           9.000
  25185142.997    25185141.710    25185139.680     -517612.857 2   -403334.480 2
        13.900          17.000
  20360131.398    20360130.915    20360129.759   -24302092.747 6 -18936687.145 7
        38.800          45.300
  23561948.669    23561947.967    23561946.621    -6843918.719 2  -5332914.732 3
        17.000          18.600
  24100321.151    24100320.791    24100319.980    -6798728.143 2  -5297703.503 2
        12.600          15.100
 09  1 28  1 36 30.0000000  0 11G22G 5G11G32G12G31G30G17G14G 9G18
  21528866.118    21528865.818    21528862.800   -19049765.289 6 -14843963.820 6
        38.900          38.100
  23690119.853    23690118.990    23690118.318    -7702886.344 3  -6002246.704 3
        22.100          21.100
  22649611.121    22649610.582    22649608.650   -11621642.731 5  -9055822.711 4
        31.000          28.400
  23374857.377    23374856.869    23374856.041    -9422602.027 4  -7342282.405 4
        27.600          25.600
  23973842.613    23973842.173    23973840.129    -5783834.477 3  -4506882.438 3
        23.400          22.600
  22958963.475    22958963.228    22958961.336   -11087277.918 5  -8639431.984 5
        31.300          31.500
  24402654.558    24402653.733    24402654.289    -2780385.257 1  -2166533.095 1
         6.500          11.000
  25177563.903    25177563.376    25177560.964     -557436.493 2   -434365.906 2
        16.100          15.100
  20360748.446    20360747.840    20360745.452   -24298851.062 6 -18934161.153 7
        38.900          45.600
  23582589.324    23582589.154    23582588.495    -6735446.313 2  -5248390.759 3
        17.000          19.300
  24119868.999    24119868.551    24119867.823    -6696002.879 1  -5217657.870 2
        11.000          13.900
 09  1 28  1 37  0.0000000  0 11G22G 5G11G32G12G31G30G17G14G 9G18
  21542464.518    21542464.249    21542461.227   -18978305.133 6 -14788280.589 6
        38.700          37.800
  23678349.738    23678348.601    23678348.504    -7764736.022 3  -6050441.241 3
        21.100          21.100
  22645640.887    22645640.653    22645638.808   -11642504.892 5  -9072078.938 4
        31.300          28.400
  23358053.653    23358052.971    23358051.893    -9510907.430 4  -7411091.796 4
        28.100          25.600
  23964692.851    23964692.545    23964690.092    -5831917.605 3  -4544349.821 3
        23.400          22.600
  22939316.192    22939316.138    22939314.511   -11190522.393 5  -8719882.182 5
        31.100          31.600
  24384252.210    24384252.340    24384251.527    -2877099.914 2  -2241895.160 2
        12.600          12.600
  25170082.750    25170082.372    25170078.391     -596747.383 2   -464997.665 2
        13.900          12.600
  20361447.693    20361447.108    20361446.004   -24295176.083 6 -18931297.526 7
        38.900          45.600
  23603292.954    23603292.822    23603291.683    -6626652.663 2  -5163616.491 3
        16.100          18.600
  24139444.700    24139444.333    24139443.337    -6593132.024 2  -5137498.771 2
        12.600          12.600
 09  1 28  1 37 30.0000000  0 11G22G 5G11G32G12G31G30G17G14G 9G18
  21556128.282    21556128.029    21556124.753   -18906502.439 6 -14732330.447 6
        38.900          37.700
  23666671.999    23666670.956    23666671.138    -7826105.238 3  -6098261.392 3
        21.600          22.600
  22641781.259    22641780.821    22641779.103   -11662788.883 5  -9087884.641 4
        31.300          28.600
  23341277.114    23341276.558    23341275.867    -9599066.905 4  -7479787.491 4
        28.100          25.600
  23955637.559    23955637.005    23955634.311    -5879504.369 3  -4581430.397 3
        23.400          23.000
  22919719.629    22919719.594    22919718.421   -11293501.492 5  -8800125.598 5
        31.300          32.300
  24365886.641    24365886.986    24365888.388    -2973597.490 2  -2317088.052 2
        12.600          12.600
  25162699.540    25162700.083    25162699.568     -635535.312 1   -495222.049 2
         6.500          15.100
  20362230.907    20362230.481    20362228.003   -24291059.362 6 -18928089.693 7
        38.900          45.400
  23624059.230    23624058.118    23624056.373    -6517532.282 2  -5078587.631 3
        17.000          18.600
  24159050.238    24159049.543    24159047.951    -6490108.101 2  -5057220.380 1
        15.100          11.000
 09  1 28  1 38  0.0000000  0 11G22G 5G11G32G12G31G30G17G14G 9G18
  21569855.571    21569855.261    21569851.982   -18834365.543 6 -14676119.882 6
        38.700          37.600
  23655084.036    23655083.060    23655083.220    -7886998.104 3  -6145710.358 3
        21.100          22.600
  22638029.931    22638029.728    22638028.012   -11682500.563 5  -9103244.382 4
        31.100          28.400
  23324527.414    23324526.968    23324526.704    -9687086.057 4  -7548373.831 4
        27.400          27.100
  23946675.132    23946675.122    23946673.291    -5926598.923 3  -4618127.448 3
        23.400          23.800
  22900173.121    22900172.986    22900171.725   -11396219.621 5  -8880165.658 5
        31.500          32.100
  24347564.954    24347566.230    24347565.616    -3069881.530 2  -2392114.581 2
        12.600          13.900
  25155419.185    25155417.805    25155417.714     -673805.519 1   -525042.937 2
         6.500          16.100
  20363096.970    20363096.554    20363095.209   -24286508.350 6 -18924543.445 7
        38.900          45.200
  23644883.137    23644882.716    23644881.197    -6408095.236 2  -4993312.011 2
        16.100          17.800
  24178683.068    24178682.888    24178680.687    -6386939.487 2  -4976829.204 2
        16.100          13.900
 09  1 28  1 38 30.0000000  0 11G22G 5G11G32G12G31G30G17G14G 9G18
  21583646.303    21583645.927    21583642.666   -18761894.787 6 -14619649.171 6
        38.600          37.400
  23643588.116    23643586.866    23643586.127    -7947411.126 3  -6192785.411 3
        21.100          21.600
  22634388.476    22634388.100    22634385.998   -11701638.544 5  -9118157.095 4
        31.600          28.100
  23307805.564    23307804.903    23307804.583    -9774962.653 4  -7616849.083 4
        27.100          28.100
  23937807.792    23937807.571    23937806.059    -5973198.650 3  -4654438.910 4
        22.600          24.200
  22880676.513    22880676.600    22880675.309   -11498673.574 5  -8959999.867 5
        31.800          31.800
  24329283.862    24329283.798    24329284.293    -3165947.825 1  -2466971.411 2
         9.000          15.100
  25148234.364    25148233.897    25148232.123     -711555.846 1   -554458.767 1
        11.000           9.000
  20364045.771    20364045.260    20364042.698   -24281523.194 6 -18920658.907 7
        38.900          45.600
  23665767.292    23665766.889    23665765.661    -6298343.825 2  -4907791.417 2
        13.900          17.000
  24198343.278    24198342.675    24198340.566    -6283626.433 2  -4896325.528 2
        15.100          15.100
 09  1 28  1 39  0.0000000  0 11G22G 5G11G32G12G31G30G17G14G 9G18
  21597500.155    21597499.817    21597496.555   -18689091.621 6 -14562919.437 6
        38.400          37.200
  23632183.394    23632182.223    23632181.821    -8007342.547 3  -6239485.211 3
        21.600          22.100
  22630855.357    22630855.199    22630853.113   -11720203.358 5  -9132623.185 4
        31.600          28.100
  23291109.810    23291109.057    23291109.415    -9862696.187 4  -7685212.841 4
        26.800          28.100
  23929034.537    23929034.620    23929031.644    -6019302.119 3  -4690363.668 3
        23.800          23.800
  22861230.417    22861230.699    22861229.399   -11600861.700 5  -9039626.941 5
        31.800          31.300
  24311044.343    24311044.467    24311044.910    -3261793.945 1  -2541656.676 2
         9.000          15.100
  25141152.182    25141151.328    25141146.939     -748785.791 2   -583469.121 1
        12.600          11.000
  20365076.745    20365076.243    20365075.179   -24276104.788 6 -18916436.768 7
        38.900          45.500
  23686711.774    23686711.465    23686710.128    -6188282.023 2  -4822028.972 2
        13.900          17.800
  24218027.722    24218028.615    24218027.195    -6180171.366 1  -4815711.219 2
        11.000          17.000
 09  1 28  1 39 30.0000000  0 11G22G 5G11G32G12G31G30G17G14G 9G18
  21611418.160    21611417.820    21611414.761   -18615951.958 6 -14505927.495 6
        38.400          37.300
  23620871.730    23620870.718    23620870.950    -8066784.393 3  -6285803.513 3
        22.100          23.000
  22627432.574    22627432.343    22627430.726   -11738189.311 5  -9146638.209 4
        31.600          28.600
  23274442.742    23274442.271    23274442.697    -9950279.965 4  -7753459.922 4
        27.600          27.600
  23920357.301    23920357.289    23920354.740    -6064902.032 4  -4725896.071 3
        24.600          23.400
  22841836.419    22841836.894    22841835.750   -11702776.156 5  -9119040.769 5
        31.800          31.600
  24292850.796    24292851.282    24292850.496    -3357411.279 2  -2616163.670 2
        12.600          17.000
  25134165.744    25134163.946    25134164.656     -785488.608     -612068.776 2
         3.000          13.900
  20366191.137    20366190.631    20366188.226   -24270248.609 6 -18911873.511 7
        38.900          45.500
  23707715.925    23707715.007    23707714.140    -6077907.682 2  -4736023.011 3
        13.900          18.600
  24237742.380    24237741.876    24237743.013    -6076569.835 1  -4734982.800 2
         9.000          17.000
 09  1 28  1 40  0.0000000  0 11G22G 5G11G32G12G31G30G17G14G 9G18
  21625398.825    21625398.529    21625395.428   -18542482.732 6 -14448678.760 6
        38.300          37.200
  23609653.305    23609652.719    23609651.719    -8125739.963 3  -6331742.908 3
        22.600          22.600
  22624119.513    22624119.204    22624117.426   -11755601.827 5  -9160206.396 4
        32.100          28.800
  23257804.222    23257803.744    23257803.938   -10037718.441 4  -7821593.792 4
        28.100          27.600
  23911774.046    23911774.111    23911772.521    -6110002.312 3  -4761039.132 4
        23.000          24.200
  22822494.363    22822494.620    22822493.302   -11804420.591 5  -9198244.185 5
        32.000          31.500
  24274696.760    24274697.392    24274698.630    -3452802.495 1  -2690494.438 3
        11.000          19.300
  25127281.893    25127281.246    25127277.111     -821668.946     -640261.284 1
         3.000           6.500
  20367387.788    20367387.212    20367386.098   -24263960.523 6 -18906973.703 7
        38.900          45.500
  23728778.064    23728777.419    23728775.557    -5967230.238 2  -4649780.845 2
        13.900          17.800
  24257486.424    24257485.539    24257483.203    -5972829.345 2  -4654146.095 2
        13.900          17.800
 09  1 28  1 40 30.0000000  0 11G22G 5G11G32G12G31G30G17G14G 9G18
  21639442.692    21639442.360    21639439.274   -18468681.628 6 -14391171.413 6
        38.000          37.100
  23598527.512    23598526.442    23598526.515    -8184203.405 3  -6377298.827 3
        21.100          22.100
  22620915.643    22620915.576    22620913.462   -11772436.855 5  -9173324.610 4
        32.600          27.900
  23241194.361    23241193.415    23241193.574   -10125007.100 4  -7889610.920 4
        28.600          27.600
  23903288.362    23903287.927    23903286.500    -6154597.600 3  -4795788.700 4
        22.600          24.900
  22803204.668    22803205.048    22803203.683   -11905789.105 5  -9277232.610 5
        32.600          32.000
  24256590.064    24256590.078    24256589.786    -3547961.188 2  -2764643.961 3
        15.100          19.900
  25120497.647    25120495.709    25120494.565     -857322.459     -668042.983 1
         3.000           6.500
  20368666.890    20368666.362    20368664.058   -24257238.454 6 -18901735.727 7
        38.900          45.500
  23749897.690    23749896.299    23749894.121    -5856249.375 2  -4563302.248 2
        15.100          17.800
  24277255.034    24277253.902    24277250.713    -5868947.943 2  -4573199.570 2
        13.900          17.000
 09  1 28  1 41  0.0000000  0 11G22G 5G11G32G12G31G30G17G14G 9G18
  21653548.620    21653548.251    21653545.030   -18394555.527 6 -14333410.821 6
        38.100          37.100
  23587495.585    23587494.748    23587494.565    -8242177.944 3  -6422473.770 3
        21.600          23.000
  22617821.074    22617820.832    22617818.890   -11788699.791 5  -9185997.022 4
        32.600          28.100
  23224611.404    23224610.648    23224610.599   -10212150.225 4  -7957514.644 4
        29.000          28.100
  23894897.395    23894897.051    23894895.862    -6198691.943 3  -4830147.900 4
        22.100          25.300
  22783967.025    22783967.114    22783965.563   -12006885.227 5  -9356008.781 5
        32.800          32.000
  24238525.579    24238526.082    24238525.683    -3642889.368 2  -2838613.935 3
        17.800          21.100
  25113813.507    25113812.867    25113811.730     -892453.252 2   -695417.768 2
        17.800          12.600
  20370027.328    20370026.906    20370025.878   -24250088.645 6 -18896164.448 7
        38.800          45.300
  23771071.527    23771070.432    23771069.400    -5744974.250 2  -4476594.344 2
        17.000          17.800
  24297047.325    24297046.909    24297043.548    -5764932.634 2  -4492148.679 2
        13.900          16.100
 09  1 28  1 41 30.0000000  0 11G22G 5G11G32G12G31G30G17G14G 9G18
  21667717.383    21667717.005    21667713.881   -18320098.214 6 -14275392.140 6
        38.100          37.100
  23576558.664    23576557.829    23576556.709    -8299653.790 3  -6467260.116 3
        23.400          22.600
  22614836.706    22614836.584    22614834.252   -11804383.183 5  -9198217.840 4
        32.600          28.100
  23208057.931    23208056.852    23208056.922   -10299139.343 4  -8025298.363 4
        29.200          28.400
  23886604.444    23886604.150    23886601.725    -6242275.647 3  -4864109.233 4
        23.400          24.900
  22764782.644    22764782.854    22764781.433   -12107699.222 5  -9434565.110 5
        32.800          32.600
  24220506.711    24220507.183    24220507.333    -3737576.697 2  -2912396.252 3
        17.000          19.900
  25107226.109    25107225.675    25107224.141     -927053.124 1   -722378.765 1
        11.000           9.000
  20371470.673    20371470.161    20371467.885   -24242504.473 6 -18890254.701 7
        38.900          45.500
  23792302.411    23792302.202    23792300.744    -5633400.635 2  -4389653.866 2
        16.100          17.800
  24316867.576    24316867.324    24316864.571    -5660777.817 2  -4410989.079 2
        12.600          15.100
 09  1 28  1 42  0.0000000  0 11G22G 5G11G32G12G31G30G17G14G 9G18
  21681948.467    21681948.237    21681945.182   -18245312.109 6 -14217117.266 6
        37.700          36.800
  23565716.105    23565715.163    23565715.015    -8356629.609 3  -6511656.857 3
        23.000          22.100
  22611962.408    22611962.128    22611960.029   -11819487.703 5  -9209987.594 4
        32.300          28.400
  23191533.524    23191532.879    23191532.777   -10385974.104 4  -8092961.796 4
        29.700          28.800
  23878407.591    23878407.310    23878405.102    -6285348.091 4  -4897672.177 4
        24.600          24.600
  22745652.482    22745652.431    22745651.207   -12208229.845 5  -9512900.616 5
        33.000          32.700
  24202534.375    24202534.248    24202534.171    -3832020.944 2  -2985989.135 2
        15.100          17.000
  25100744.843    25100743.600    25100740.896     -961121.958 1   -748925.750 1
         9.000           9.000
  20372996.275    20372995.733    20372994.634   -24234487.676 6 -18884007.841 7
        38.900          45.600
  23813590.327    23813589.604    23813588.080    -5521533.253 2  -4302484.481 2
        15.100          17.800
  24336712.843    24336711.294    24336711.351    -5556485.474 1  -4329722.332 2
         9.000          13.900
 09  1 28  1 42 30.0000000  0 11G22G 5G11G32G12G31G30G17G14G 9G18
  21696241.340    21696241.129    21696238.124   -18170202.015 6 -14158589.927 6
        37.600          36.600
  23554968.950    23554968.085    23554967.615    -8413106.545 3  -6555664.848 3
        23.000          22.100
  22609197.561    22609197.291    22609195.281   -11834016.921 5  -9221309.062 4
        32.600          28.600
  23175038.753    23175037.844    23175037.363   -10472656.827 5  -8160506.769 4
        30.200          28.400
  23870308.119    23870307.854    23870306.430    -6327910.839 3  -4930837.927 4
        23.800          25.300
  22726575.942    22726575.915    22726574.469   -12308478.235 5  -9591016.214 5
        33.400          32.700
  24184608.024    24184609.257    24184608.299    -3926222.561 2  -3059392.991 2
        15.100          17.000
  25094361.150    25094361.535    25094360.021     -994662.141 1   -775060.952 2
         6.500          12.600
  20374603.417    20374602.818    20374600.571   -24226042.426 6 -18877427.126 7
        38.900          45.800
  23834931.981    23834931.302    23834930.135    -5409378.580 2  -4215091.216 2
        12.600          16.100
  24356582.825    24356581.716    24356581.672    -5452061.099    -4248352.702 1
                        11.000
 09  1 28  1 43  0.0000000  0 11G22G 5G11G32G12G31G30G17G14G 9G18
  21710596.762    21710596.527    21710593.457   -18094764.740 6 -14099807.641 6
        37.800          36.600
  23544317.493    23544316.960    23544317.032    -8469077.695 3  -6599278.713 3
        23.000          23.000
  22606543.215    22606542.888    22606540.968   -11847965.701 5  -9232178.247 4
        32.600          28.800
  23158573.503    23158572.720    23158572.425   -10559181.646 4  -8227928.700 4
        29.900          28.600
  23862307.349    23862307.234    23862304.762    -6369957.738 4  -4963601.737 4
        24.900          25.600
  22707554.447    22707554.352    22707552.977   -12408437.564 5  -9668906.564 5
        33.400          33.200
  24166731.628    24166731.807    24166730.770    -4020174.068 2  -3132601.921 3
        17.000          18.600
  25088079.838    25088079.867    25088076.084    -1027668.189 1   -800780.035 1
         6.500           9.000
  20376292.648    20376292.078    20376291.107   -24217165.011 6 -18870509.656 7
        38.900          45.700
  23856328.196    23856327.736    23856327.884    -5296935.570 1  -4127473.275 2
        11.000          16.100
  24376481.295    24376479.984    24376478.983    -5347501.701    -4166877.900 1
                        11.000
 09  1 28  1 43 30.0000000  0 11G22G 5G11G32G12G31G30G17G14G 9G18
  21725013.102    21725012.728    21725009.731   -18019006.843 6 -14040775.522 6
        37.600          36.500
  23533762.352    23533761.894    23533761.781    -8524546.068 3  -6642500.806 3
        23.400          23.000
  22603998.036    22603997.915    22603996.050   -11861339.558 5  -9242599.431 4
        32.300          29.200
  23142137.236    23142136.559    23142136.429   -10645552.782 4  -8295230.879 4
        28.800          28.400
  23854403.010    23854402.901    23854400.968    -6411492.360 4  -4995966.375 4
        24.600          25.300
  22688586.900    22688586.852    22688585.837   -12508111.334 5  -9746574.403 5
        33.100          33.500
  24148899.888    24148899.880    24148899.401    -4113877.291 2  -3205617.386 3
        16.100          19.300
  25081902.269    25081901.552    25081898.601    -1060144.486 2   -826086.194 2
        13.900          15.100
  20378063.012    20378062.523    20378060.215   -24207861.374 6 -18863260.065 7
        39.000          45.600
  23877779.103    23877778.816    23877778.507    -5184212.940 1  -4039637.480 2
         9.000          16.100
  24396404.114    24396403.989    24396399.373    -5242813.559    -4085302.761 1
                         9.000
 09  1 28  1 44  0.0000000  0 11G22G 5G11G32G12G31G30G17G14G 9G18
  21739491.056    21739490.757    21739487.577   -17942924.554 6 -13981490.634 6
        37.400          36.200
  23523303.590    23523303.010    23523303.349    -8579504.745 3  -6685325.732 3
        23.000          22.600
  22601563.570    22601563.254    22601561.453   -11874133.720 5  -9252568.907 4
        32.300          29.200
  23125731.719    23125730.884    23125730.884   -10731764.334 4  -8362408.697 4
        28.100          28.100
  23846598.345    23846598.241    23846595.616    -6452508.219 4  -5027926.783 4
        25.300          24.200
  22669675.097    22669675.190    22669674.027   -12607492.431 5  -9824014.175 5
        33.400          33.600
  24131117.320    24131117.523    24131116.999    -4207324.626 2  -3278433.444 3
        17.000          20.500
  25075821.798    25075821.310    25075822.414    -1092085.359 1   -850975.129 2
         9.000          12.600
  20379915.294    20379914.738    20379913.563   -24198127.862 6 -18855675.507 7
        39.100          45.700
  23899284.298    23899283.257    23899282.121    -5071209.508 1  -3951582.863 2
        11.000          16.100
  24416349.554    24416349.100    24416345.709    -5137994.138    -4003625.299 1
         3.000           6.500
 09  1 28  1 44 30.0000000  0 11G22G 5G11G32G12G31G30G17G14G 9G18
  21754029.887    21754029.523    21754026.257   -17866523.512 6 -13921957.351 6
        37.500          36.400
  23512942.456    23512941.753    23512941.561    -8633955.856 3  -6727755.132 3
        23.800          22.600
  22599238.198    22599238.065    22599236.323   -11886352.319 5  -9262089.892 4
        32.100          29.200
  23109356.184    23109355.498    23109355.063   -10817819.489 4  -8429464.646 4
        28.800          27.900
  23838890.822    23838890.859    23838888.800    -6493008.080 4  -5059485.113 4
        24.200          24.200
  22650818.552    22650818.745    22650817.491   -12706583.085 5  -9901227.631 5
        33.400          33.600
  24113382.972    24113383.022    24113382.575    -4300517.406 2  -3351051.170 3
        16.100          18.600
  25069846.472    25069845.664    25069842.367    -1123494.242 1   -875449.597 1
         9.000           6.500
  20381848.280    20381847.749    20381845.465   -24187969.860 6 -18847760.178 7
        39.100          45.700
  23920841.721    23920840.320    23920837.773    -4957932.936 2  -3863315.391 2
        13.900          16.100
  24436319.053    24436316.997    24436316.611    -5033049.041    -3921849.905 1
         3.000           9.000
 09  1 28  1 45  0.0000000  0 11G22G 5G11G32G12G31G30G17G14G 9G18
  21768629.895    21768629.589    21768626.675   -17789798.271 6 -13862171.457 6
        37.100          36.500
  23502678.854    23502677.897    23502677.987    -8687890.084 3  -6769781.802 3
        23.400          22.600
  22597023.823    22597023.558    22597022.007   -11897988.429 5  -9271156.992 4
        31.800          29.000
  23093011.964    23093011.061    23093010.609   -10903709.950 4  -8496392.275 4
        29.200          28.100
  23831283.780    23831283.642    23831281.631    -6532983.739 3  -5090634.964 4
        23.800          24.600
  22632019.546    22632019.545    22632018.043   -12805373.957 5  -9978207.498 5
        33.600          33.400
  24095699.064    24095699.387    24095698.357    -4393445.238 2  -3423462.430 3
        16.100          18.600
  25063969.185    25063968.290    25063971.574    -1154363.149 1   -899503.364 1
         6.500          11.000
  20383863.438    20383862.814    20383861.756   -24177380.814 6 -18839508.969 7
        39.100          46.000
  23942448.383    23942448.180    23942446.370    -4844379.549 2  -3774832.217 2
        12.600          13.900
  24456313.258    24456313.520    24456312.385    -4927972.632    -3839972.225 1
         3.000           9.000
 09  1 28  1 45 30.0000000  0 11G22G 5G11G32G12G31G30G17G14G 9G18
  21783291.103    21783290.728    21783287.675   -17712754.109 6 -13802137.063 6
        37.200          36.300
  23492513.738    23492512.966    23492513.306    -8741309.523 3  -6811407.328 3
        23.400          23.000
  22594919.827    22594919.475    22594917.473   -11909045.971 5  -9279773.252 4
        31.800          28.600
  23076697.883    23076697.078    23076696.943   -10989438.786 4  -8563193.953 4
        29.000          28.400
  23823776.237    23823776.100    23823774.201    -6572436.842 4  -5121377.639 4
        24.200          24.900
  22613276.669    22613276.898    22613275.416   -12903867.282 5 -10054955.513 5
        34.000          33.600
  24078066.231    24078066.307    24078065.687    -4486109.121 3  -3495668.041 3
        19.300          19.300
  25058198.925    25058199.657    25058198.663    -1184695.366 2   -923138.777 1
        15.100           6.500
  20385959.314    20385958.812    20385956.444   -24166365.891 6 -18830925.912 7
        39.100          45.600
  23964107.591    23964108.049    23964105.992    -4730557.247 2  -3686139.513 2
        12.600          15.100
  24476333.721    24476334.108    24476332.551    -4822771.075 1  -3757996.983 1
         6.500          11.000
 09  1 28  1 46  0.0000000  0 11G22G 5G11G32G12G31G30G17G14G 9G18
  21798012.079    21798011.784    21798008.481   -17635394.415 6 -13741856.793 5
        36.900          35.800
  23482446.473    23482445.571    23482445.402    -8794213.836 3  -6852631.450 3
        23.000          23.000
  22592925.520    22592925.231    22592923.006   -11919527.101 5  -9287940.362 4
        32.400          28.600
  23060414.719    23060414.069    23060414.168   -11075006.596 4  -8629870.160 4
        29.500          28.600
  23816368.088    23816367.603    23816366.105    -6611367.870 3  -5151713.510 4
        23.400          25.300
  22594591.151    22594590.979    22594589.136   -13002062.682 5 -10131471.377 5
        34.400          33.600
  24060484.100    24060484.016    24060483.045    -4578508.248 3  -3567667.328 3
        22.100          19.300
  25052529.172    25052529.450    25052527.271    -1214491.896 2   -946356.829 1
        13.900           6.500
  20388135.876    20388135.321    20388134.304   -24154928.006 6 -18822013.268 7
        39.000          45.600
  23985817.190    23985817.361    23985816.781    -4616470.730 1  -3597240.921 2
        11.000          16.100
  24496378.592    24496377.874    24496374.706    -4717447.593 2  -3675926.731 2
        13.900          12.600
 09  1 28  1 46 30.0000000  0 11G22G 5G11G32G12G31G30G17G14G 9G18
  21812794.380    21812794.073    21812790.755   -17557713.354 6 -13681326.107 5
        37.000          35.700
  23472479.452    23472478.287    23472478.155    -8846593.393 3  -6893446.674 3
        23.400          23.000
  22591042.279    22591042.017    22591039.883   -11929424.003 5  -9295652.234 4
        32.700          28.800
  23044163.904    23044163.470    23044163.463   -11160404.779 5  -8696414.188 4
        30.200          28.800
  23809060.805    23809060.234    23809058.351    -6649768.089 3  -5181635.753 4
        22.600          24.600
  22575963.391    22575963.346    22575961.845   -13099950.608 5 -10207747.644 5
        34.300          33.900
  24042952.695    24042953.118    24042951.768    -4670632.013 3  -3639452.044 3
        21.600          19.300
  25046962.000    25046961.050    25046961.978    -1243744.785 1   -969151.310 2
         6.500          16.100
  20390394.177    20390393.653    20390391.375   -24143060.433 6 -18812765.809 7
        39.100          45.600
  24007578.055    24007578.017    24007577.486    -4502116.168 1  -3508133.488 2
        11.000          17.000
  24516444.244    24516444.007    24516441.238    -4611996.493 2  -3593757.054 2
        13.900          12.600
 09  1 28  1 47  0.0000000  0 11G22G 5G11G32G12G31G30G17G14G 9G18
  21827637.534    21827637.267    21827634.220   -17479711.560 6 -13620545.495 5
        36.800          35.900
  23462611.442    23462610.989    23462610.788    -8898445.735 3  -6933851.071 3
        23.000          22.600
  22589270.065    22589269.746    22589267.908   -11938736.978 5  -9302909.085 4
        32.600          29.000
  23027946.261    23027945.371    23027945.346   -11245631.791 5  -8762824.844 4
        30.800          29.200
  23801854.501    23801854.475    23801852.227    -6687635.929 3  -5211143.150 3
        23.800          23.800
  22557394.778    22557394.919    22557393.584   -13197528.520 5 -10283782.350 5
        34.500          34.100
  24025474.644    24025474.636    24025474.360    -4762476.862 3  -3711019.441 3
        18.600          18.600
  25041500.621    25041500.415    25041499.208    -1272452.488 1   -991520.908 2
         6.500          15.100
  20392734.289    20392733.697    20392732.672   -24130763.804 6 -18803184.016 7
        39.100          46.000
  24029389.201    24029389.318    24029388.388    -4387496.655 1  -3418819.610 2
        11.000          16.100
  24536533.189    24536532.734    24536532.016    -4506418.937 1  -3511488.813 1
        11.000          11.000
 09  1 28  1 47 30.0000000  0 11G 5G11G32G12G31G30G17G14G 9G18G22
  23452844.567    23452844.163    23452843.857    -8949769.767 3  -6973843.828 3
        22.600          23.000
  22587608.999    22587608.650    22587606.340   -11947467.107 5  -9309711.778 4
        32.700          28.600
  23011760.715    23011759.882    23011760.225   -11330687.394 5  -8829101.924 4
        31.000          29.900
  23794749.945    23794750.002    23794747.934    -6724970.511 4  -5240235.038 4
        24.200          24.600
  22538885.765    22538885.717    22538884.313   -13294795.254 5 -10359574.571 5
        34.500          34.300
  24008050.830    24008050.952    24008050.679    -4854040.931 3  -3782368.007 3
        18.600          18.600
  25036140.824    25036140.742    25036137.329    -1300615.583 1  -1013466.199 1
         9.000           6.500
  20395155.389    20395154.914    20395152.754   -24118040.023 6 -18793269.382 7
        39.100          45.800
  24051251.651    24051250.292    24051249.322    -4272616.686 2  -3329302.770 2
        12.600          15.100
  24556649.555    24556647.846    24556646.662    -4400717.257 1  -3429123.902 2
         9.000          12.600
  21842541.297    21842541.085    21842538.062   -17401391.368 6 -13559516.784 5
        36.600          35.700
 09  1 28  1 48  0.0000000  0 11G 5G11G32G12G31G30G17G14G 9G18G22
  23443177.949    23443177.016    23443176.562    -9000572.850 3  -7013430.626 3
        23.000          23.000
  22586056.061    22586055.819    22586054.241   -11955623.520 5  -9316067.438 4
        31.800          28.600
  22995605.827    22995605.211    22995605.342   -11415579.909 5  -8895251.927 4
        30.400          29.500
  23787745.907    23787745.697    23787742.838    -6761779.460 4  -5268917.326 4
        24.900          24.200
  22520434.050    22520434.013    22520432.594   -13391758.205 5 -10435130.079 5
        34.400          34.000
  23990680.102    23990680.209    23990678.429    -4945330.694 3  -3853502.897 3
        21.100          18.600
  25030882.843    25030883.554    25030880.209    -1328242.683 1  -1034993.686 1
         6.500           9.000
  20397656.086    20397655.583    20397654.509   -24104899.272 6 -18783029.833 7
        39.300          46.000
  24073159.616    24073158.586    24073157.844    -4157489.061 1  -3239592.940 2
        11.000          13.900
  24576784.261    24576783.541    24576782.321    -4294902.944 1  -3346671.261 1
         9.000          11.000
  21857503.807    21857503.466    21857500.239   -17322763.801 6 -13498248.558 5
        36.700          35.500
 09  1 28  1 48 30.0000000  0 11G 5G11G32G12G31G30G17G14G 9G18G22
  23433610.128    23433609.231    23433608.494    -9050851.511 3  -7052608.785 3
        23.800          23.000
  22584614.020    22584613.569    22584611.392   -11963205.198 5  -9321975.234 4
        32.300          29.000
  22979483.037    22979482.351    22979482.129   -11500306.700 5  -8961272.792 4
        30.600          29.000
  23780842.212    23780841.883    23780839.217    -6798059.939 4  -5297187.832 4
        24.200          24.600
  22502040.909    22502040.956    22502039.552   -13488414.084 5 -10510446.313 5
        34.600          34.100
  23973360.308    23973360.437    23973359.876    -5036341.486 3  -3924420.367 3
        19.900          19.300
  25025726.793    25025726.607    25025727.737    -1355331.629 1  -1056102.107 2
         9.000          13.900
  20400236.015    20400235.507    20400233.367   -24091341.256 6 -18772465.146 7
        39.200          45.900
  24095114.310    24095113.761    24095112.274    -4042115.613 1  -3149691.562 1
        11.000          11.000
  24596939.648    24596940.082    24596938.610    -4188975.920 1  -3264130.745 1
         9.000          11.000
  21872524.655    21872524.310    21872521.268   -17243828.947 6 -13436740.893 5
        36.600          35.700
 09  1 28  1 49  0.0000000  0 11G 5G11G32G12G31G30G17G14G 9G18G22
  23424144.120    23424143.264    23424143.170    -9100593.433 3  -7091368.717 3
        23.000          23.000
  22583282.208    22583282.010    22583280.003   -11970202.152 5  -9327427.398 4
        32.300          29.000
  22963393.691    22963392.816    22963392.701   -11584856.259 5  -9027155.560 4
        30.400          29.200
  23774040.071    23774039.846    23774037.956    -6833800.432 3  -5325037.544 4
        23.000          24.600
  22483708.962    22483708.984    22483707.363   -13584750.268 5 -10585513.436 5
        35.300          34.100
  23956096.324    23956096.986    23956096.699    -5127060.146 3  -3995110.183 3
        19.900          19.300
  25020677.561    25020678.332    25020674.011    -1381871.652 1  -1076782.635 2
        11.000          12.600
  20402897.213    20402896.675    20402895.741   -24077356.547 6 -18761567.966 7
        39.300          45.900
  24117117.221    24117116.396    24117115.725    -3926489.797 1  -3059593.492 1
        11.000          11.000
  24617121.674    24617120.362    24617119.577    -4082927.430 1  -3181495.582 1
         9.000          11.000
  21887605.646    21887605.289    21887602.180   -17164577.839 6 -13374986.803 5
        36.600          35.600
 09  1 28  1 49 30.0000000  0 11G 5G11G32G12G31G30G17G14G 9G18G22
  23414780.459    23414779.620    23414778.985    -9149801.260 3  -7129712.452 3
        23.000          23.000
  22582061.285    22582060.926    22582058.868   -11976619.076 5  -9332427.596 4
        32.400          28.800
  22947337.259    22947336.787    22947336.642   -11669232.083 5  -9092902.946 4
        30.800          29.500
  23767342.648    23767341.863    23767338.857    -6869004.454 4  -5352469.269 4
        24.600          24.600
  22465437.218    22465437.226    22465435.538   -13680769.287 5 -10660333.421 5
        35.600          34.400
  23938890.430    23938890.325    23938888.473    -5217488.210 3  -4065573.591 3
        21.100          18.600
  25015730.056    25015730.559    25015729.977    -1407866.498 1  -1097038.286 2
         6.500          13.900
  20405638.514    20405638.031    20405635.942   -24062950.873 6 -18750342.766 7
        39.300          46.000
  24139165.601    24139165.518    24139163.872    -3810619.303 1  -2969304.783 1
         9.000          11.000
  24637324.293    24637323.918    24637321.410    -3976763.951 1  -3098770.823 1
         9.000          11.000
  21902745.692    21902745.362    21902742.219   -17085016.487 6 -13312990.952 5
        36.500          35.500
 09  1 28  1 50  0.0000000  0 11G 5G11G32G12G31G30G17G14G 9G18G22
  23405517.548    23405516.514    23405515.827    -9198478.089 3  -7167642.447 3
        23.000          23.000
  22580949.089    22580949.095    22580947.294   -11982461.254 5  -9336979.952 4
        32.400          29.000
  22931313.772    22931312.885    22931312.751   -11753438.007 5  -9158517.942 4
        31.000          29.900
  23760744.233    23760743.608    23760741.501    -6903675.228 4  -5379485.434 4
        24.600          24.600
  22447224.849    22447224.903    22447223.326   -13776474.635 5 -10734908.985 5
        35.400          34.400
  23921736.189    23921736.545    23921735.485    -5307627.451 3  -4135811.948 3
        19.300          18.600
  25010887.774    25010887.666    25010884.176    -1433320.662 1  -1116872.707 2
        11.000          12.600
  20408458.768    20408458.261    20408457.301   -24048130.195 6 -18738794.183 7
        39.300          45.900
  24161259.466    24161259.485    24161257.826    -3694512.834 1  -2878832.238 1
         9.000          11.000
  24657546.072    24657545.656    24657544.239    -3870492.434 1  -3015961.853 1
        11.000           9.000
  21917943.321    21917943.134    21917940.234   -17005151.380 6 -13250758.415 5
        36.300          35.500
 09  1 28  1 50 30.0000000  0 11G 5G11G32G12G31G30G17G14G 9G18G22
  23396357.494    23396356.623    23396356.565    -9246613.112 3  -7205150.233 3
        22.100          23.400
  22579949.057    22579948.702    22579946.640   -11987719.948 5  -9341077.638 4
        32.700          29.000
  22915324.392    22915323.332    22915323.017   -11837463.919 5  -9223992.674 4
        31.100          29.900
  23754249.935    23754249.715    23754247.334    -6937802.385 4  -5406078.033 4
        24.200          25.300
  22429074.620    22429074.708    22429073.051   -13871854.784 5 -10809231.154 5
        35.500          34.300
  23904640.205    23904640.081    23904640.542    -5397466.332 2  -4205816.215 3
        17.000          20.500
  25006149.671    25006149.319    25006148.306    -1458224.557 2  -1136278.414 2
        15.100          15.100
  20411359.676    20411359.146    20411356.997   -24032886.534 6 -18726916.006 7
        39.300          46.200
  24183400.564    24183400.778    24183398.747    -3578164.643 1  -2788171.344 1
         9.000          11.000
  24677792.382    24677791.705    24677789.007    -3764105.218 1  -2933062.716 1
         9.000           9.000
  21933200.279    21933200.196    21933197.034   -16924975.109 6 -13188283.406 5
        36.400          35.100
 09  1 28  1 51  0.0000000  0 11G 5G11G32G12G31G30G17G14G 9G18G22
  23387301.651    23387300.718    23387300.083    -9294203.370 3  -7242233.547 3
        23.800          23.000
  22579058.978    22579058.728    22579056.737   -11992394.892 5  -9344720.445 4
        32.300          28.600
  22899368.809    22899368.011    22899368.167   -11921307.801 5  -9289325.554 4
        30.600          29.900
  23747858.480    23747858.565    23747857.468    -6971384.080 3  -5432245.560 4
        23.800          25.900
  22410986.768    22410986.869    22410985.028   -13966906.868 5 -10883297.685 5
        35.700          34.000
  23887602.854    23887602.782    23887601.561    -5487000.868 3  -4275583.361 3
        18.600          18.600
  25001512.721    25001512.201    25001513.495    -1482576.773    -1155254.119 2
         3.000          13.900
  20414340.809    20414340.288    20414339.277   -24017219.988 6 -18714708.304 7
        39.300          46.200
  24205585.996    24205585.223    24205583.561    -3461577.350 1  -2697324.141 1
         6.500          11.000
  24698058.515    24698057.103    24698056.312    -3657603.094    -2850074.060 1
         3.000          11.000
  21948516.631    21948516.354    21948513.236   -16844488.087 6 -13125566.251 5
        36.100          34.900
 09  1 28  1 51 30.0000000  0 11G 5G11G32G12G31G30G17G14G 9G18G22
  23378348.605    23378347.778    23378347.634    -9341249.142 3  -7278892.568 3
        23.000          22.600
  22578280.213    22578280.006    22578277.935   -11996488.361 5  -9347910.163 4
        32.800          28.800
  22883448.344    22883447.512    22883447.681   -12004970.588 5  -9354517.324 4
        30.400          29.900
  23741572.410    23741572.227    23741570.577    -7004421.064 4  -5457988.674 4
        24.200          26.200
  22392961.550    22392961.435    22392959.609   -14061631.449 6 -10957109.015 5
        36.000          34.400
  23870623.114    23870623.248    23870621.628    -5576229.916 3  -4345112.486 3
        19.300          19.300
  24996985.328    24996984.997    24996981.515    -1506378.876 1  -1173801.140 1
        11.000           6.500
  20417401.953    20417401.512    20417399.290   -24001133.619 6 -18702173.471 7
        39.400          46.100
  24227816.330    24227815.819    24227813.816    -3344756.528 1  -2606294.975 1
        11.000          11.000
  24718343.699    24718345.339    24718348.147    -3550989.829    -2766998.765 1
                        11.000
  21963891.296    21963891.060    21963887.698   -16763694.081 6 -13062609.900 5
        36.100          34.800
 09  1 28  1 52  0.0000000  0 11G 5G11G32G12G31G30G17G14G 9G18G22
  23369500.846    23369499.968    23369499.705    -9387746.758 3  -7315124.467 3
        23.400          23.000
  22577612.028    22577611.808    22577609.945   -11999998.994 5  -9350645.726 4
        32.600          29.000
  22867563.042    22867562.533    22867562.524   -12088449.342 5  -9419565.692 5
        31.000          30.200
  23735389.590    23735389.531    23735387.677    -7036909.963 3  -5483304.701 4
        23.400          25.600
  22374998.926    22374999.061    22374997.389   -14156024.527 6 -11030662.041 5
        36.300          34.700
  23853701.866    23853702.137    23853701.901    -5665148.879 3  -4414399.962 3
        18.600          21.100
  24992561.151    24992560.671    24992557.594    -1529628.868 2  -1191918.097 2
        13.900          15.100
  20420543.120    20420542.642    20420541.547   -23984626.746 6 -18689310.970 7
        39.400          46.100
  24250091.506    24250091.246    24250089.321    -3227703.694 1  -2515084.988 1
        11.000           9.000
  24738653.799    24738653.916    24738655.941    -3444265.506    -2683837.020 1
                         9.000
  21979324.516    21979324.098    21979320.819   -16682592.931 5 -12999414.215 5
        35.900          34.700
 09  1 28  1 52 30.0000000  0 11G 5G11G32G12G31G30G17G14G 9G18G22
  23360756.369    23360755.406    23360754.695    -9433700.845 3  -7350932.837 3
        23.800          23.000
  22577053.581    22577053.403    22577051.290   -12002933.640 5  -9352932.457 4
        32.600          29.000
  22851711.868    22851711.332    22851711.164   -12171749.305 5  -9484474.742 5
        32.300          30.600
  23729310.182    23729310.570    23729308.618    -7068856.038 3  -5508197.755 4
        23.800          25.600
  22357099.416    22357099.171    22357097.094   -14250090.376 6 -11103960.075 5
        36.500          34.900
  23836839.001    23836839.639    23836838.841    -5753761.698 3  -4483448.870 3
        18.600          21.100
  24988239.316    24988239.722    24988240.094    -1552332.414 2  -1209609.172 3
        12.600          19.300
  20423762.936    20423762.419    20423760.297   -23967706.922 6 -18676126.693 7
        39.500          46.400
  24272407.987    24272408.567    24272406.740    -3110428.733 1  -2423701.896 1
        11.000           6.500
  24758981.862    24758982.039    24758986.807    -3337438.240    -2600595.896 1
                         9.000
  21994814.393    21994814.104    21994810.911   -16601192.471 6 -12935985.310 5
        36.000          34.900
 09  1 28  1 53  0.0000000  0 11G 5G11G32G12G31G30G17G14G 9G18G22
  23352116.763    23352115.813    23352115.680    -9479102.062 3  -7386310.406 3
        23.800          23.800
  22576606.301    22576606.066    22576604.156   -12005285.188 5  -9354764.829 4
        33.000          29.200
  22835896.287    22835895.495    22835895.041   -12254861.870 5  -9549237.778 4
        32.600          29.900
  23723336.690    23723336.656    23723334.645    -7100250.630 4  -5532661.055 4
        24.600          25.900
  22339263.069    22339262.886    22339261.051   -14343819.636 6 -11176995.829 5
        36.500          35.300
  23820037.797    23820037.823    23820036.363    -5842057.312 2  -4552250.639 3
        17.800          19.300
  24984024.733    24984024.992    24984023.238    -1574481.557 2  -1226868.223 2
        13.900          15.100
  20427062.469    20427061.927    20427060.876   -23950367.467 6 -18662615.427 7
        39.500          46.200
  24294769.253    24294768.382    24294767.055    -2992927.835 1  -2332142.786 1
        11.000           6.500
  24779332.505    24779330.234    24779330.374    -3230502.085    -2517268.166 1
                         9.000
  22010362.707    22010362.349    22010358.997   -16519486.522 6 -12872318.356 5
        36.100          34.600
 09  1 28  1 53 30.0000000  0 12G 5G11G20G32G12G31G30G17G14G 9G18G22
  23343582.524    23343581.763    23343581.333    -9523947.820 3  -7421255.144 3
        23.800          23.400
  22576269.788    22576269.615    22576267.374   -12007053.226 5  -9356142.519 4
        33.100          28.600
  24925292.705    24925291.658    24925290.607           -.5721          -.15311
                         9.000
  22820116.248    22820115.416    22820115.283   -12337784.979 5  -9613853.190 5
        32.300          30.100
  23717467.863    23717467.656    23717465.137    -7131092.216 4  -5556693.455 4
        24.900          25.600
  22321491.170    22321491.183    22321489.449   -14437209.615 6 -11249767.205 5
        36.500          35.400
  23803296.520    23803296.299    23803295.960    -5930032.037 2  -4620802.363 3
        17.800          19.900
  24979917.483    24979916.497    24979913.356    -1596075.288 2  -1243694.543 2
        12.600          13.900
  20430441.849    20430441.251    20430439.301   -23932608.956 6 -18648777.627 7
        39.500          46.600
  24317172.544    24317171.771    24317170.559    -2875203.100 1  -2240409.201
         9.000           3.000
  24799703.341    24799701.127    24799700.599    -3123458.069    -2433857.238 1
                         6.500
  22025968.591    22025968.310    22025965.196   -16437475.831 5 -12808413.931 5
        35.400          34.500
 09  1 28  1 54  0.0000000  0 12G 5G11G20G32G12G31G30G17G14G 9G18G22
  23335153.520    23335152.478    23335152.123    -9568243.858 4  -7455771.541 3
        24.200          23.400
  22576043.055    22576042.746    22576040.697   -12008245.983 5  -9357071.939 4
        32.800          28.600
  24904431.204    24904432.948    24904429.631     -109624.860      -85421.670 1
         3.000           9.000
  22804371.022    22804370.247    22804370.364   -12420524.991 5  -9678325.919 5
        31.600          30.600
  23711702.981    23711702.869    23711700.874    -7161386.455 4  -5580299.348 4
        25.300          26.500
  22303783.156    22303782.947    22303781.361   -14530265.863 6 -11322278.538 5
        36.500          35.300
  23786615.484    23786615.366    23786614.887    -6017690.533 3  -4689107.634 3
        19.300          20.500
  24975911.671    24975911.916    24975910.154    -1617120.296 2  -1260093.240 2
        12.600          15.100
  20433899.218    20433898.728    20433897.740   -23914439.784 6 -18634619.825 7
        39.600          46.400
  24339614.915    24339613.864    24339612.563    -2757265.580 1  -2148509.853
         9.000           3.000
  24820089.926    24820091.468    24820087.546    -3016315.150    -2350369.280
                         3.000
  22041631.008    22041630.609    22041627.521   -16355169.576 5 -12744279.203 5
        35.200          34.400
 09  1 28  1 54 30.0000000  0 12G 5G11G20G32G12G31G30G17G14G 9G18G22
  23326829.167    23326828.664    23326828.109    -9611986.528 4  -7489856.724 3
        24.200          23.400
  22575925.675    22575925.361    22575923.498   -12008861.992 5  -9357551.939 4
        32.700          29.000
  24883579.488    24883578.793    24883578.438     -219202.274     -170806.641 1
         3.000           9.000
  22788661.707    22788661.009    22788660.879   -12503078.951 5  -9742653.660 5
        31.800          30.800
  23706042.719    23706042.715    23706040.413    -7191130.457 4  -5603476.495 4
        24.900          26.200
  22286139.116    22286139.208    22286137.478   -14622984.487 6 -11394526.786 5
        36.500          35.200
  23769996.381    23769996.397    23769994.824    -6105028.161 3  -4757162.893 3
        21.100          20.500
  24972010.612    24972009.691    24972009.542    -1637614.779 1  -1276062.876 2
         6.500          15.100
  20437434.912    20437434.368    20437432.480   -23895859.278 6 -18620141.513 7
        39.500          46.300
  24362097.655    24362096.100    24362095.813    -2639116.853 1  -2056445.924 1
         6.500           6.500
  24840496.325    24840497.303    24840494.221    -2909073.612    -2266805.277
                         3.000
  22057349.794    22057349.480    22057346.158   -16272567.379 5 -12679913.861 5
        35.600          34.300
 09  1 28  1 55  0.0000000  0 12G 5G11G20G32G12G31G30G17G14G 9G18G22
  23318611.261    23318610.355    23318609.769    -9655174.492 4  -7523509.680 3
        24.200          23.800
  22575917.906    22575917.658    22575915.574   -12008901.886 5  -9357583.024 4
        32.700          28.800
  24862737.219    24862734.983    24862736.372     -328732.028     -256154.444 1
         3.000           9.000
  22772988.114    22772987.387    22772987.015   -12585445.863 5  -9806835.666 5
        32.600          30.600
  23700487.404    23700487.236    23700484.981    -7220323.456 4  -5626224.290 4
        24.200          25.900
  22268560.022    22268560.016    22268558.112   -14715363.886 6 -11466510.697 5
        36.500          34.900
  23753436.845    23753437.397    23753436.443    -6192042.156 3  -4824965.988 3
        20.500          20.500
  24968215.858    24968215.847    24968214.919    -1657558.532 1  -1291603.481 3
        11.000          18.600
  20441048.770    20441048.194    20441047.232   -23876868.712 6 -18605343.666 7
        39.500          46.400
  24384619.480    24384618.967    24384617.172    -2520760.520 1  -1964220.222 1
         6.500           6.500
  24860924.224    24860926.441    24860922.651    -2801734.899    -2183164.902 1
                         6.500
  22073124.297    22073124.088    22073120.888   -16189670.861 5 -12615319.179 5
        35.700          34.100
 09  1 28  1 55 30.0000000  0 12G 5G11G20G32G12G31G30G17G14G 9G18G22
  23310499.630    23310498.393    23310497.903    -9697801.204 3  -7556725.281 3
        23.400          23.400
  22576020.486    22576020.365    22576018.486   -12008361.792 5  -9357162.172 4
        32.800          28.800
  24841901.730    24841902.033    24841902.063     -438207.652     -341460.144 1
         3.000           9.000
  22757350.750    22757349.986    22757350.026   -12667619.849 5  -9870867.335 5
        32.800          31.100
  23695037.564    23695037.766    23695036.114    -7248959.776 4  -5648538.296 4
        24.600          26.500
  22251046.575    22251046.675    22251044.766   -14807397.451 6 -11538225.137 5
        36.600          35.300
  23736941.904    23736942.149    23736941.735    -6278724.793 3  -4892510.880 3
        19.300          20.500
  24964528.722    24964528.176    24964524.496    -1676946.699 2  -1306711.127 2
        13.900          17.000
  20444741.219    20444740.682    20444738.754   -23857464.612 6 -18590223.586 7
        39.600          46.400
  24407182.536    24407181.551    24407180.115    -2402195.312    -1871831.757 1
         3.000           6.500
  24881370.225    24881369.281    24881368.098    -2694296.267    -2099446.494 1
                         9.000
  22088955.580    22088955.286    22088952.219   -16106477.028 5 -12550492.832 5
        35.100          34.000
 09  1 28  1 56  0.0000000  0 12G 5G11G20G32G12G31G30G17G14G 9G18G22
  23302495.609    23302494.889    23302494.134    -9739860.635 3  -7589498.870 3
        23.800          23.800
  22576234.565    22576234.376    22576232.382   -12007237.658 5  -9356286.218 4
        33.000          28.800
  24821082.612    24821081.219    24821083.311     -547623.642 1   -426719.328 1
         6.500           9.000
  22741751.230    22741750.404    22741750.459   -12749595.442 5  -9934744.419 5
        32.800          31.100
  23689695.511    23689695.802    23689693.275    -7277033.558 4  -5670413.969 4
        24.900          25.600
  22233600.081    22233600.202    22233598.495   -14899078.784 6 -11609665.108 5
        36.700          35.700
  23720512.118    23720512.102    23720510.716    -6365068.799 3  -4959791.907 3
        21.600          21.600
  24960942.854    24960942.396    24960939.398    -1695774.317    -1321381.981 2
                        12.600
  20448512.965    20448512.516    20448511.544   -23837643.601 6 -18574778.638 7
        39.600          46.400
  24429784.018    24429783.591    24429781.579    -2283420.424 1  -1779279.940 1
         6.500           9.000
  24901835.185    24901835.925    24901834.311    -2586755.157    -2015648.241 1
                        11.000
  22104844.133    22104843.744    22104840.528   -16022983.140 5 -12485432.677 5
        34.700          33.800
 09  1 28  1 56 30.0000000  0 12G 5G11G20G32G12G31G30G17G14G 9G18G22
  23294599.073    23294598.315    23294598.223    -9781357.878 4  -7621834.368 4
        24.200          24.600
  22576558.497    22576558.214    22576556.018   -12005536.839 5  -9354960.903 4
        33.000          29.000
  24800271.557    24800269.913    24800270.800     -656985.141     -511936.052 1
         3.000           9.000
  22726188.249    22726187.580    22726187.657   -12831378.084 5  -9998471.142 5
        32.400          31.100
  23684459.086    23684458.983    23684457.520    -7304550.997 4  -5691856.133 4
        24.200          25.900
  22216219.744    22216219.802    22216218.177   -14990413.055 6 -11680834.645 5
        36.800          35.800
  23704144.668    23704144.914    23704143.867    -6451078.221 3  -5026812.223 3
        21.600          23.000
  24957466.984    24957467.068    24957465.783    -1714047.805 2  -1335621.108 3
        13.900          18.600
  20452362.872    20452362.300    20452360.374   -23817413.269 6 -18559014.744 7
        39.700          46.700
  24452424.708    24452423.606    24452422.468    -2164445.622 1  -1686572.329 1
         6.500           9.000
  24922314.389    24922318.037    24922317.178    -2479120.065    -1931776.772 1
                         6.500
  22120787.970    22120787.676    22120784.507   -15939197.426 5 -12420145.130 5
        34.700          34.000
 09  1 28  1 57  0.0000000  0 12G 5G11G20G32G12G31G30G17G14G 9G18G22
  23286810.722    23286809.689    23286809.543    -9822285.245 3  -7653725.802 4
        23.400          24.200
  22576992.755    22576992.525    22576990.530   -12003254.047 5  -9353182.097 4
        32.700          29.000
  24779473.064    24779472.493    24779470.791     -766284.963 1   -597104.716 1
         9.000           6.500
  22710663.883    22710663.239    22710662.932   -12912960.579 5 -10062041.909 5
        33.000          31.300
  23679330.790    23679330.279    23679327.877    -7331504.932 3  -5712859.192 4
        23.800          25.600
  22198907.095    22198907.130    22198905.353   -15081392.112 6 -11751727.391 6
        37.100          36.000
  23687842.825    23687842.916    23687842.671    -6536743.907 3  -5093564.667 3
        22.100          23.400
  24954095.667    24954096.025    24954095.699    -1731761.167 3  -1349423.758 3
        19.300          19.300
  20456291.229    20456290.725    20456289.597   -23796769.057 6 -18542928.342 7
        39.700          46.800
  24475104.026    24475102.277    24475100.359    -2045268.424 1  -1593706.990 1
         6.500          11.000
  24942818.870    24942818.109    24942815.124    -2371386.341    -1847828.454 1
                         9.000
  22136788.065    22136787.743    22136784.871   -15855115.454 5 -12354626.733 5
        34.400          34.100
 09  1 28  1 57 30.0000000  0 12G 5G11G20G32G12G31G30G17G14G 9G18G22
  23279130.741    23279129.752    23279128.998    -9862644.365 3  -7685174.464 3
        23.400          23.800
  22577537.134    22577536.887    22577534.607   -12000393.173 5  -9350952.844 4
        32.400          28.600
  24758685.440    24758684.897    24758682.510     -875524.974 1   -682226.763 1
         9.000           6.500
  22695176.794    22695176.130    22695175.892   -12994345.029 5 -10125458.361 5
        32.700          31.100
  23674308.251    23674307.850    23674306.140    -7357897.114 4  -5733424.532 4
        25.300          26.500
  22181661.774    22181661.811    22181659.951   -15172017.124 6 -11822344.256 6
        37.400          36.100
  23671607.005    23671606.952    23671606.011    -6622066.130 3  -5160049.490 3
        22.600          22.600
  24950829.520    24950830.488    24950828.340    -1748917.265 2  -1362792.087 1
        15.100          11.000
  20460297.688    20460297.121    20460295.212   -23775715.095 6 -18526522.657 7
        39.800          46.700
  24497819.820    24497818.999    24497815.548    -1925895.203    -1500688.936 1
                        11.000
  24963336.226    24963337.645    24963332.868    -2263559.051    -1763806.003
                         3.000
  22152843.800    22152843.528    22152840.526   -15770741.985 5 -12288881.197 5
        34.400          33.800
 09  1 28  1 58  0.0000000  0 12G 5G11G20G32G12G31G30G17G14G 9G18G22
  23271558.979    23271557.961    23271557.589    -9902432.957 3  -7716178.552 3
        23.800          23.800
  22578191.319    22578191.161    22578189.033   -11996954.174 5  -9348273.104 4
        32.600          28.600
  24737908.459    24737907.721    24737906.958     -984703.087 1   -767300.586 1
         9.000           6.500
  22679727.897    22679727.157    22679727.150   -13075529.554 5 -10188719.019 5
        33.000          31.500
  23669393.189    23669393.130    23669390.954    -7383726.198 4  -5753551.089 4
        25.900          26.200
  22164484.217    22164484.262    22164482.385   -15262285.802 6 -11892683.461 6
        37.600          36.300
  23655435.754    23655435.617    23655435.576    -6707041.322 3  -5226263.911 3
        21.600          22.100
  24947671.272    24947670.916    24947669.827    -1765515.356 1  -1375725.634 1
         6.500          11.000
  20464381.976    20464381.462    20464380.426   -23754251.738 6 -18509797.960 7
        39.800          46.800
  24520571.731    24520570.873    24520568.792    -1806328.970    -1407520.450 1
                        11.000
  24983872.398    24983873.069    24983868.610    -2155639.395    -1679707.698
                         3.000
  22168954.889    22168954.570    22168951.566   -15686078.042 5 -12222909.306 5
        34.400          33.500
 09  1 28  1 58 30.0000000  0 12G 5G11G20G32G12G31G30G17G14G 9G18G22
  23264095.997    23264095.155    23264094.240    -9941652.915 4  -7746739.556 4
        24.600          24.200
  22578955.403    22578955.092    22578952.797   -11992941.177 5  -9345146.094 4
        33.000          28.800
  24717143.445    24717143.534    24717143.369    -1093821.258 1   -852327.687 1
        11.000           9.000
  22664316.480    22664315.939    22664315.961   -13156516.368 5 -10251825.624 5
        33.600          31.800
  23664583.911    23664584.245    23664582.138    -7408994.815 4  -5773240.913 4
        24.600          25.900
  22147374.397    22147374.292    22147372.362   -15352199.650 6 -11962746.173 6
        37.800          36.400
  23639331.763    23639332.106    23639331.308    -6791670.152 3  -5292208.426 3
        22.600          22.600
  24944619.655    24944619.835    24944616.293    -1781558.248 2  -1388226.688 1
        12.600          11.000
  20468543.329    20468542.770    20468541.022   -23732383.783 6 -18492757.995 7
        39.700          46.900
  24543359.367    24543359.080    24543358.220    -1686576.583    -1314206.936 1
                        11.000
  25004427.623    25004423.293    25004427.091    -2047632.478    -1595545.727

  22185120.255    22185119.979    22185116.749   -15601128.753 5 -12156715.066 5
        34.300          33.200
 09  1 28  1 59  0.0000000  0 11G 5G11G20G32G12G31G30G17G14G 9G22
  23256741.714    23256740.881    23256740.347    -9980300.030 3  -7776854.182 4
        23.800          24.600
  22579828.711    22579828.327    22579826.119   -11988352.231 5  -9341570.289 4
        32.800          29.000
  24696390.855    24696390.324    24696391.743    -1202875.553 1   -937305.042 1
        11.000           9.000
  22648943.619    22648942.938    22648943.059   -13237301.725 5 -10314775.246 5
        33.100          32.000
  23659883.908    23659883.564    23659881.209    -7433699.279 4  -5792491.128 4
        24.900          26.200
  22130332.491    22130332.459    22130330.776   -15441754.124 6 -12032528.863 6
        37.800          36.400
  23623294.836    23623295.081    23623293.892    -6875947.241 3  -5357878.880 3
        23.000          22.100
  24941673.707    24941673.297    24941670.853    -1797043.584 2  -1400293.157 2
        15.100          16.100
  20472782.050    20472781.489    20472780.304   -23710109.576 6 -18475401.467 7
        39.800          47.000
  24566184.618    24566183.460    24566180.803    -1566638.415    -1220748.648 2
                        12.600
  22201339.963    22201339.729    22201336.703   -15515892.935 5 -12090297.556 5
        33.800          33.200
 09  1 28  1 59 30.0000000  0 11G 5G11G20G32G12G31G30G17G14G 9G22
  23249495.905    23249495.094    23249494.506   -10018375.169 4  -7806523.126 3
        24.200          23.800
  22580810.904    22580810.566    22580808.552   -11983190.423 5  -9337548.099 4
        33.100          29.000
  24675652.163    24675650.154    24675650.869    -1311866.890 1  -1022233.295 1
         9.000           9.000
  22633609.087    22633608.199    22633608.095   -13317886.704 5 -10377568.726 5
        33.100          32.100
  23655289.144    23655289.158    23655287.014    -7457840.821 4  -5811302.737 4
        24.900          26.200
  22113359.045    22113358.959    22113357.295   -15530949.859 6 -12102032.006 6
        37.700          36.300
  23607323.518    23607323.947    23607323.777    -6959871.809 3  -5423274.627 3
        21.100          22.100
  24938830.200    24938828.578    24938831.541    -1811973.342 1  -1411926.672 2
         6.500          17.000
  20477097.310    20477096.796    20477094.921   -23687432.633 6 -18457731.121 7
        39.900          47.100
  24589040.345    24589039.761    24589039.172    -1446520.346    -1127150.161 1
         3.000          11.000
  22217613.793    22217613.439    22217610.434   -15430374.487 5 -12023659.830 5
        33.800          33.500
                            4 15
RINEX FILE SPLICE                                           COMMENT
teqc  2008Oct2      WCDA Operator       20090128 03:18:33UTCCOMMENT
STATION INFORMATION EFFECTIVE FROM: 2001/01/13 18:20:00     COMMENT
                                TO: CURRENT DATE (above)    COMMENT
BIT 2 OF LLI FLAGS (+4) DATA COLLECTED UNDER 'AS' CONDITION COMMENT
L1 PHASE CENTRE 0.110m ABOVE ARP                            COMMENT
L2 PHASE CENTRE 0.128m ABOVE ARP                            COMMENT
where ARP is the Antenna Reference Point for HI measurement COMMENT
CONTACT gps@pgc.nrcan.gc.ca FOR ADDITIONAL INFORMATION      COMMENT
    P1 =    P1  TurboRogue; =    Y1  Benchmark              COMMENT
    L1 = L1(CA)                                             COMMENT
    P2 =    P2  TurboRogue; =    Y2  Benchmark              COMMENT
    L2 = L2(P2) TurboRogue; = L2(Y2) Benchmark              COMMENT
 SNR is mapped to RINEX snr flag value [0-9]                COMMENT
  L1 & L2: min(max(int(snr_dBHz/6), 0), 9)                  COMMENT
 09  1 28  2  0  0.0000000  0 11G 5G11G20G32G12G31G30G17G14G 9G22
  23242361.789    23242361.007    23242360.571   -10055867.022 4  -7835737.550 4
        24.200          24.600
  22581903.879    22581903.592    22581901.180   -11977447.020 5  -9333072.722 4
        33.400          28.600
  24654926.319    24654924.772    24654924.348    -1420784.291 1  -1107103.961 1
        11.000          11.000
  22618314.617    22618313.832    22618313.355   -13398260.325 5 -10440197.510 5
        33.800          32.000
  23650804.420    23650804.776    23650802.121    -7481408.784 4  -5829667.376 4
        25.300          25.900
  22096455.950    22096456.137    22096454.482   -15619775.071 6 -12171246.437 6
        37.700          36.600
  23591423.003    23591423.076    23591423.101    -7043431.165 3  -5488385.762 3
        20.500          23.000
  24936100.067    24936099.583    24936095.477    -1826337.728 1  -1423119.731 2
         9.000          17.000
  20481490.825    20481490.279    20481488.972   -23664344.368 6 -18439740.265 7
        40.000          47.200
  24611931.985    24611932.150    24611932.232    -1326215.745    -1033406.310 1
         3.000          11.000
  22233942.648    22233942.329    22233939.405   -15344565.251 5 -11956795.511 5
        33.800          33.200
 09  1 28  2  0 30.0000000  0 11G 5G11G20G32G12G31G30G17G14G 9G22
  23235339.669    23235338.937    23235338.523   -10092766.999 4  -7864490.772 4
        24.600          24.200
  22583108.482    22583108.267    22583106.256   -11971115.417 5  -9328139.012 4
        33.100          28.800
  24634215.856    24634214.348    24634213.261    -1529618.841 2  -1191910.066 1
        12.600           9.000
  22603061.946    22603060.975    22603060.792   -13478414.260 5 -10502655.121 5
        33.900          32.300
  23646430.402    23646430.282    23646428.184    -7504395.429 4  -5847579.046 4
        25.900          26.800
  22079625.351    22079625.421    22079623.728   -15708220.917 6 -12240165.248 6
        37.700          36.800
  23575594.666    23575594.575    23575593.351    -7126615.503 3  -5553204.728 3
        22.600          23.000
  24933473.964    24933473.821    24933471.689    -1840129.616 1  -1433866.700 2
        11.000          13.900
  20485963.776    20485963.263    20485961.454   -23640838.923 6 -18421424.334 7
        40.000          47.400
  24634863.057    24634862.602    24634861.385    -1205720.742     -939514.108 1
         3.000           9.000
  22250327.887    22250327.605    22250324.810   -15258459.796 5 -11889700.368 5
        33.500          33.400
 09  1 28  2  1  0.0000000  0 11G 5G11G20G32G12G31G30G17G14G 9G22
  23228428.152    23228427.117    23228426.317   -10129090.899 4  -7892795.100 4
        24.600          24.200
  22584421.784    22584421.453    22584419.568   -11964213.585 5  -9322760.954 4
        32.800          29.200
  24613517.468    24613516.212    24613515.571    -1638386.739 2  -1276664.236 1
        12.600           9.000
  22587847.458    22587846.753    22587846.803   -13558364.566 5 -10564954.053 5
        33.800          32.600
  23642164.220    23642163.759    23642161.434    -7526817.288 4  -5865050.614 4
        25.900          27.100
  22062864.031    22062864.012    22062862.165   -15796302.888 6 -12308800.524 6
        37.900          36.800
  23559832.850    23559832.488    23559832.082    -7209439.345 3  -5617742.747 3
        21.100          22.100
  24930955.158    24930955.248    24930954.935    -1853366.118 1  -1444180.829 2
        11.000          17.000
  20490512.650    20490512.098    20490510.725   -23616934.501 6 -18402797.509 7
        40.100          47.300
  24657825.819    24657825.780    24657822.878    -1085056.218     -845489.811 1
                         9.000
  22266766.323    22266765.849    22266763.034   -15172076.956 5 -11822389.079 5
        33.800          33.200
 09  1 28  2  1 30.0000000  0 11G 5G11G20G32G12G31G30G17G14G 9G22
  23221624.065    23221623.286    23221623.103   -10164841.692 3  -7920652.863 4
        23.800          24.600
  22585842.662    22585842.462    22585840.737   -11956746.919 5  -9316942.770 4
        32.800          29.700
  24592830.451    24592829.847    24592830.111    -1747090.685 2  -1361368.573 1
        13.900           9.000
  22572671.487    22572670.830    22572670.798   -13638114.525 5 -10627096.874 5
        33.900          32.600
  23638003.294    23638003.250    23638001.413    -7548677.419 4  -5882084.490 4
        25.300          26.800
  22046171.365    22046171.411    22046169.316   -15884023.599 6 -12377154.301 6
        38.300          36.700
  23544141.158    23544141.033    23544139.358    -7291903.972 3  -5682000.894 3
        22.100          22.600
  24928539.947    24928540.157    24928539.941    -1866051.470 1  -1454065.575 2
         6.500          17.800
  20495136.479    20495135.833    20495134.164   -23592636.668 6 -18383864.133 7
        40.100          47.600
  24680821.551    24680820.256    24680814.230     -964229.649     -751339.256 1
                         9.000
  22283256.189    22283255.741    22283252.713   -15085422.376 5 -11754866.042 5
        33.600          33.100
 09  1 28  2  2  0.0000000  0 11G 5G11G20G32G12G31G30G17G14G 9G22
  23214932.750    23214932.174    23214931.403   -10200006.062 4  -7948053.664 4
        24.600          24.600
  22587373.182    22587372.818    22587371.017   -11948704.181 5  -9310675.702 4
        32.600          29.700
  24572160.004    24572159.411    24572158.893    -1855717.227 2  -1446012.583 1
        17.000           9.000
  22557536.069    22557535.588    22557535.514   -13717650.955 5 -10689073.308 5
        33.900          32.600
  23633953.558    23633953.355    23633950.993    -7569963.190 4  -5898670.801 4
        25.300          27.100
  22029550.022    22029550.075    22029548.045   -15971369.226 6 -12445215.806 6
        38.400          36.900
  23528518.541    23528519.067    23528518.864    -7373994.601 3  -5745967.611 3
        22.100          23.400
  24926233.023    24926234.252    24926232.084    -1878173.948 2  -1463511.693 2
        12.600          15.100
  20499836.921    20499836.366    20499834.995   -23567934.906 6 -18364616.005 7
        40.200          47.500
  24703848.485    24703846.905    24703842.129     -843232.332     -657055.644 1
                         9.000
  22299799.156    22299799.034    22299796.115   -14998486.318 5 -11687123.677 5
        33.400          33.000
 09  1 28  2  2 30.0000000  0 11G 5G11G20G32G12G31G30G17G14G 9G22
  23208353.252    23208352.517    23208351.943   -10234582.852 4  -7974996.605 4
        25.300          24.600
  22589013.224    22589012.777    22589010.758   -11940086.748 5  -9303960.818 4
        32.700          29.200
  24551504.979    24551503.794    24551502.900    -1964265.235 2  -1530595.414 1
        17.800           9.000
  22542442.141    22542441.386    22542441.058   -13796972.744 5 -10750882.488 5
        34.600          32.700
  23630011.336    23630011.386    23630010.002    -7590674.286 4  -5914809.312 4
        24.200          26.800
  22013000.324    22013000.379    22012998.336   -16058338.224 6 -12512983.829 6
        38.400          37.000
  23512969.733    23512969.682    23512968.797    -7455708.741 3  -5809640.921 3
        21.600          23.400
  24924035.149    24924035.249    24924032.629    -1889733.695 3  -1472519.305 2
        18.600          13.900
  20504614.162    20504613.622    20504611.993   -23542830.419 6 -18345054.067 7
        40.200          47.500
  24726904.607    24726902.440    24726896.950     -722067.896     -562641.855 1
                         6.500
  22316395.963    22316395.815    22316392.750   -14911270.372 5 -11619163.216 5
        33.400          32.800
 09  1 28  2  3  0.0000000  0 11G 5G11G20G32G12G31G30G17G14G 9G22
  23201885.052    23201884.359    23201883.901   -10268570.594 4  -8001480.578 4
        24.600          24.200
  22590762.078    22590761.865    22590759.861   -11930895.441 5  -9296798.756 4
        32.600          29.500
  24530864.149    24530862.822    24530861.502    -2072733.278 3  -1615115.916 1
        18.600           9.000
  22527388.672    22527387.895    22527387.608   -13876078.763 5 -10812523.541 5
        34.600          32.600
  23626180.240    23626180.407    23626178.040    -7610809.946 4  -5930499.444 4
        25.300          27.400
  21996522.673    21996522.698    21996520.766   -16144928.591 6 -12580456.816 6
        38.500          37.100
  23497491.936    23497492.080    23497490.904    -7537043.663 3  -5873018.756 3
        22.100          23.400
  24921940.420    24921941.189    24921938.951    -1900730.731 1  -1481088.348 1
         9.000          11.000
  20509467.761    20509467.267    20509465.763   -23517324.394 6 -18325179.241 7
        40.300          47.500
  24749991.371    24749989.758    24749986.374     -600739.340     -468100.163 1
                         6.500
  22333045.664    22333045.362    22333042.222   -14823775.930 5 -11550985.737 5
        33.000          32.600
 09  1 28  2  3 30.0000000  0 11G 5G11G20G32G12G31G30G17G14G 9G22
  23195530.505    23195529.481    23195528.890   -10301968.466 4  -8027504.874 4
        24.600          24.900
  22592619.897    22592619.641    22592617.857   -11921131.537 5  -9289190.515 4
        32.000          29.500
  24510237.758    24510237.325    24510235.443    -2181120.455 2  -1699573.408 1
        17.800           6.500
  22512376.340    22512375.567    22512375.399   -13954968.163 5 -10873995.793 5
        34.100          32.400
  23622458.436    23622458.249    23622456.145    -7630370.055 4  -5945741.068 4
        24.900          27.100
  21980117.451    21980117.352    21980115.382   -16231139.271 6 -12647633.937 6
        38.600          37.200
  23482086.815    23482087.069    23482086.341    -7617996.735 3  -5936099.020 3
        22.600          23.800
  24919955.673    24919955.819    24919955.504    -1911165.316    -1489219.242 2
         3.000          16.100
  20514397.446    20514396.964    20514395.402   -23491418.342 6 -18304992.707 7
        40.300          47.400
  24773107.980    24773105.704    24773105.352     -479250.546     -373433.621
         3.000
  22349747.969    22349747.606    22349744.673   -14736004.962 5 -11482592.793 5
        32.700          32.700
 09  1 28  2  4  0.0000000  0 10G 5G11G20G32G12G31G30G17G14G22
  23189286.287    23189285.030    23189284.741   -10334780.973 4  -8053073.069 4
        24.600          24.600
  22594585.730    22594585.478    22594583.611   -11910801.963 5  -9281141.497 4
        32.000          29.500
  24489625.978    24489625.714    24489624.349    -2289431.238 2  -1783971.386 1
        17.800           9.000
  22497404.216    22497403.634    22497403.430   -14033645.681 5 -10935302.950 5
        34.300          32.600
  23618844.521    23618844.488    23618842.413    -7649359.206 4  -5960537.812 4
        24.600          27.400
  21963783.684    21963783.651    21963781.500   -16316974.338 6 -12714518.384 6
        39.000          37.200
  23466754.030    23466754.222    23466753.969    -7698570.923 3  -5998884.084 4
        23.000          24.200
  24918076.947    24918075.881    24918075.571    -1921043.890 1  -1496916.843 3
         9.000          19.300
  20519401.912    20519401.490    20519399.987   -23465119.561 6 -18284500.148 7
        40.300          47.400
  22366501.166    22366500.950    22366498.071   -14647966.037 5 -11413991.055 5
        32.700          32.600
 09  1 28  2  4 30.0000000  0 11G 5G11G20G32G12G31G30G17G14G 9G22
  23183156.127    23183155.400    23183154.922   -10366995.118 4  -8078174.987 4
        25.300          24.600
  22596660.824    22596660.505    22596658.729   -11899895.913 5  -9272643.275 4
        31.500          29.200
  24469032.411    24469031.970    24469031.609    -2397652.301 2  -1868299.446 1
        17.800           9.000
  22482475.541    22482474.545    22482474.596   -14112098.200 5 -10996434.775 5
        34.500          32.800
  23615342.611    23615342.197    23615340.035    -7667765.179 4  -5974880.124 4
        24.600          26.800
  21947523.729    21947523.683    21947521.710   -16402420.092 6 -12781099.470 6
        39.000          37.200
  23451496.406    23451496.712    23451495.593    -7778751.809 3  -6061362.677 3
        22.600          23.800
  24916303.910    24916304.976    24916302.442    -1930354.408 1  -1504171.839 2
        11.000          16.100
  20524483.362    20524482.839    20524481.198   -23438417.233 6 -18263693.139 7
        40.400          47.300
  24819431.824    24819430.279    24819430.453           -.5331          -.9251
         3.000
  22383307.667    22383307.276    22383304.167   -14559648.250 5 -11345172.017 5
        32.700          32.400
 09  1 28  2  5  0.0000000  0 10G 5G11G20G32G12G31G30G17G14G22
  23177138.520    23177137.606    23177137.470   -10398615.311 4  -8102814.096 4
        24.200          24.900
  22598844.905    22598844.490    22598842.782   -11888420.025 5  -9263701.023 4
        31.500          29.500
  24448455.388    24448454.433    24448454.274    -2505787.751 2  -1952560.781 1
        17.000           9.000
  22467588.403    22467587.614    22467587.649   -14190330.288 5 -11057394.838 5
        34.800          33.000
  23611950.486    23611949.969    23611947.209    -7685593.015 4  -5988771.957 4
        25.300          26.800
  21931337.111    21931337.133    21931335.229   -16487480.807 6 -12847380.521 6
        39.100          37.300
  23436311.981    23436312.476    23436312.425    -7858542.589 3  -6123537.295 4
        21.600          24.600
  24914639.776    24914639.527    24914638.876    -1939102.753 1  -1510988.719 2
         9.000          13.900
  20529640.055    20529639.555    20529638.042   -23411318.236 6 -18242577.036 7
        40.400          47.300
  22400165.784    22400165.273    22400162.152   -14471059.031 5 -11276141.477 5
        32.700          32.000
 09  1 28  2  5 30.0000000  0 10G 5G11G20G32G12G31G30G17G14G22
  23171233.536    23171232.622    23171232.201   -10429647.700 4  -8126995.178 4
        24.200          24.900
  22601135.575    22601135.273    22601133.471   -11876382.598 5  -9254321.207 4
        31.600          29.200
  24427893.641    24427893.074    24427891.655    -2613843.251 3  -2036759.847 1
        18.600           9.000
  22452741.892    22452741.207    22452741.017   -14268348.026 5 -11118187.877 5
        34.800          32.700
  23608666.033    23608665.268    23608663.748    -7702849.471 4  -6002218.536 4
        24.600          27.100
  21915222.584    21915222.768    21915220.853   -16572161.949 6 -12913365.802 6
        39.100          37.500
  23421202.734    23421202.782    23421201.784    -7937947.515 3  -6185411.217 4
        23.000          24.600
  24913080.655    24913080.508    24913078.732    -1947296.541 1  -1517373.458 2
        11.000          15.100
  20534870.616    20534870.182    20534868.584   -23383831.239 6 -18221158.598 7
        40.500          47.300
  22417073.614    22417073.231    22417069.963   -14382207.315 5 -11206906.394 5
        32.800          31.600
 09  1 28  2  6  0.0000000  0 10G 5G11G20G32G12G31G30G17G14G22
  23165444.801    23165443.798    23165443.074   -10460068.925 4  -8150700.018 4
        24.900          24.600
  22603536.862    22603536.380    22603534.921   -11863762.635 5  -9244487.476 4
        31.100          29.000
  24407350.946    24407350.848    24407349.117    -2721795.603 3  -2120878.558 1
        19.300           6.500
  22437940.990    22437940.076    22437939.968   -14346128.109 5 -11178795.732 5
        34.800          32.800
  23605495.311    23605494.916    23605492.726    -7719511.830 4  -6015202.195 4
        24.600          26.800
  21899185.199    21899185.233    21899183.381   -16656439.569 6 -12979036.655 6
        39.100          37.600
  23406170.867    23406170.677    23406168.711    -8016941.608 3  -6246965.042 3
        23.400          22.600
  24911631.040    24911630.960    24911630.447    -1954913.742 2  -1523308.884 2
        12.600          17.800
  20540179.225    20540178.619    20540177.032   -23355935.260 6 -18199421.470 7
        40.600          47.100
  22434035.235    22434035.019    22434031.806   -14293072.701 5 -11137450.859 5
        32.300          32.000
 09  1 28  2  6 30.0000000  0 10G 5G11G20G32G12G31G30G17G14G22
  23159769.610    23159768.848    23159768.428   -10489891.087 4  -8173938.076 4
        25.300          25.300
  22606046.514    22606046.186    22606044.433   -11850574.638 5  -9234211.118 4
        31.600          29.000
  24386825.762    24386825.391    24386823.272    -2829656.361 3  -2204925.893 1
        19.300          11.000
  22423182.940    22423182.203    22423181.825   -14423682.570 5 -11239227.780 5
        35.400          32.800
  23602434.871    23602434.629    23602432.839    -7735592.782 4  -6027732.802 4
        24.600          27.400
  21883222.001    21883222.146    21883220.437   -16740325.529 6 -13044402.321 6
        39.100          37.700
  23391214.792    23391214.581    23391213.286    -8095535.833 4  -6308207.275 3
        24.200          23.400
  24910289.809    24910289.275    24910287.954    -1961967.850 2  -1528805.626 3
        16.100          21.100
  20545562.600    20545562.056    20545560.418   -23327645.028 6 -18177377.132 7
        40.600          47.000
  22451047.822    22451047.471    22451044.747   -14203670.428 5 -11067786.773 5
        31.800          32.400
 09  1 28  2  7  0.0000000  0 10G 5G11G20G32G12G31G30G17G14G22
  23154207.769    23154206.621    23154206.724   -10519117.914 4  -8196712.216 4
        24.200          25.300
  22608663.060    22608662.792    22608660.953   -11836824.514 5  -9223496.741 4
        31.800          28.800
  24366317.465    24366316.306    24366314.151    -2937429.065 3  -2288904.611 1
        18.600          11.000
  22408466.872    22408466.079    22408466.085   -14501014.995 5 -11299486.810 5
        34.900          33.500
  23599484.256    23599484.117    23599482.337    -7751097.703 4  -6039814.553 4
        24.600          27.400
  21867333.272    21867333.337    21867331.378   -16823822.765 6 -13109465.081 6
        39.400          38.000
  23376334.088    23376334.590    23376333.645    -8173732.118 4  -6369139.414 4
        24.600          24.900
  24909052.710    24909053.144    24909050.942    -1968464.139 2  -1533867.639 3
        15.100          18.600
  20551019.959    20551019.433    20551017.768   -23298966.445 6 -18155030.183 7
        40.600          47.000
  22468110.538    22468110.081    22468107.153   -14114006.771 5 -10997919.006 5
        32.000          32.000
 09  1 28  2  7 30.0000000  0 10G 5G11G20G32G12G31G30G17G14G22
  23148760.857    23148759.964    23148759.442   -10547742.510 4  -8219017.096 4
        24.900          24.900
  22611387.516    22611387.225    22611385.418   -11822507.616 5  -9212340.719 4
        31.800          29.000
  24345827.002    24345825.795    24345823.728    -3045106.434 2  -2372809.024 2
        17.800          12.600
  22393794.899    22393794.133    22393793.776   -14578118.484 5 -11359567.441 5
        35.600          33.800
  23596645.018    23596644.950    23596643.331    -7766018.491 4  -6051441.145 4
        25.600          28.100
  21851519.590    21851519.738    21851517.831   -16906923.743 6 -13174219.071 6
        39.500          38.200
  23361531.258    23361531.247    23361530.012    -8251522.044 4  -6429754.905 3
        24.600          23.400
  24907924.098    24907924.223    24907921.514    -1974396.897 2  -1538490.559 1
        13.900          11.000
  20556552.037    20556551.507    20556549.995   -23269895.089 6 -18132377.177 7
        40.600          47.000
  22485223.249    22485222.908    22485220.035   -14024077.771 5 -10927844.472 5
        31.600          31.500
 09  1 28  2  8  0.0000000  0 10G 5G11G20G32G12G31G30G17G14G22
  23143428.307    23143427.156    23143427.101   -10575765.344 4  -8240853.071 4
        24.900          25.300
  22614219.496    22614219.164    22614217.364   -11807626.280 5  -9200744.873 4
        32.000          29.200
  24325354.177    24325352.746    24325352.174    -3152688.505 2  -2456639.186 2
        17.800          12.600
  22379165.773    22379165.340    22379165.034   -14654993.363 5 -11419469.942 5
        35.600          33.600
  23593916.679    23593916.393    23593914.511    -7780356.843 4  -6062613.882 4
        25.300          27.900
  21835781.386    21835781.432    21835779.327   -16989628.736 6 -13238664.499 6
        39.500          38.100
  23346805.951    23346806.178    23346805.125    -8328904.382 4  -6490052.842 4
        25.300          24.200
  24906900.920    24906900.345    24906897.239    -1979767.823 2  -1542675.684 1
        12.600          11.000
  20562158.280    20562157.793    20562156.348   -23240433.621 6 -18109420.189 7
        40.600          47.000
  22502386.069    22502385.693    22502382.758   -13933886.831 5 -10857565.836 5
        31.100          31.800
 09  1 28  2  8 30.0000000  0 10G 5G11G20G32G12G31G30G17G14G22
  23138210.952    23138210.055    23138209.783   -10603181.207 4  -8262216.059 4
        24.900          24.900
  22617158.993    22617158.723    22617156.923   -11792178.111 5  -9188707.341 4
        32.100          29.200
  24304900.467    24304899.948    24304899.678    -3260169.669 2  -2540390.721 2
        17.800          13.900
  22364581.603    22364580.879    22364580.769   -14731634.280 5 -11479190.135 5
        35.400          33.800
  23591300.521    23591299.913    23591297.554    -7794108.475 4  -6073329.435 4
        25.900          27.400
  21820119.599    21820119.635    21820117.644   -17071931.944 6 -13302796.856 6
        39.500          38.300
  23332159.498    23332159.568    23332158.969    -8405872.341 4  -6550027.836 4
        24.600          24.900
  24905987.832    24905987.588    24905986.557    -1984573.558 2  -1546420.378 3
        12.600          19.300
  20567839.483    20567838.970    20567837.308   -23210579.400 6 -18086157.158 7
        40.600          46.800
  22519599.449    22519598.959    22519595.855   -13843431.476 5 -10787081.170 5
        31.300          31.500
 09  1 28  2  9  0.0000000  0 10G 5G11G20G32G12G31G30G17G14G22
  23133110.134    23133108.967    23133108.651   -10629988.254 4  -8283104.681 4
        25.300          24.900
  22620206.773    22620206.453    22620204.311   -11776163.510 5  -9176228.429 4
        32.400          29.000
  24284467.291    24284466.205    24284466.210    -3367547.656 2  -2624061.860 2
        17.800          13.900
  22350042.903    22350041.819    22350041.445   -14808039.151 5 -11538726.391 5
        35.700          33.800
  23588795.176    23588794.987    23588792.711    -7807272.047 4  -6083586.760 4
        26.500          26.800
  21804534.651    21804534.716    21804532.881   -17153830.708 6 -13366614.054 6
        39.700          38.400
  23317592.251    23317592.207    23317591.421    -8482422.029 4  -6609676.917 4
        24.600          24.600
  24905180.014    24905181.169    24905178.282    -1988813.341 2  -1549724.121 3
        12.600          18.600
  20573595.138    20573594.692    20573593.111   -23180332.682 6 -18062588.285 7
        40.600          46.800
  22536862.657    22536862.295    22536859.106   -13752712.415 5 -10716391.010 5
        31.500          31.000
 09  1 28  2  9 30.0000000  0 10G 5G11G20G32G12G31G30G17G14G22
  23128124.529    23128123.583    23128123.321   -10656186.170 4  -8303518.630 4
        24.900          24.900
  22623361.851    22623361.422    22623359.437   -11759584.092 5  -9163309.398 4
        32.400          29.000
  24264054.213    24264053.308    24264052.618    -3474821.949 2  -2707652.196 2
        17.800          15.100
  22335548.319    22335547.444    22335547.051   -14884207.569 5 -11598078.405 5
        35.900          33.900
  23586401.503    23586401.584    23586399.578    -7819847.886 4  -6093386.116 4
        25.900          26.800
  21789027.191    21789027.174    21789025.133   -17235324.070 6 -13430115.352 6
        39.800          38.400
  23303105.215    23303105.356    23303104.432    -8558551.678 4  -6668998.711 4
        25.300          24.200
  24904480.429    24904480.795    24904480.179    -1992488.204 1  -1552587.769 3
        11.000          19.300
  20579425.228    20579424.722    20579423.155   -23149695.370 6 -18038715.054 7
        40.700          46.700
  22554175.256    22554175.031    22554172.101   -13661732.327 5 -10645497.457 5
        31.100          30.800
 09  1 28  2 10  0.0000000  0 10G 5G11G20G32G12G31G30G17G14G22
  23123254.653    23123253.840    23123253.064   -10681778.880 4  -8323461.010 4
        25.300          24.900
  22626623.013    22626622.617    22626620.401   -11742446.021 5  -9149955.053 4
        32.100          28.800
  24243660.290    24243659.397    24243657.798    -3581995.303 3  -2791163.873 2
        18.600          15.100
  22321097.740    22321097.032    22321097.040   -14960143.046 5 -11657248.898 5
        35.700          33.900
  23584120.005    23584119.728    23584117.448    -7831840.361 4  -6102730.908 4
        26.200          26.800
  21773595.897    21773595.939    21773593.908   -17316415.575 6 -13493303.518 6
        39.900          38.400
  23288697.702    23288697.894    23288696.818    -8634263.439 4  -6727994.869 4
        25.300          24.200
  24903887.878    24903888.027    24903888.244    -1995603.742 2  -1555015.423 2
        15.100          17.800
  20585328.403    20585327.898    20585326.394   -23118673.763 6 -18014542.372 7
        40.600          46.700
  22571536.543    22571536.473    22571533.619   -13570497.916 5 -10574405.739 5
        31.100          31.100
