     2.11           OBSERVATION DATA    G (GPS)             RINEX VERSION / TYPE
teqc  2008Oct2      WCDA Operator       20090107 00:18:55UTCPGM / RUN BY / DATE
Solaris x86 5.10|AMD64|cc SC5.8 -xarch=amd64|=+|=+          COMMENT
teqc  2008Oct2      WCDA Operator       20090106 01:18:41UTCCOMMENT
flin  WCDA-ACP   965000   CFS Flin Flon SASK Canada         MARKER NAME
40135M001                                                   MARKER NUMBER
PGC-WCDA            GEOL. SURV. CANADA                      OBSERVER / AGENCY
1115                AOA BENCHMARK ACT   3.3.32.4            REC # / TYPE / VERS
231                 AOAD/M_T        SCIS                    ANT # / TYPE
  -766174.4630 -3611375.3160  5184056.2210                  APPROX POSITION XYZ
        0.1500        0.0000        0.0000                  ANTENNA: DELTA H/E/N
     1     1                                                WAVELENGTH FACT L1/2
     7    C1    P1    P2    L1    L2    S1    S2            # / TYPES OF OBSERV
STATION INFORMATION EFFECTIVE FROM: 2001/01/13 18:20:00     COMMENT
                                TO: CURRENT DATE (above)    COMMENT
BIT 2 OF LLI FLAGS (+4) DATA COLLECTED UNDER 'AS' CONDITION COMMENT
L1 PHASE CENTRE 0.110m ABOVE ARP                            COMMENT
L2 PHASE CENTRE 0.128m ABOVE ARP                            COMMENT
where ARP is the Antenna Reference Point for HI measurement COMMENT
CONTACT gps@pgc.nrcan.gc.ca FOR ADDITIONAL INFORMATION      COMMENT
    P1 =    P1  TurboRogue; =    Y1  Benchmark              COMMENT
    L1 = L1(CA)                                             COMMENT
    P2 =    P2  TurboRogue; =    Y2  Benchmark              COMMENT
    L2 = L2(P2) TurboRogue; = L2(Y2) Benchmark              COMMENT
 SNR is mapped to RINEX snr flag value [0-9]                COMMENT
  L1 & L2: min(max(int(snr_dBHz/6), 0), 9)                  COMMENT
  2009     1     6     0     0    0.0000000     GPS         TIME OF FIRST OBS
                                                            END OF HEADER
 09  1  6  0  0  0.0000000  0 10G 6G26G 9G15G21G 3G22G19G18G24
  22290777.438    22290776.910    22290776.724   -12401778.258 5  -9663719.273 5
        32.800          32.800
  23135874.199    23135873.721    23135872.589    -6052457.687 3  -4716189.658 3
        21.100          23.400
  23555289.443    23555289.099    23555288.233    -7621701.053 3  -5938979.286 3
        19.300          22.600
  22047972.621    22047972.673    22047971.174   -14624959.076 5 -11396059.618 6
        35.900          37.700
  20730029.976    20730029.155    20730027.401   -25438742.099 6 -19822385.500 6
        41.000          41.400
  22375029.181    22375028.459    22375028.698   -11475836.177 5  -8942206.094 5
        30.400          31.100
  21580952.634    21580952.189    21580949.257   -18801196.854 6 -14650274.805 6
        38.200          38.700
  23827017.991    23827016.416    23827014.439    -6357028.595 3  -4953527.179 4
        23.400          24.600
  20454210.455    20454209.635    20454207.220   -25587966.597 6 -19938663.526 7
        38.100          46.600
  24145753.066    24145752.271    24145752.524    -3233806.374 2  -2519843.822 3
        12.600          21.100
 09  1  6  0  0 30.0000000  0 10G 6G26G 9G15G21G 3G22G19G18G24
  22293780.040    22293779.401    22293778.929   -12386001.617 5  -9651425.789 5
        33.100          33.000
  23156718.019    23156717.485    23156715.722    -5942925.295 3  -4630839.745 3
        21.600          23.000
  23535260.342    23535259.521    23535259.701    -7726952.994 3  -6020993.754 3
        19.300          22.600
  22061081.669    22061081.553    22061080.116   -14556071.080 5 -11342380.650 6
        35.800          37.700
  20739356.579    20739355.703    20739353.928   -25389730.645 6 -19784194.755 6
        41.000          41.200
  22376309.777    22376309.015    22376308.972   -11469108.028 5  -8936963.380 5
        30.800          31.000
  21567904.185    21567903.695    21567900.716   -18869766.934 6 -14703706.008 6
        38.300          38.800
  23813612.426    23813611.762    23813610.120    -6427467.717 3  -5008414.779 4
        22.100          24.900
  20451658.487    20451657.696    20451656.559   -25601377.265 6 -19949113.393 7
        38.100          46.500
  24165513.407    24165512.470    24165513.641    -3129961.881 2  -2438926.051 3
        12.600          19.900
 09  1  6  0  1  0.0000000  0 10G 6G26G 9G15G21G 3G22G19G18G24
  22296890.564    22296889.960    22296889.737   -12369654.688 5  -9638687.927 5
        32.700          32.800
  23177619.660    23177619.210    23177617.635    -5833084.921 3  -4545249.826 3
        20.500          23.000
  23515285.936    23515284.977    23515284.854    -7831920.381 3  -6102786.499 3
        19.900          23.400
  22074272.327    22074272.208    22074270.938   -14486753.480 5 -11288366.934 6
        35.600          37.800
  20748775.214    20748774.318    20748772.464   -25340235.874 6 -19745627.396 6
        41.100          41.100
  22377707.770    22377707.106    22377707.111   -11461760.863 5  -8931238.311 5
        31.100          30.800
  21554911.438    21554910.879    21554907.849   -18938044.795 6 -14756909.517 6
        38.600          38.700
  23800293.123    23800291.331    23800290.436    -6497465.288 3  -5062958.316 4
        21.600          25.300
  20449181.819    20449180.928    20449178.509   -25614392.504 6 -19959255.133 7
        38.100          46.600
  24185300.126    24185298.831    24185299.326    -3025988.321 2  -2357907.709 3
        12.600          19.900
 09  1  6  0  1 30.0000000  0 10G 6G26G 9G15G21G 3G22G19G18G24
  22300108.991    22300108.448    22300108.173   -12352740.695 5  -9625508.202 5
        32.400          32.700
  23198578.773    23198578.238    23198577.370    -5722942.428 3  -4459424.507 3
        20.500          23.400
  23495365.812    23495365.234    23495364.686    -7936601.853 3  -6184356.452 3
        20.500          23.800
  22087544.149    22087543.855    22087542.505   -14417011.110 5 -11234022.228 6
        35.700          37.700
  20758285.037    20758284.171    20758282.403   -25290260.897 6 -19706685.854 6
        41.000          41.000
  22379223.392    22379222.643    22379222.411   -11453797.805 5  -8925033.340 5
        31.600          30.800
  21541973.727    21541973.310    21541970.280   -19006031.951 6 -14809886.510 6
        38.700          38.800
  23787056.978    23787055.418    23787054.212    -6567021.540 3  -5117157.978 4
        21.100          24.900
  20446779.895    20446778.990    20446777.880   -25627014.368 6 -19969090.344 7
        38.100          46.500
  24205109.750    24205108.366    24205108.737    -2921889.570 2  -2276791.846 3
        15.100          18.600
 09  1  6  0  2  0.0000000  0 10G 6G26G 9G15G21G 3G22G19G18G24
  22303436.036    22303435.328    22303435.183   -12335257.836 5  -9611885.199 5
        32.600          32.800
  23219595.482    23219595.299    23219594.331    -5612498.161 3  -4373364.052 3
        19.900          23.400
  23475501.635    23475500.539    23475500.850    -8040991.225 3  -6265698.773 4
        19.300          24.600
  22100896.622    22100896.405    22100894.823   -14346843.481 5 -11179346.150 6
        35.800          37.400
  20767886.450    20767885.687    20767883.933   -25239803.928 6 -19667368.732 6
        40.900          40.800
  22380856.075    22380855.195    22380855.078   -11445217.396 5  -8918347.308 5
        31.500          30.600
  21529092.442    21529091.930    21529088.816   -19073724.801 6 -14862634.169 6
        38.900          38.900
  23773905.755    23773903.887    23773902.198    -6636131.298 3  -5171009.726 4
        20.500          24.200
  20444453.370    20444452.535    20444450.018   -25639240.414 6 -19978617.130 7
        38.100          46.600
  24224942.099    24224941.393    24224941.455    -2817664.428 2  -2195577.470 2
        16.100          17.800
 09  1  6  0  2 30.0000000  0 10G 6G26G 9G15G21G 3G22G19G18G24
  22306869.823    22306869.328    22306868.977   -12317212.579 5  -9597823.958 5
        32.400          32.700
  23240667.888    23240667.727    23240667.269    -5501761.220 3  -4287075.531 3
        20.500          23.800
  23455691.564    23455690.928    23455691.157    -8145090.634 3  -6346815.167 3
        21.100          23.800
  22114328.001    22114327.873    22114326.499   -14276258.828 5 -11124345.114 6
        35.400          37.200
  20777578.741    20777577.893    20777576.153   -25188871.574 6 -19627681.177 6
        41.000          40.900
  22382605.264    22382604.369    22382604.179   -11436025.655 5  -8911184.919 5
        31.300          30.400
  21516266.033    21516265.441    21516262.361   -19141128.351 6 -14915156.398 6
        38.900          39.100
  23760839.508    23760837.414    23760835.405    -6704798.280 3  -5224516.430 4
        21.600          24.600
  20442200.964    20442200.186    20442199.152   -25651076.268 6 -19987839.872 7
        38.100          46.300
  24244797.965    24244797.117    24244797.272    -2713320.220 2  -2114270.288 2
        16.100          16.100
 09  1  6  0  3  0.0000000  0 10G 6G26G 9G15G21G 3G22G19G18G24
  22310411.700    22310410.981    22310410.694   -12298601.548 5  -9583321.863 5
        32.300          32.800
  23261796.818    23261796.298    23261795.717    -5390730.711 3  -4200558.249 3
        20.500          23.000
  23435938.824    23435938.191    23435938.047    -8248892.463 3  -6427699.689 3
        20.500          22.600
  22127839.737    22127839.564    22127838.135   -14205255.634 5 -11069017.944 6
        35.600          37.400
  20787362.002    20787361.049    20787359.374   -25137460.482 6 -19587620.583 6
        40.800          40.700
  22384471.308    22384470.620    22384470.269   -11426219.153 5  -8903543.496 5
        31.800          30.400
  21503495.291    21503494.795    21503492.008   -19208237.654 6 -14967449.337 6
        38.800          39.300
  23747857.409    23747855.779    23747853.945    -6773016.466 3  -5277673.433 4
        21.600          24.600
  20440023.760    20440022.950    20440020.464   -25662517.769 6 -19996755.323 7
        38.100          46.400
  24264677.196    24264676.019    24264676.717    -2608854.216 2  -2032868.201 2
        15.100          13.900
 09  1  6  0  3 30.0000000  0 10G 6G26G 9G15G21G 3G22G19G18G24
  22314061.180    22314060.629    22314060.471   -12279421.916 5  -9568376.705 5
        32.300          33.000
  23282981.716    23282981.361    23282979.657    -5279405.991 3  -4113811.733 3
        19.900          22.600
  23416243.157    23416242.909    23416242.962    -8352389.363 3  -6508346.599 3
        19.300          21.600
  22141431.033    22141431.063    22141429.643   -14133832.133 5 -11013363.266 6
        35.600          37.300
  20797236.829    20797235.904    20797234.206   -25085567.740 6 -19547184.670 6
        40.900          40.600
  22386455.146    22386454.328    22386453.880   -11415794.407 5  -8895420.325 5
        31.800          30.200
  21490781.636    21490781.104    21490778.377   -19275047.977 6 -15019509.305 6
        38.700          39.400
  23734962.082    23734960.962    23734959.464    -6840779.731 3  -5330475.961 4
        21.600          25.300
  20437922.410    20437921.567    20437920.431   -25673560.619 6 -20005360.136 7
        38.100          46.400
  24284579.781    24284578.973    24284579.588    -2504264.133 2  -1951369.438 2
        12.600          13.900
 09  1  6  0  4  0.0000000  0 10G 6G26G 9G15G21G 3G22G19G18G24
  22317815.067    22317814.366    22317814.171   -12259695.343 5  -9553005.348 5
        32.300          32.800
  23304217.517    23304216.900    23304215.459    -5167811.204 3  -4026854.764 3
        19.300          22.100
  23396603.620    23396603.256    23396602.910    -8455598.483 3  -6588769.267 3
        19.300          21.600
  22155098.157    22155098.145    22155096.511   -14062011.672 5 -10957399.267 6
        35.600          37.100
  20807199.277    20807198.434    20807196.641   -25033214.626 6 -19506390.031 6
        40.800          40.500
  22388552.532    22388551.730    22388551.187   -11404773.322 5  -8886832.473 5
        31.500          30.600
  21478121.408    21478120.798    21478117.789   -19341579.120 6 -15071351.740 6
        39.000          39.400
  23722150.801    23722149.226    23722147.722    -6908106.384 3  -5382938.257 4
        23.400          25.300
  20435892.847    20435892.050    20435889.587   -25684226.020 6 -20013670.833 7
        38.100          46.400
  24304501.720    24304500.852    24304501.328    -2399571.993 1  -1869791.151 2
        11.000          13.900
 09  1  6  0  4 30.0000000  0 11G22G 6G26G 9G15G21G 3G14G19G18G24
  21465518.138    21465517.656    21465514.733   -19407808.832 6 -15122959.285 6
        39.200          39.500
  22321676.902    22321676.234    22321676.151   -12239401.055 5  -9537191.620 5
        32.100          33.000
  23325507.449    23325507.271    23325506.371    -5055927.906 3  -3939672.981 3
        18.600          22.100
  23377022.719    23377022.393    23377022.565    -8558494.602 3  -6668948.032 3
        19.300          23.000
  22168844.241    22168844.258    22168842.684   -13989774.851 5 -10901110.833 6
        35.400          36.900
  20817253.131    20817252.297    20817250.619   -24980380.510 6 -19465220.580 6
        40.600          40.300
  22390766.926    22390766.133    22390766.188   -11393134.866 5  -8877763.552 5
        31.300          30.600
  25214090.943    25214089.827    25214088.678           -.21912          .12112
        13.900          15.100
  23709427.054    23709424.829    23709423.103    -6974973.101 3  -5435042.186 4
        23.400          25.300
  20433939.177    20433938.377    20433937.193   -25694492.544 6 -20021670.717 7
        38.100          46.400
  24324446.839    24324446.270    24324446.996    -2294757.882 1  -1788117.844 2
         9.000          13.900
 09  1  6  0  5  0.0000000  0 11G22G 6G26G 9G15G21G 3G14G19G18G24
  21452971.702    21452971.203    21452968.254   -19473740.755 6 -15174334.791 6
        39.300          39.600
  22325645.942    22325645.321    22325644.776   -12218544.597 5  -9520939.840 5
        32.600          32.600
  23346851.362    23346850.930    23346850.439    -4943763.917 3  -3852272.462 3
        19.300          22.100
  23357502.233    23357501.656    23357501.903    -8661078.929 3  -6748883.813 4
        20.500          24.600
  22182668.392    22182668.172    22182666.777   -13917128.476 5 -10844503.265 6
        35.100          36.700
  20827397.735    20827396.826    20827395.167   -24927071.072 6 -19423680.756 6
        40.600          40.400
  22393098.380    22393097.642    22393097.409   -11380884.267 5  -8868217.634 5
        31.300          30.600
  25192050.407    25192050.056    25192048.924     -115815.943 2    -90245.803 2
        12.600          15.100
  23696789.498    23696787.645    23696785.604    -7041382.278 4  -5486789.574 4
        24.200          25.600
  20432060.607    20432059.725    20432057.286   -25704364.508 6 -20029363.154 7
        38.000          46.400
  24344416.091    24344415.050    24344414.864    -2189827.713 1  -1706354.113 2
        11.000          12.600
 09  1  6  0  5 30.0000000  0 11G22G 6G26G 9G15G21G 3G14G19G18G24
  21440480.850    21440480.296    21440477.256   -19539380.904 6 -15225482.942 6
        39.300          39.600
  22329720.362    22329719.672    22329719.450   -12197133.343 5  -9504255.753 5
        32.600          32.600
  23368246.805    23368246.142    23368246.009    -4831328.870 3  -3764660.720 3
        18.600          22.100
  23338039.977    23338039.414    23338039.506    -8763353.980 3  -6828578.618 4
        21.600          24.600
  22196568.698    22196568.704    22196567.102   -13844081.792 5 -10787583.769 6
        35.100          36.600
  20837631.043    20837630.307    20837628.639   -24873293.560 6 -19381776.202 6
        40.600          40.200
  22395544.747    22395543.785    22395543.616   -11368028.714 5  -8858200.320 5
        31.000          30.600
  25170015.249    25170015.447    25170018.867     -231592.217 1   -180461.030 2
         9.000          13.900
  23684238.925    23684236.814    23684234.585    -7107338.177 3  -5538183.766 4
        23.800          25.300
  20430255.969    20430255.098    20430253.870   -25713848.206 6 -20036753.042 7
        38.100          46.400
  24364404.198    24364403.646    24364402.347    -2084789.604 1  -1624506.239 2
        11.000          12.600
 09  1  6  0  6  0.0000000  0 11G22G 6G26G 9G15G21G 3G14G19G18G24
  21428046.968    21428046.434    21428043.274   -19604722.064 6 -15276398.114 6
        39.700          39.700
  22333901.134    22333900.587    22333900.389   -12175162.329 5  -9487135.491 5
        32.400          32.700
  23389695.165    23389694.798    23389693.647    -4718620.039 2  -3676835.674 3
        17.000          21.600
  23318637.855    23318637.437    23318637.360    -8865310.189 3  -6908024.986 3
        20.500          23.800
  22210545.841    22210545.763    22210544.246   -13770631.205 5 -10730349.540 6
        34.900          36.500
  20847954.789    20847953.935    20847952.266   -24819042.823 6 -19339502.904 6
        40.500          40.200
  22398107.181    22398106.281    22398106.093   -11354563.381 5  -8847707.860 5
        31.000          30.800
  25147992.202    25147992.247    25147995.637     -347321.141 1   -270639.400 1
         9.000          11.000
  23671775.285    23671773.568    23671771.345    -7172832.651 3  -5589218.417 4
        23.800          24.900
  20428526.314    20428525.448    20428522.768   -25722937.601 6 -20043835.686 7
        38.100          46.400
  24384413.854    24384412.622    24384412.361    -1979638.980 1  -1542570.688 2
        11.000          12.600
 09  1  6  0  6 30.0000000  0 11G22G 6G26G 9G15G21G 3G14G19G18G24
  21415670.445    21415669.926    21415667.010   -19669759.612 6 -15327076.702 6
        39.500          39.800
  22338188.842    22338188.437    22338188.322   -12152628.949 5  -9469577.021 5
        32.100          32.600
  23411194.872    23411194.325    23411193.848    -4605637.216 2  -3588797.104 3
        17.000          22.100
  23299298.501    23299298.011    23299297.653    -8966940.629 3  -6987217.508 3
        21.100          23.800
  22224600.353    22224600.143    22224598.463   -13696775.310 5 -10672799.487 6
        35.200          36.400
  20858368.883    20858368.012    20858366.317   -24764316.093 6 -19296858.707 6
        40.500          39.900
  22400785.882    22400785.124    22400785.073   -11340485.266 5  -8836737.903 5
        31.100          31.100
  25125982.271    25125980.423    25125981.869     -462997.041 1   -360776.457 1
         6.500          11.000
  23659400.521    23659398.521    23659397.361    -7237860.096 3  -5639889.148 4
        23.400          25.600
  20426872.321    20426871.470    20426870.313   -25731629.024 6 -20050608.218 7
        38.100          46.400
  24404444.596    24404444.047    24404443.842    -1874373.618 1  -1460545.731 2
        11.000          13.900
 09  1  6  0  7  0.0000000  0 11G22G 6G26G 9G15G21G 3G14G19G18G24
  21403352.172    21403351.673    21403348.681   -19734492.823 6 -15377518.146 6
        39.500          39.900
  22342584.267    22342583.475    22342583.103   -12129534.063 5  -9451581.006 5
        32.400          32.600
  23432747.247    23432746.441    23432744.987    -4492383.280 2  -3500547.296 3
        17.800          20.500
  23280021.228    23280020.356    23280020.627    -9068241.817 3  -7066153.477 4
        21.100          24.900
  22238731.560    22238731.345    22238729.731   -13622516.299 5 -10614935.315 6
        35.200          36.500
  20868873.682    20868872.733    20868870.842   -24709114.173 6 -19253844.215 6
        40.500          39.700
  22403581.301    22403580.476    22403580.690   -11325795.083 5  -8825291.017 5
        31.000          31.100
  25103979.412    25103978.401    25103979.128     -578618.113 1   -450870.756 1
         6.500           9.000
  23647115.653    23647113.875    23647112.521    -7302418.180 3  -5690194.131 4
        23.800          26.500
  20425294.114    20425293.275    20425290.714   -25739922.407 6 -20057070.589 7
        38.100          46.400
  24424496.903    24424495.989    24424495.994    -1768994.878 1  -1378432.449 2
         6.500          13.900
 09  1  6  0  7 30.0000000  0 11G22G 6G26G 9G15G21G 3G14G19G18G24
  21391090.929    21391090.373    21391087.297   -19798926.742 6 -15427726.370 6
        39.700          39.900
  22347084.132    22347083.605    22347083.329   -12105885.039 5  -9433153.196 5
        32.100          32.400
  23454347.615    23454347.310    23454346.171    -4378867.721 3  -3412093.592 3
        18.600          21.100
  23260806.660    23260806.133    23260805.806    -9169216.492 3  -7144834.987 4
        22.100          26.200
  22252937.684    22252937.395    22252935.647   -13547862.935 5 -10556763.856 6
        35.100          36.300
  20879467.037    20879466.228    20879464.442   -24653444.514 6 -19210465.259 6
        40.500          39.500
  22406492.333    22406491.438    22406491.143   -11310499.928 5  -8813372.715 5
        31.300          31.000
  25081987.031    25081986.365    25081986.293     -694188.640 1   -540925.648 1
         6.500           9.000
  23634919.605    23634917.819    23634915.735    -7366511.512 4  -5740136.968 4
        24.600          26.200
  20423790.349    20423789.542    20423788.329   -25747824.250 6 -20063227.865 7
        38.000          46.100
  24444569.670    24444570.001    24444569.704    -1663510.827 1  -1296237.112 2
         6.500          16.100
 09  1  6  0  8  0.0000000  0 11G22G 6G26G 9G15G21G 3G14G19G18G24
  21378886.586    21378886.064    21378882.858   -19863060.828 6 -15477700.972 6
        39.700          39.900
  22351690.020    22351689.424    22351688.922   -12081682.125 5  -9414293.790 5
        32.600          32.600
  23475997.792    23475997.791    23475996.716    -4265093.069 3  -3323438.002 3
        18.600          22.100
  23241654.777    23241654.149    23241653.868    -9269860.275 3  -7223258.666 4
        22.100          25.600
  22267218.388    22267218.208    22267216.457   -13472817.032 5 -10498286.523 6
        34.800          36.300
  20890149.571    20890148.736    20890147.010   -24597307.168 6 -19166721.870 6
        40.300          39.500
  22409517.855    22409516.789    22409516.667   -11294600.271 5  -8800983.375 5
        30.800          30.800
  25060005.916    25060004.872    25060004.843     -809706.088 1   -630939.226 1
         9.000           9.000
  23622811.385    23622809.866    23622808.230    -7430137.158 4  -5789715.378 4
        24.900          26.200
  20422361.524    20422360.676    20422358.165   -25755333.648 6 -20069079.340 7
        38.100          46.600
  24464663.357    24464662.358    24464662.118    -1557921.892    -1213960.052 2
         3.000          16.100
 09  1  6  0  8 30.0000000  0 11G22G 6G26G 9G15G21G 3G14G19G18G24
  21366738.580    21366738.074    21366735.065   -19926898.570 6 -15527444.651 6
        39.700          40.200
  22356399.701    22356399.196    22356399.102   -12056931.227 5  -9395007.372 5
        32.300          33.000
  23497696.615    23497696.636    23497695.768    -4151067.447 2  -3234586.846 3
        17.000          23.000
  23222564.720    23222564.256    23222564.587    -9370174.206 3  -7301425.337 4
        21.100          24.900
  22281572.177    22281572.051    22281570.568   -13397386.232 5 -10439509.279 6
        34.500          36.500
  20900920.012    20900919.222    20900917.425   -24540708.226 6 -19122618.792 6
        40.500          39.200
  22412656.992    22412656.165    22412656.254   -11278101.726 5  -8788127.380 5
        30.600          31.000
  25038033.502    25038033.039    25038032.339     -925173.296     -720913.646 1
         3.000          11.000
  23610792.148    23610790.881    23610788.775    -7493297.910 4  -5838931.529 4
        24.600          25.900
  20421006.282    20421005.441    20421004.262   -25762455.407 6 -20074628.762 7
        38.100          46.400
  24484774.900    24484774.510    24484774.788    -1452234.484    -1131606.244 2
                        16.100
 09  1  6  0  9  0.0000000  0 11G22G 6G26G 9G15G21G 3G14G19G18G24
  21354648.697    21354648.105    21354645.117   -19990431.572 6 -15576950.861 6
        39.800          40.300
  22361215.157    22361214.612    22361214.590   -12031626.040 5  -9375289.052 5
        32.000          33.100
  23519444.104    23519443.660    23519442.217    -4036786.361 2  -3145536.657 3
        17.000          22.600
  23203541.339    23203540.860    23203540.542    -9470147.438 3  -7379326.519 4
        21.600          25.300
  22296000.379    22296000.289    22295998.633   -13321564.651 5 -10380427.528 5
        34.400          35.900
  20911779.705    20911778.821    20911776.919   -24483640.855 6 -19078150.709 6
        40.500          39.000
  22415911.938    22415911.030    22415911.091   -11260997.808 5  -8774799.667 5
        30.600          31.000
  25016073.342    25016071.814    25016071.738    -1040580.741     -810841.436 2
         3.000          12.600
  23598863.127    23598861.668    23598859.972    -7555984.127 3  -5887777.912 4
        23.800          26.200
  20419726.180    20419725.367    20419722.801   -25769182.139 6 -20079870.369 7
        38.100          46.500
  24504903.835    24504902.810    24504907.513    -1346442.812    -1049171.221 1
                        11.000
 09  1  6  0  9 30.0000000  0 11G22G 6G26G 9G15G21G 3G14G19G18G24
  21342616.570    21342616.101    21342613.085   -20053660.125 6 -15626219.851 6
        40.000          40.400
  22366135.737    22366135.064    22366135.002   -12005768.747 5  -9355140.516 5
        31.800          32.800
  23541239.069    23541238.300    23541237.088    -3922253.888 2  -3056290.566 3
        17.000          21.600
  23184582.369    23184581.450    23184581.671    -9569777.342 3  -7456960.168 4
        21.600          25.600
  22310502.061    22310502.261    22310500.711   -13245355.597 5 -10321043.843 5
        34.100          35.700
  20922727.892    20922727.067    20922725.298   -24426107.020 6 -19033319.143 6
        40.400          38.900
  22419281.788    22419281.079    22419280.832   -11243290.037 5  -8761001.400 5
        31.100          31.300
  24994122.518    24994121.889    24994120.987    -1155927.270 1   -900721.748 1
         6.500          11.000
  23587025.393    23587023.562    23587021.581    -7618194.835 3  -5936253.775 4
        23.800          26.500
  20418521.106    20418520.280    20418519.152   -25775514.519 6 -20084804.684 7
        38.100          46.400
  24525054.643    24525053.913    24525053.870    -1240549.211     -966656.759 2
                        13.900
 09  1  6  0 10  0.0000000  0 11G22G 6G26G 9G15G21G 3G14G19G18G24
  21330643.197    21330642.643    21330639.691   -20116580.979 6 -15675249.077 6
        39.900          40.500
  22371161.616    22371161.032    22371160.938   -11979357.782 5  -9334560.548 5
        32.000          33.000
  23563081.894    23563081.117    23563079.494    -3807471.011 2  -2966849.340 3
        17.800          21.600
  23165689.596    23165688.885    23165688.948    -9669058.082 3  -7534321.750 4
        22.600          25.900
  22325078.142    22325078.275    22325076.609   -13168759.639 5 -10261358.679 5
        34.500          35.900
  20933765.282    20933764.466    20933762.657   -24368105.433 6 -18988123.100 6
        40.500          38.800
  22422766.515    22422765.663    22422765.678   -11224977.280 5  -8746731.724 5
        30.800          31.100
  24972183.574    24972184.666    24972183.026    -1271208.896     -990551.497 1
         3.000           9.000
  23575278.417    23575276.291    23575274.639    -7679925.733 4  -5984355.752 4
        24.200          26.500
  20417391.488    20417390.729    20417388.072   -25781450.461 6 -20089430.095 7
        38.100          46.400
  24545227.319    24545226.681    24545227.998    -1134552.844     -884062.281 2
                        15.100
 09  1  6  0 10 30.0000000  0 11G22G 6G26G 9G15G21G 3G14G19G18G24
  21318728.320    21318727.824    21318725.038   -20179193.085 6 -15724037.716 6
        39.800          40.700
  22376292.819    22376291.910    22376291.852   -11952394.201 5  -9313549.968 5
        31.800          32.800
  23584970.738    23584970.138    23584969.185    -3692440.517 2  -2877215.191 3
        17.000          21.100
  23146863.929    23146863.320    23146863.703    -9767985.750 3  -7611408.209 4
        22.100          26.500
  22339727.477    22339727.288    22339725.672   -13091778.738 5 -10201373.558 5
        34.500          35.900
  20944891.629    20944890.678    20944888.810   -24309636.621 6 -18942562.987 6
        40.300          38.500
  22426365.809    22426365.140    22426365.270   -11206060.103 5  -8731991.072 5
        30.400          30.600
  24950259.725    24950259.083    24950256.960    -1386423.065 1  -1080328.677 1
         6.500          11.000
  23563623.186    23563621.523    23563619.662    -7741174.159 4  -6032081.782 4
        24.900          27.100
  20416337.712    20416336.812    20416335.612   -25786989.427 6 -20093746.169 7
        38.200          46.600
  24565417.774    24565416.851    24565418.501    -1028454.664 1   -801388.396 2
         6.500          17.000
 09  1  6  0 11  0.0000000  0 11G22G 6G26G 9G15G21G 3G14G19G18G24
  21306873.077    21306872.562    21306869.466   -20241493.779 6 -15772583.703 6
        40.100          40.500
  22381529.110    22381528.418    22381528.131   -11924877.214 5  -9292108.163 5
        32.000          32.800
  23606906.664    23606906.572    23606905.405    -3577163.651 2  -2787389.049 3
        17.000          21.600
  23128107.492    23128106.835    23128106.873    -9866555.076 3  -7688215.410 4
        22.100          26.500
  22354449.563    22354449.405    22354447.847   -13014413.175 5 -10141088.700 5
        34.300          35.900
  20956106.702    20956105.882    20956104.143   -24250699.955 6 -18896638.310 6
        40.300          38.500
  22430081.084    22430080.296    22430080.258   -11186537.979 5  -8716779.031 5
        30.600          30.800
  24928349.120    24928348.385    24928346.589    -1501566.083    -1170050.394 2
         3.000          12.600
  23552061.119    23552059.376    23552057.110    -7801936.662 4  -6079429.171 4
        24.600          27.100
  20415359.462    20415358.678    20415356.060   -25792129.566 6 -20097751.470 7
        38.200          46.600
  24585627.056    24585626.488    24585627.697     -922254.317 1   -718634.877 2
         9.000          16.100
 09  1  6  0 11 30.0000000  0 11G22G 6G26G 9G15G21G 3G14G19G18G24
  21295076.753    21295076.124    21295073.021   -20303484.080 6 -15820887.827 6
        40.000          40.600
  22386869.989    22386869.342    22386869.078   -11896810.329 5  -9270237.862 5
        32.100          32.700
  23628889.375    23628888.965    23628887.595    -3461645.595 2  -2697374.982 3
        15.100          21.600
  23109418.556    23109418.251    23109417.874    -9964764.378 3  -7764742.113 4
        23.400          25.900
  22369244.198    22369243.986    22369242.418   -12936667.895 5 -10080507.959 6
        34.100          36.200
  20967410.506    20967409.637    20967407.981   -24191298.509 6 -18850351.469 6
        40.200          38.500
  22433911.014    22433910.234    22433909.987   -11166413.405 5  -8701097.557 5
        31.000          30.600
  24906450.145    24906450.782    24906449.377    -1616638.288    -1259716.930 2
         3.000          12.600
  23540589.886    23540588.163    23540586.752    -7862213.457 3  -6126398.086 4
        23.000          27.100
  20414456.686    20414455.883    20414454.670   -25796873.242 6 -20101447.836 7
        38.200          46.400
  24605855.469    24605854.718    24605854.857     -815955.557 1   -635804.700 2
         9.000          16.100
 09  1  6  0 12  0.0000000  0 11G22G 6G26G 9G15G21G 3G14G19G18G24
  21283337.450    21283336.958    21283334.012   -20365173.543 6 -15868957.528 6
        40.000          40.900
  22392313.091    22392312.525    22392312.563   -11868205.065 5  -9247948.044 5
        31.600          32.600
  23650915.456    23650914.705    23650913.329    -3345899.982 2  -2607183.608 3
        15.100          21.100
  23090797.200    23090796.872    23090796.298   -10062620.457 3  -7840993.586 4
        23.400          25.600
  22384108.426    22384108.134    22384106.599   -12858555.582 5 -10019641.224 6
        33.800          36.100
  20978800.545    20978799.678    20978797.821   -24131443.792 6 -18803711.428 6
        40.300          38.200
  22437852.756    22437851.901    22437851.723   -11145698.574 5  -8684956.134 5
        30.600          30.400
  24884564.804    24884564.497    24884564.431    -1731648.172    -1349334.937 2
         3.000          15.100
  23529210.057    23529208.540    23529207.329    -7922012.805 3  -6172994.956 4
        23.400          27.400
  20413627.534    20413626.768    20413624.148   -25801230.828 6 -20104843.356 7
        38.300          46.700
  24626098.675    24626097.618    24626099.219     -709570.153 1   -552907.014 2
         9.000          13.900
 09  1  6  0 12 30.0000000  0 11G 6G26G 9G15G21G 3G22G14G19G18G24
  22397858.939    22397858.365    22397858.357   -11839061.239 5  -9225238.575 5
        31.500          32.600
  23672983.612    23672983.659    23672981.951    -3229928.493 2  -2516816.217 3
        16.100          21.600
  23072243.916    23072243.531    23072243.292   -10160118.350 3  -7916965.942 4
        23.400          25.900
  22399042.152    22399042.024    22399040.576   -12780077.100 5  -9958489.164 5
        33.600          35.700
  20990276.856    20990275.994    20990274.122   -24071135.432 6 -18756717.900 6
        40.200          38.100
  22441907.092    22441906.217    22441906.130   -11124393.179 5  -8668354.532 5
        30.600          30.400
  21271655.885    21271655.408    21271652.528   -20426560.216 6 -15916791.291 6
        40.000          41.000
  24862694.293    24862692.996    24862691.252    -1846592.138    -1438901.609 2
         3.000          16.100
  23517922.570    23517921.287    23517919.057    -7981331.415 4  -6219217.230 4
        24.200          26.800
  20412872.002    20412871.236    20412869.954   -25805201.072 6 -20107937.047 7
        38.400          46.700
  24646360.156    24646358.630    24646359.776     -603098.190 1   -469941.862 2
         6.500          13.900
 09  1  6  0 13  0.0000000  0 11G21G 6G26G 9G15G 3G22G14G19G18G24
  21001841.108    21001840.210    21001838.347   -24010365.424 6 -18709364.642 6
        40.300          38.000
  22403509.075    22403508.430    22403508.307   -11809371.136 5  -9202103.434 5
        31.600          32.600
  23695096.852    23695096.057    23695095.082    -3113725.358 2  -2426268.310 3
        17.000          21.100
  23053761.046    23053760.372    23053760.355   -10257245.936 3  -7992649.735 4
        22.600          26.200
  22414047.131    22414046.903    22414045.450   -12701225.950 5  -9897046.710 5
        33.400          35.300
  22446075.011    22446074.431    22446074.139   -11102489.083 5  -8651286.417 5
        30.600          30.200
  21260033.842    21260033.381    21260030.403   -20487634.360 6 -15964381.527 6
        40.000          41.000
  24840835.286    24840834.486    24840833.270    -1961459.462 1  -1528408.518 2
         6.500          16.100
  23506728.205    23506726.708    23506724.596    -8040158.170 4  -6265056.260 4
        24.900          26.200
  20412192.006    20412191.199    20412188.504   -25808774.726 6 -20110721.712 7
        38.400          46.800
  24666639.167    24666636.484    24666638.862     -496532.305     -386903.518 2
                        12.600
 09  1  6  0 13 30.0000000  0 11G21G 6G26G 9G15G 3G22G14G19G18G24
  21013493.198    21013492.309    21013490.299   -23949133.443 6 -18661651.410 6
        40.300          37.900
  22409262.910    22409262.359    22409262.342   -11779134.485 5  -9178542.407 5
        31.800          32.600
  23717253.203    23717252.808    23717251.891    -2997292.035 2  -2335541.041 3
        16.100          20.500
  23035350.255    23035349.397    23035349.039   -10353997.837 3  -8068040.781 4
        23.000          25.600
  22429122.708    22429122.324    22429120.973   -12622003.285 5  -9835314.761 5
        33.100          34.900
  22450357.520    22450356.568    22450356.514   -11079986.007 5  -8633751.567 5
        30.600          30.400
  21248471.880    21248471.313    21248468.332   -20548393.599 6 -16011726.383 6
        40.000          41.100
  24818991.940    24818990.599    24818989.771    -2076246.517 1  -1617852.919 2
         6.500          17.000
  23495628.182    23495626.314    23495624.811    -8098489.925 4  -6310509.574 4
        25.300          27.400
  20411587.740    20411586.896    20411585.677   -25811950.215 6 -20113196.113 7
        38.400          46.800
  24686934.723    24686933.844    24686937.524     -389872.419     -303791.953 2
                        12.600
 09  1  6  0 14  0.0000000  0 11G 6G26G 9G15G21G 3G22G14G19G18G24
  22415120.580    22415119.889    22415119.500   -11748352.641 5  -9154556.555 5
        31.500          32.100
  23739451.991    23739451.577    23739451.876    -2880631.658 2  -2244636.849 3
        15.100          19.900
  23017010.442    23017010.169    23017009.963   -10450370.604 3  -8143136.432 4
        23.000          24.900
  22444268.365    22444268.169    22444266.727   -12542411.513 5  -9773295.197 5
        33.200          34.900
  21025232.921    21025231.995    21025230.106   -23887440.524 6 -18613579.007 6
        40.000          37.700
  22454753.193    22454752.424    22454752.555   -11056885.212 5  -8615750.953 5
        30.400          30.800
  21236969.721    21236969.268    21236966.395   -20608836.979 6 -16058825.116 6
        40.000          41.300
  24797162.264    24797161.973    24797161.842    -2190951.338 1  -1707233.234 2
         6.500          17.800
  23484622.760    23484621.141    23484619.638    -8156324.569 4  -6355575.510 4
        25.600          27.400
  20411059.085    20411058.298    20411055.765   -25814727.974 6 -20115360.600 7
        38.400          46.700
  24707249.937    24707250.062    24707251.287     -283120.136     -220608.407 2
                        12.600
 09  1  6  0 14 30.0000000  0 11G21G 6G26G 9G15G 3G22G14G19G18G24
  21037059.526    21037058.614    21037056.653   -23825291.517 6 -18565151.210 6
        40.100          37.500
  22421080.886    22421080.297    22421080.047   -11717030.421 5  -9130149.627 5
        31.600          32.300
  23761693.309    23761693.643    23761692.815    -2763750.856 2  -2153560.889 3
        15.100          19.900
  22998743.721    22998743.108    22998742.846   -10546364.270 3  -8217936.679 4
        22.600          24.900
  22459483.139    22459483.234    22459481.839   -12462456.327 5  -9710992.445 5
        33.500          35.200
  22459262.520    22459261.571    22459261.486   -11033190.954 5  -8597287.901 5
        30.400          31.000
  21225527.418    21225526.938    21225524.026   -20668967.253 6 -16105679.871 6
        40.200          41.400
  24775349.913    24775349.787    24775348.910    -2305575.842 1  -1796550.961 2
        11.000          16.100
  23473711.800    23473710.029    23473707.768    -8213663.750 4  -6400255.395 4
        26.500          26.500
  20410605.428    20410604.691    20410603.446   -25817111.510 6 -20117217.896 7
        38.400          46.500
  24727580.982    24727581.362    24727582.623     -176280.362     -137356.695 2
                        13.900
 09  1  6  0 15  0.0000000  0 11G21G 6G26G 9G15G 3G22G14G19G18G24
  21048972.353    21048971.366    21048969.378   -23762689.471 6 -18516370.388 6
        40.000          37.300
  22427143.472    22427142.801    22427142.653   -11685171.098 5  -9105324.176 5
        31.300          32.100
  23783975.699    23783976.206    23783976.286    -2646654.826 2  -2062317.206 3
        15.100          19.900
  22980549.351    22980548.619    22980548.068   -10641977.314 3  -8292440.342 4
        23.800          25.300
  22474766.431    22474766.313    22474765.117   -12382142.438 5  -9648410.191 5
        33.100          35.100
  22463883.529    22463882.591    22463882.368   -11008907.019 5  -8578365.359 5
        30.800          30.800
  21214144.134    21214143.678    21214140.693   -20728786.325 6 -16152292.129 6
        40.100          41.300
  24753553.210    24753552.677    24753552.040    -2420120.110 2  -1885806.230 2
        12.600          16.100
  23462894.612    23462892.977    23462890.701    -8270507.880 4  -6444549.524 4
        27.100          26.500
  20410226.557    20410225.770    20410223.263   -25819102.846 6 -20118769.582 7
        38.400          46.800
  24747931.064    24747929.740    24747930.070      -69356.623      -54039.526 2
                        13.900
 09  1  6  0 15 30.0000000  0 11G21G 6G26G 9G15G 3G22G14G19G18G24
  21060972.240    21060971.447    21060969.687   -23699627.907 6 -18467231.505 6
        39.700          37.500
  22433309.559    22433308.908    22433308.501   -11652768.651 5  -9080075.515 5
        31.300          31.800
  23806301.916    23806301.818    23806300.210    -2529339.013 2  -1970902.276 3
        16.100          19.900
  22962429.278    22962428.497    22962428.019   -10737198.621 4  -8366638.745 4
        24.200          25.600
  22490118.936    22490118.806    22490117.420   -12301464.540 5  -9585544.302 5
        32.800          35.100
  22468618.087    22468617.206    22468616.889   -10984027.078 5  -8558978.395 5
        30.800          30.600
  21202822.154    21202821.618    21202818.493   -20788285.000 6 -16198654.729 6
        40.200          41.500
  24731773.698    24731773.167    24731772.602    -2534574.103 2  -1974991.134 2
        12.600          17.000
  23452173.223    23452171.480    23452169.563    -8326847.242 4  -6488450.314 4
        27.400          26.500
  20409923.699    20409922.923    20409921.627   -25820694.249 6 -20120009.633 7
        38.500          46.600
  24768293.537    24768292.754    24768292.301       37657.270       29347.879 1
         3.000          11.000
 09  1  6  0 16  0.0000000  0 11G 6G26G 9G15G21G 3G22G14G19G18G24
  22439576.574    22439575.970    22439575.825   -11619834.188 5  -9054412.292 5
        31.000          32.000
  23828666.492    23828665.513    23828663.517    -2411816.210 2  -1879326.048 3
        15.100          19.300
  22944382.275    22944381.799    22944381.291   -10832034.454 3  -8440536.781 4
        23.400          25.300
  22505538.258    22505538.251    22505536.673   -12220434.846 5  -9522404.277 5
        32.400          34.500
  21073057.801    21073056.981    21073055.272   -23636118.104 6 -18417743.346 6
        39.700          37.400
  22473463.952    22473463.009    22473462.789   -10958561.980 5  -8539135.460 5
        30.600          30.400
  21191559.120    21191558.563    21191555.611   -20847472.260 6 -16244774.665 6
        40.200          41.700
  24710009.585    24710009.227    24710008.204    -2648945.867 1  -2064111.960 2
        11.000          15.100
  23441546.463    23441544.811    23441542.939    -8382690.014 4  -6531964.145 4
        27.600          26.500
  20409695.250    20409694.357    20409691.865   -25821895.489 6 -20120945.663 7
        38.500          47.000
  24788671.061    24788670.397    24788671.022      144750.078 1    112796.781 1
         6.500          11.000
 09  1  6  0 16 30.0000000  0 11G 6G26G 9G15G21G 3G22G14G19G18G24
  22445945.251    22445944.647    22445944.473   -11586366.778 5  -9028333.785 5
        31.000          32.100
  23851068.886    23851068.175    23851066.830    -2294087.074 2  -1787589.064 3
        12.600          19.300
  22926409.796    22926409.071    22926409.003   -10926478.933 3  -8514129.845 4
        22.100          25.300
  22521024.604    22521024.489    22521023.049   -12139053.626 5  -9458990.334 5
        32.400          34.500
  21085228.926    21085228.130    21085226.519   -23572158.336 6 -18367904.565 6
        39.700          37.400
  22478421.003    22478420.198    22478420.049   -10932510.530 4  -8518835.628 5
        29.900          30.100
  21180355.983    21180355.483    21180352.385   -20906345.305 6 -16290649.763 6
        40.300          41.800
  24688261.511    24688260.861    24688260.287    -2763231.451 1  -2153165.636 2
        11.000          13.900
  23431015.863    23431014.185    23431012.132    -8438031.985 4  -6575087.753 4
        27.600          26.800
  20409541.105    20409540.339    20409539.098   -25822704.843 6 -20121576.327 7
        38.500          46.800
  24809065.338    24809064.962    24809065.959      251922.419 1    196307.651 1
         6.500          11.000
 09  1  6  0 17  0.0000000  0 11G 6G26G 9G15G21G 3G22G14G19G18G24
  22452413.664    22452413.057    22452413.072   -11552374.580 5  -9001846.354 5
        30.800          32.300
  23873508.748    23873508.396    23873507.134    -2176161.750 1  -1695699.226 3
        11.000          19.300
  22908512.008    22908511.313    22908510.482   -11020535.735 3  -8587420.830 4
        23.800          25.600
  22536576.394    22536576.196    22536574.632   -12057330.222 5  -9395309.763 5
        32.700          34.500
  21097484.122    21097483.320    21097481.528   -23507756.862 6 -18317721.600 6
        39.500          37.200
  22483488.123    22483487.348    22483487.558   -10905881.314 4  -8498085.597 5
        29.700          30.200
  21169211.380    21169210.952    21169207.844   -20964910.162 6 -16336284.710 6
        40.500          41.800
  24666528.943    24666528.667    24666526.805    -2877435.651 1  -2242155.960 2
         9.000          12.600
  23420578.649    23420576.529    23420575.113    -8492878.371 4  -6617825.194 4
        26.200          26.800
  20409460.346    20409459.594    20409457.131   -25823129.137 6 -20121906.943 7
        38.600          47.000
  24829472.697    24829472.103    24829474.233      359165.659 1    279873.810 1
         6.500          11.000
 09  1  6  0 17 30.0000000  0 11G21G 6G26G 9G15G 3G22G14G19G18G24
  21109827.795    21109826.929    21109825.165   -23442890.757 6 -18267176.586 6
        39.500          37.100
  22458986.840    22458986.095    22458985.773   -11517834.574 5  -8974932.067 5
        31.000          32.100
  23895990.093    23895989.860    23895989.580    -2058018.676 1  -1603639.693 3
        11.000          19.900
  22890692.624    22890691.837    22890691.645   -11114176.723 3  -8660387.822 4
        23.800          26.500
  22552196.890    22552196.900    22552195.519   -11975242.279 5  -9331345.131 5
        32.300          34.500
  22488670.185    22488669.318    22488669.359   -10878651.184 4  -8476867.331 5
        29.700          30.200
  21158130.147    21158129.672    21158126.848   -21023141.515 6 -16381659.789 7
        40.200          42.000
  24644817.930    24644817.135    24644815.495    -2991531.773 1  -2331061.989 1
         6.500          11.000
  23410240.811    23410238.954    23410237.490    -8547202.651 4  -6660155.793 4
        26.500          27.100
  20409457.692    20409456.869    20409455.669   -25823143.716 6 -20121918.300 7
        38.600          47.100
  24849898.736    24849897.126    24849898.796      466502.973      363513.227 1
                        11.000
 09  1  6  0 18  0.0000000  0 11G 6G26G 9G15G21G 3G22G14G19G18G24
  22465660.932    22465660.353    22465660.130   -11482760.070 5  -8947601.290 5
        30.400          31.800
  23918509.778    23918509.038    23918509.628    -1939672.536 1  -1511421.940 3
        11.000          18.600
  22872950.625    22872950.070    22872950.167   -11207409.972 4  -8733037.078 4
        24.900          27.400
  22567884.324    22567884.271    22567882.788   -11892804.186 5  -9267107.657 5
        32.100          34.300
  21122257.321    21122256.470    21122254.740   -23377572.635 6 -18216279.348 6
        39.300          36.900
  22493963.974    22493963.050    22493962.620   -10850832.927 4  -8455190.766 4
        29.700          29.900
  21147110.426    21147109.917    21147107.111   -21081050.402 6 -16426783.587 7
        40.200          42.000
  24623124.955    24623124.322    24623122.298    -3105529.627 1  -2419891.467 1
         6.500           6.500
  23400000.833    23399998.971    23399997.221    -8601014.705 4  -6702087.275 4
        27.400          27.100
  20409530.679    20409529.836    20409527.134   -25822760.290 6 -20121619.523 7
        38.700          47.100
  24870339.123    24870337.929    24870339.552      573921.196      447215.671 1
                        11.000
 09  1  6  0 18 30.0000000  0 11G 6G26G 9G15G21G 3G22G14G19G18G24
  22472435.082    22472434.364    22472434.270   -11447162.558 5  -8919862.967 5
        31.000          32.100
  23941065.707    23941066.818    23941067.192    -1821136.459 1  -1419056.164 3
         9.000          18.600
  22855285.227    22855284.878    22855284.420   -11300242.195 4  -8805373.859 4
        25.300          27.400
  22583636.207    22583636.082    22583634.645   -11810028.131 5  -9202606.841 5
        32.100          34.300
  21134771.031    21134770.169    21134768.246   -23311813.604 6 -18165038.549 6
        39.300          36.800
  22499367.038    22499366.387    22499366.282   -10822438.069 5  -8433064.908 5
        30.100          30.100
  21136150.589    21136150.061    21136147.066   -21138645.924 6 -16471663.212 7
        40.500          42.100
  24601447.345    24601446.501    24601445.628    -3219437.416    -2508650.796 1
         3.000           6.500
  23389856.515    23389854.785    23389853.322    -8654322.624 4  -6743625.903 4
        27.400          27.600
  20409677.413    20409676.599    20409675.322   -25821989.014 6 -20121018.525 7
        38.600          47.100
  24890792.634    24890790.959    24890793.481      681408.934      530972.303 1
                         9.000
 09  1  6  0 19  0.0000000  0 11G 6G26G 9G15G21G 3G22G14G19G18G24
  22479309.176    22479308.435    22479308.336   -11411039.913 5  -8891715.457 5
        30.600          32.300
  23963659.086    23963659.530    23963660.338    -1702410.174 1  -1326542.187 3
        11.000          19.900
  22837697.182    22837697.010    22837696.444   -11392666.611 4  -8877392.851 4
        24.600          27.400
  22599452.680    22599452.470    22599450.740   -11726913.716 5  -9137842.356 5
        32.600          34.100
  21147368.787    21147367.958    21147366.146   -23245611.776 6 -18113452.708 6
        39.200          36.700
  22504880.982    22504880.010    22504879.708   -10793464.733 5  -8410488.292 5
        30.200          30.100
  21125250.883    21125250.322    21125247.383   -21195924.038 6 -16516295.500 7
        40.500          42.100
  24579790.350    24579789.597    24579788.246    -3333250.013 1  -2597335.937 1
         6.500           6.500
  23379809.417    23379807.711    23379806.006    -8707121.612 4  -6784767.957 4
        27.100          27.900
  20409898.565    20409897.768    20409895.195   -25820826.933 6 -20120113.006 7
        38.600          47.200
  24911263.298    24911261.583    24911261.821      788968.056      614784.556 1
                         9.000
 09  1  6  0 19 30.0000000  0 11G21G 6G26G 9G15G 3G22G14G19G18G24
  21160051.656    21160050.887    21160049.159   -23178962.119 6 -18061517.913 6
        39.000          36.700
  22486284.031    22486283.266    22486282.782   -11374387.607 5  -8863155.224 5
        31.000          31.800
  23986290.071    23986290.374    23986290.035    -1583490.196 1  -1233877.260 3
        11.000          19.300
  22820189.261    22820188.523    22820188.410   -11484673.259 4  -8949086.315 4
        24.200          27.400
  22615334.101    22615333.844    22615332.126   -11643456.762 5  -9072810.957 5
        32.400          34.400
  22510505.030    22510504.139    22510504.276   -10763907.683 4  -8387456.835 5
        29.500          30.100
  21114413.042    21114412.563    21114409.492   -21252877.341 6 -16560674.692 7
        40.700          42.200
  24558152.681    24558151.678    24558151.298    -3446958.997 1  -2685940.347 1
         9.000           9.000
  23369860.040    23369858.728    23369857.200    -8759403.745 4  -6825507.289 4
        27.400          28.100
  20410195.350    20410194.491    20410193.227   -25819267.417 6 -20118897.792 7
        38.700          47.200
  24931746.318    24931744.218    24931743.856      896603.418      698656.262 1
         3.000           9.000
 09  1  6  0 20  0.0000000  0 11G21G 6G26G 9G15G 3G22G14G19G18G24
  21172820.136    21172819.271    21172817.505   -23111863.958 6 -18009233.641 6
        39.100          36.500
  22493359.013    22493358.469    22493358.182   -11337205.439 5  -8834182.108 5
        30.600          31.300
  24008956.853    24008956.823    24008955.979    -1464377.985 1  -1141062.554 2
        11.000          17.800
  22802761.301    22802760.494    22802760.027   -11576257.238 4  -9020450.425 4
        24.900          26.800
  22631280.317    22631280.083    22631278.582   -11559658.101 5  -9007513.302 5
        31.800          34.500
  22516240.603    22516239.656    22516239.784   -10733767.412 4  -8363970.913 5
        29.500          30.100
  21103637.278    21103636.821    21103633.846   -21309503.886 6 -16604799.271 7
        40.700          42.300
  24536535.129    24536534.738    24536533.684    -3560560.804 1  -2774461.259 1
        11.000          11.000
  23360010.841    23360009.179    23360006.996    -8811165.577 4  -6865841.189 4
        27.600          27.600
  20410567.954    20410567.117    20410564.620   -25817309.189 6 -20117371.899 7
        38.700          47.300
  24952241.616    24952241.500    24952239.359     1004314.941 1    782587.290 1
         6.500           6.500
 09  1  6  0 20 30.0000000  0 11G21G 6G26G 9G15G 3G22G14G19G18G24
  21185671.746    21185670.870    21185668.834   -23044329.003 6 -17956609.004 6
        39.100          36.300
  22500533.273    22500532.626    22500532.422   -11299505.147 5  -8804805.257 5
        30.600          31.500
  24031656.755    24031657.001    24031655.593    -1345086.475 1  -1048108.141 2
        11.000          16.100
  22785412.845    22785412.153    22785411.364   -11667425.050 4  -9091490.259 4
        26.200          26.200
  22647289.535    22647289.141    22647287.741   -11475530.162 5  -8941959.068 5
        31.800          34.500
  22522085.141    22522084.259    22522084.140   -10703054.625 4  -8340038.879 5
        29.700          30.100
  21092922.217    21092921.707    21092918.735   -21365812.670 6 -16648676.238 7
        40.900          42.400
  24514936.279    24514935.785    24514935.118    -3674063.434 1  -2862904.886 2
        11.000          15.100
  23350257.937    23350256.221    23350254.191    -8862415.268 4  -6905775.999 4
        26.500          27.100
  20411014.587    20411013.700    20411012.457   -25814962.476 6 -20115543.289 7
        38.700          47.200
  24972749.962    24972750.128    24972750.760     1112091.045      866568.683 1
                         9.000
 09  1  6  0 21  0.0000000  0 11G21G 6G26G 9G15G 3G22G14G19G18G24
  21198606.504    21198605.683    21198603.847   -22976355.130 6 -17903642.354 6
        38.900          36.100
  22507806.062    22507805.671    22507805.327   -11261285.248 5  -8775023.515 5
        30.400          31.500
  24054391.888    24054391.634    24054390.459    -1225615.554 2   -955013.908 2
        12.600          16.100
  22768144.821    22768144.008    22768143.254   -11758170.041 4  -9162200.631 4
        25.900          26.800
  22663361.065    22663360.930    22663359.327   -11391072.481 5  -8876147.886 5
        32.000          34.300
  22528038.701    22528037.957    22528037.927   -10671768.021 5  -8315659.699 5
        30.100          30.100
  21082268.241    21082267.712    21082264.730   -21421799.586 6 -16692302.400 7
        40.900          42.500
  24493356.726    24493355.059    24493355.927    -3787461.848 1  -2951267.255 2
        11.000          16.100
  23340603.317    23340602.074    23340600.301    -8913148.070 4  -6945308.036 4
        27.100          27.600
  20411535.604    20411534.744    20411532.262   -25812223.955 6 -20113409.376 7
        38.600          47.200
  24993271.823    24993270.496    24993273.123     1219933.478      950601.696 1
                        11.000
 09  1  6  0 21 30.0000000  0 11G21G 6G26G 9G15G 3G22G14G19G18G24
  21211624.802    21211623.984    21211622.226   -22907943.648 6 -17850334.706 6
        38.800          36.100
  22515177.760    22515177.277    22515177.146   -11222546.732 5  -8744837.664 5
        30.200          31.500
  24077160.125    24077159.825    24077157.832    -1105968.086 2   -861782.103 2
        13.900          16.100
  22750957.610    22750956.939    22750956.324   -11848488.579 4  -9232578.693 4
        25.300          27.400
  22679495.299    22679495.138    22679493.333   -11306287.071 5  -8810081.328 5
        31.800          34.000
  22534101.420    22534100.623    22534100.545   -10639908.979 5  -8290834.472 4
        30.100          29.900
  21071675.542    21071675.052    21071672.088   -21477463.750 6 -16735677.069 7
        40.900          42.500
  24471797.803    24471797.160    24471796.570    -3900754.000 1  -3039546.836 2
        11.000          17.000
  23331048.221    23331046.777    23331045.330    -8963362.096 4  -6984435.833 4
        26.800          28.100
  20412131.176    20412130.342    20412129.210   -25809093.677 6 -20110970.192 7
        38.600          47.000
  25013807.079    25013805.452    25013807.705     1327840.865     1034685.326 1
         3.000          11.000
 09  1  6  0 22  0.0000000  0 11G21G 6G26G 9G15G 3G22G14G19G18G24
  21224728.229    21224727.352    21224725.599   -22839085.190 6 -17796678.771 6
        38.700          36.100
  22522649.831    22522649.364    22522649.162   -11183280.961 5  -8714240.953 5
        30.100          31.500
  24099963.174    24099962.826    24099961.304     -986136.558 2   -768406.886 2
        15.100          16.100
  22733854.163    22733853.587    22733853.241   -11938366.734 4  -9302613.592 4
        24.900          27.600
  22695693.323    22695693.185    22695691.092   -11221165.869 5  -8743753.122 5
        31.600          33.600
  22540274.757    22540273.853    22540273.434   -10607468.680 4  -8265556.320 4
        29.700          29.700
  21061146.548    21061146.029    21061142.968   -21532794.497 6 -16778791.929 7
        41.100          42.600
  24450262.478    24450261.797    24450260.809    -4013927.348 2  -3127733.812 3
        13.900          18.600
  23321593.742    23321592.337    23321590.548    -9013045.348 4  -7023150.039 4
        26.200          27.900
  20412803.470    20412802.612    20412800.122   -25805561.370 6 -20108217.745 7
        38.700          47.100
  25034354.521    25034353.379    25034355.150     1435822.317     1118826.658 1
         3.000          11.000
 09  1  6  0 22 30.0000000  0 11G21G 6G26G 9G15G 3G22G14G19G18G24
  21237913.739    21237912.831    21237910.977   -22769795.464 6 -17742686.779 5
        38.600          35.900
  22530219.354    22530218.618    22530218.237   -11143503.802 5  -8683245.769 5
        30.100          31.300
  24122798.135    24122797.959    24122796.432     -866137.947 2   -674901.468 2
        12.600          17.000
  22716832.846    22716832.033    22716831.674   -12027815.114 4  -9372313.601 4
        24.600          27.900
  22711951.798    22711951.823    22711950.042   -11135725.311 5  -8677176.067 5
        31.500          33.500
  22546555.503    22546554.626    22546554.065   -10574462.737 4  -8239837.410 4
        29.500          29.200
  21050678.663    21050678.112    21050675.130   -21587804.212 6 -16821656.638 7
        41.000          42.900
  24428746.013    24428745.225    24428744.973    -4126994.133 2  -3215837.773 3
        15.100          18.600
  23312238.073    23312236.356    23312234.504    -9062210.121 4  -7061460.227 4
        26.200          28.100
  20413549.483    20413548.636    20413547.450   -25801641.123 6 -20105163.006 7
        38.800          47.200
  25054914.423    25054913.843    25054913.636     1543862.082     1203013.443 1
         3.000           9.000
 09  1  6  0 23  0.0000000  0 11G21G 6G26G 9G15G 3G22G14G19G18G24
  21251182.008    21251181.194    21251179.539   -22700068.220 6 -17688353.869 5
        38.400          35.700
  22537886.917    22537886.545    22537886.149   -11103209.400 5  -8651847.534 5
        30.100          31.300
  24145666.465    24145665.549    24145664.557     -745968.026 2   -581262.579 3
        12.600          18.600
  22699894.637    22699894.048    22699893.877   -12116823.203 4  -9441670.524 4
        24.900          28.100
  22728272.337    22728272.278    22728270.665   -11049960.910 5  -8610346.669 5
        31.600          33.400
  22552945.132    22552944.268    22552943.784   -10540885.303 5  -8213673.170 4
        30.200          29.500
  21040273.124    21040272.555    21040269.541   -21642485.759 6 -16864265.626 7
        41.000          42.900
  24407251.699    24407251.541    24407251.702    -4239945.400 2  -3303851.720 3
        15.100          19.300
  23302982.600    23302981.017    23302979.089    -9110847.714 4  -7099359.625 4
        27.100          28.100
  20414370.604    20414369.754    20414367.359   -25797325.842 6 -20101800.449 7
        38.800          47.200
  25075485.062    25075484.252    25075485.347     1651965.872     1287250.125 1
         3.000           9.000
 09  1  6  0 23 30.0000000  0 11G21G 6G26G 9G15G 3G22G14G19G18G24
  21264532.730    21264531.896    21264530.187   -22629910.942 6 -17633685.864 5
        38.500          35.800
  22545652.022    22545651.246    22545650.920   -11062405.453 5  -8620052.262 5
        30.400          31.500
  24168565.763    24168564.728    24168563.242     -625635.493 2   -487497.003 2
        12.600          17.800
  22683040.697    22683039.815    22683039.715   -12205393.703 4  -9510686.465 4
        25.300          28.400
  22744652.977    22744652.849    22744650.947   -10963881.095 5  -8543271.484 5
        31.500          32.800
  22559441.834    22559441.077    22559440.864   -10506743.711 4  -8187069.341 4
        29.500          29.500
  21029929.004    21029928.522    21029925.391   -21696843.889 6 -16906622.607 7
        41.200          42.700
  24385779.226    24385778.687    24385778.465    -4352784.460 2  -3391778.242 3
        15.100          19.900
  23293827.073    23293825.396    23293823.554    -9158962.018 4  -7136851.289 4
        27.400          28.800
  20415265.894    20415265.024    20415263.874   -25792621.643 6 -20098134.835 7
        38.800          47.400
  25096067.097    25096067.453    25096068.650     1760126.350     1371530.986 1
                         6.500
 09  1  6  0 24  0.0000000  0 11G21G22G 6G26G 9G15G 3G14G19G18G24
  21277967.178    21277966.318    21277964.432   -22559312.984 6 -17578674.468 5
        38.400          35.500
  21019648.908    21019648.380    21019645.402   -21750865.880 6 -16948717.660 7
        41.100          42.900
  22553515.322    22553514.675    22553514.749   -11021081.581 5  -8587851.839 5
        30.100          31.600
  24191496.389    24191495.819    24191494.529     -505131.438 1   -393597.743 2
        11.000          17.000
  22666272.209    22666271.494    22666271.277   -12293511.132 4  -9579349.378 4
        25.600          28.800
  22761095.286    22761094.969    22761093.206   -10877476.213 5  -8475943.004 5
        31.000          32.800
  22566047.996    22566047.116    22566047.185   -10472028.068 4  -8160018.199 4
        29.200          29.700
  24364329.974    24364329.695    24364329.452    -4465497.959 2  -3479606.919 3
        15.100          19.300
  23284772.367    23284770.891    23284769.729    -9206540.041 4  -7173925.036 4
        26.800          29.500
  20416237.310    20416236.449    20416234.081   -25787516.615 6 -20094156.889 7
        38.800          47.400
  25116665.013    25116664.264    25116662.972     1868354.109     1455864.243
                         3.000
 09  1  6  0 24 30.0000000  0 10G21G22G 6G26G 9G15G 3G14G19G18
  21291483.403    21291482.604    21291480.867   -22488283.947 6 -17523327.172 5
        38.100          35.300
  21009431.459    21009430.938    21009427.878   -21804559.394 6 -16990556.752 7
        41.200          43.000
  22561476.414    22561475.612    22561475.247   -10979248.236 5  -8555254.430 5
        30.100          31.300
  24214457.428    24214456.776    24214456.266     -384467.070 1   -299573.572 2
        11.000          16.100
  22649589.230    22649588.273    22649588.506   -12381180.431 4  -9647663.089 4
        25.600          28.800
  22777597.145    22777596.967    22777595.437   -10790757.025 5  -8408369.616 5
        30.600          33.100
  22572761.582    22572760.768    22572760.852   -10436748.427 4  -8132527.569 4
        28.800          29.900
  24342904.567    24342903.961    24342903.287    -4578092.529 2  -3567342.912 3
        15.100          18.600
  23275819.703    23275818.042    23275816.846    -9253588.499 4  -7210586.160 4
        27.900          29.700
  20417283.256    20417282.413    20417281.401   -25782019.471 6 -20089873.395 7
        38.800          47.300
 09  1  6  0 25  0.0000000  0 10G21G22G 6G26G 9G15G 3G14G19G18
  21305079.297    21305078.521    21305076.658   -22416837.562 6 -17467654.665 5
        38.200          35.200
  20999274.464    20999273.884    20999270.628   -21857935.618 6 -17032148.611 7
        41.400          43.000
  22569530.886    22569530.305    22569530.004   -10936919.034 4  -8522270.647 5
        29.900          31.000
  24237446.698    24237445.808    24237445.221     -263657.471 1   -205436.237 2
        11.000          16.100
  22632990.535    22632989.840    22632989.173   -12468410.112 4  -9715634.255 4
        26.500          28.600
  22794155.999    22794156.019    22794154.604   -10703738.025 5  -8340562.601 5
        30.400          33.100
  22579579.560    22579578.782    22579578.821   -10400917.989 4  -8104607.765 4
        28.800          29.500
  24321500.033    24321499.363    24321497.442    -4690578.080 2  -3654993.962 3
        16.100          18.600
  23266965.594    23266964.324    23266962.583    -9300117.796 4  -7246842.752 5
        28.400          30.100
  20418401.669    20418400.847    20418398.491   -25776142.412 6 -20085293.865 7
        38.900          47.400
 09  1  6  0 25 30.0000000  0 10G21G 6G26G 9G15G 3G22G14G19G18
  21318757.315    21318756.442    21318754.836   -22344958.129 6 -17411644.717 5
        37.800          34.900
  22577683.608    22577682.950    22577682.518   -10894078.484 5  -8488888.409 5
        30.100          31.300
  24260466.299    24260465.616    24260465.508     -142688.376 1   -111174.575 2
        11.000          17.000
  22616478.233    22616477.641    22616477.569   -12555179.907 4  -9783247.059 4
        26.500          29.200
  22810775.269    22810775.041    22810773.632   -10616404.701 5  -8272510.663 5
        30.600          33.100
  22586505.399    22586504.845    22586504.838   -10364521.951 4  -8076247.220 4
        28.800          29.900
  20989180.707    20989180.228    20989177.215   -21910977.004 6 -17073479.556 7
        41.100          43.100
  24300119.370    24300118.257    24300116.440    -4802935.493 2  -3742545.166 3
        15.100          19.300
  23258214.149    23258212.207    23258210.688    -9346109.063 4  -7282680.093 4
        27.900          29.900
  20419595.671    20419594.796    20419593.606   -25769868.132 6 -20080404.810 7
        38.900          47.500
 09  1  6  0 26  0.0000000  0 10G21G 6G26G 9G15G 3G22G14G19G18
  21332519.536    21332518.716    21332517.000   -22272637.780 6 -17355291.200 5
        37.900          35.100
  22585934.749    22585934.090    22585933.587   -10850719.226 5  -8455101.983 5
        30.400          31.500
  24283517.368    24283517.082    24283516.441      -21553.483 1    -16783.742 2
         9.000          17.000
  22600056.615    22600056.038    22600055.609   -12641477.218 4  -9850491.689 4
        26.500          29.200
  22827455.448    22827455.119    22827453.898   -10528750.264 5  -8204208.505 5
        30.600          33.200
  22593540.363    22593539.613    22593539.791   -10327552.728 4  -8047440.032 4
        28.600          29.700
  20979152.749    20979152.258    20979149.318   -21963673.801 6 -17114541.983 7
        41.000          43.200
  24278764.452    24278763.558    24278762.574    -4915153.912 2  -3829988.053 3
        15.100          19.300
  23249566.757    23249565.264    23249562.898    -9391551.758 4  -7318089.968 4
        28.600          29.700
  20420866.837    20420865.999    20420863.703   -25763187.933 6 -20075199.462 7
        39.100          47.500
 09  1  6  0 26 30.0000000  0 10G21G 6G26G 9G15G 3G22G14G19G18
  21346361.936    21346361.132    21346359.370   -22199895.757 6 -17298609.107 5
        37.900          34.800
  22594280.454    22594279.805    22594279.604   -10806861.004 5  -8420926.752 5
        30.200          31.300
  24306595.877    24306595.155    24306595.294       99726.342 1     77720.020 3
         9.000          18.600
  22583722.042    22583721.328    22583720.818   -12727316.736 4  -9917379.599 4
        26.200          28.800
  22844192.806    22844192.680    22844190.930   -10440795.043 5  -8135671.970 5
        30.600          32.600
  22600681.005    22600680.124    22600680.276   -10290029.723 4  -8018201.349 5
        28.100          30.100
  20969187.360    20969186.899    20969183.871   -22016042.957 6 -17155349.112 7
        41.200          43.300
  24257433.282    24257431.861    24257431.489    -5027249.132 2  -3917334.932 3
        13.900          18.600
  23241020.533    23241018.882    23241016.629    -9436462.489 4  -7353085.337 4
        29.000          29.900
  20422211.768    20422211.020    20422209.842   -25756119.990 6 -20069691.970 7
        39.000          47.600
 09  1  6  0 27  0.0000000  0 10G21G 6G26G 9G15G 3G22G14G19G18
  21360284.991    21360284.127    21360282.125   -22126730.206 6 -17241596.993 5
        37.700          34.500
  22602721.569    22602720.890    22602720.861   -10762502.359 4  -8386361.568 5
        29.700          31.300
  24329701.829    24329701.071    24329700.933      221151.614 1    172337.101 3
         9.000          19.300
  22567475.815    22567475.232    22567474.311   -12812691.502 4  -9983905.371 4
        27.400          28.400
  22860987.478    22860987.425    22860985.669   -10352538.156 5  -8066900.363 5
        30.100          32.000
  22607927.664    22607926.826    22607926.689   -10251951.122 4  -7988529.727 5
        28.600          30.200
  20959285.049    20959284.554    20959281.533   -22068080.068 6 -17195897.500 7
        41.100          43.400
  24236126.063    24236125.898    24236124.960    -5139215.744 2  -4004581.620 2
        15.100          17.800
  23232576.461    23232574.750    23232572.884    -9480836.335 4  -7387662.345 5
        28.800          30.200
  20423631.377    20423630.488    20423628.150   -25748660.836 6 -20063879.641 7
        39.000          47.800
 09  1  6  0 27 30.0000000  0 11G21G 6G26G 9G15G 3G22G14G19G18G24
  21374290.259    21374289.338    21374287.314   -22053132.495 6 -17184248.132 5
        37.800          34.300
  22611259.317    22611258.795    22611258.629   -10717634.764 4  -8351399.807 5
        29.500          31.000
  24352837.348    24352837.736    24352836.653      342729.634 1    267073.195 3
         9.000          20.500
  22551320.406    22551319.743    22551318.999   -12897588.266 4 -10050058.686 4
        27.400          28.600
  22877841.077    22877840.831    22877839.222   -10263971.944 4  -7997887.725 5
        29.500          31.600
  22615280.739    22615279.891    22615279.612   -10213309.321 4  -7958419.248 4
        28.600          29.900
  20949447.825    20949447.375    20949444.369   -22119774.681 6 -17236179.008 7
        41.200          43.400
  24214846.799    24214846.235    24214844.504    -5251042.002 2  -4091718.929 2
        13.900          17.000
  23224236.731    23224234.898    23224233.345    -9524661.617 4  -7421811.905 5
        28.600          30.600
  20425126.928    20425126.111    20425125.043   -25740800.677 6 -20057754.840 7
        39.000          47.500
  25261120.645    25261119.345    25261119.075           -.4851          -.6621

 09  1  6  0 28  0.0000000  0 10G21G 6G26G 9G15G 3G22G14G19G18
  21388373.416    21388372.627    21388370.654   -21979123.846 6 -17126579.057 5
        37.600          34.000
  22619890.428    22619889.642    22619889.582   -10672279.965 4  -8316058.403 5
        29.500          31.100
  24375998.247    24375997.357    24375996.895      464437.702 1    361910.633 3
        11.000          20.500
  22535252.777    22535252.225    22535251.771   -12982023.403 4 -10115852.276 4
        26.800          29.200
  22894749.374    22894748.893    22894747.361   -10175118.518 4  -7928651.283 5
        29.200          31.800
  22622737.075    22622736.366    22622736.000   -10174125.685 4  -7927886.554 4
        29.000          29.500
  20939672.291    20939671.832    20939668.801   -22171145.607 6 -17276208.292 7
        41.300          43.600
  24193589.897    24193589.506    24193588.695    -5362745.680 2  -4178760.732 2
        13.900          17.000
  23215997.552    23215995.827    23215994.291    -9567956.924 4  -7455548.492 5
        28.400          30.400
  20426695.133    20426694.296    20426692.138   -25732559.689 6 -20051333.289 7
        39.000          47.600
 09  1  6  0 28 30.0000000  0 10G21G 6G26G 9G15G 3G22G14G19G18
  21402534.667    21402533.778    21402532.002   -21904705.798 6 -17068590.969 5
        37.200          34.000
  22628613.224    22628612.562    22628612.537   -10626439.777 4  -8280338.784 5
        29.000          31.000
  24399183.249    24399182.972    24399181.262      586273.153 2    456847.341 3
        15.100          20.500
  22519273.929    22519273.294    22519272.625   -13065993.563 4 -10181283.546 4
        27.600          29.700
  22911712.044    22911711.767    22911710.005   -10085980.215 4  -7859192.858 5
        29.500          32.000
  22630296.354    22630295.399    22630295.167   -10134401.471 4  -7896932.636 4
        28.600          29.200
  20929958.610    20929958.090    20929955.075   -22222191.516 6 -17315984.317 7
        41.200          43.600
  24172356.082    24172355.879    24172355.821    -5474324.897 2  -4265705.529 2
        15.100          16.100
  23207859.625    23207858.245    23207856.570    -9610720.464 4  -7488870.705 5
        28.600          30.200
  20428335.903    20428335.099    20428334.005   -25723937.550 6 -20044614.736 7
        39.100          47.700
 09  1  6  0 29  0.0000000  0 10G21G 6G26G 9G15G 3G22G14G19G18
  21416778.432    21416777.584    21416775.796   -21829854.136 6 -17010265.009 5
        37.300          33.900
  22637433.322    22637432.751    22637432.376   -10580090.415 4  -8244222.403 5
        29.200          30.800
  24422396.206    24422395.542    24422394.500      708258.667 2    551900.989 3
        13.900          19.900
  22503388.844    22503388.215    22503387.578   -13149469.796 4 -10246329.948 4
        27.900          29.700
  22928732.699    22928732.325    22928730.949    -9996534.252 4  -7789494.703 5
        28.600          32.100
  22637962.752    22637961.968    22637961.962   -10094113.008 4  -7865539.037 4
        28.400          29.200
  20920311.496    20920310.998    20920307.908   -22272887.049 6 -17355487.323 7
        41.200          43.600
  24151153.294    24151152.867    24151151.636    -5585751.662 2  -4352531.550 2
        15.100          16.100
  23199828.688    23199826.766    23199825.404    -9652925.315 4  -7521757.589 5
        28.100          30.400
  20430053.938    20430053.136    20430050.971   -25714908.844 6 -20037579.380 7
        39.100          47.600
 09  1  6  0 29 30.0000000  0 10G21G 6G26G 9G15G 3G22G14G19G18
  21431101.527    21431100.583    21431098.552   -21754587.463 6 -16951615.661 5
        37.400          33.800
  22646346.750    22646346.224    22646345.875   -10533250.575 4  -8207723.828 5
        29.200          30.800
  24445633.939    24445633.395    24445632.381      830374.553 2    647056.203 3
        12.600          19.300
  22487595.518    22487594.658    22487593.989   -13232465.632 4 -10311002.006 4
        27.900          29.900
  22945808.715    22945808.468    22945806.993    -9906799.397 4  -7719571.447 5
        28.800          32.100
  22645733.542    22645732.760    22645732.329   -10053279.104 4  -7833720.423 4
        28.800          29.200
  20910728.036    20910727.531    20910724.599   -22323248.158 6 -17394729.740 7
        41.100          43.800
  24129975.970    24129974.959    24129973.191    -5697041.411 2  -4439250.801 2
        15.100          16.100
  23191901.096    23191899.261    23191897.550    -9694587.085 4  -7554221.310 5
        28.600          30.400
  20431846.214    20431845.382    20431844.238   -25705490.813 6 -20030240.651 7
        39.100          47.700
 09  1  6  0 30  0.0000000  0 10G21G 6G26G 9G15G 3G22G14G19G18
  21445503.600    21445502.781    21445500.734   -21678903.284 6 -16892640.979 5
        37.200          33.400
  22655353.361    22655352.767    22655353.085   -10485918.606 4  -8170841.777 5
        28.600          31.100
  24468896.400    24468895.948    24468895.303      952621.778 1    742313.756 2
        11.000          17.800
  22471894.484    22471893.773    22471893.258   -13314973.774 4 -10375294.042 4
        28.100          29.900
  22962940.373    22962939.913    22962938.119    -9816774.470 4  -7649422.157 5
        28.800          31.500
  22653608.007    22653607.205    22653606.937   -10011898.093 4  -7801475.488 4
        28.600          29.000
  20901209.159    20901208.646    20901205.720   -22373270.416 6 -17433708.116 7
        41.000          43.900
  24108824.909    24108824.307    24108823.497    -5808188.469 2  -4525858.874 2
        16.100          16.100
  23184077.019    23184075.311    23184073.574    -9735700.493 4  -7586257.733 5
        27.900          30.200
  20433713.115    20433712.294    20433710.192   -25695680.021 6 -20022595.874 7
        39.100          47.900
 09  1  6  0 30 30.0000000  0 10G21G 6G26G 9G15G 3G22G14G19G18
  21459985.860    21459985.112    21459983.255   -21602797.625 6 -16833337.871 5
        37.000          33.500
  22664454.710    22664454.213    22664454.158   -10438091.158 4  -8133573.641 5
        28.400          31.000
  24492183.946    24492183.448    24492184.197     1075002.761 1    837675.545 2
         9.000          16.100
  22456288.019    22456287.144    22456286.734   -13396986.044 4 -10439199.693 4
        27.900          29.700
  22980127.014    22980126.654    22980124.870    -9726456.841 4  -7579044.780 5
        28.600          31.000
  22661587.244    22661586.427    22661586.369    -9969966.359 4  -7768801.419 4
        28.400          29.000
  20891755.905    20891755.366    20891752.621   -22422947.162 6 -17472417.259 7
        41.100          44.100
  24087702.841    24087702.352    24087701.526    -5919185.374 2  -4612349.950 2
        16.100          15.100
  23176358.962    23176357.126    23176355.680    -9776259.033 4  -7617861.778 5
        27.900          30.200
  20435655.758    20435654.938    20435653.803   -25685471.381 6 -20014641.087 7
        39.300          47.900
 09  1  6  0 31  0.0000000  0 10G21G 6G26G 9G15G 3G22G14G19G18
  21474546.631    21474545.870    21474544.024   -21526280.314 6 -16773714.002 5
        36.800          33.400
  22673648.673    22673647.985    22673647.864   -10389777.605 4  -8095926.719 5
        28.400          30.400
  24515495.135    24515495.909    24515495.862     1197506.954 1    933133.360 2
         9.000          12.600
  22440774.734    22440773.985    22440773.707   -13478507.157 4 -10502722.622 4
        27.400          29.500
  22997367.748    22997367.478    22997365.790    -9635856.663 4  -7508447.226 5
        29.500          31.100
  22669669.687    22669668.634    22669668.435    -9927493.571 4  -7735705.758 4
        28.400          29.000
  20882367.228    20882366.710    20882363.715   -22472285.931 6 -17510863.046 7
        41.300          44.200
  24066607.835    24066606.863    24066606.958    -6030038.088 2  -4698728.678 2
        16.100          17.000
  23168745.439    23168743.611    23168742.025    -9816269.141 4  -7649038.488 5
        28.600          30.200
  20437672.652    20437671.783    20437669.587   -25674872.931 6 -20006382.554 8
        39.300          48.100
 09  1  6  0 31 30.0000000  0 10G21G 6G26G 9G15G 3G22G14G19G18
  21489185.303    21489184.412    21489182.642   -21449353.742 6 -16713771.220 5
        36.600          33.200
  22682934.205    22682933.545    22682933.420   -10340981.322 4  -8057903.653 5
        28.100          30.400
  24538830.219    24538829.782    24538829.361     1320130.656 1   1028684.305 1
         6.500           9.000
  22425356.164    22425355.471    22425354.685   -13559534.855 4 -10565861.069 4
        28.400          29.700
  23014661.571    23014661.198    23014659.510    -9544977.567 4  -7437632.332 5
        29.700          31.300
  22677854.395    22677853.399    22677853.292    -9884483.740 4  -7702191.611 4
        28.600          29.200
  20873042.586    20873042.056    20873038.881   -22521287.214 6 -17549045.858 7
        41.200          44.100
  24045540.761    24045539.945    24045540.493    -6140745.994 2  -4784994.537 2
        15.100          17.000
  23161236.406    23161234.800    23161232.673    -9855730.568 4  -7679787.651 4
        29.200          29.700
  20439763.446    20439762.611    20439761.458   -25663885.532 6 -19997820.942 8
        39.300          48.200
 09  1  6  0 32  0.0000000  0 10G21G 6G26G 9G15G 3G22G14G19G18
  21503902.103    21503901.151    21503899.390   -21372016.706 6 -16653508.606 5
        36.500          33.200
  22692312.056    22692311.377    22692311.284   -10291701.589 4  -8019503.867 5
        28.100          30.400
  24562188.569    24562188.001    24562186.971     1442873.300 1   1124327.939 1
         6.500           6.500
  22410031.777    22410031.309    22410030.793   -13640062.999 4 -10628610.263 5
        28.600          30.100
  23032008.493    23032008.134    23032006.362    -9453819.201 4  -7366599.839 5
        28.800          31.300
  22686141.065    22686140.263    22686140.298    -9840935.284 4  -7668257.752 4
        28.400          29.500
  20863782.680    20863782.197    20863779.281   -22569947.356 6 -17586962.845 7
        41.200          44.300
  24024501.349    24024501.351    24024501.891    -6251304.728 2  -4871144.183 2
        15.100          17.000
  23153831.670    23153830.279    23153828.457    -9894639.278 4  -7710106.129 4
        29.200          29.200
  20441928.583    20441927.820    20441925.734   -25652507.108 6 -19988954.641 8
        39.400          48.000
 09  1  6  0 32 30.0000000  0 10G21G 6G26G 9G15G 3G22G14G19G18
  21518697.124    21518696.221    21518694.065   -21294269.341 6 -16592926.243 5
        36.500          32.800
  22701781.564    22701780.965    22701780.637   -10241938.961 4  -7980727.798 5
        28.100          30.200
  24585569.150    24585567.444    24585566.413     1565734.061 1   1220063.633 1
         6.500           6.500
  22394803.623    22394803.051    22394802.684   -13720087.372 4 -10690966.899 5
        28.600          30.200
  23049408.199    23049408.036    23049406.193    -9362382.688 4  -7295350.612 5
        28.100          31.500
  22694530.507    22694529.615    22694529.710    -9796848.475 4  -7633904.407 4
        27.900          29.500
  20854588.474    20854587.917    20854584.848   -22618264.352 6 -17624612.447 7
        41.300          44.400
  24003492.438    24003492.121    24003492.315    -6361710.519 2  -4957174.654 2
        16.100          17.800
  23146533.024    23146531.794    23146530.006    -9932992.971 4  -7739992.114 4
        28.800          29.000
  20444168.472    20444167.674    20444166.531   -25640736.568 6 -19979782.788 8
        39.400          48.100
 09  1  6  0 33  0.0000000  0 10G21G 6G26G 9G15G 3G22G14G19G18
  21533569.158    21533568.324    21533566.531   -21216114.669 6 -16532026.502 5
        36.200          32.800
  22711341.901    22711341.283    22711341.538   -10191696.726 4  -7941578.011 5
        27.900          30.200
  24608970.910    24608969.358    24608968.410     1688708.449 1   1315887.849 1
         6.500           9.000
  22379672.000    22379671.239    22379670.800   -13799605.769 4 -10752929.270 5
        28.400          30.600
  23066859.850    23066859.506    23066858.351    -9270671.625 4  -7223887.447 5
        27.900          31.300
  22703021.958    22703021.112    22703020.803    -9752227.229 4  -7599134.608 4
        27.900          29.200
  20845459.110    20845458.577    20845455.521   -22666238.918 6 -17661995.218 7
        41.300          44.400
  23982511.808    23982511.666    23982511.262    -6471962.994 2  -5043085.627 3
        17.000          18.600
  23139340.603    23139339.054    23139337.253    -9970791.405 4  -7769445.424 4
        29.000          29.200
  20446482.754    20446481.941    20446479.829   -25628575.407 6 -19970306.557 8
        39.500          48.300
 09  1  6  0 33 30.0000000  0 10G21G 6G26G 9G15G 3G22G14G19G18
  21548518.904    21548518.065    21548516.107   -21137554.111 6 -16470810.492 5
        36.200          32.800
  22720993.961    22720993.311    22720993.189   -10140976.702 4  -7902055.917 5
        28.400          30.200
  24632393.799    24632392.223    24632392.070     1811794.127 1   1411798.773 1
         6.500           6.500
  22364636.888    22364636.225    22364635.772   -13878614.920 4 -10814494.819 5
        28.100          30.400
  23084363.819    23084363.346    23084361.968    -9178688.180 4  -7152212.043 5
        27.900          30.800
  22711614.262    22711613.584    22711613.397    -9707073.020 4  -7563949.522 4
        27.900          29.500
  20836395.332    20836394.797    20836391.620   -22713870.032 6 -17699110.365 7
        41.400          44.700
  23961561.058    23961560.898    23961560.573    -6582059.806 2  -5128875.321 3
        17.000          19.300
  23132253.905    23132252.522    23132249.971   -10008033.114 4  -7798464.925 4
        29.000          28.800
  20448871.314    20448870.466    20448869.235   -25616023.584 6 -19960525.915 8
        39.500          48.400
 09  1  6  0 34  0.0000000  0 10G21G 6G26G 9G15G 3G22G14G19G18
  21563545.506    21563544.531    21563542.560   -21058588.957 6 -16409279.205 5
        36.100          32.400
  22730736.249    22730735.639    22730735.263   -10089780.458 4  -7862162.750 5
        28.400          30.200
  24655836.763    24655835.509    24655834.167     1934988.896 1   1507794.672 1
         9.000           9.000
  22349699.321    22349698.667    22349698.491   -13957111.106 4 -10875660.661 5
        27.600          30.400
  23101918.823    23101918.613    23101917.198    -9086434.458 4  -7080326.037 5
        27.600          30.600
  22720307.682    22720307.056    22720307.519    -9661387.469 4  -7528350.394 4
        27.600          29.500
  20827396.876    20827396.359    20827393.393   -22761156.718 6 -17735957.128 7
        41.400          44.800
  23940640.969    23940640.397    23940640.364    -6691998.771 2  -5214542.015 3
        17.800          20.500
  23125273.207    23125271.709    23125269.697   -10044716.605 4  -7827049.451 4
        29.700          29.500
  20451334.231    20451333.401    20451331.327   -25603080.680 6 -19950440.537 8
        39.500          48.400
 09  1  6  0 34 30.0000000  0 10G21G 6G26G 9G15G 3G22G14G19G18
  21578648.626    21578647.786    21578646.038   -20979220.573 5 -16347433.722 5
        35.900          32.600
  22740568.916    22740568.322    22740568.196   -10038109.941 4  -7821900.014 5
        28.400          30.400
  24679299.968    24679298.331    24679299.329     2058290.078 1   1603873.523 1
         9.000           9.000
  22334860.126    22334859.568    22334859.352   -14035091.227 4 -10936424.370 5
        28.400          30.600
  23119525.661    23119525.410    23119523.136    -8993912.677 4  -7008231.147 5
        28.100          30.100
  22729102.150    22729101.214    22729101.671    -9615172.632 4  -7492338.840 4
        27.100          29.200
  20818464.199    20818463.683    20818460.722   -22808098.218 6 -17772534.914 7
        41.400          44.900
  23919750.777    23919750.228    23919749.298    -6801777.951 2  -5300084.203 3
        16.100          20.500
  23118398.908    23118397.270    23118395.426   -10080840.397 4  -7855197.868 4
        29.000          29.200
  20453871.542    20453870.732    20453869.552   -25589747.110 6 -19940050.741 8
        39.700          48.600
 09  1  6  0 35  0.0000000  0 10G21G 6G26G 9G15G 3G22G14G19G18
  21593828.118    21593827.217    21593825.262   -20899452.424 5 -16285276.732 5
        35.800          32.400
  22750490.928    22750490.165    22750490.164    -9985969.369 4  -7781270.997 5
        27.900          30.600
  24702782.526    24702780.841    24702781.612     2181692.819 1   1700031.484 1
         6.500           9.000
  22320119.799    22320119.083    22320118.441   -14112553.942 4 -10996784.908 5
        28.800          30.200
  23137182.161    23137181.706    23137179.535    -8901127.358 4  -6935930.897 4
        28.100          29.900
  22737996.902    22737996.029    22737995.825    -9568432.492 4  -7455917.957 4
        28.100          29.000
  20809596.962    20809596.422    20809593.469   -22854695.704 6 -17808844.637 7
        41.400          45.000
  23898890.419    23898889.947    23898889.378    -6911397.629 2  -5385502.104 3
        16.100          20.500
  23111630.799    23111629.422    23111627.969   -10116405.451 4  -7882910.894 4
        29.000          29.700
  20456482.793    20456481.935    20456479.928   -25576025.080 6 -19929358.256 8
        39.600          48.600
 09  1  6  0 35 30.0000000  0 10G 6G26G 9G15G21G 3G22G14G19G18
  22760501.390    22760500.706    22760500.565    -9933364.736 4  -7740280.383 5
        28.400          30.800
  24726283.573    24726283.120    24726282.968     2305190.544     1796263.470 1
         3.000           9.000
  22305477.430    22305476.735    22305476.153   -14189500.351 4 -11056743.132 5
        29.000          30.600
  23154886.936    23154886.818    23154884.938    -8808084.867 4  -6863430.253 4
        27.400          29.700
  21609082.250    21609081.563    21609079.783   -20819290.372 5 -16222812.796 5
        35.600          32.400
  22746989.573    22746988.845    22746988.740    -9521173.116 4  -7419092.476 4
        27.900          28.600
  20800794.622    20800794.085    20800791.118   -22900952.450 6 -17844888.853 7
        41.500          45.200
  23878060.757    23878060.263    23878059.728    -7020859.807 2  -5470797.270 3
        17.000          21.100
  23104969.148    23104967.569    23104966.096   -10151414.687 4  -7910190.819 4
        29.200          29.700
  20459167.140    20459166.298    20459164.998   -25561918.761 6 -19918366.318 8
        39.700          48.500
 09  1  6  0 36  0.0000000  0 10G 6G26G 9G15G21G 3G22G14G19G18
  22770601.130    22770600.403    22770600.336    -9880289.993 4  -7698923.448 5
        28.400          30.400
  24749802.625    24749800.954    24749801.465     2428788.706     1892573.700 1
         3.000          11.000
  22290935.378    22290934.633    22290934.220   -14265919.127 4 -11116290.214 5
        29.000          30.200
  23172642.088    23172642.246    23172640.584    -8714779.527 4  -6790724.799 4
        26.800          29.900
  21624412.879    21624412.097    21624410.394   -20738727.680 5 -16160036.683 5
        35.400          32.400
  22756082.952    22756082.031    22756082.028    -9473388.619 4  -7381857.799 4
        27.600          29.000
  20792058.816    20792058.221    20792055.258   -22946859.675 6 -17880660.708 7
        41.600          45.300
  23857263.534    23857262.403    23857261.950    -7130154.367 2  -5555961.817 3
        17.800          22.100
  23098414.933    23098413.426    23098411.103   -10185858.594 4  -7937030.215 4
        29.500          29.000
  20461926.062    20461925.219    20461923.164   -25547420.387 6 -19907068.881 8
        39.600          48.600
 09  1  6  0 36 30.0000000  0 10G 6G26G 9G15G21G 3G22G14G19G18
  22780789.239    22780788.619    22780788.583    -9826750.053 4  -7657204.022 5
        27.900          30.400
  24773339.352    24773339.129    24773339.530     2552481.800     1988957.897 2
         3.000          12.600
  22276493.821    22276493.147    22276492.254   -14341809.969 4 -11175425.922 5
        29.200          30.100
  23190446.656    23190446.723    23190445.483    -8621216.598 4  -6717818.630 5
        27.100          30.600
  21639819.048    21639818.068    21639816.027   -20657769.340 5 -16096952.279 5
        35.400          32.000
  22765275.204    22765274.103    22765274.017    -9425083.695 4  -7344217.607 4
        27.100          28.600
  20783389.029    20783388.508    20783385.407   -22992419.691 6 -17916162.015 7
        41.700          45.300
  23836497.354    23836495.956    23836495.112    -7239282.194 3  -5640996.459 3
        18.600          21.100
  23091967.589    23091965.780    23091964.133   -10219739.249 4  -7963430.726 4
        28.800          29.700
  20464758.952    20464758.149    20464756.928   -25532533.134 6 -19895468.419 8
        39.500          48.600
 09  1  6  0 37  0.0000000  0 10G 6G26G 9G15G21G 3G22G14G19G18
  22791066.397    22791065.879    22791065.696    -9772744.253 4  -7615121.595 5
        28.100          30.400
  24796895.123    24796896.174    24796896.091     2676269.973 1   2085416.177 2
         6.500          12.600
  22262154.131    22262153.301    22262152.490   -14417166.595 4 -11234145.354 5
        29.200          30.200
  23208300.444    23208300.440    23208298.938    -8527395.374 4  -6644711.188 5
        27.600          30.600
  21655300.368    21655299.494    21655297.656   -20576413.635 5 -16033558.227 5
        35.100          32.000
  22774566.501    22774565.579    22774565.482    -9376258.108 4  -7306171.699 4
        27.600          29.000
  20774786.145    20774785.619    20774782.506   -23037628.396 6 -17951389.573 7
        41.900          45.500
  23815763.379    23815762.059    23815761.528    -7348238.795 3  -5725897.667 3
        18.600          21.600
  23085628.570    23085626.776    23085624.740   -10253052.271 4  -7989388.911 4
        29.000          29.900
  20467666.418    20467665.554    20467663.647   -25517254.268 6 -19883562.805 8
        39.600          48.600
 09  1  6  0 37 30.0000000  0 10G 6G26G 9G15G21G 3G22G14G19G18
  22801431.140    22801430.501    22801430.516    -9718276.083 4  -7572678.869 4
        27.600          29.900
  24820468.333    24820468.408    24820469.239     2800149.221 1   2181945.433 2
         6.500          13.900
  22247915.736    22247915.038    22247914.689   -14491987.618 4 -11292447.438 5
        28.800          30.400
  23226202.858    23226202.813    23226201.027    -8433319.790 4  -6571405.542 5
        28.100          30.800
  21670856.778    21670855.918    21670854.183   -20494663.951 5 -15969857.179 5
        35.100          32.100
  22783955.811    22783955.110    22783955.047    -9326915.055 4  -7267722.569 4
        27.600          29.000
  20766249.841    20766249.295    20766246.222   -23082486.793 6 -17986344.161 7
        41.900          45.500
  23795061.614    23795061.223    23795060.843    -7457023.512 3  -5810664.948 3
        18.600          21.600
  23079396.706    23079394.951    23079393.201   -10285798.105 4  -8014905.136 4
        28.600          29.900
  20470648.127    20470647.311    20470645.987   -25501585.450 6 -19871353.336 8
        39.700          48.600
 09  1  6  0 38  0.0000000  0 10G 6G26G 9G15G21G 3G22G14G19G18
  22811883.912    22811883.191    22811883.374    -9663345.845 4  -7529876.098 4
        27.400          29.900
  24844058.721    24844059.226    24844060.750     2924118.721     2278545.017 2
         3.000          13.900
  22233780.553    22233780.007    22233779.668   -14566268.029 4 -11350328.261 5
        29.500          30.800
  23244153.317    23244153.107    23244151.249    -8338990.370 4  -6497902.103 5
        27.600          30.200
  21686488.394    21686487.558    21686485.648   -20412519.977 5 -15905848.901 5
        35.200          32.000
  22793444.334    22793443.427    22793443.301    -9277054.753 4  -7228870.389 4
        27.400          29.200
  20757780.590    20757780.087    20757777.007   -23126992.505 6 -18021023.929 7
        41.900          45.600
  23774393.711    23774392.831    23774392.879    -7565632.546 3  -5895295.334 3
        18.600          21.100
  23073273.863    23073272.297    23073270.320   -10317974.087 4  -8039977.311 5
        29.000          30.100
  20473704.328    20473703.486    20473701.582   -25485525.011 6 -19858838.706 8
        39.800          48.800
 09  1  6  0 38 30.0000000  0 10G 6G26G 9G15G21G 3G22G14G19G18
  22822423.503    22822423.038    22822423.082    -9607958.654 4  -7486717.262 4
        27.100          29.500
  24867666.275    24867666.003    24867666.806     3048173.099     2375210.740 2
         3.000          12.600
  22219748.595    22219747.905    22219747.611   -14640007.711 4 -11407787.736 5
        29.500          31.600
  23262150.829    23262150.716    23262148.904    -8244412.601 4  -6424205.139 4
        27.100          29.900
  21702194.063    21702193.151    21702191.248   -20329986.251 5 -15841536.914 5
        34.800          31.600
  22803029.426    22803028.728    22803028.758    -9226682.462 4  -7189619.256 4
        27.100          29.000
  20749378.068    20749377.557    20749374.545   -23171148.053 6 -18055430.845 7
        41.800          45.700
  23753759.740    23753758.662    23753758.447    -7674067.206 3  -5979789.841 3
        18.600          21.100
  23067259.454    23067257.894    23067255.581   -10349581.971 5  -8064606.820 5
        30.200          30.200
  20476834.390    20476833.586    20476832.347   -25469076.025 6 -19846021.311 8
        39.700          48.700
 09  1  6  0 39  0.0000000  0 10G 6G26G 9G15G21G 3G22G14G19G18
  22833050.101    22833049.717    22833049.549    -9552116.424 4  -7443203.830 4
        27.400          29.000
  24891289.450    24891290.375    24891288.032     3172309.956     2471940.753 2
         3.000          13.900
  22205819.985    22205819.174    22205818.753   -14713203.342 4 -11464823.273 5
        29.500          31.500
  23280195.182    23280195.082    23280193.600    -8149588.340 4  -6350316.108 5
        26.200          30.400
  21717973.333    21717972.603    21717970.857   -20247064.273 5 -15776922.399 5
        34.600          31.800
  22812712.372    22812711.647    22812711.448    -9175800.060 4  -7149970.643 4
        27.400          29.200
  20741042.467    20741041.930    20741038.926   -23214952.145 6 -18089563.899 7
        41.900          45.800
  23733159.156    23733158.710    23733157.578    -7782325.006 3  -6064146.529 3
        18.600          21.600
  23061352.845    23061351.276    23061349.325   -10380620.411 5  -8088792.597 5
        30.400          30.800
  20480038.521    20480037.656    20480035.755   -25452238.819 6 -19832901.412 8
        39.800          48.800
 09  1  6  0 39 30.0000000  0 10G 6G26G 9G15G21G 3G22G14G19G18
  22843764.679    22843763.924    22843763.594    -9495813.824 4  -7399331.678 4
        27.600          29.200
  24914928.774    24914929.471    24914926.378     3296534.152     2568738.793 2
                        12.600
  22191996.952    22191996.131    22191995.511   -14785844.551 4 -11521426.800 5
        29.700          31.300
  23298287.289    23298286.995    23298285.556    -8054512.502 4  -6276231.043 4
        25.600          29.500
  21733827.898    21733827.140    21733825.389   -20163748.406 5 -15712000.954 5
        34.600          31.600
  22822492.877    22822492.204    22822492.089    -9124402.457 4  -7109920.574 4
        27.400          29.000
  20732775.317    20732774.809    20732771.709   -23258396.474 6 -18123416.617 7
        41.900          45.900
  23712593.572    23712592.897    23712591.741    -7890396.614 3  -6148358.134 3
        18.600          20.500
  23055556.457    23055554.633    23055552.897   -10411080.935 5  -8112528.050 5
        30.200          30.800
  20483317.837    20483317.012    20483315.593   -25435005.927 6 -19819473.185 8
        39.800          49.000
 09  1  6  0 40  0.0000000  0 10G 6G26G 9G15G21G 3G22G14G19G18
  22854562.178    22854561.509    22854561.269    -9439072.465 4  -7355117.632 4
        27.400          29.700
  24938580.867    24938581.706    24938578.226     3420823.614     2665587.703 1
                        11.000
  22178275.797    22178275.208    22178274.626   -14857947.890 5 -11577611.211 5
        30.100          31.300
  23316423.104    23316423.053    23316421.797    -7959207.269 4  -6201967.228 4
        25.300          29.700
  21749753.242    21749752.509    21749750.813   -20080059.546 5 -15646788.865 5
        34.400          31.300
  22832367.356    22832366.506    22832366.537    -9072511.113 4  -7069485.769 4
        27.100          28.600
  20724573.042    20724572.514    20724569.428   -23301499.672 7 -18157003.521 7
        42.000          46.000
  23692060.288    23692059.726    23692058.622    -7998299.808 3  -6232438.510 3
        18.600          21.100
  23049866.562    23049864.795    23049862.799   -10440981.811 4  -8135827.422 5
        29.900          30.800
  20486668.648    20486667.798    20486665.903   -25417397.393 6 -19805752.249 8
        39.800          49.100
 09  1  6  0 40 30.0000000  0 11G 6G26G 9G15G21G 3G22G14G19G18G28
  22865444.386    22865443.616    22865443.219    -9381886.893 4  -7310557.470 4
        27.100          29.200
  24962246.817    24962245.659    24962244.449     3545183.494     2762491.479 1
                        11.000
  22164659.442    22164658.678    22164658.015   -14929502.331 4 -11633367.908 5
        29.900          31.100
  23334603.422    23334603.689    23334602.390    -7863666.673 4  -6127520.015 4
        24.900          29.500
  21765751.292    21765750.399    21765748.493   -19995991.816 5 -15581281.552 5
        34.500          31.300
  22842337.137    22842336.418    22842336.451    -9020120.416 4  -7028661.850 4
        27.400          28.600
  20716437.027    20716436.555    20716433.525   -23344254.036 7 -18190318.606 7
        42.000          46.000
  23671560.889    23671560.031    23671559.189    -8106025.043 3  -6316380.225 3
        18.600          21.100
  23044284.442    23044282.768    23044281.183   -10470314.595 5  -8158684.142 5
        30.200          31.100
  20490092.360    20490091.535    20490090.077   -25399405.460 6 -19791732.558 8
        39.800          49.100
  25618448.637    25618449.734    25618450.554           -.4911          -.27811
                         6.500
 09  1  6  0 41  0.0000000  0 11G 6G26G 9G15G21G 3G22G14G19G18G28
  22876410.747    22876410.226    22876410.323    -9324254.846 4  -7265649.386 4
        26.500          29.500
  24985928.228    24985926.852    24985922.244     3669615.602     2859451.512 1
                        11.000
  22151148.869    22151148.104    22151147.661   -15000500.614 5 -11688691.231 5
        30.100          31.300
  23352829.636    23352829.267    23352828.134    -7767888.903 4  -6052887.984 4
        25.600          29.500
  21781821.397    21781820.563    21781818.669   -19911542.468 5 -15515476.871 5
        34.300          31.100
  22852402.197    22852401.425    22852401.137    -8967228.128 4  -6987447.080 4
        27.100          28.100
  20708368.675    20708368.119    20708365.077   -23386653.879 7 -18223357.441 7
        42.000          46.100
  23651096.651    23651095.589    23651094.578    -8213565.706 3  -6400178.116 3
        18.600          21.100
  23038811.873    23038810.266    23038808.543   -10499073.960 5  -8181094.025 5
        30.800          31.300
  20493589.649    20493588.859    20493587.170   -25381026.174 6 -19777411.035 8
        39.800          49.000
  25612729.237    25612728.060    25612722.304      -30069.554      -23433.168 1
                         6.500
 09  1  6  0 41 30.0000000  0 10G 6G26G 9G15G21G 3G22G14G19G18
  22887462.577    22887462.054    22887462.013    -9266178.148 4  -7220394.825 4
        26.500          29.200
  25009620.972    25009618.119    25009613.496     3794118.264     2956466.490 1
                        11.000
  22137745.075    22137744.424    22137743.585   -15070939.003 5 -11743578.277 5
        30.400          31.000
  23371100.575    23371100.141    23371098.708    -7671875.605 4  -5978072.434 4
        25.600          29.000
  21797963.874    21797963.056    21797961.234   -19826712.750 5 -15449375.799 5
        34.000          31.000
  22862562.371    22862561.391    22862561.167    -8913836.396 4  -6945843.143 4
        26.800          27.600
  20700368.007    20700367.496    20700364.394   -23428697.887 7 -18256119.004 7
        42.000          46.100
  23630667.829    23630666.765    23630665.958    -8320919.366 3  -6483830.291 3
        18.600          21.100
  23033448.864    23033447.059    23033444.823   -10527258.298 5  -8203055.841 5
        31.000          31.000
  20497161.123    20497160.260    20497158.736   -25362258.992 6 -19762787.253 8
        39.900          49.000
 09  1  6  0 42  0.0000000  0 10G 6G26G 9G15G21G 3G22G14G19G18
  22898595.406    22898594.756    22898594.846    -9207673.894 4  -7174807.117 4
        25.900          29.000
  25033318.263    25033319.016    25033316.859     3918673.813     3053522.693 1
                         9.000
  22124445.339    22124444.618    22124443.743   -15140829.625 5 -11798038.502 5
        30.400          31.300
  23389412.405    23389412.408    23389410.887    -7575644.034 4  -5903086.795 4
        25.300          28.600
  21814175.799    21814174.829    21814172.935   -19741519.211 5 -15382991.235 5
        33.600          30.800
  22872814.277    22872813.462    22872813.351    -8859962.073 4  -6903863.151 4
        26.800          27.900
  20692432.140    20692431.641    20692428.518   -23470400.945 7 -18288614.890 7
        42.000          46.300
  23610272.243    23610271.035    23610270.446    -8428099.372 3  -6567347.153 3
        18.600          22.100
  23028192.313    23028190.434    23028188.441   -10554881.773 5  -8224580.618 5
        30.800          31.100
  20500803.163    20500802.359    20500800.613   -25343119.451 6 -19747873.322 8
        40.000          49.100
 09  1  6  0 42 30.0000000  0 10G 6G26G 9G15G21G 3G22G14G19G18
  22909815.927    22909815.263    22909815.175    -9148711.517 4  -7128862.414 4
        25.900          29.000
  25057035.053    25057036.531    25057034.202     4043312.638     3150643.802 1
                         6.500
  22111256.353    22111255.779    22111255.309   -15210136.525 5 -11852043.864 5
        30.100          32.100
  23407771.017    23407772.156    23407770.280    -7479164.176 4  -5827907.680 4
        25.300          27.600
  21830462.485    21830461.631    21830459.779   -19655930.877 5 -15316299.034 5
        33.800          30.400
  22883163.798    22883163.025    22883162.920    -8805575.043 4  -6861483.640 4
        27.400          27.900
  20684567.711    20684567.159    20684564.165   -23511728.820 7 -18320818.423 7
        42.000          46.400
  23589915.818    23589914.914    23589914.670    -8535071.199 3  -6650701.799 3
        19.900          23.000
  23023048.632    23023046.761    23023045.111   -10581910.660 5  -8245642.075 5
        30.400          31.300
  20504522.352    20504521.548    20504520.013   -25323575.033 6 -19732643.903 8
        40.000          49.100
 09  1  6  0 43  0.0000000  0 10G 6G26G 9G15G21G 3G22G14G19G18
  22921120.168    22921119.793    22921120.051    -9089304.755 4  -7082571.443 4
        25.900          29.000
  25080766.950    25080768.649    25080764.525     4168020.618     3247818.790 1
                         6.500
  22098177.555    22098176.857    22098176.211   -15278868.282 5 -11905601.060 5
        31.000          32.400
  23426176.002    23426176.115    23426174.360    -7382449.327 4  -5752545.459 4
        24.600          27.100
  21846821.942    21846821.240    21846819.566   -19569960.982 5 -15249309.513 5
        33.800          30.800
  22893608.520    22893607.576    22893607.195    -8750688.166 4  -6818714.626 4
        26.800          27.600
  20676772.683    20676772.096    20676769.001   -23552692.573 7 -18352738.227 7
        42.000          46.400
  23569597.426    23569597.043    23569596.139    -8641843.749 3  -6733901.166 3
        21.100          22.600
  23018016.208    23018014.498    23018012.737   -10608355.316 5  -8266248.282 5
        30.400          31.100
  20508316.356    20508315.596    20508313.815   -25303637.277 6 -19717107.985 8
        40.000          49.100
 09  1  6  0 43 30.0000000  0 11G 6G26G 9G15G21G 3G22G14G19G18G28
  22932509.113    22932508.496    22932508.517    -9029456.866 4  -7035936.727 4
        26.500          28.600
  25104511.811    25104511.523    25104508.024     4292794.247     3345044.974 1
                         6.500
  22085207.876    22085207.303    22085206.599   -15347023.332 5 -11958708.882 5
        30.600          32.300
  23444624.795    23444624.684    23444623.070    -7285503.193 4  -5677003.014 4
        24.900          28.100
  21863253.740    21863252.856    21863251.081   -19483612.064 5 -15182024.652 5
        33.400          30.200
  22904146.973    22904146.264    22904146.381    -8695305.809 4  -6775559.542 4
        26.200          28.100
  20669046.539    20669046.004    20669043.050   -23593292.897 7 -18384374.842 7
        42.000          46.500
  23549317.382    23549316.899    23549316.000    -8748416.750 3  -6816945.042 3
        19.900          23.000
  23013095.249    23013093.329    23013091.436   -10634216.094 5  -8286399.529 5
        30.600          31.000
  20512184.971    20512184.150    20512182.615   -25283307.637 6 -19701266.705 8
        39.900          49.100
  25585483.453    25585482.454    25585478.722           -.7041          -.6251

 09  1  6  0 44  0.0000000  0 10G 6G26G 9G15G21G 3G22G14G19G18
  22943978.162    22943977.744    22943977.498    -8969187.459 4  -6988973.553 4
        27.100          28.400
  25128264.280    25128262.432    25128263.304     4417613.929     3442306.982 1
                         6.500
  22072345.283    22072344.730    22072344.163   -15414615.943 5 -12011378.440 5
        30.600          32.400
  23463113.727    23463113.235    23463111.784    -7188344.920 4  -5601295.283 4
        25.300          27.900
  21879753.602    21879752.844    21879751.161   -19396903.402 5 -15114459.466 4
        33.100          29.900
  22914776.733    22914775.738    22914776.035    -8639447.167 4  -6732033.321 4
        25.900          28.100
  20661386.637    20661386.101    20661383.044   -23633545.996 7 -18415740.888 7
        42.000          46.500
  23529072.198    23529071.433    23529070.733    -8854805.276 3  -6899845.165 3
        19.900          22.600
  23008282.159    23008280.523    23008278.476   -10659509.453 5  -8306108.636 5
        31.000          31.300
  20516124.864    20516124.053    20516122.388   -25262603.480 6 -19685133.596 8
        40.000          49.100
 09  1  6  0 44 30.0000000  0 10G 6G 9G15G21G 3G22G14G19G18G28
  22955526.326    22955525.611    22955525.047    -8908502.436 4  -6941686.525 4
        27.400          27.400
  22059589.893    22059589.301    22059588.586   -15481646.823 5 -12063610.278 5
        31.100          32.400
  23481641.450    23481640.998    23481639.522    -7090980.817 4  -5525427.149 4
        24.900          27.900
  21896321.340    21896320.450    21896318.751   -19309840.374 5 -15046618.147 4
        33.100          29.900
  22925495.837    22925495.000    22925494.914    -8583118.308 4  -6688140.691 4
        26.200          27.900
  20653792.168    20653791.660    20653788.608   -23673454.879 7 -18446838.714 7
        42.000          46.600
  23508862.297    23508861.081    23508860.483    -8961011.219 3  -6982603.012 3
        20.500          22.100
  23003576.448    23003574.621    23003572.717   -10684238.020 5  -8325377.647 5
        31.000          31.300
  20520135.174    20520134.392    20520132.734   -25241528.845 6 -19668711.798 8
        40.000          49.000
  25575228.356    25575227.604    25575227.367           -.3671           .07511
         3.000          11.000
 09  1  6  0 45  0.0000000  0 10G 6G 9G15G21G 3G22G14G19G18G28
  22967154.588    22967153.942    22967153.374    -8847394.617 4  -6894070.044 4
        27.100          27.400
  22046943.618    22046942.990    22046942.159   -15548103.430 5 -12115394.641 5
        31.600          32.300
  23500209.285    23500209.300    23500208.087    -6993403.469 3  -5449392.857 4
        23.800          28.400
  21912957.739    21912956.912    21912955.251   -19222415.523 5 -14978494.889 4
        32.800          29.900
  22936305.630    22936304.857    22936304.886    -8526311.773 4  -6643875.862 4
        25.900          27.900
  20646265.348    20646264.790    20646261.647   -23713009.354 7 -18477660.382 7
        42.000          46.600
  23488688.544    23488687.675    23488686.478    -9067023.219 3  -7065209.748 3
        20.500          21.100
  22998980.006    22998978.247    22998976.495   -10708391.903 5  -8344198.839 5
        30.800          31.300
  20524217.818    20524217.101    20524215.417   -25220074.149 6 -19651993.851 8
        40.000          48.900
  25570233.445    25570231.997    25570232.053      -26237.742      -20444.557
                         3.000
 09  1  6  0 45 30.0000000  0 10G 6G 9G15G21G 3G22G14G19G18G28
  22978869.050    22978868.125    22978867.619    -8785836.914 4  -6846103.001 4
        26.800          27.100
  22034412.971    22034412.182    22034411.383   -15613953.303 5 -12166706.229 5
        31.600          32.600
  23518823.301    23518823.303    23518822.249    -6895585.826 3  -5373171.333 4
        23.400          28.800
  21929668.340    21929667.506    21929665.664   -19134600.969 5 -14910067.976 4
        32.800          29.700
  22947211.708    22947210.750    22947210.553    -8469001.008 4  -6599218.119 4
        26.200          27.900
  20638811.470    20638810.934    20638807.895   -23752179.354 7 -18508182.457 7
        42.000          46.800
  23468558.052    23468557.454    23468556.341    -9172809.559 3  -7147640.647 3
        21.100          21.100
  22994498.607    22994497.074    22994495.300   -10731940.494 5  -8362548.385 5
        30.600          31.500
  20528378.536    20528377.623    20528375.901   -25198210.652 6 -19634957.362 8
        40.200          48.800
  25565340.979    25565340.110    25565338.864      -51965.367      -40492.077 1
         3.000           9.000
 09  1  6  0 46  0.0000000  0 10G 6G 9G15G21G 3G22G14G19G18G28
  22990663.680    22990662.893    22990662.475    -8723854.808 4  -6797805.250 4
        26.800          27.400
  22021993.767    22021993.043    22021992.264   -15679217.143 5 -12217561.152 5
        32.000          33.000
  23537478.829    23537478.399    23537476.836    -6797553.345 3  -5296782.399 4
        23.800          27.900
  21946448.509    21946447.465    21946445.558   -19046421.774 5 -14841356.921 4
        33.000          29.500
  22958208.667    22958207.602    22958207.911    -8411211.436 4  -6554187.270 4
        25.900          28.600
  20631426.514    20631425.987    20631423.024   -23790987.391 7 -18538422.478 7
        42.000          46.900
  23448466.823    23448465.954    23448464.103    -9278391.919 3  -7229912.600 3
        21.100          21.100
  22990128.519    22990127.029    22990125.161   -10754906.250 5  -8380443.779 5
        30.600          31.500
  20532612.239    20532611.425    20532609.695   -25175961.951 6 -19617620.709 8
        40.300          48.700
  25560536.102    25560536.313    25560533.916      -77205.709      -60159.817 1
                         9.000
 09  1  6  0 46 30.0000000  0 10G 6G 9G15G21G 3G22G14G19G18G28
  23002537.481    23002536.897    23002536.912    -8661455.246 4  -6749182.219 4
        25.900          27.400
  22009685.654    22009684.788    22009684.229   -15743896.775 5 -12267960.855 5
        32.000          33.100
  23556173.710    23556173.258    23556171.359    -6699312.791 4  -5220231.322 4
        24.900          27.400
  21963296.774    21963295.808    21963293.746   -18957883.793 5 -14772366.289 4
        32.800          29.500
  22969295.175    22969294.646    22969294.698    -8352949.468 4  -6508788.347 4
        25.900          28.400
  20624109.881    20624109.319    20624106.146   -23829437.309 7 -18568383.450 7
        42.100          46.900
  23428413.366    23428412.733    23428410.637    -9383773.129 3  -7312027.811 3
        21.100          21.100
  22985868.683    22985866.757    22985864.772   -10777293.239 5  -8397888.190 5
        30.600          31.000
  20536918.508    20536917.640    20536915.870   -25153332.766 6 -19599987.576 8
        40.300          48.700
  25555824.922    25555824.905    25555822.597     -101962.353      -79450.713 1
         3.000           6.500
 09  1  6  0 47  0.0000000  0 10G 6G 9G15G21G 3G22G14G19G18G28
  23014490.674    23014489.867    23014489.499    -8598642.585 4  -6700237.287 4
        26.200          27.100
  21997488.424    21997487.856    21997487.478   -15807991.288 5 -12317904.621 5
        31.800          33.200
  23574906.881    23574906.566    23574904.651    -6600868.671 4  -5143521.612 4
        24.900          26.500
  21980212.443    21980211.526    21980209.493   -18868991.350 5 -14703099.457 4
        32.400          29.200
  22980471.353    22980470.446    22980470.353    -8294220.044 4  -6463025.148 4
        25.600          27.900
  20616860.907    20616860.359    20616857.166   -23867530.587 7 -18598066.520 7
        42.200          46.900
  23408398.325    23408397.323    23408395.916    -9488953.098 3  -7393986.212 3
        21.600          22.100
  22981718.563    22981716.723    22981714.464   -10799102.640 5  -8414882.522 5
        30.800          30.600
  20541296.550    20541295.738    20541294.026   -25130325.751 6 -19582060.033 8
        40.400          48.700
  25551207.636    25551207.195    25551204.877     -126235.937      -98365.157 1
                        11.000
 09  1  6  0 47 30.0000000  0 10G 6G 9G15G21G 3G22G14G19G18G28
  23026522.605    23026522.104    23026521.644    -8535413.323 4  -6650967.727 4
        25.300          27.400
  21985404.992    21985404.287    21985403.729   -15871491.828 5 -12367385.546 5
        32.000          33.400
  23593679.954    23593679.560    23593677.671    -6502216.884 4  -5066650.074 4
        24.600          27.400
  21997195.912    21997195.189    21997193.205   -18779740.364 5 -14633553.240 4
        32.100          29.000
  22991736.736    22991735.735    22991735.778    -8235019.726 4  -6416895.032 4
        25.600          28.100
  20609680.872    20609680.389    20609677.423   -23905260.886 7 -18627466.754 7
        42.000          47.000
  23388423.064    23388422.202    23388421.024    -9593924.153 3  -7475781.821 3
        22.100          22.600
  22977679.191    22977677.399    22977675.566   -10820327.955 5  -8431421.728 5
        30.600          30.800
  20545747.688    20545746.863    20545745.231   -25106934.807 6 -19563833.322 8
        40.400          48.700
  25546679.111    25546679.525    25546677.808     -150019.716     -116897.885 2
                        13.900
 09  1  6  0 48  0.0000000  0 10G 6G 9G15G21G 3G22G14G19G18G28
  23038634.313    23038633.367    23038633.516    -8471765.904 4  -6601372.351 4
        24.600          28.100
  21973435.368    21973434.582    21973433.941   -15934391.912 5 -12416398.588 5
        32.000          33.100
  23612492.140    23612492.041    23612490.558    -6403356.188 3  -4989615.767 4
        23.800          27.900
  22014248.735    22014247.911    22014245.659   -18690128.593 5 -14563725.892 4
        32.100          28.800
  23003091.649    23003090.817    23003091.473    -8175346.945 4  -6370396.754 4
        25.300          28.600
  20602571.186    20602570.652    20602567.645   -23942622.922 7 -18656580.021 7
        42.100          47.100
  23368488.005    23368487.541    23368486.399    -9698680.473 3  -7557410.118 3
        22.100          22.600
  22973752.462    22973750.491    22973748.504   -10840964.751 5  -8447502.339 5
        30.400          30.800
  20550272.513    20550271.628    20550269.999   -25083156.749 6 -19545304.963 8
        40.300          48.600
  25542250.908    25542249.630    25542247.166     -173308.741     -135045.124 2
         3.000          16.100
 09  1  6  0 48 30.0000000  0 10G 6G 9G15G21G 3G22G14G19G18G28
  23050825.266    23050824.430    23050824.206    -8407704.408 4  -6551454.310 4
        25.600          28.400
  21961580.137    21961579.557    21961578.711   -15996690.499 5 -12464942.935 5
        31.600          33.100
  23631343.632    23631343.674    23631341.954    -6304290.664 4  -4912421.853 4
        24.200          27.400
  22031369.454    22031368.543    22031366.315   -18600159.818 5 -14493620.363 4
        32.400          28.800
  23014536.775    23014536.130    23014535.812    -8115205.737 4  -6323533.475 4
        26.200          28.100
  20595531.268    20595530.746    20595527.747   -23979617.787 7 -18685407.185 7
        42.100          47.200
  23348594.490    23348593.492    23348592.872    -9803222.008 3  -7638871.039 3
        21.600          23.000
  22969936.991    22969935.401    22969933.333   -10861013.669 5  -8463124.870 5
        30.200          31.000
  20554870.650    20554869.826    20554868.216   -25058993.193 6 -19526476.218 8
        40.400          48.500
  25537910.208    25537908.875    25537909.088     -196103.824     -152807.533 2
         3.000          15.100
 09  1  6  0 49  0.0000000  0 10G 6G 9G15G21G 3G22G14G19G18G28
  23063092.775    23063092.052    23063091.944    -8343237.131 4  -6501220.077 4
        25.900          28.100
  21949838.934    21949838.497    21949837.823   -16058390.853 5 -12513021.119 5
        32.000          33.400
  23650232.619    23650232.599    23650230.540    -6205028.096 4  -4835074.391 4
        24.200          26.800
  22048556.268    22048555.398    22048553.420   -18509841.661 5 -14423242.581 4
        32.100          28.800
  23026068.600    23026067.697    23026067.625    -8054604.553 4  -6276311.771 4
        25.900          27.400
  20588560.190    20588559.684    20588556.651   -24016251.301 7 -18713952.777 7
        42.200          47.300
  23328740.890    23328740.347    23328739.602    -9907552.726 3  -7720167.683 3
        22.100          23.800
  22966232.491    22966230.958    22966229.078   -10880480.219 5  -8478293.607 5
        30.200          31.500
  20559540.949    20559540.148    20559538.478   -25034450.624 6 -19507352.138 8
        40.400          48.500
  25533666.105    25533665.235    25533663.997     -218410.012     -170188.962 2
                        12.600
 09  1  6  0 49 30.0000000  0 10G 6G 9G15G21G 3G22G14G19G18G28
  23075438.055    23075437.476    23075437.450    -8278361.520 4  -6450667.660 4
        25.600          27.900
  21938213.167    21938212.497    21938212.028   -16119485.345 5 -12560627.199 5
        32.100          33.600
  23669160.046    23669159.853    23669157.512    -6105566.025 3  -4757571.473 4
        23.800          27.100
  22065810.096    22065809.273    22065807.721   -18419171.089 5 -14352590.195 4
        31.300          29.500
  23037688.763    23037687.990    23037687.683    -7993541.094 4  -6228729.856 4
        26.200          27.600
  20581659.011    20581658.521    20581655.308   -24052518.029 7 -18742212.562 7
        42.300          47.300
  23308929.021    23308928.384    23308927.573   -10011665.734 3  -7801294.692 4
        22.600          24.200
  22962640.196    22962638.527    22962636.642   -10899358.825 5  -8493004.213 5
        30.600          31.300
  20564284.266    20564283.466    20564281.717   -25009524.431 6 -19487929.131 8
        40.500          48.400
  25529517.657    25529516.619    25529513.413     -240221.761 1   -187185.158 1
         9.000          11.000
 09  1  6  0 50  0.0000000  0 10G 6G 9G15G21G 3G22G14G19G18G28
  23087860.607    23087859.959    23087859.560    -8213080.582 4  -6399799.411 4
        25.600          27.400
  21926702.914    21926702.437    21926701.694   -16179971.793 5 -12607759.484 5
        32.400          33.400
  23688124.404    23688124.329    23688122.191    -6005907.040 3  -4679915.127 4
        23.400          27.100
  22083130.920    22083130.058    22083128.432   -18328150.319 5 -14281664.934 4
        31.300          29.500
  23049396.195    23049395.373    23049395.621    -7932017.840 4  -6180789.657 4
        26.200          28.100
  20574827.510    20574826.972    20574823.889   -24088416.978 7 -18770185.769 7
        42.200          47.400
  23289158.737    23289158.123    23289157.269   -10115559.809 3  -7882251.103 4
        23.000          24.900
  22959159.354    22959157.666    22959155.988   -10917649.529 5  -8507256.718 5
        30.600          31.100
  20569100.384    20569099.606    20569097.887   -24984215.349 6 -19468207.765 8
        40.500          48.200
  25525457.495    25525457.650    25525455.312     -261538.366     -203795.477 1
         3.000           6.500
 09  1  6  0 50 30.0000000  0 10G 6G 9G15G21G 3G22G14G19G18G28
  23100358.080    23100357.591    23100357.465    -8147404.995 4  -6348623.631 4
        25.300          27.100
  21915307.359    21915306.756    21915306.331   -16239855.685 5 -12654422.244 5
        32.300          33.600
  23707124.812    23707124.324    23707121.821    -5906061.758 3  -4602113.617 4
        22.600          26.800
  22100516.206    22100515.383    22100513.744   -18236789.559 5 -14210474.736 4
        31.000          29.000
  23061188.907    23061188.276    23061188.176    -7870045.946 4  -6132499.874 4
        25.900          28.100
  20568064.592    20568064.072    20568061.043   -24123956.236 7 -18797878.695 7
        42.300          47.400
  23269428.622    23269428.118    23269426.993   -10219241.613 3  -7963042.105 4
        22.600          24.600
  22955789.267    22955787.645    22955785.529   -10935360.221 5  -8521057.255 5
        31.100          30.800
  20573987.886    20573986.992    20573985.226   -24958532.100 6 -19448194.843 8
        40.500          48.200
  25521495.375    25521494.281    25521495.298     -282367.383     -220025.914 2
         3.000          12.600
 09  1  6  0 51  0.0000000  0 10G 6G 9G15G21G 3G22G14G19G18G28
  23112931.606    23112931.232    23112930.939    -8081329.680 4  -6297136.384 4
        24.600          26.500
  21904028.595    21904027.943    21904027.163   -16299126.889 5 -12700607.583 5
        32.600          33.500
  23726161.430    23726160.800    23726158.357    -5806024.641 3  -4524162.630 4
        22.100          26.500
  22117967.240    22117966.639    22117964.899   -18145082.856 5 -14139014.973 4
        31.100          28.600
  23073068.439    23073067.591    23073067.258    -7807620.651 4  -6083856.791 4
        25.900          27.600
  20561371.654    20561371.142    20561367.996   -24159127.930 7 -18825285.206 7
        42.300          47.400
  23249740.997    23249740.050    23249739.236   -10322701.478 3  -8043660.171 4
        22.100          24.200
  22952530.865    22952529.200    22952527.575   -10952482.606 5  -8534399.372 5
        30.600          31.100
  20578947.547    20578946.763    20578945.128   -24932467.594 6 -19427884.838 8
        40.500          48.100
  25517628.954    25517627.529    25517624.065     -302700.160 2   -235869.634 1
        12.600          11.000
 09  1  6  0 51 30.0000000  0 10G 6G 9G15G21G 3G22G14G19G18G28
  23125581.043    23125580.487    23125580.447    -8014856.997 4  -6245339.483 4
        24.200          27.100
  21892866.358    21892865.788    21892865.334   -16357782.902 5 -12746313.557 5
        32.400          33.600
  23745233.818    23745233.278    23745230.808    -5705798.239 3  -4446064.151 4
        21.600          25.300
  22135484.302    22135483.628    22135481.485   -18053032.338 5 -14067287.307 4
        31.500          28.400
  23085033.131    23085032.450    23085032.207    -7744744.203 4  -6034862.156 4
        25.900          27.100
  20554748.868    20554748.347    20554745.190   -24193931.016 7 -18852404.492 7
        42.300          47.500
  23230095.854    23230095.174    23230094.053   -10425937.293 3  -8124103.660 4
        23.000          24.600
  22949384.963    22949383.088    22949381.130   -10969015.991 5  -8547282.510 5
        30.400          31.100
  20583980.180    20583979.329    20583977.658   -24906021.756 6 -19407277.692 8
        40.500          48.100
  25513850.295    25513849.829    25513849.769     -322536.043 1   -251326.219 2
         9.000          12.600
 09  1  6  0 52  0.0000000  0 10G 6G 9G15G21G 3G22G14G19G18G28
  23138306.298    23138305.323    23138305.308    -7947988.274 4  -6193234.001 4
        24.200          26.800
  21881822.309    21881821.743    21881821.282   -16415819.973 5 -12791537.240 5
        32.400          33.500
  23764341.597    23764341.136    23764338.968    -5605383.212 3  -4367818.680 4
        21.100          24.900
  22153066.255    22153065.268    22153063.307   -17960638.731 5 -13995292.288 4
        31.000          28.100
  23097084.097    23097083.146    23097082.829    -7681417.563 4  -5985516.726 4
        25.900          26.800
  20548196.708    20548196.160    20548193.064   -24228362.821 7 -18879234.467 7
        42.300          47.600
  23210494.028    23210493.305    23210492.133   -10528946.240 3  -8204370.369 4
        23.400          24.900
  22946350.933    22946349.368    22946347.483   -10984958.694 5  -8559705.393 5
        31.100          31.300
  20589085.378    20589084.593    20589082.899   -24879193.860 6 -19386372.838 8
        40.600          48.100
  25510169.927    25510170.476    25510170.490     -341872.790 1   -266393.841 2
         9.000          13.900
 09  1  6  0 52 30.0000000  0 10G 6G 9G15G21G 3G22G14G19G18G28
  23151107.169    23151106.264    23151105.859    -7880718.884 3  -6140816.292 4
        23.800          26.800
  21870898.070    21870897.511    21870896.773   -16473228.203 5 -12836270.913 5
        32.700          33.400
  23783486.864    23783486.754    23783483.981    -5504774.834 3  -4289422.546 4
        22.100          24.200
  22170714.299    22170713.259    22170711.451   -17867897.089 5 -13923026.084 4
        30.400          28.100
  23109220.663    23109220.023    23109219.796    -7617636.769 4  -5935817.401 4
        25.600          26.800
  20541716.344    20541715.806    20541712.654   -24262417.639 7 -18905770.686 7
        42.300          47.700
  23190936.781    23190936.126    23190935.175   -10631719.713 3  -8284453.593 4
        23.400          25.300
  22943431.026    22943429.304    22943427.271   -11000303.317 5  -8571662.232 5
        31.600          31.100
  20594264.510    20594263.644    20594261.959   -24851977.393 6 -19365165.202 7
        40.600          47.900
  25506589.100    25506588.096    25506587.322     -360702.899 1   -281066.622 2
        11.000          12.600
 09  1  6  0 53  0.0000000  0 10G 6G 9G15G21G 3G22G14G19G18G28
  23163981.817    23163981.603    23163981.701    -7813058.121 3  -6088093.623 4
        23.800          27.600
  21860092.253    21860091.745    21860091.374   -16530011.877 5 -12880517.929 5
        32.600          33.900
  23802666.889    23802666.762    23802664.423    -5403982.269 3  -4210882.879 4
        22.100          24.900
  22188426.379    22188425.855    22188424.575   -17774815.913 5 -13850495.308 4
        30.100          28.400
  23121442.867    23121442.053    23121441.600    -7553410.713 4  -5885771.135 4
        25.300          27.100
  20535306.705    20535306.131    20535303.021   -24296100.459 7 -18932017.037 7
        42.400          47.800
  23171423.140    23171422.821    23171421.984   -10734262.513 3  -8364357.056 4
        23.000          25.300
  22940623.518    22940622.126    22940620.011   -11015056.223 5  -8583157.992 5
        31.600          31.000
  20599516.205    20599515.391    20599513.667   -24824379.202 6 -19343660.117 7
        40.600          47.800
  25503103.381    25503102.432    25503099.069     -379032.047 1   -295349.152 1
         6.500          11.000
 09  1  6  0 53 30.0000000  0 10G 6G 9G15G21G 3G22G14G19G18G28
  23176931.101    23176930.376    23176930.405    -7745012.051 3  -6035070.720 4
        23.800          27.600
  21849405.465    21849404.939    21849404.614   -16586172.162 5 -12924279.177 5
        33.000          34.100
  23821880.791    23821880.824    23821878.719    -5303011.064 3  -4132204.032 4
        22.600          25.600
  22206203.095    22206202.403    22206200.655   -17681400.687 5 -13777704.243 4
        30.400          28.100
  23133747.898    23133747.093    23133747.058    -7488745.957 4  -5835383.010 4
        24.900          27.100
  20528967.250    20528966.731    20528963.654   -24329414.103 7 -18957975.716 7
        42.400          47.900
  23151953.945    23151953.234    23151952.314   -10836576.339 3  -8444082.084 4
        23.400          25.600
  22937928.054    22937926.522    22937924.611   -11029220.561 5  -8594195.140 5
        31.800          31.000
  20604839.840    20604839.007    20604837.213   -24796403.524 6 -19321860.888 7
        40.600          47.600
  25499706.654    25499703.612    25499704.855     -396863.306     -309243.673 1
                         9.000
 09  1  6  0 54  0.0000000  0 10G 6G 9G15G21G 3G22G14G19G18G28
  23189953.314    23189952.764    23189952.506    -7676581.292 4  -5981748.054 4
        24.900          28.100
  21838838.062    21838837.496    21838836.732   -16641704.487 5 -12967551.110 5
        33.000          33.600
  23841128.661    23841128.542    23841126.632    -5201861.626 3  -4053386.284 4
        22.600          25.900
  22224043.071    22224042.356    22224040.655   -17587651.341 5 -13704652.820 4
        30.200          27.900
  23146136.790    23146135.963    23146135.876    -7423642.943 4  -5784653.387 4
        24.900          27.600
  20522698.583    20522698.038    20522694.921   -24362356.348 7 -18983644.997 7
        42.500          47.900
  23132528.290    23132527.670    23132526.879   -10938657.330 4  -8523625.694 4
        24.200          25.600
  22935345.168    22935343.625    22935341.845   -11042794.205 5  -8604772.003 5
        31.600          31.300
  20610235.524    20610234.697    20610233.049   -24768048.752 6 -19299766.259 7
        40.600          47.700
  25496410.846    25496410.685    25496408.329     -414193.792     -322747.877 1
         3.000          11.000
 09  1  6  0 54 30.0000000  0 10G 6G 9G15G21G 3G22G14G19G18G28
  23203046.513    23203045.822    23203045.846    -7607773.389 3  -5928131.507 4
        23.800          27.900
  21828389.648    21828388.903    21828388.291   -16696611.261 5 -13010335.601 5
        32.800          33.800
  23860409.652    23860409.434    23860407.282    -5100541.152 3  -3974435.262 4
        22.100          25.900
  22241944.991    22241944.394    22241942.845   -17493574.812 4 -13631346.449 4
        29.900          27.600
  23158606.850    23158606.065    23158606.430    -7358109.391 4  -5733588.284 4
        24.200          27.100
  20516499.688    20516499.188    20516496.134   -24394931.409 7 -19009028.159 8
        42.500          48.100
  23113146.831    23113146.094    23113145.172   -11040508.512 4  -8602990.227 4
        24.200          25.900
  22932874.108    22932872.257    22932870.028   -11055781.611 5  -8614892.066 5
        32.000          30.800
  20615702.424    20615701.576    20615699.917   -24739320.260 6 -19277380.424 7
        40.600          47.600
  25493206.353    25493205.579    25493205.690     -431027.981     -335865.404 1
         3.000          11.000
 09  1  6  0 55  0.0000000  0 10G 6G 9G15G21G 3G22G14G19G18G28
  23216211.702    23216211.566    23216211.467    -7538588.211 3  -5874220.985 4
        23.800          27.600
  21818061.167    21818060.539    21818060.026   -16750887.780 5 -13052628.979 5
        33.100          34.300
  23879722.834    23879722.365    23879720.745    -4999049.007 3  -3895350.470 4
        21.100          25.900
  22259909.540    22259908.846    22259907.219   -17399170.333 4 -13557784.526 4
        29.500          27.400
  23171158.951    23171158.387    23171158.955    -7292145.327 3  -5682187.715 4
        23.800          27.400
  20510371.415    20510370.861    20510367.817   -24427136.060 7 -19034122.688 8
        42.600          48.200
  23093809.576    23093808.892    23093808.200   -11142125.711 4  -8682172.432 4
        24.200          25.900
  22930514.314    22930512.804    22930510.818   -11068179.884 5  -8624553.056 5
        32.100          30.800
  20621240.771    20621239.968    20621238.325   -24710215.667 6 -19254701.518 7
        40.700          47.500
  25490098.720    25490098.160    25490096.118     -447362.381     -348593.525 1
         3.000           6.500
 09  1  6  0 55 30.0000000  0 10G 6G 9G15G21G 3G22G14G19G18G28
  23229449.997    23229449.567    23229449.400    -7469022.541 3  -5820013.976 4
        23.000          27.400
  21807854.211    21807853.547    21807852.898   -16804525.903 5 -13094424.907 5
        33.200          34.100
  23899069.984    23899069.313    23899066.982    -4897381.744 3  -3816129.225 4
        21.100          24.900
  22277937.496    22277936.528    22277934.934   -17304434.282 4 -13483964.233 4
        29.200          27.100
  23183794.075    23183793.625    23183793.984    -7225747.347 4  -5630449.056 4
        24.200          26.800
  20504314.600    20504314.083    20504311.043   -24458964.242 7 -19058923.865 8
        42.500          48.300
  23074518.190    23074517.337    23074516.742   -11243501.489 3  -8761166.518 4
        23.800          25.600
  22928268.562    22928266.875    22928264.628   -11079982.831 5  -8633750.149 5
        32.000          30.200
  20626851.784    20626850.966    20626849.229   -24680729.743 6 -19231725.473 7
        40.700          47.300
  25487085.302    25487085.547    25487086.861     -463190.637     -360927.145
                         3.000
 09  1  6  0 56  0.0000000  0 10G 6G 9G15G21G 3G22G14G19G18G28
  23242759.908    23242759.302    23242759.411    -7399077.918 3  -5765511.676 4
        23.000          26.800
  21797769.376    21797768.688    21797768.035   -16857521.820 5 -13135720.416 5
        33.200          33.900
  23918449.709    23918449.103    23918446.863    -4795540.690 3  -3736772.564 4
        21.100          24.600
  22296028.045    22296027.126    22296025.643   -17209367.659 4 -13409886.368 4
        28.800          27.100
  23196511.962    23196511.119    23196511.593    -7158917.447 3  -5578373.800 4
        23.000          26.800
  20498329.967    20498329.478    20498326.391   -24490413.839 7 -19083430.040 8
        42.600          48.400
  23055273.063    23055272.673    23055271.904   -11344632.898 4  -8839970.189 4
        24.200          25.300
  22926136.224    22926134.260    22926132.016   -11091189.186 5  -8642482.361 5
        31.600          30.200
  20632535.498    20632534.626    20632532.849   -24650861.780 6 -19208451.734 7
        40.700          47.200
  25484171.285    25484169.791    25484171.335     -478511.204     -372865.360
         3.000           3.000
 09  1  6  0 56 30.0000000  0 10G 6G 9G15G21G 3G22G14G19G18G28
  23256140.241    23256139.500    23256139.612    -7328765.871 3  -5710723.069 4
        23.400          26.500
  21787805.637    21787804.976    21787804.309   -16909882.354 5 -13176520.830 5
        33.500          34.400
  23937860.455    23937859.979    23937857.771    -4693536.917 3  -3657289.103 4
        21.100          24.900
  22314179.556    22314178.768    22314176.920   -17113981.366 4 -13335559.404 4
        29.200          26.800
  23209309.606    23209308.736    23209308.632    -7091667.051 4  -5525970.903 4
        24.200          26.800
  20492415.747    20492415.216    20492412.109   -24521493.593 7 -19107648.023 8
        42.700          48.500
  23036073.902    23036073.292    23036072.334   -11445526.954 4  -8918588.910 4
        24.600          25.600
  22924115.383    22924113.629    22924111.660   -11101807.802 5  -8650756.617 5
        31.100          30.600
  20638290.126    20638289.300    20638287.593   -24620621.241 6 -19184887.678 7
        40.900          47.200
  25481350.087    25481350.473    25481348.509     -493332.205     -384414.188 1
         3.000          11.000
 09  1  6  0 57  0.0000000  0 10G 6G 9G15G21G 3G22G14G19G18G28
  23269589.971    23269589.541    23269589.356    -7258085.243 3  -5655647.261 4
        23.400          26.200
  21777963.814    21777963.205    21777962.589   -16961601.335 5 -13216821.322 5
        33.600          34.600
  23957301.912    23957301.386    23957299.818    -4591368.605 3  -3577677.434 4
        20.500          24.600
  22332392.193    22332391.428    22332389.556   -17018273.415 4 -13260981.789 4
        29.000          26.800
  23222187.008    23222186.229    23222186.298    -7023994.796 4  -5473239.273 4
        24.200          26.500
  20486572.664    20486572.144    20486569.077   -24552199.042 7 -19131574.343 8
        42.700          48.600
  23016920.723    23016919.993    23016918.961   -11546178.325 4  -8997018.523 4
        24.900          25.900
  22922207.224    22922205.526    22922203.506   -11111834.484 5  -8658569.606 5
        31.500          30.400
  20644116.260    20644115.442    20644113.778   -24590004.338 6 -19161030.351 7
        40.800          47.200
  25478625.102    25478624.787    25478625.532     -507649.495     -395570.523 2
                        15.100
 09  1  6  0 57 30.0000000  0 10G 6G 9G15G21G 3G22G14G19G18G28
  23283110.138    23283109.641    23283109.509    -7187036.861 3  -5600284.886 4
        23.800          26.200
  21768244.867    21768244.083    21768243.467   -17012674.661 5 -13256618.712 5
        33.500          34.100
  23976774.244    23976774.518    23976773.478    -4489036.256 3  -3497937.936 4
        18.600          24.900
  22350666.207    22350665.466    22350663.511   -16922244.020 4 -13186153.694 4
        29.200          27.100
  23235144.756    23235143.935    23235143.907    -6955901.967 4  -5420179.948 4
        24.600          25.900
  20480801.302    20480800.776    20480797.717   -24582527.941 7 -19155207.247 8
        42.800          48.700
  22997813.611    22997813.395    22997812.468   -11646583.514 4  -9075256.303 4
        24.900          25.600
  22920412.377    22920410.657    22920408.290   -11121267.344 5  -8665919.896 5
        31.500          30.100
  20650014.244    20650013.423    20650011.686   -24559010.501 6 -19136879.308 7
        40.700          47.100
  25475998.725    25475996.985    25475996.846     -521460.575     -406332.376 1
                         9.000
 09  1  6  0 58  0.0000000  0 10G 6G 9G15G21G 3G22G14G19G18G28
  23296700.424    23296699.822    23296699.773    -7115619.209 4  -5544634.776 4
        24.200          26.200
  21758649.965    21758649.290    21758648.739   -17063096.064 5 -13295908.109 5
        33.600          34.400
  23996279.263    23996279.372    23996278.164    -4386538.181 3  -3418069.321 4
        19.300          25.600
  22369001.730    22369000.751    22368999.012   -16825891.394 4 -13111073.739 4
        28.800          27.100
  23248182.593    23248181.873    23248182.073    -6887386.935 4  -5366791.602 4
        24.600          25.900
  20475102.492    20475101.941    20475098.837   -24612475.469 7 -19178542.982 8
        42.800          48.700
  22978755.801    22978755.111    22978754.250   -11746736.550 4  -9153297.609 4
        25.300          25.600
  22918730.783    22918729.096    22918727.502   -11130102.215 5  -8672804.203 5
        31.000          30.600
  20655984.663    20655983.813    20655982.102   -24527635.725 6 -19112431.430 7
        40.800          46.900
  25473468.286    25473466.991    25473464.641     -534760.983     -416696.303
         3.000           3.000
 09  1  6  0 58 30.0000000  0 10G 6G 9G15G21G 3G22G14G19G18G28
  23310359.419    23310358.661    23310358.568    -7043843.123 4  -5488705.363 4
        24.200          26.500
  21749177.828    21749177.220    21749176.475   -17112871.763 5 -13334694.354 5
        33.800          34.100
  24015813.273    24015813.344    24015812.422    -4283884.723 3  -3338079.630 4
        18.600          25.600
  22387396.388    22387395.655    22387393.746   -16729225.683 4 -13035749.826 4
        28.800          26.500
  23261299.219    23261298.489    23261298.057    -6818460.797 4  -5313082.934 4
        24.600          25.600
  20469474.731    20469474.208    20469471.071   -24642049.382 7 -19201587.586 8
        42.900          48.800
  22959743.803    22959743.476    22959742.243   -11846644.004 4  -9231147.553 4
        25.600          25.600
  22917161.709    22917160.257    22917158.586   -11138347.138 5  -8679228.823 5
        30.800          30.800
  20662025.906    20662025.071    20662023.389   -24495888.677 6 -19087693.471 7
        40.900          46.800
  25471030.576    25471028.859    25471030.004     -547558.370     -426668.325
                         3.000
 09  1  6  0 59  0.0000000  0 10G 6G 9G15G21G 3G22G14G19G18G28
  23324085.078    23324084.751    23324084.935    -6971710.567 3  -5432498.181 4
        23.400          26.200
  21739829.460    21739828.827    21739827.610   -17161998.507 5 -13372974.934 5
        34.000          33.600
  24035377.230    24035377.249    24035376.065    -4181077.069 2  -3257969.775 4
        17.800          25.300
  22405850.341    22405849.665    22405847.732   -16632248.151 4 -12960182.932 4
        28.400          26.200
  23274492.646    23274492.103    23274492.079    -6749125.465 3  -5259055.412 4
        23.400          25.300
  20463918.330    20463917.816    20463914.723   -24671248.169 7 -19224339.885 8
        43.000          48.900
  22940779.563    22940778.750    22940777.567   -11946303.386 4  -9308804.196 4
        25.300          25.900
  22915705.459    22915703.990    22915701.873   -11146001.184 5  -8685193.013 5
        31.300          30.400
  20668138.048    20668137.222    20668135.592   -24463768.791 6 -19062664.988 7
        40.800          46.700
  25468692.750    25468691.785    25468690.600     -559851.244     -436247.324 1
                         6.500
 09  1  6  0 59 30.0000000  0 10G 9G 6G15G21G 3G22G14G19G18G28
  21730605.741    21730605.145    21730604.667   -17210467.983 5 -13410743.346 5
        33.600          34.100
  23337880.660    23337879.783    23337879.621    -6899217.998 3  -5376010.469 4
        23.000          26.200
  24054971.416    24054971.297    24054970.063    -4078111.341 2  -3177736.747 4
        17.800          24.600
  22424364.709    22424363.769    22424362.245   -16534954.748 4 -12884369.909 4
        28.100          25.900
  23287765.545    23287765.034    23287764.878    -6679377.699 3  -5204706.499 4
        23.400          24.200
  20458434.605    20458434.111    20458430.947   -24700065.475 7 -19246794.924 8
        43.100          49.000
  22921863.124    22921862.665    22921861.573   -12045706.620 4  -9386261.238 4
        25.300          25.900
  22914362.300    22914360.887    22914358.919   -11153058.037 5  -8690691.855 5
        31.000          30.100
  20674322.253    20674321.440    20674319.818   -24431270.519 6 -19037341.660 7
        40.800          46.600
  25466452.300    25466450.614    25466447.996     -571633.189     -445427.897 1
         3.000           9.000
                            4 15
RINEX FILE SPLICE                                           COMMENT
teqc  2008Oct2      WCDA Operator       20090106 02:18:28UTCCOMMENT
STATION INFORMATION EFFECTIVE FROM: 2001/01/13 18:20:00     COMMENT
                                TO: CURRENT DATE (above)    COMMENT
BIT 2 OF LLI FLAGS (+4) DATA COLLECTED UNDER 'AS' CONDITION COMMENT
L1 PHASE CENTRE 0.110m ABOVE ARP                            COMMENT
L2 PHASE CENTRE 0.128m ABOVE ARP                            COMMENT
where ARP is the Antenna Reference Point for HI measurement COMMENT
CONTACT gps@pgc.nrcan.gc.ca FOR ADDITIONAL INFORMATION      COMMENT
    P1 =    P1  TurboRogue; =    Y1  Benchmark              COMMENT
    L1 = L1(CA)                                             COMMENT
    P2 =    P2  TurboRogue; =    Y2  Benchmark              COMMENT
    L2 = L2(P2) TurboRogue; = L2(Y2) Benchmark              COMMENT
 SNR is mapped to RINEX snr flag value [0-9]                COMMENT
  L1 & L2: min(max(int(snr_dBHz/6), 0), 9)                  COMMENT
 09  1  6  1  0  0.0000000  0 10G 9G 6G15G21G 3G22G14G19G18G28
  21721506.875    21721506.324    21721505.710   -17258282.819 5 -13448001.653 5
        33.800          34.300
  23351742.280    23351741.799    23351741.871    -6826372.873 3  -5319248.031 4
        22.600          26.200
  24074594.309    24074594.041    24074592.927    -3974994.481 2  -3097385.960 4
        17.800          24.600
  22442937.801    22442936.980    22442935.337   -16437352.120 4 -12808315.923 4
        28.400          25.900
  23301115.266    23301114.382    23301114.416    -6609224.962 3  -5150042.017 3
        23.400          23.800
  20453022.695    20453022.173    20453019.038   -24728505.502 7 -19268955.981 8
        43.100          49.100
  22902995.582    22902994.978    22902993.987   -12144856.786 4  -9463521.090 4
        25.900          25.900
  22913132.596    22913130.813    22913128.654   -11159522.499 5  -8695729.085 5
        31.000          30.100
  20680577.536    20680576.700    20680574.972   -24398399.133 6 -19011727.597 7
        40.900          46.500
  25464304.448    25464304.139    25464304.212     -582908.525     -454213.850 1
         3.000           9.000
 09  1  6  1  0 30.0000000  0 10G 9G 6G15G21G 3G22G14G19G18G28
  21712532.843    21712532.029    21712531.279   -17305443.551 5 -13484750.271 5
        34.000          34.400
  23365670.114    23365669.540    23365670.154    -6753180.521 3  -5262215.047 4
        21.600          26.500
  24094245.523    24094244.846    24094242.900    -3871731.259 2  -3016921.128 4
        17.800          24.200
  22461568.986    22461568.336    22461566.598   -16339444.943 4 -12732024.628 4
        28.400          25.900
  23314540.883    23314539.839    23314540.088    -6538672.639 3  -5095066.174 4
        23.000          24.200
  20447682.191    20447681.651    20447678.494   -24756570.156 7 -19290824.541 8
        43.200          49.200
  22884175.964    22884175.320    22884174.474   -12243754.756 4  -9540584.417 4
        25.600          26.500
  22912015.023    22912013.157    22912010.804   -11165397.196 5  -8700306.768 5
        31.600          30.100
  20686903.201    20686902.356    20686900.561   -24365157.829 6 -18985825.282 7
        40.900          46.300
  25462252.996    25462253.475    25462255.252     -593679.450     -462606.699 1
         3.000           9.000
 09  1  6  1  1  0.0000000  0 10G 9G 6G15G21G 3G22G14G19G18G28
  21703684.753    21703684.101    21703683.505   -17351939.475 5 -13520980.844 5
        34.100          34.600
  23379665.329    23379665.040    23379664.989    -6679634.901 3  -5204906.796 4
        21.600          25.600
  24113924.500    24113923.687    24113921.999    -3768315.386 3  -2936337.334 3
        18.600          23.400
  22480259.392    22480258.538    22480257.071   -16241226.966 4 -12655491.151 4
        27.600          26.200
  23328043.916    23328042.957    23328042.654    -6467715.115 3  -5039774.595 4
        23.000          24.600
  20442414.688    20442414.198    20442411.113   -24784250.413 7 -19312393.566 8
        43.200          49.300
  22865406.012    22865405.412    22865404.943   -12342390.665 4  -9617443.543 4
        25.300          26.800
  22911010.695    22911009.008    22911006.927   -11170673.585 5  -8704418.250 5
        31.600          30.600
  20693300.674    20693299.845    20693298.080   -24331538.452 6 -18959628.362 7
        40.900          46.100
  25460303.935    25460303.234    25460301.654     -603936.754 1   -470599.479
         9.000           3.000
 09  1  6  1  1 30.0000000  0 10G 9G 6G15G21G 3G22G14G19G18G28
  21694962.935    21694962.215    21694961.502   -17397773.100 5 -13556695.351 5
        34.100          34.400
  23393726.593    23393726.076    23393725.499    -6605743.455 3  -5147329.052 4
        21.600          24.600
  24133631.148    24133631.022    24133628.872    -3664753.459 3  -2855639.737 3
        18.600          23.400
  22499007.789    22499006.721    22499005.081   -16142704.739 4 -12578720.614 4
        27.600          25.900
  23341622.161    23341620.750    23341620.766    -6396359.814 3  -4984173.067 3
        21.600          23.800
  20437219.884    20437219.341    20437216.097   -24811550.395 7 -19333666.278 8
        43.400          49.300
  22846686.207    22846685.441    22846684.396   -12440767.269 4  -9694100.607 4
        26.200          27.100
  22910119.821    22910118.091    22910116.194   -11175356.083 5  -8708066.952 5
        32.100          31.100
  20699769.262    20699768.418    20699766.646   -24297546.031 6 -18933140.758 7
        40.900          46.100
  25458447.068    25458445.311    25458447.239     -613685.037     -478195.616
                         3.000
 09  1  6  1  2  0.0000000  0 10G 9G 6G15G21G 3G22G14G19G18G28
  21686366.131    21686365.464    21686364.874   -17442949.529 5 -13591897.756 5
        34.100          34.800
  23407851.634    23407851.091    23407850.828    -6531516.309 3  -5089489.711 4
        22.600          24.200
  24153364.158    24153364.140    24153361.844    -3561055.158 3  -2774835.862 3
        19.300          23.400
  22517812.160    22517811.108    22517809.163   -16043887.867 4 -12501720.477 4
        27.900          25.300
  23355274.502    23355273.441    23355273.208    -6324616.482 3  -4928269.167 3
        22.100          23.800
  20432095.877    20432095.339    20432092.148   -24838476.772 7 -19354647.866 8
        43.400          49.400
  22828013.602    22828013.150    22828012.441   -12538889.886 4  -9770559.780 4
        26.500          27.400
  22909340.174    22909338.543    22909336.320   -11179452.196 5  -8711258.735 5
        31.800          31.000
  20706307.261    20706306.467    20706304.690   -24263188.296 6 -18906368.496 7
        40.900          46.000
  25456687.828    25456687.553    25456686.909     -622930.910 1   -485400.158 1
         6.500           6.500
 09  1  6  1  2 30.0000000  0 10G 9G 6G15G21G 3G22G14G19G18G28
  21677897.181    21677896.415    21677895.727   -17487455.007 5 -13626577.340 5
        34.400          34.800
  23422041.994    23422041.417    23422041.603    -6456944.040 3  -5031381.461 4
        22.600          24.200
  24173125.273    24173124.527    24173122.407    -3457210.459 3  -2693917.915 3
        18.600          22.600
  22536674.119    22536673.260    22536671.126   -15944766.255 4 -12424482.860 4
        27.600          24.900
  23369002.878    23369001.744    23369001.485    -6252476.256 3  -4872056.021 4
        23.000          24.600
  20427045.311    20427044.759    20427041.627   -24865017.581 7 -19375329.012 8
        43.400          49.500
  22809391.951    22809391.681    22809391.085   -12636745.229 4  -9846810.685 4
        26.200          27.400
  22908674.776    22908672.868    22908670.791   -11182950.143 5  -8713984.417 5
        31.500          30.400
  20712916.958    20712916.172    20712914.381   -24228454.158 6 -18879302.929 7
        40.900          45.800
  25455027.465    25455027.081    25455028.001     -631662.404 1   -492203.886 1
         9.000          11.000
 09  1  6  1  3  0.0000000  0 10G 9G 6G15G21G 3G22G14G19G18G28
  21669555.416    21669554.761    21669554.145   -17531289.602 5 -13660734.166 5
        34.400          34.400
  23436297.630    23436297.046    23436296.963    -6382031.412 3  -4973007.981 4
        22.100          24.200
  24192912.512    24192912.585    24192910.641    -3353223.496 3  -2612889.108 3
        18.600          22.600
  22555592.798    22555592.320    22555590.713   -15845344.258 4 -12347011.195 4
        26.800          25.300
  23382804.600    23382803.802    23382803.957    -6179943.712 3  -4815537.168 4
        22.100          24.900
  20422068.019    20422067.464    20422064.213   -24891173.755 7 -19395710.444 8
        43.500          49.600
  22790821.588    22790821.023    22790820.289   -12734333.535 4  -9922853.496 4
        26.200          27.400
  22908122.320    22908120.375    22908118.572   -11185851.743 5  -8716245.399 5
        31.300          30.600
  20719597.805    20719597.015    20719595.311   -24193345.870 6 -18851945.823 7
        40.900          45.800
  25453462.887    25453462.851    25453459.841     -639880.975 1   -498608.062 1
         6.500           9.000
 09  1  6  1  3 30.0000000  0 10G 9G 6G15G21G 3G22G14G19G18G28
  21661342.086    21661341.302    21661340.692   -17574452.828 5 -13694367.845 5
        34.500          34.800
  23450616.784    23450616.272    23450616.272    -6306782.717 3  -4914372.647 3
        21.600          23.400
  24212726.430    24212726.425    24212725.333    -3249097.923 2  -2531752.299 3
        17.800          22.600
  22574568.603    22574568.183    22574566.619   -15745625.474 4 -12269308.265 4
        26.800          25.300
  23396680.910    23396680.090    23396680.160    -6107023.439 3  -4758716.198 4
        22.600          24.200
  20417163.548    20417163.034    20417159.850   -24916946.571 7 -19415793.154 8
        43.600          49.700
  22772302.277    22772301.788    22772300.867   -12831654.536 4  -9998688.030 4
        26.800          27.600
  22907683.271    22907681.641    22907679.512   -11188159.060 5  -8718043.311 5
        31.800          30.800
  20726349.521    20726348.727    20726347.035   -24157865.348 6 -18824298.661 7
        40.900          45.700
  25451996.765    25451996.577    25451994.315     -647587.807     -504613.336
         3.000           3.000
 09  1  6  1  4  0.0000000  0 10G 9G 6G15G21G 3G22G14G19G18G28
  21653256.096    21653255.304    21653254.658   -17616944.145 5 -13727477.954 5
        34.300          34.800
  23464999.209    23464998.786    23464998.673    -6231202.110 3  -4855478.662 3
        22.100          23.000
  24232566.922    24232566.998    24232565.160    -3144837.570 2  -2450510.470 3
        17.000          22.100
  22593600.741    22593599.879    22593598.476   -15645613.085 4 -12191376.551 4
        26.500          25.300
  23410630.059    23410629.275    23410629.642    -6033719.788 3  -4701596.473 4
        22.600          24.900
  20412331.887    20412331.376    20412328.223   -24942336.993 7 -19435577.897 8
        43.600          49.700
  22753834.331    22753833.622    22753832.021   -12928708.007 4 -10074314.106 4
        27.400          27.600
  22907357.076    22907355.291    22907353.424   -11189873.331 5  -8719379.108 5
        31.500          31.000
  20733171.785    20733170.900    20733169.164   -24122014.545 6 -18796362.970 7
        40.800          45.500
  25450624.647    25450626.864    25450623.854     -654784.213     -510220.913 1
         3.000           6.500
 09  1  6  1  4 30.0000000  0 10G 9G 6G15G21G 3G22G14G19G18G28
  21645298.615    21645297.968    21645297.380   -17658760.659 5 -13760062.242 5
        34.500          34.900
  23479445.216    23479444.428    23479444.033    -6155291.488 3  -4796327.534 3
        22.100          23.000
  24252432.032    24252432.465    24252430.303    -3040443.571 2  -2369164.485 3
        17.800          21.600
  22612688.121    22612687.342    22612685.798   -15545308.469 4 -12113217.133 4
        26.800          24.600
  23424651.747    23424651.085    23424651.203    -5960034.764 3  -4644179.578 4
        22.100          24.600
  20407573.316    20407572.766    20407569.533   -24967343.709 7 -19455063.649 8
        43.600          49.800
  22735416.782    22735415.939    22735414.796   -13025491.468 4 -10149729.780 4
        27.100          28.100
  22907143.627    22907142.068    22907140.263   -11190993.990 5  -8720252.343 5
        31.600          31.300
  20740064.392    20740063.594    20740061.796   -24085793.394 6 -18768138.695 7
        40.900          45.400
  25449353.654    25449352.909    25449352.334     -661468.626 1   -515429.517 1
         6.500           9.000
 09  1  6  1  5  0.0000000  0 10G 9G 6G15G21G 3G22G14G19G18G28
  21637470.171    21637469.349    21637468.842   -17699900.053 5 -13792118.908 5
        34.600          35.200
  23493952.328    23493951.720    23493951.356    -6079052.909 3  -4736920.855 3
        21.600          23.000
  24272322.588    24272322.942    24272321.518    -2935917.230 2  -2287715.391 3
        17.800          22.600
  22631830.858    22631830.148    22631828.401   -15444713.277 4 -12034831.279 4
        26.800          24.200
  23438745.973    23438745.342    23438745.529    -5885970.362 3  -4586467.069 4
        21.600          25.300
  20402887.976    20402887.441    20402884.235   -24991965.412 7 -19474249.391 8
        43.700          49.900
  22717050.877    22717050.124    22717049.531   -13122002.369 4 -10224933.062 4
        27.100          28.400
  22907043.782    22907041.944    22907040.016   -11191520.611 5  -8720662.693 5
        31.500          31.600
  20747027.663    20747026.804    20747024.966   -24049201.723 6 -18739625.701 7
        40.900          45.300
  25448179.348    25448179.250    25448177.265     -667640.665 1   -520238.972 1
         9.000          11.000
 09  1  6  1  5 30.0000000  0 10G 9G 6G15G21G 3G22G14G19G18G28
  21629770.901    21629770.154    21629769.563   -17740359.929 5 -13823646.080 5
        34.900          35.100
  23508522.444    23508521.755    23508521.240    -6002489.024 3  -4677260.688 3
        21.600          23.400
  24292237.611    24292238.702    24292236.513    -2831260.701 2  -2206164.849 3
        17.000          22.100
  22651028.907    22651027.845    22651026.034   -15343829.480 4 -11956220.536 4
        26.800          24.600
  23452911.765    23452910.899    23452910.540    -5811529.361 3  -4528461.100 4
        22.100          24.200
  20398275.894    20398275.414    20398272.312   -25016201.507 7 -19493134.660 8
        43.800          50.000
  22698737.928    22698737.173    22698736.542   -13218239.209 4 -10299922.790 4
        27.400          28.800
  22907056.459    22907054.761    22907053.042   -11191453.121 5  -8720610.099 5
        31.300          32.100
  20754061.145    20754060.315    20754058.644   -24012239.719 6 -18710824.139 7
        40.700          45.200
  25447104.210    25447103.929    25447103.469     -673300.162 1   -524648.975 2
        11.000          16.100
 09  1  6  1  6  0.0000000  0 10G 9G 6G15G21G 3G22G14G19G18G28
  21622201.344    21622200.624    21622199.898   -17780137.753 5 -13854641.779 5
        34.900          34.900
  23523153.452    23523152.734    23523152.692    -5925601.627 3  -4617348.446 4
        20.500          24.200
  24312177.708    24312178.460    24312176.720    -2726475.232 2  -2124513.845 3
        16.100          22.100
  22670280.981    22670280.259    22670278.386   -15242658.275 4 -11877385.846 4
        26.500          24.900
  23467148.497    23467147.602    23467147.921    -5736713.847 3  -4470163.301 3
        21.600          23.800
  20393737.557    20393737.058    20393733.907   -25040050.786 7 -19511718.509 8
        43.800          50.100
  22680477.427    22680476.492    22680475.658   -13314199.311 4 -10374696.882 4
        27.600          28.400
  22907182.484    22907180.912    22907179.084   -11190790.943 5  -8720094.128 5
        31.800          31.800
  20761165.350    20761164.478    20761162.745   -23974906.948 6 -18681733.667 7
        40.800          45.100
  25446123.061    25446122.547    25446124.097     -678445.414     -528658.182 1
         3.000           9.000
 09  1  6  1  6 30.0000000  0 10G 9G 6G15G21G 3G22G14G19G18G28
  21614762.074    21614761.539    21614760.874   -17819230.792 5 -13885103.886 5
        34.700          35.100
  23537845.988    23537844.834    23537845.247    -5848392.240 3  -4557185.303 4
        19.300          24.600
  24332142.570    24332142.653    24332141.541    -2621561.152 2  -2042762.622 3
        17.000          21.600
  22689587.464    22689586.737    22689585.429   -15141200.420 4 -11798327.797 4
        25.600          24.900
  23481456.361    23481455.837    23481455.458    -5661525.441 3  -4411574.942 3
        22.100          23.000
  20389273.242    20389272.716    20389269.579   -25063511.171 7 -19529999.325 8
        43.900          50.300
  22662269.890    22662269.304    22662268.178   -13409879.559 4 -10449252.907 4
        27.400          28.400
  22907421.861    22907420.097    22907417.960   -11189532.973 5  -8719113.885 5
        31.800          30.800
  20768340.363    20768339.491    20768337.708   -23937202.384 6 -18652353.488 7
        40.900          45.000
  25445243.941    25445243.557    25445243.048     -683075.041     -532265.638
         3.000           3.000
 09  1  6  1  7  0.0000000  0 10G 9G 6G15G21G 3G22G14G19G18G28
  21607453.444    21607452.863    21607452.071   -17857638.582 5 -13915032.031 5
        34.900          35.100
  23552598.777    23552598.036    23552598.705    -5770865.139 3  -4496774.599 4
        21.100          25.600
  24352131.666    24352131.774    24352130.067    -2516522.382 2  -1960914.238 3
        17.000          21.600
  22708948.590    22708947.477    22708945.840   -15039459.902 4 -11719049.487 4
        25.900          24.600
  23495833.376    23495832.980    23495833.782    -5585968.201 3  -4352699.157 3
        19.900          23.400
  20384882.722    20384882.170    20384878.920   -25086584.063 7 -19547978.197 8
        43.900          50.400
  22644115.814    22644115.088    22644113.988   -13505280.067 4 -10523590.960 4
        27.900          28.600
  22907774.374    22907772.642    22907770.432   -11187680.960 5  -8717670.756 5
        31.500          30.800
  20775585.609    20775584.733    20775582.955   -23899128.801 6 -18622685.759 7
        40.900          44.900
  25444461.868    25444460.672    25444459.761     -687190.712     -535472.751
                         3.000
 09  1  6  1  7 30.0000000  0 10G 9G 6G15G21G 3G22G14G19G18G28
  21600274.727    21600273.987    21600273.597   -17895362.062 5 -13944426.946 5
        34.400          35.200
  23567411.056    23567410.275    23567410.734    -5693026.162 3  -4436120.867 4
        21.100          25.300
  24372142.501    24372142.622    24372141.373    -2411363.838 2  -1878972.528 3
        16.100          20.500
  22728361.979    22728361.148    22728359.359   -14937441.600 4 -11639554.727 4
        25.900          24.900
  23510282.587    23510281.434    23510280.820    -5510048.202 3  -4293540.731 3
        21.100          23.000
  20380565.348    20380564.780    20380561.625   -25109271.718 7 -19565656.886 8
        43.900          50.400
  22626014.920    22626013.957    22626012.791   -13600402.408 4 -10597712.250 4
        28.400          28.800
  22908239.254    22908237.509    22908235.504   -11185238.351 5  -8715767.433 5
        31.600          31.600
  20782900.318    20782899.518    20782897.812   -23860689.302 6 -18592732.902 7
        40.900          44.900
  25443774.463    25443774.246    25443773.239     -690794.999     -538281.351
         3.000
 09  1  6  1  8  0.0000000  0  9G 9G 6G15G21G 3G22G14G19G18
  21593226.055    21593225.360    21593224.725   -17932403.682 5 -13973290.540 5
        34.800          35.100
  23582281.388    23582280.824    23582280.909    -5614881.988 3  -4375229.319 4
        20.500          24.200
  24392175.058    24392174.925    24392173.758    -2306091.872 2  -1796942.450 3
        16.100          21.100
  22747827.232    22747826.113    22747824.356   -14835151.531 4 -11559848.202 4
        25.300          24.600
  23524796.168    23524795.507    23524795.339    -5433772.643 3  -4234105.220 3
        21.100          22.100
  20376320.632    20376320.043    20376316.924   -25131577.774 7 -19583038.229 8
        43.800          50.500
  22607966.363    22607965.593    22607964.057   -13695248.369 4 -10671618.176 4
        28.600          28.800
  22908815.630    22908813.799    22908811.751   -11182209.653 5  -8713407.405 5
        32.000          31.600
  20790283.885    20790283.029    20790281.275   -23821888.521 6 -18562498.525 7
        40.800          44.700
 09  1  6  1  8 30.0000000  0 10G 9G 6G28G15G21G 3G22G14G19G18
  21586309.920    21586309.131    21586308.291   -17968749.083 5 -14001611.625 5
        35.100          35.100
  23597211.929    23597211.056    23597211.069    -5536422.506 3  -4314092.068 4
        21.100          24.200
  25442695.976    25442694.553    25442693.783           -.62511         -.3491
         6.500           3.000
  24412231.359    24412231.774    24412230.059    -2200695.395 2  -1714815.331 3
        16.100          19.900
  22767346.166    22767344.946    22767343.387   -14732579.183 4 -11479921.717 4
        24.600          24.200
  23539380.782    23539380.042    23539379.923    -5357130.901 3  -4174384.390 3
        21.600          22.600
  20372151.063    20372150.502    20372147.354   -25153488.905 7 -19600111.831 8
        43.800          50.600
  22589973.089    22589972.316    22589970.771   -13789803.738 4 -10745297.668 4
        28.600          28.800
  22909505.695    22909503.978    22909501.835   -11178582.083 5  -8710580.728 5
        31.800          31.300
  20797738.476    20797737.700    20797735.923   -23782714.038 6 -18531972.952 7
        40.900          44.600
 09  1  6  1  9  0.0000000  0 10G 9G 6G28G15G21G 3G22G14G19G18
  21579524.725    21579524.057    21579523.382   -18004404.518 5 -14029395.070 5
        34.700          35.100
  23612200.270    23612199.590    23612199.627    -5457658.571 3  -4252717.576 3
        20.500          23.400
  25442301.699    25442300.638    25442299.292       -2064.497 1     -1608.529 1
         6.500           6.500
  24432310.296    24432310.026    24432307.683    -2095184.498 2  -1632599.062 3
        17.000          18.600
  22786916.388    22786915.271    22786913.911   -14629734.599 3 -11399783.100 3
        23.800          23.000
  23554032.990    23554032.236    23554031.859    -5280134.281 3  -4114387.022 3
        22.100          22.600
  20368055.182    20368054.645    20368051.545   -25175012.533 7 -19616883.486 8
        43.900          50.600
  22572033.517    22572032.933    22572031.523   -13884074.897 4 -10818755.690 4
        28.800          28.800
  22910308.357    22910306.741    22910304.838   -11174363.906 5  -8707293.846 5
        32.000          31.300
  20805262.646    20805261.799    20805260.028   -23743174.272 6 -18501162.743 7
        40.900          44.400
 09  1  6  1  9 30.0000000  0 10G 9G 6G28G15G21G 3G22G14G19G18
  21572870.025    21572869.413    21572868.801   -18039374.519 5 -14056644.422 5
        34.800          35.200
  23627244.162    23627243.714    23627243.908    -5378599.208 3  -4191112.885 3
        19.300          22.100
  25442005.166    25442003.684    25442003.953       -3622.236 1     -2822.357 1
         6.500          11.000
  24452408.562    24452408.192    24452405.817    -1989567.523 2  -1550300.113 3
        17.000          18.600
  22806537.188    22806536.439    22806534.375   -14526626.248 4 -11319438.946 3
        24.600          22.100
  23568750.680    23568749.855    23568749.837    -5202792.073 3  -4054120.359 3
        22.100          23.000
  20364032.132    20364031.567    20364028.372   -25196154.520 7 -19633357.758 8
        44.000          50.700
  22554147.623    22554147.031    22554145.767   -13978066.364 4 -10891995.787 4
        29.500          29.200
  22911222.085    22911220.556    22911218.343   -11169561.693 5  -8703551.864 5
        31.800          31.000
  20812854.909    20812854.121    20812852.337   -23703276.295 6 -18470073.409 7
        40.900          44.300
 09  1  6  1 10  0.0000000  0 10G 9G 6G28G15G21G 3G22G14G19G18
  21566347.562    21566346.980    21566346.446   -18073650.926 5 -14083353.308 5
        35.100          35.300
  23642346.230    23642345.464    23642345.435    -5299240.643 2  -4129275.036 3
        17.800          21.600
  25441808.470    25441807.037    25441804.146       -4666.803 1     -3636.286 1
         9.000           9.000
  24472526.975    24472527.844    24472524.759    -1883840.043 2  -1467915.072 3
        16.100          19.300
  22826209.084    22826208.269    22826206.218   -14423249.939 4 -11238885.978 3
        25.300          22.600
  23583534.816    23583534.157    23583534.115    -5125100.695 3  -3993581.630 3
        22.600          23.400
  20360082.800    20360082.218    20360079.117   -25216907.840 7 -19649529.173 8
        43.900          50.800
  22536316.806    22536315.931    22536314.781   -14071769.853 4 -10965011.481 4
        29.500          29.500
  22912248.302    22912246.712    22912244.688   -11164169.438 5  -8699350.104 5
        31.500          31.000
  20820516.749    20820515.884    20820514.074   -23663013.646 6 -18438699.914 7
        40.900          44.200
 09  1  6  1 10 30.0000000  0 10G 9G 6G28G15G21G 3G22G14G19G18
  21559957.979    21559957.299    21559956.711   -18107227.765 5 -14109517.069 5
        35.100          35.100
  23657504.588    23657504.321    23657503.452    -5219581.400 3  -4067202.906 3
        18.600          21.100
  25441707.273    25441706.897    25441704.314       -5194.181 1     -4047.267
         9.000           3.000
  24492667.767    24492668.028    24492665.705    -1777999.558 2  -1385441.992 3
        13.900          19.300
  22845932.563    22845931.769    22845929.657   -14319603.420 4 -11158122.460 3
        24.600          23.000
  23598385.162    23598384.779    23598384.745    -5047058.488 3  -3932769.544 3
        22.100          23.400
  20356208.379    20356207.859    20356204.770   -25237267.766 7 -19665394.050 8
        44.000          50.800
  22518541.060    22518540.262    22518539.172   -14165179.833 4 -11037798.456 4
        29.000          29.200
  22913387.096    22913385.573    22913383.555   -11158183.375 5  -8694685.638 5
        31.100          30.400
  20828248.511    20828247.645    20828245.947   -23622382.817 6 -18407039.527 7
        40.900          44.100
 09  1  6  1 11  0.0000000  0 10G 9G 6G28G15G21G 3G22G14G19G18
  21553702.074    21553701.437    21553700.745   -18140102.686 5 -14135133.884 5
        34.900          34.900
  23672720.084    23672719.641    23672719.293    -5139623.262 3  -4004897.872 3
        19.300          21.600
  25441701.984    25441704.454    25441706.223       -5203.334       -4054.336 1
                         6.500
  24512829.072    24512829.247    24512827.499    -1672047.154 2  -1302881.694 3
        13.900          19.900
  22865707.583    22865706.255    22865704.312   -14215687.698 4 -11077149.195 3
        24.200          23.400
  23613302.953    23613302.368    23613302.096    -4968667.511 3  -3871685.682 3
        22.100          23.400
  20352409.164    20352408.633    20352405.554   -25257232.779 7 -19680951.204 8
        44.000          50.900
  22500822.180    22500821.359    22500819.964   -14258293.549 4 -11110354.584 4
        29.000          29.000
  22914639.554    22914638.015    22914635.619   -11151602.942 5  -8689558.024 5
        31.300          30.100
  20836050.426    20836049.606    20836047.708   -23581383.712 6 -18375092.168 7
        40.900          44.000
 09  1  6  1 11 30.0000000  0 10G 9G 6G28G15G21G 3G22G14G19G18
  21547578.908    21547578.251    21547577.619   -18172280.489 5 -14160207.496 5
        35.200          35.300
  23687990.930    23687990.560    23687990.565    -5059375.496 3  -3942367.157 3
        19.900          22.100
  25441799.412    25441796.572    25441797.628       -4700.527       -3663.548
                         3.000
  24533010.265    24533011.815    24533009.982    -1565991.310 2  -1220240.808 3
        13.900          20.500
  22885531.407    22885530.244    22885528.565   -14111511.468 4 -10995972.941 3
        24.200          23.400
  23628285.526    23628284.393    23628284.272    -4889937.222 3  -3810337.415 3
        22.100          23.800
  20348683.974    20348683.447    20348680.265   -25276809.032 7 -19696205.425 8
        44.000          50.900
  22483158.724    22483157.893    22483156.679   -14351115.750 4 -11182683.558 4
        29.700          29.500
  22916003.558    22916001.865    22915999.671   -11144435.048 5  -8683972.654 5
        31.300          30.200
  20843921.253    20843920.254    20843918.345   -23540023.094 6 -18342863.111 7
        40.900          43.800
 09  1  6  1 12  0.0000000  0 10G 9G 6G28G15G21G 3G22G14G19G18
  21541590.040    21541589.410    21541588.741   -18203752.781 5 -14184731.357 5
        35.300          35.600
  23703317.390    23703316.985    23703316.395    -4978833.964 3  -3879607.543 3
        19.900          22.100
  25441994.050    25441994.205    25441989.376       -3678.927       -2867.491
                         3.000
  24553213.718    24553213.486    24553212.330    -1459826.978 2  -1137515.371 3
        12.600          20.500
  22905405.364    22905404.699    22905403.034   -14007070.090 3 -10914590.067 3
        23.800          23.000
  23643332.427    23643331.597    23643331.193    -4810863.597 3  -3748721.625 3
        21.100          23.400
  20345034.176    20345033.589    20345030.488   -25295988.961 7 -19711150.821 8
        44.000          51.000
  22465552.078    22465551.423    22465550.398   -14443637.942 4 -11254778.755 4
        29.700          29.900
  22917480.818    22917479.001    22917477.057   -11136673.209 5  -8677924.473 5
        31.300          31.000
  20851861.691    20851860.888    20851859.133   -23498294.514 6 -18310347.329 7
        40.900          43.800
 09  1  6  1 12 30.0000000  0 10G 9G 6G28G15G21G 3G22G14G19G18
  21535733.294    21535732.619    21535732.002   -18234529.229 5 -14208713.000 5
        35.200          35.300
  23718697.706    23718697.109    23718696.211    -4898012.625 3  -3816629.881 3
        21.600          22.600
  25442286.426    25442285.946    25442283.989       -2149.941 1     -1676.061
         6.500           3.000
  24573434.713    24573434.425    24573432.990    -1353567.457 2  -1054715.756 3
        13.900          21.100
  22925327.904    22925327.097    22925325.903   -13902376.750 3 -10833010.857 3
        23.800          23.400
  23658441.710    23658441.075    23658441.388    -4731460.711 3  -3686849.256 3
        19.900          23.800
  20341457.708    20341457.168    20341453.990   -25314783.433 7 -19725795.864 8
        44.100          51.000
  22448000.887    22448000.283    22447999.133   -14535869.528 4 -11326647.512 4
        29.500          29.900
  22919068.481    22919066.812    22919064.783   -11128329.125 5  -8671422.581 5
        31.300          31.100
  20859870.282    20859869.401    20859867.577   -23456209.568 6 -18277553.861 7
        40.800          43.700
 09  1  6  1 13  0.0000000  0 10G 9G 6G28G15G21G 3G22G14G19G18
  21530010.776    21530010.114    21530009.107   -18264603.059 5 -14232147.154 5
        35.600          35.300
  23734130.755    23734130.028    23734130.079    -4816908.976 3  -3753432.250 3
        22.100          23.000
  25442675.968    25442675.321    25442673.072        -107.881 1       -84.928 1
         6.500           9.000
  24593674.932    24593674.010    24593672.556    -1247209.674 2   -971839.578 3
        13.900          22.600
  22945299.149    22945298.147    22945296.932   -13797428.235 3 -10751232.821 3
        23.400          23.000
  23673614.547    23673613.830    23673614.419    -4651726.151 3  -3624718.463 4
        18.600          24.200
  20337955.671    20337955.151    20337951.933   -25333186.640 7 -19740136.026 8
        44.100          51.000
  22430506.580    22430505.762    22430504.881   -14627803.712 4 -11398284.523 5
        29.700          30.200
  22920768.234    22920766.468    22920764.522   -11119397.923 5  -8664463.193 5
        31.800          31.500
  20867947.465    20867946.599    20867944.730   -23413763.656 6 -18244479.117 7
        40.900          43.600
 09  1  6  1 13 30.0000000  0 10G 9G 6G28G15G21G 3G22G14G19G18
  21524421.356    21524420.571    21524419.971   -18293975.266 5 -14255034.581 5
        35.400          35.500
  23749616.957    23749616.211    23749616.454    -4735528.430 3  -3690018.831 3
        21.100          23.400
  25443158.583    25443158.483    25443158.753        2444.386        1903.840 1
                         6.500
  24613931.874    24613931.044    24613929.545    -1140757.287 2   -888889.656 3
        15.100          23.000
  22965317.789    22965316.901    22965315.488   -13692229.490 3 -10669259.793 3
        23.800          22.600
  23688850.530    23688849.681    23688849.311    -4571665.251 3  -3562333.338 3
        20.500          23.000
  20334527.652    20334527.161    20334524.033   -25351200.616 7 -19754172.891 8
        44.100          51.000
  22413068.499    22413067.662    22413066.703   -14719441.372 4 -11469690.481 5
        29.900          30.100
  22922578.864    22922576.959    22922575.133   -11109882.943 5  -8657048.934 5
        31.300          31.500
  20876092.616    20876091.811    20876090.148   -23370959.811 6 -18211125.467 7
        40.800          43.500
 09  1  6  1 14  0.0000000  0 10G 9G 6G28G15G21G 3G22G14G19G18
  21518966.805    21518966.019    21518965.409   -18322638.917 5 -14277369.886 5
        35.400          35.600
  23765157.389    23765156.590    23765156.020    -4653867.996 3  -3626387.340 3
        21.100          23.800
  25443744.749    25443743.675    25443743.154        5512.316 1      4294.436 1
         6.500           9.000
  24634207.250    24634206.356    24634205.573    -1034206.914 2   -805863.388 3
        13.900          23.400
  22985384.800    22985383.947    22985382.344   -13586777.001 3 -10587089.042 3
        23.400          22.100
  23704147.622    23704146.967    23704146.847    -4491275.107 3  -3499691.699 3
        19.900          22.100
  20331174.897    20331174.373    20331171.196   -25368819.550 7 -19767901.927 8
        44.100          51.000
  22395688.283    22395687.420    22395686.382   -14810775.346 4 -11540859.804 5
        29.900          30.200
  22924501.166    22924499.521    22924497.761   -11099778.973 5  -8649175.712 5
        30.800          31.500
  20884307.064    20884306.200    20884304.504   -23327793.051 6 -18177489.029 7
        40.800          43.400
 09  1  6  1 14 30.0000000  0 10G 9G 6G28G15G21G 3G22G14G19G18
  21513647.529    21513646.879    21513646.297   -18350590.896 5 -14299150.652 5
        35.400          35.500
  23780749.216    23780748.298    23780748.685    -4571928.999 3  -3562538.770 3
        19.900          23.000
  25444427.717    25444426.530    25444423.012        9097.785 1      7088.320 1
         9.000           9.000
  24654501.003    24654501.335    24654498.839     -927559.237 2   -722761.316 3
        13.900          21.600
  23005500.186    23005499.212    23005497.335   -13481071.096 3 -10504720.825 3
        23.000          22.100
  23719507.862    23719507.055    23719506.895    -4410557.683 3  -3436795.011 3
        19.900          22.100
  20327897.804    20327897.269    20327894.093   -25386041.018 7 -19781321.252 8
        44.200          51.100
  22378366.107    22378365.383    22378364.600   -14901802.206 5 -11611789.815 5
        30.100          30.400
  22926536.399    22926534.716    22926533.088   -11089084.894 5  -8640842.674 5
        31.300          31.600
  20892590.848    20892589.999    20892588.217   -23284261.739 6 -18143568.523 7
        40.900          43.300
 09  1  6  1 15  0.0000000  0 10G 9G 6G28G15G21G 3G22G14G19G18
  21508464.017    21508463.181    21508462.353   -18377832.197 5 -14320377.628 5
        35.500          35.300
  23796393.741    23796392.911    23796392.391    -4489716.143 2  -3498476.832 3
        17.800          22.600
  25445206.379    25445204.524    25445204.712       13198.506       10283.666 1
         3.000          11.000
  24674812.835    24674813.759    24674812.644     -820817.858 2   -639586.252 3
        13.900          21.100
  23025662.269    23025661.199    23025659.666   -13375116.240 3 -10422158.613 3
        21.600          20.500
  23734929.706    23734928.588    23734928.342    -4329517.360 3  -3373646.708 3
        21.100          22.100
  20324695.999    20324695.423    20324692.321   -25402866.600 7 -19794432.096 8
        44.100          51.100
  22361102.642    22361102.111    22361101.074   -14992522.485 5 -11682480.934 5
        30.400          30.600
  22928683.163    22928681.626    22928679.534   -11077803.518 5  -8632051.986 5
        31.600          31.300
  20900943.287    20900942.461    20900940.682   -23240369.049 6 -18109366.422 7
        40.900          43.200
 09  1  6  1 15 30.0000000  0 10G 9G 6G28G15G21G 3G22G14G19G18
  21503414.578    21503413.930    21503413.225   -18404365.879 5 -14341053.225 5
        35.600          35.300
  23812088.835    23812088.269    23812088.305    -4407236.862 3  -3434207.285 3
        18.600          23.000
  25446084.790    25446083.696    25446082.634       17809.608       13876.723 1
         3.000           6.500
  24695142.766    24695142.240    24695140.248     -713989.501 2   -556343.392 4
        16.100          24.200
  23045870.910    23045869.989    23045868.552   -13268919.033 3 -10339407.563 3
        22.600          20.500
  23750410.182    23750409.343    23750410.257    -4248161.846 3  -3310252.800 3
        21.100          23.000
  20321568.744    20321568.174    20321565.011   -25419300.566 7 -19807237.782 8
        44.200          51.200
  22343896.953    22343896.241    22343895.577   -15082939.043 5 -11752935.383 5
        30.800          31.000
  22930941.169    22930939.289    22930937.056   -11065939.743 5  -8622807.484 5
        31.600          31.300
  20909363.629    20909362.822    20909361.034   -23196119.962 6 -18074886.613 7
        40.900          43.100
 09  1  6  1 16  0.0000000  0 10G 9G 6G28G15G21G 3G22G14G19G18
  21498499.813    21498499.092    21498498.285   -18430193.569 5 -14361178.695 5
        35.400          35.300
  23827833.779    23827833.066    23827833.715    -4324497.008 2  -3369734.674 3
        17.800          23.800
  25447057.911    25447057.422    25447055.334       22928.290       17865.406

  24715487.771    24715487.218    24715484.985     -607078.913 2   -473036.450 4
        16.100          24.900
  23066124.288    23066123.618    23066122.437   -13162484.793 3 -10256471.798 3
        22.600          20.500
  23765950.612    23765950.220    23765950.537    -4166497.287 3  -3246618.068 3
        21.100          23.400
  20318515.387    20318514.904    20318511.735   -25435345.554 7 -19819740.370 8
        44.300          51.200
  22326748.782    22326747.985    22326747.011   -15173053.536 5 -11823154.458 5
        30.800          30.400
  22933309.109    22933307.180    22933305.153   -11053497.407 5  -8613112.154 5
        32.300          32.300
  20917851.170    20917850.323    20917848.450   -23151518.017 6 -18040131.850 7
        40.900          42.900
 09  1  6  1 16 30.0000000  0  9G 6G 9G15G21G 3G22G14G19G18
  23843628.699    23843628.623    23843628.881    -4241490.410 2  -3305054.233 3
        17.000          23.400
  21493721.053    21493720.404    21493719.701   -18455305.242 5 -14380746.225 5
        35.500          35.300
  24735849.333    24735848.414    24735846.192     -500079.042 2   -389659.921 3
        15.100          23.800
  23086424.649    23086423.765    23086422.421   -13055806.877 3 -10173346.172 3
        23.000          20.500
  23781552.344    23781551.027    23781550.396    -4084517.264 3  -3182737.555 3
        21.100          23.000
  20315537.930    20315537.438    20315534.336   -25450992.006 7 -19831932.413 8
        44.300          51.200
  22309660.059    22309659.279    22309658.375   -15262855.298 5 -11893129.853 5
        30.600          30.600
  22935788.094    22935786.203    22935784.375   -11040468.301 5  -8602959.610 5
        31.800          32.300
  20926407.424    20926406.575    20926404.575   -23106554.794 6 -18005095.572 7
        40.900          42.700
 09  1  6  1 17  0.0000000  0  9G 9G 6G15G21G 3G22G14G19G18
  21489076.897    21489076.217    21489075.321   -18479711.454 5 -14399764.055 5
        35.600          35.300
  23859472.561    23859471.867    23859472.529    -4158231.925 2  -3240177.489 3
        17.800          23.800
  24756224.928    24756224.960    24756221.627     -393003.722 2   -306224.614 3
        15.100          23.400
  23106767.866    23106767.363    23106766.521   -12948899.138 3 -10090041.458 3
        22.100          21.100
  23797209.407    23797208.303    23797207.605    -4002237.295 3  -3118623.298 3
        20.500          23.000
  20312634.213    20312633.668    20312630.534   -25466251.494 7 -19843822.921 8
        44.300          51.300
  22292628.811    22292628.169    22292627.365   -15352354.830 5 -11962869.743 5
        31.000          31.100
  22938376.187    22938374.666    22938372.855   -11026865.202 5  -8592359.793 5
        31.500          32.100
  20935029.829    20935029.000    20935027.210   -23061242.730 6 -17969787.469 7
        40.700          42.700
 09  1  6  1 17 30.0000000  0  9G 9G 6G15G21G 3G22G14G19G18
  21484570.493    21484569.915    21484569.506   -18503390.527 5 -14418215.277 5
        35.500          35.400
  23875368.388    23875367.523    23875367.691    -4074703.547 3  -3175090.448 3
        19.300          23.400
  24776619.840    24776619.472    24776615.782     -285834.108 2   -222715.815 3
        13.900          23.800
  23127159.359    23127158.722    23127157.840   -12841743.088 3 -10006543.255 3
        21.600          21.100
  23812926.587    23812925.796    23812926.068    -3919639.293 3  -3054261.222 3
        19.300          23.800
  20309808.110    20309807.528    20309804.345   -25481102.958 7 -19855395.487 8
        44.300          51.300
  22275659.655    22275658.917    22275657.800   -15441529.724 5 -12032356.668 5
        31.300          31.000
  22941078.229    22941076.504    22941074.719   -11012668.023 5  -8581297.064 5
        31.500          32.400
  20943722.658    20943721.778    20943719.997   -23015561.805 6 -17934191.944 7
        40.800          42.600
 09  1  6  1 18  0.0000000  0  9G 9G 6G15G21G 3G22G14G19G18
  21480200.276    21480199.642    21480198.886   -18526357.362 5 -14436111.506 5
        35.700          35.100
  23891311.104    23891310.298    23891310.122    -3990924.237 3  -3109807.895 3
        18.600          23.400
  24797028.004    24797027.644    24797024.452     -178588.263 1   -139147.625 3
        11.000          23.000
  23147595.155    23147594.222    23147592.833   -12734356.932 3  -9922865.762 3
        22.600          21.100
  23828701.401    23828700.201    23828700.831    -3836742.057 3  -2989665.979 4
        18.600          24.200
  20307056.578    20307056.100    20307052.859   -25495562.108 7 -19866662.361 8
        44.400          51.200
  22258748.983    22258748.427    22258747.391   -15530394.453 5 -12101601.904 5
        31.300          31.000
  22943889.229    22943887.506    22943885.994   -10997893.583 5  -8569784.507 5
        31.300          32.100
  20952482.519    20952481.719    20952479.774   -22969528.610 6 -17898321.918 7
        40.900          42.500
 09  1  6  1 18 30.0000000  0  9G 9G 6G15G21G 3G22G14G19G18
  21475968.301    21475967.589    21475966.723   -18548597.429 5 -14453441.422 5
        35.800          35.100
  23907303.665    23907302.891    23907302.393    -3906883.393 3  -3044321.531 3
        19.900          23.400
  24817451.275    24817450.561    24817449.117      -71254.357 1    -55510.837 3
         9.000          20.500
  23168075.997    23168075.266    23168073.600   -12626729.813 3  -9839000.511 3
        22.600          22.100
  23844535.103    23844534.344    23844534.517    -3753535.205 2  -2924829.509 4
        17.800          24.200
  20304382.522    20304381.954    20304378.749   -25509614.730 7 -19877612.457 8
        44.400          51.300
  22241900.732    22241899.919    22241898.916   -15618933.863 5 -12170593.646 5
        31.600          31.100
  22946813.531    22946811.698    22946809.737   -10982528.946 5  -8557812.070 5
        31.600          32.000
  20961312.026    20961311.121    20961309.123   -22923130.225 6 -17862167.329 7
        40.900          42.300
 09  1  6  1 19  0.0000000  0 10G 9G 6G28G15G21G 3G22G14G19G18
  21471871.559    21471870.760    21471870.277   -18570125.437 5 -14470216.486 5
        35.900          35.300
  23923341.419    23923340.846    23923340.653    -3822599.918 3  -2978646.118 3
        19.300          23.000
  25454955.066    25454954.175    25454952.944          -1.1081          -.12711
         3.000           9.000
  24837887.797    24837888.124    24837887.615       36149.559 1     28180.500 2
         6.500          13.900
  23188599.481    23188598.438    23188596.734   -12518879.682 3  -9754961.485 3
        22.100          21.100
  23860424.468    23860423.439    23860423.505    -3670038.113 2  -2859766.846 3
        16.100          23.000
  20301782.773    20301782.183    20301779.027   -25523276.520 7 -19888258.009 8
        44.400          51.400
  22225111.545    22225110.646    22225109.471   -15707162.698 5 -12239343.376 5
        31.600          31.500
  22949846.155    22949844.455    22949842.807   -10966591.223 5  -8545393.057 5
        31.500          32.000
  20970207.447    20970206.650    20970204.743   -22876383.303 6 -17825741.160 7
        40.800          42.300
 09  1  6  1 19 30.0000000  0  9G 9G 6G28G21G 3G22G14G19G18
  21467911.622    21467910.959    21467910.269   -18590935.994 6 -14486432.510 5
        36.300          35.400
  23939426.826    23939426.164    23939425.764    -3738072.122 3  -2912780.321 3
        18.600          23.000
  25456612.459    25456611.309    25456611.451        8706.098        6784.633 1
         3.000           9.000
  23209165.534    23209164.504    23209162.694   -12410804.369 3  -9670746.998 3
        21.600          19.900
  23876368.506    23876367.711    23876368.082    -3586249.047 2  -2794476.685 3
        16.100          22.600
  20299258.265    20299257.731    20299254.523   -25536542.636 7 -19898595.239 8
        44.500          51.400
  22208382.203    22208381.430    22208380.207   -15795075.132 5 -12307846.571 5
        31.800          31.600
  22952988.808    22952986.955    22952984.809   -10950076.760 5  -8532524.643 5
        31.000          31.100
  20979170.173    20979169.364    20979167.559   -22829284.025 6 -17789040.423 7
        40.700          42.200
 09  1  6  1 20  0.0000000  0  9G 6G28G 9G21G 3G22G14G19G18
  23955557.160    23955556.386    23955556.521    -3653306.659 2  -2846729.352 3
        17.000          22.100
  25458363.062    25458363.245    25458363.844       17918.555       13963.155 1
                         9.000
  21464087.378    21464086.722    21464085.964   -18611031.775 6 -14502091.559 5
        36.100          35.300
  23229772.951    23229772.317    23229770.313   -12302509.717 3  -9586361.593 3
        21.100          19.900
  23892367.512    23892366.735    23892366.726    -3502174.726 2  -2728964.267 3
        16.100          21.600
  20296808.537    20296807.933    20296804.698   -25549416.865 7 -19908627.105 8
        44.600          51.400
  22191712.843    22191712.150    22191710.921   -15882673.385 5 -12376104.942 5
        32.300          32.100
  22956240.535    22956238.631    22956236.424   -10932990.295 5  -8519210.516 5
        30.600          31.000
  20988199.212    20988198.354    20988196.457   -22781836.678 6 -17752068.467 7
        40.700          42.200
 09  1  6  1 20 30.0000000  0  9G 6G28G 9G21G 3G22G14G19G18
  23971733.665    23971732.687    23971733.414    -3568298.325 2  -2780489.116 3
        17.000          21.600
  25460216.643    25460216.006    25460212.940       27643.616 1     21541.301 1
         6.500           9.000
  21460401.053    21460400.294    21460399.591   -18630403.946 6 -14517186.759 5
        36.100          35.400
  23250423.911    23250422.899    23250420.899   -12193990.065 3  -9501800.845 3
        21.100          19.900
  23908420.722    23908419.374    23908420.820    -3417810.543 2  -2663225.969 3
        15.100          19.900
  20294434.687    20294434.199    20294430.963   -25561890.557 7 -19918346.862 8
        44.600          51.400
  22175104.848    22175104.138    22175103.171   -15969947.485 5 -12444110.724 5
        32.000          32.100
  22959602.068    22959600.346    22959598.216   -10915324.707 5  -8505445.121 5
        31.000          31.100
  20997295.645    20997294.813    20997293.020   -22734033.977 6 -17714819.609 7
        40.800          42.000
 09  1  6  1 21  0.0000000  0  9G 6G28G 9G21G 3G22G14G19G18
  23987958.294    23987957.615    23987957.342    -3483040.204 2  -2714054.230 3
        17.800          19.900
  25462166.283    25462166.004    25462164.105       37890.983 1     29526.247 1
         6.500           9.000
  21456854.259    21456853.588    21456852.976   -18649041.412 6 -14531709.455 5
        36.000          35.300
  23271118.118    23271117.539    23271115.631   -12085237.845 3  -9417058.884 3
        20.500          19.300
  23924532.057    23924531.043    23924530.942    -3333149.067 2  -2597255.995 3
        17.000          19.300
  20292139.337    20292138.794    20292135.624   -25573952.915 7 -19927746.100 8
        44.600          51.500
  22158560.903    22158560.212    22158559.238   -16056886.264 5 -12511855.218 5
        32.100          32.100
  22963075.454    22963073.653    22963071.784   -10897070.642 5  -8491221.179 5
        30.400          30.800
  21006461.695    21006460.810    21006458.930   -22685866.574 6 -17677286.564 6
        40.700          41.900
 09  1  6  1 21 30.0000000  0 10G 6G28G 9G15G21G 3G22G14G19G18
  24004227.846    24004226.952    24004227.271    -3397539.455 2  -2647430.276 3
        17.000          19.900
  25464212.820    25464210.958    25464214.567       48655.958       37914.424 1
         3.000          11.000
  21453446.846    21453446.175    21453445.591   -18666947.520 5 -14545662.266 5
        35.900          35.300
  24940288.029    24940289.460    24940285.255           -.88211         -.97412
         9.000          13.900
  23291856.050    23291855.422    23291853.404   -11976259.442 3  -9332140.656 3
        21.100          19.900
  23940697.797    23940696.735    23940696.653    -3248197.784 2  -2531060.189 2
        17.000          17.800
  20289921.499    20289920.933    20289917.725   -25585607.959 7 -19936827.950 8
        44.700          51.500
  22142080.376    22142079.563    22142078.704   -16143492.574 5 -12579340.641 5
        32.300          32.300
  22966659.971    22966658.121    22966656.134   -10878233.686 5  -8476543.037 5
        30.400          30.400
  21015696.136    21015695.215    21015693.452   -22637339.299 6 -17639473.103 6
        40.500          41.900
 09  1  6  1 22  0.0000000  0 10G 6G28G 9G15G21G 3G22G14G19G18
  24020540.390    24020539.632    24020539.047    -3311818.055 2  -2580634.404 2
        17.000          17.800
  25466354.814    25466358.161    25466354.525       59919.005       46690.783 1
                         9.000
  21450175.408    21450174.731    21450173.621   -18684140.620 6 -14559059.487 5
        36.400          35.100
  24960805.806    24960807.386    24960804.965      107826.278 1     84020.189 2
         9.000          12.600
  23312633.604    23312632.292    23312630.807   -11867076.382 3  -9247062.966 3
        20.500          20.500
  23956914.047    23956913.374    23956913.131    -3162978.699 2  -2464655.723 2
        17.000          17.000
  20287777.261    20287776.724    20287773.506   -25596875.775 7 -19945608.065 8
        44.600          51.500
  22125659.728    22125658.738    22125657.968   -16229784.132 5 -12646580.798 5
        32.300          32.400
  22970351.896    22970350.034    22970348.037   -10858833.880 5  -8461426.299 5
        30.800          30.800
  21024995.196    21024994.363    21024992.708   -22588472.058 6 -17601394.734 6
        40.500          41.900
 09  1  6  1 22 30.0000000  0 10G 6G28G 9G15G21G 3G22G14G19G18
  24036895.762    24036895.110    24036894.111    -3225872.250 3  -2513663.647 2
        19.300          17.000
  25468596.895    25468595.900    25468593.162       71686.199       55860.074 1
         3.000           6.500
  21447040.634    21447039.843    21447039.115   -18700613.572 6 -14571895.548 5
        36.000          35.200
  24981336.062    24981337.614    24981335.699      215712.277 1    168087.244 2
         9.000          12.600
  23333449.744    23333449.038    23333447.435   -11757684.266 3  -9161822.388 3
        19.300          19.900
  23973182.898    23973182.280    23973181.887    -3077488.483 3  -2398039.975 3
        18.600          18.600
  20285708.244    20285707.673    20285704.503   -25607748.628 7 -19954080.414 8
        44.700          51.600
  22109300.596    22109299.775    22109298.496   -16315752.667 5 -12713569.250 5
        32.800          32.600
  22974151.846    22974150.163    22974147.958   -10838865.606 5  -8445866.618 5
        31.300          31.100
  21034360.158    21034359.359    21034357.593   -22539259.003 6 -17563046.902 6
        40.600          41.800
 09  1  6  1 23  0.0000000  0 10G 6G28G 9G15G21G 3G22G14G19G18
  24053292.629    24053292.120    24053291.913    -3139703.459 3  -2446519.136 2
        19.900          17.000
  25470931.378    25470931.587    25470931.696       83958.774       65423.120 1
                         9.000
  21444043.294    21444042.541    21444041.645   -18716364.167 5 -14584168.731 5
        35.900          35.100
  25001878.650    25001877.770    25001877.564      323656.851 1    252199.898 2
        11.000          13.900
  23354305.787    23354304.954    23354304.110   -11648084.181 3  -9076419.787 3
        19.300          21.600
  23989501.950    23989501.377    23989501.448    -2991729.032 2  -2331214.440 3
        17.800          18.600
  20283714.619    20283714.134    20283711.031   -25618224.546 7 -19962243.465 8
        44.700          51.600
  22093002.958    22093002.246    22093001.289   -16401395.375 5 -12780303.821 5
        32.700          32.700
  22978059.664    22978058.098    22978055.978   -10818328.516 5  -8429863.694 5
        31.000          31.100
  21043791.036    21043790.185    21043788.288   -22489699.285 6 -17524428.936 6
        40.500          41.400
 09  1  6  1 23 30.0000000  0 10G 6G28G 9G15G21G 3G22G14G19G18
  24069732.069    24069731.849    24069731.545    -3053311.133 3  -2379200.441 2
        19.300          17.000
  25473364.438    25473363.975    25473361.822       96739.479 1     75382.201 1
         6.500           6.500
  21441184.403    21441183.709    21441183.000   -18731387.790 6 -14595875.447 5
        36.200          35.400
  25022430.794    25022430.590    25022430.080      431661.565 1    336359.401 2
        11.000          15.100
  23375201.621    23375201.054    23375200.258   -11538274.569 3  -8990853.900 3
        18.600          21.600
  24005873.338    24005872.728    24005872.317    -2905699.588 2  -2264178.518 3
        17.800          19.300
  20281797.462    20281796.911    20281793.789   -25628299.596 7 -19970094.154 8
        44.700          51.600
  22076768.918    22076768.160    22076766.992   -16486707.377 5 -12846780.688 5
        33.000          33.000
  22982076.790    22982074.901    22982072.815   -10797219.957 5  -8413415.470 5
        30.800          31.000
  21053288.645    21053287.712    21053285.908   -22439789.690 6 -17485538.346 6
        40.400          41.400
 09  1  6  1 24  0.0000000  0 10G 6G28G 9G15G21G 3G22G14G19G18
  24086215.182    24086215.048    24086214.915    -2966691.680 3  -2311704.750 3
        19.300          18.600
  25475895.954    25475894.699    25475891.029      110034.425 1     85741.885 1
         9.000           9.000
  21438464.916    21438464.393    21438463.834   -18745677.227 6 -14607010.068 5
        36.100          35.300
  25042995.027    25042995.501    25042994.069      539731.066 1    420569.388 2
         9.000          13.900
  23396138.801    23396138.086    23396136.714   -11428251.125 2  -8905121.401 3
        17.000          21.100
  24022295.392    24022294.805    24022295.645    -2819396.303 2  -2196929.214 3
        17.000          18.600
  20279957.775    20279957.263    20279954.052   -25637967.162 7 -19977627.324 8
        44.700          51.600
  22060599.144    22060598.445    22060597.059   -16571680.519 5 -12912993.519 5
        33.400          33.000
  22986203.040    22986201.204    22986199.382   -10775534.470 5  -8396517.690 5
        30.600          30.800
  21062853.576    21062852.806    21062850.866   -22389524.608 6 -17446370.749 6
        40.400          41.100
 09  1  6  1 24 30.0000000  0 10G 6G28G 9G15G21G 3G22G14G19G18
  24102739.822    24102739.050    24102739.405    -2879855.867 2  -2244040.471 3
        17.000          19.300
  25478522.153    25478519.074    25478519.519      123835.295       96495.727 2
                        12.600
  21435884.207    21435883.540    21435882.920   -18759239.843 6 -14617578.338 5
        36.100          35.200
  25063568.367    25063571.312    25063568.873      647855.730 1    504822.358 2
         6.500          13.900
  23417114.323    23417113.138    23417112.454   -11318024.344 2  -8819230.470 3
        17.800          20.500
  24038768.954    24038767.923    24038768.543    -2732830.381 2  -2129475.272 3
        16.100          19.300
  20278194.201    20278193.648    20278190.456   -25647234.856 7 -19984848.900 8
        44.700          51.600
  22044492.292    22044491.623    22044490.395   -16656321.497 5 -12978947.523 5
        33.400          33.100
  22990438.002    22990436.336    22990434.136   -10753281.256 5  -8379177.522 5
        31.300          31.300
  21072484.760    21072483.908    21072482.018   -22338912.770 6 -17406932.949 6
        40.300          40.900
 09  1  6  1 25  0.0000000  0 10G 6G28G 9G15G21G 3G22G14G19G18
  24119306.348    24119305.810    24119305.467    -2792799.205 2  -2176204.125 3
        15.100          19.900
  25481246.429    25481244.113    25481244.438      138148.412      107648.890 1
         3.000           9.000
  21433443.191    21433442.582    21433441.794   -18772067.556 6 -14627573.955 5
        36.300          35.200
  25084155.319    25084157.680    25084157.398      756041.101      589122.627 2
                        12.600
  23438129.526    23438128.759    23438127.751   -11207588.792 3  -8733176.827 3
        18.600          20.500
  24055291.762    24055291.361    24055292.073    -2645997.661 2  -2061813.421 3
        16.100          19.300
  20276508.218    20276507.667    20276504.458   -25656095.064 7 -19991752.959 8
        44.700          51.700
  22028450.555    22028449.863    22028448.559   -16740621.458 5 -13044635.798 5
        33.500          33.200
  22994781.385    22994779.787    22994777.872   -10730454.163 5  -8361390.170 5
        31.300          31.300
  21082183.263    21082182.367    21082180.510   -22287947.120 6 -17367219.454 6
        40.200          40.800
 09  1  6  1 25 30.0000000  0 10G 6G28G 9G15G21G 3G22G14G19G18
  24135913.229    24135912.103    24135912.293    -2705532.570 2  -2108204.173 3
        15.100          20.500
  25484065.222    25484063.043    25484061.590      152965.890      119194.914 1
         3.000           6.500
  21431140.544    21431139.929    21431139.293   -18784167.560 6 -14637002.524 5
        36.100          35.200
  25104751.448    25104755.745    25104753.017      864277.216      673462.446 1
                        11.000
  23459182.783    23459181.909    23459180.706   -11096954.865 3  -8646968.605 3
        20.500          19.300
  24071864.860    24071864.272    24071864.184    -2558909.008 2  -1993952.152 3
        17.000          19.900
  20274898.281    20274897.746    20274894.545   -25664555.133 7 -19998345.219 8
        44.700          51.700
  22012472.481    22012471.703    22012470.651   -16824586.565 5 -13110063.146 5
        33.200          33.400
  22999233.264    22999231.558    22999229.454   -10707061.880 5  -8343162.421 5
        31.100          31.300
  21091947.280    21091946.419    21091944.556   -22236636.667 6 -17327237.283 6
        40.200          40.700
 09  1  6  1 26  0.0000000  0 10G 6G28G 9G15G21G 3G22G14G19G18
  24152558.422    24152558.228    24152557.779    -2618058.909 2  -2040042.896 3
        16.100          21.100
  25486982.139    25486979.066    25486979.585      168286.952      131133.267
         3.000           3.000
  21428976.805    21428976.041    21428975.258   -18795539.290 6 -14645863.610 5
        36.300          35.100
  25125359.755    25125359.157    25125358.485      972562.580      757840.600 2
                        12.600
  23480273.656    23480272.457    23480271.455   -10986124.748 3  -8560607.490 2
        19.900          17.800
  24088487.165    24088485.915    24088485.002    -2471567.668 2  -1925894.001 3
        17.800          19.900
  20273364.565    20273364.022    20273360.797   -25672614.964 7 -20004625.603 8
        44.700          51.700
  21996558.509    21996557.773    21996556.486   -16908215.929 5 -13175228.876 5
        33.600          33.400
  23003791.892    23003790.020    23003788.001   -10683105.575 5  -8324495.176 5
        30.600          31.500
  21101776.944    21101776.057    21101774.309   -22184981.484 6 -17286986.491 6
        40.000          40.700
 09  1  6  1 26 30.0000000  0 10G 6G28G 9G15G21G 3G22G14G19G18
  24169242.690    24169242.400    24169242.072    -2530381.432 2  -1971722.837 3
        16.100          20.500
  25489991.668    25489989.987    25489989.325      184110.182 1    143463.197 1
         6.500           9.000
  21426951.391    21426950.689    21426950.007   -18806182.694 6 -14654157.174 5
        36.200          35.200
  25145972.880    25145973.080    25145975.601     1080895.203      842255.602 1
                        11.000
  23501400.426    23501399.621    23501398.240   -10875101.268 3  -8474095.722 2
        19.900          16.100
  24105154.488    24105153.425    24105152.686    -2383976.376 2  -1857641.067 3
        17.800          18.600
  20271906.915    20271906.397    20271903.307   -25680274.369 7 -20010593.969 8
        44.700          51.800
  21980708.335    21980707.562    21980706.487   -16991508.157 5 -13240131.898 5
        33.800          33.400
  23008457.428    23008455.829    23008453.909   -10658586.895 5  -8305389.719 5
        30.200          31.800
  21111671.959    21111671.082    21111669.268   -22132982.955 6 -17246468.158 6
        40.000          40.600
 09  1  6  1 27  0.0000000  0 10G 6G28G 9G15G21G 3G22G14G19G18
  24185965.758    24185964.727    24185964.891    -2442501.168 2  -1903244.714 3
        15.100          20.500
  25493100.186    25493098.449    25493096.064      200437.327 1    156185.695 1
        11.000           9.000
  21425064.972    21425064.376    21425063.642   -18816095.367 6 -14661881.328 5
        36.300          35.300
  25166595.976    25166597.877    25166594.002     1189274.918      926705.547 1
                         9.000
  23522564.114    23522563.630    23522561.996   -10763884.629 3  -8387433.423 2
        19.300          17.800
  24121869.023    24121868.492    24121867.750    -2296137.150 2  -1789194.929 3
        17.000          19.300
  20270526.120    20270525.551    20270522.302   -25687531.352 7 -20016248.758 8
        44.800          51.800
  21964922.878    21964922.181    21964921.168   -17074460.184 5 -13304769.830 5
        33.800          33.400
  23013230.110    23013228.424    23013226.815   -10633505.268 4  -8285845.610 5
        29.700          31.600
  21121632.254    21121631.437    21121629.719   -22080640.021 6 -17205681.455 6
        39.800          40.300
 09  1  6  1 27 30.0000000  0 10G 6G28G 9G15G21G 3G22G14G19G18
  24202725.282    24202724.936    24202725.182    -2354425.737 2  -1834614.515 3
        15.100          19.900
  25496298.083    25496297.120    25496297.021      217262.899      169296.436 1
         3.000          11.000
  21423317.028    21423316.309    21423315.552   -18825281.265 6 -14669039.164 5
        36.400          35.100
  25187230.007    25187227.817    25187228.047     1297695.221     1011188.645 2
                        12.600
  23543763.744    23543762.914    23543761.528   -10652482.121 3  -8300626.327 3
        19.300          19.300
  24138629.267    24138628.716    24138629.781    -2208056.807 2  -1720560.925 3
        16.100          20.500
  20269220.810    20269220.298    20269217.086   -25694390.331 7 -20021593.415 8
        44.800          51.800
  21949201.867    21949201.124    21949200.049   -17157075.107 5 -13369145.090 5
        34.000          33.500
  23018109.306    23018107.665    23018105.517   -10607866.539 5  -8265867.387 5
        30.100          31.300
  21131657.298    21131656.510    21131654.754   -22027957.936 6 -17164630.480 6
        39.800          40.200
 09  1  6  1 28  0.0000000  0 10G 6G28G 9G15G21G 3G22G14G19G18
  24219525.574    24219524.590    24219524.076    -2266148.283 2  -1765826.905 3
        16.100          20.500
  25499597.027    25499595.343    25499596.303      234595.938      182802.778 2
         3.000          12.600
  21421709.236    21421708.511    21421707.689   -18833730.504 6 -14675622.988 5
        36.400          34.900
  25207872.140    25207870.662    25207871.967     1406164.338     1095709.980 2
                        13.900
  23564999.668    23564998.764    23564997.385   -10540886.224 2  -8213668.521 3
        17.800          18.600
  24155438.462    24155437.680    24155437.803    -2119729.456 2  -1651734.420 3
        17.800          20.500
  20267993.200    20267992.679    20267989.538   -25700841.341 7 -20026620.176 8
        44.800          51.800
  21933547.127    21933546.502    21933545.276   -17239341.901 5 -13433249.076 5
        34.400          33.800
  23023095.651    23023093.958    23023092.368   -10581662.135 5  -8245448.396 5
        30.200          31.500
  21141748.837    21141747.978    21141746.096   -21974927.727 6 -17123308.237 6
        39.900          40.100
 09  1  6  1 28 30.0000000  0 10G 6G28G 9G15G21G 3G22G14G19G18
  24236361.560    24236360.965    24236361.448    -2177668.311 2  -1696881.498 3
        16.100          21.100
  25502991.603    25502993.088    25502992.681      252439.071      196706.654 2
         3.000          12.600
  21420242.335    21420241.699    21420240.715   -18841439.025 6 -14681629.620 5
        36.500          34.900
  25228523.871    25228522.410    25228522.822     1514683.921     1180270.621 2
         3.000          16.100
  23586273.010    23586271.841    23586270.074   -10429095.429 2  -8126558.854 3
        17.000          18.600
  24172294.252    24172293.327    24172292.676    -2031154.541 3  -1582715.015 3
        18.600          19.900
  20266844.013    20266843.429    20266840.288   -25706880.510 7 -20031326.021 8
        44.800          51.900
  21917959.524    21917958.809    21917957.680   -17321255.781 5 -13497078.066 5
        34.500          34.000
  23028190.396    23028188.925    23028186.738   -10554890.374 5  -8224587.288 5
        30.800          31.100
  21151906.734    21151905.925    21151904.102   -21921546.607 6 -17081712.557 6
        39.700          39.900
 09  1  6  1 29  0.0000000  0 10G 6G28G 9G15G21G 3G22G14G19G18
  24253235.209    24253234.237    24253235.123    -2088999.651 2  -1627789.048 3
        16.100          21.100
  25506483.883    25506482.302    25506482.740      270780.902      210998.894 1
                         6.500
  21418914.512    21418913.709    21418912.845   -18848417.588 6 -14687067.465 5
        36.400          35.200
  25249181.326    25249181.521    25249180.703     1623241.308 1   1264860.702 2
         9.000          16.100
  23607580.423    23607579.223    23607577.790   -10317123.308 2  -8039307.900 3
        17.800          19.300
  24189192.957    24189192.205    24189192.076    -1942346.129 3  -1513513.661 3
        18.600          19.300
  20265771.172    20265770.589    20265767.368   -25712518.763 7 -20035719.462 8
        44.800          51.900
  21902437.077    21902436.382    21902435.269   -17402826.179 5 -13560639.405 5
        34.500          34.000
  23033390.597    23033388.768    23033387.000   -10527563.013 5  -8203293.254 5
        30.400          30.800
  21162129.558    21162128.707    21162126.884   -21867826.075 6 -17039852.403 6
        39.800          39.800
 09  1  6  1 29 30.0000000  0 10G 6G28G 9G15G21G 3G22G14G19G18
  24270142.073    24270141.875    24270141.972    -2000152.281 2  -1558557.342 3
        15.100          20.500
  25510065.961    25510066.090    25510064.514      289613.379      225673.473
         3.000           3.000
  21417724.172    21417723.515    21417722.758   -18854672.698 6 -14691941.567 5
        36.500          35.400
  25269844.867    25269844.718    25269842.707     1731827.475 1   1349473.224 2
        11.000          13.900
  23628920.519    23628919.064    23628918.504   -10204979.186 2  -7951922.896 3
        15.100          19.900
  24206136.326    24206135.606    24206134.038    -1853314.184 3  -1444138.145 3
        19.300          18.600
  20264773.107    20264772.601    20264769.500   -25717762.860 7 -20039805.773 8
        44.700          51.900
  21886979.094    21886978.374    21886977.062   -17484059.179 5 -13623937.848 5
        34.800          34.000
  23038694.970    23038693.525    23038691.566   -10499688.452 5  -8181572.825 5
        31.300          31.000
  21172415.294    21172414.457    21172412.569   -21813774.003 6 -16997733.908 6
        39.800          39.600
 09  1  6  1 30  0.0000000  0 10G 6G28G 9G15G21G 3G22G14G19G18
  24287085.772    24287084.900    24287084.942    -1911113.655 2  -1489176.619 3
        15.100          19.300
  25513748.710    25513747.166    25513745.466      308951.147      240741.740 1
         3.000           9.000
  21416674.412    21416673.710    21416672.803   -18860188.392 6 -14696239.510 5
        36.200          35.100
  25290515.839    25290516.282    25290514.804     1840456.301 1   1434118.957 2
         9.000          15.100
  23650295.996    23650294.811    23650294.181   -10092649.989 2  -7864393.710 2
        13.900          17.800
  24223123.318    24223122.053    24223121.601    -1764046.236 2  -1374578.703 3
        16.100          18.600
  20263853.295    20263852.727    20263849.575   -25722597.068 7 -20043572.688 8
        44.800          52.000
  21871588.195    21871587.539    21871586.533   -17564937.751 5 -13686960.113 5
        34.800          34.300
  23044106.353    23044104.676    23044102.531   -10471252.561 5  -8159414.989 5
        31.300          30.800
  21182767.096    21182766.239    21182764.140   -21759375.767 6 -16955345.670 6
        39.800          39.500
 09  1  6  1 30 30.0000000  0 10G 6G28G 9G15G21G 3G22G14G19G18
  24304065.474    24304064.607    24304064.187    -1821885.077 2  -1419647.887 2
        16.100          17.800
  25517523.735    25517521.819    25517521.474      328795.217      256204.653 1
         3.000          11.000
  21415766.048    21415765.345    21415764.403   -18864962.900 6 -14699959.903 5
        36.600          35.200
  25311195.882    25311195.458    25311195.095     1949127.374 1   1518797.664 2
         9.000          13.900
  23671705.254    23671705.124    23671704.860    -9980136.528 2  -7776720.909 2
        15.100          17.000
  24240153.798    24240153.158    24240154.245    -1674543.824 2  -1304836.575 3
        13.900          19.300
  20263011.646    20263011.149    20263008.045   -25727019.387 7 -20047018.649 8
        44.800          52.000
  21856265.265    21856264.717    21856263.879   -17645458.720 5 -13749703.717 5
        34.800          34.500
  23049624.176    23049622.422    23049620.494   -10442255.409 5  -8136819.820 5
        30.800          30.800
  21193184.690    21193183.830    21193181.994   -21704630.148 6 -16912686.745 6
        39.700          39.500
 09  1  6  1 31  0.0000000  0 10G 6G28G 9G15G21G 3G22G14G19G18
  24321080.545    24321080.230    24321079.161    -1732472.473 2  -1349975.730 2
        17.000          17.800
  25521396.103    25521394.197    25521394.242      349142.204 1    272059.346 1
         6.500           9.000
  21414998.074    21414997.268    21414996.311   -18868998.909 6 -14703104.847 5
        36.500          34.900
  25331881.441    25331881.586    25331879.937     2057836.770     1603506.307 2
         3.000          12.600
  23693149.864    23693150.029    23693149.179    -9867443.728 2  -7688908.371 2
        16.100          17.000
  24257228.905    24257227.901    24257229.637    -1584812.953 2  -1234916.399 3
        13.900          19.300
  20262248.045    20262247.507    20262244.358   -25731032.397 7 -20050145.672 8
        44.800          51.900
  21841010.494    21841009.894    21841008.904   -17725623.716 5 -13812169.941 5
        34.700          34.600
  23055248.231    23055246.424    23055244.695   -10412701.129 5  -8113790.520 5
        30.800          31.100
  21203667.753    21203666.971    21203665.109   -21649540.930 6 -16869760.085 6
        39.700          39.300
 09  1  6  1 31 30.0000000  0 10G 6G28G 9G15G21G 3G22G14G19G18
  24338126.212    24338126.576    24338126.324    -1642889.220 2  -1280170.611 2
        13.900          17.000
  25525360.507    25525359.319    25525358.181      369980.463      288296.899 1
                         9.000
  21414368.444    21414367.672    21414366.725   -18872306.885 6 -14705682.490 5
        36.400          34.900
  25352572.069    25352571.178    25352572.327     2166571.926     1688234.982 2
                        12.600
  23714627.323    23714626.605    23714626.145    -9754584.532 2  -7600966.162 2
        15.100          17.000
  24274344.986    24274344.490    24274344.733    -1494866.971 2  -1164828.639 3
        12.600          18.600
  20261560.264    20261559.736    20261556.544   -25734646.724 7 -20052962.027 8
        44.800          51.900
  21825821.798    21825821.087    21825819.883   -17805442.065 5 -13874366.054 5
        34.900          34.600
  23060975.807    23060974.241    23060972.462   -10382601.196 5  -8090336.042 5
        30.100          31.100
  21214214.087    21214213.300    21214211.497   -21594119.440 6 -16826574.505 6
        39.700          39.300
 09  1  6  1 32  0.0000000  0 10G 6G28G 9G15G21G 3G22G14G19G18
  24355205.950    24355205.071    24355206.028    -1553134.330 1  -1210231.769 2
         9.000          17.000
  25529421.456    25529419.086    25529416.747      391313.335      304919.958 1
                         6.500
  21413878.231    21413877.586    21413876.596   -18874882.568 6 -14707689.521 5
        36.400          35.200
  25373269.242    25373268.659    25373269.148     2275334.777     1772985.186 2
                        12.600
  23736136.195    23736135.285    23736134.235    -9641557.440 2  -7512893.172 2
        15.100          16.100
  24291503.329    24291502.561    24291502.106    -1404705.477 2  -1094572.932 3
        15.100          18.600
  20260949.157    20260948.602    20260945.398   -25737858.210 7 -20055464.483 8
        44.800          51.900
  21810699.857    21810699.146    21810698.053   -17884908.866 5 -13936288.230 5
        35.300          34.900
  23066808.232    23066806.275    23066804.270   -10351953.539 5  -8066454.760 5
        30.100          31.000
  21224824.350    21224823.519    21224821.691   -21538362.723 6 -16783127.716 6
        39.700          39.100
 09  1  6  1 32 30.0000000  0  9G 6G28G 9G21G 3G22G14G19G18
  24372318.514    24372317.547    24372317.565    -1463211.878 2  -1140162.346 2
        12.600          15.100
  25533575.131    25533574.375    25533570.956      413138.232      321926.315 1
                         9.000
  21413527.317    21413526.612    21413525.972   -18876726.837 6 -14709126.608 5
        36.300          35.500
  23757676.238    23757674.779    23757673.436    -9528365.708 2  -7424691.849 2
        15.100          16.100
  24308700.495    24308699.827    24308700.022    -1314332.599 2  -1024152.533 3
        13.900          19.900
  20260414.588    20260414.040    20260410.832   -25740667.356 7 -20057653.426 8
        44.800          51.900
  21795645.037    21795644.230    21795642.903   -17964023.283 5 -13997935.828 5
        35.700          34.800
  23072743.858    23072742.023    23072740.098   -10320760.886 5  -8042148.813 5
        30.400          30.800
  21235497.993    21235497.196    21235495.334   -21482272.168 6 -16739420.792 6
        39.800          39.100
 09  1  6  1 33  0.0000000  0  9G 6G28G 9G21G 3G22G14G19G18
  24389460.925    24389460.283    24389458.947    -1373132.349 2  -1069970.505 2
        15.100          15.100
  25537819.988    25537818.105    25537817.597      435446.859 1    339309.522 1
         9.000          11.000
  21413313.894    21413313.238    21413312.569   -18877847.496 6 -14709999.850 5
        36.400          35.300
  23779245.152    23779244.007    23779241.912    -9415019.533 2  -7336370.213 2
        13.900          16.100
  24325936.300    24325935.360    24325935.890    -1223759.321 2   -953575.970 3
        16.100          20.500
  20259955.078    20259954.589    20259951.410   -25743081.614 7 -20059534.666 8
        44.800          51.900
  21780655.696    21780654.923    21780653.745   -18042792.063 5 -14059314.089 5
        35.700          35.200
  23078781.221    23078779.663    23078777.802   -10289032.168 5  -8017425.140 5
        30.100          30.600
  21246233.414    21246232.615    21246231.064   -21425856.346 6 -16695460.410 6
        39.500          39.100
 09  1  6  1 33 30.0000000  0  9G 6G28G 9G21G 3G22G14G19G18
  24406635.412    24406635.552    24406635.278    -1282872.840 2   -999638.451 2
        12.600          15.100
  25542159.190    25542158.977    25542160.037      458264.286      357089.329 1
                        11.000
  21413243.620    21413242.832    21413241.914   -18878218.492 6 -14710288.936 5
        36.500          35.300
  23800848.088    23800846.505    23800844.973    -9301495.211 2  -7247909.755 2
        13.900          13.900
  24343214.371    24343213.434    24343213.353    -1132962.058 2   -882824.872 3
        17.000          19.900
  20259575.698    20259575.182    20259572.032   -25745075.312 7 -20061088.198 8
        44.800          51.800
  21765737.337    21765736.678    21765735.502   -18121188.030 5 -14120401.846 5
        35.700          35.300
  23084925.935    23084924.411    23084922.775   -10256742.876 4  -7992264.668 5
        29.900          31.100
  21257035.784    21257034.944    21257033.239   -21369090.178 6 -16651227.036 6
        39.500          38.900
 09  1  6  1 34  0.0000000  0  9G 6G28G 9G21G 3G22G14G19G18
  24423844.028    24423843.613    24423843.939    -1192441.671 1   -929172.632 2
        11.000          13.900
  25546598.400    25546597.733    25546594.946      481584.223      375260.656 1
                         6.500
  21413314.497    21413313.656    21413313.054   -18877845.103 6 -14709997.981 5
        36.200          35.400
  23822482.863    23822482.405    23822479.531    -9187800.388 2  -7159316.404 2
        12.600          12.600
  24360532.351    24360531.732    24360532.097    -1041949.996 2   -811906.419 3
        15.100          19.300
  20259275.632    20259275.055    20259271.766   -25746653.274 7 -20062317.778 8
        44.900          51.800
  21750889.385    21750888.661    21750887.429   -18199215.240 5 -14181202.262 5
        35.700          35.600
  23091175.799    23091174.163    23091172.319   -10223900.062 5  -7966672.867 5
        30.400          30.800
  21267903.631    21267902.846    21267901.036   -21311979.618 6 -16606725.300 6
        39.500          38.900
 09  1  6  1 34 30.0000000  0  9G 6G28G 9G21G 3G22G14G19G18
  24441082.572    24441081.986    24441082.656    -1101851.100 1   -858582.579 2
        11.000          13.900
  25551128.279    25551128.235    25551129.753      505396.541      393815.550 2
                        13.900
  21413525.334    21413524.643    21413523.916   -18876736.697 6 -14709134.286 5
        36.400          35.400
  23844147.828    23844147.243    23844145.770    -9073947.107 2  -7070599.595 2
        12.600          12.600
  24377890.275    24377889.494    24377890.204     -950734.994 2   -740829.856 3
        15.100          19.900
  20259052.553    20259052.021    20259048.862   -25747824.697 7 -20063230.575 8
        44.800          51.800
  21736109.981    21736109.152    21736108.056   -18276881.882 5 -14241721.713 5
        35.900          35.700
  23097528.788    23097527.031    23097525.126   -10190514.406 5  -7940658.080 5
        30.100          30.400
  21278835.148    21278834.258    21278832.416   -21254534.728 6 -16561963.048 6
        39.400          38.600
 09  1  6  1 35  0.0000000  0  9G 6G28G 9G21G 3G22G14G19G18
  24458352.201    24458351.679    24458350.408    -1011105.205 2   -787871.476 2
        13.900          15.100
  25555752.923    25555754.186    25555753.936      529698.903      412752.271 2
                        13.900
  21413875.957    21413875.241    21413874.420   -18874894.442 6 -14707698.763 5
        36.400          35.300
  23865842.745    23865842.698    23865841.538    -8959938.492 2  -6981761.758 2
        12.600          13.900
  24395286.495    24395285.152    24395285.241     -859321.707 2   -669598.727 3
        13.900          19.300
  20258906.881    20258906.289    20258903.069   -25748590.685 7 -20063827.448 8
        44.900          51.800
  21721399.120    21721398.344    21721397.256   -18354187.606 6 -14301959.927 5
        36.300          35.800
  23103984.815    23103982.956    23103980.969   -10156588.920 5  -7914222.650 4
        30.100          29.900
  21289829.533    21289828.763    21289826.932   -21196758.019 6 -16516942.232 6
        39.300          38.500
 09  1  6  1 35 30.0000000  0  9G 6G28G 9G21G 3G22G14G19G18
  24475648.003    24475647.557    24475647.465     -920211.592 2   -717045.259 2
        13.900          16.100
  25560468.038    25560467.115    25560469.987      554485.722      432066.433 1
                         9.000
  21414365.462    21414364.758    21414363.798   -18872323.050 6 -14705695.074 5
        36.500          35.400
  23887567.542    23887566.572    23887564.361    -8845781.642 2  -6892808.448 2
        13.900          15.100
  24412717.779    24412716.363    24412717.249     -767717.610 2   -598218.917 3
        13.900          18.600
  20258837.421    20258836.888    20258833.640   -25748955.592 7 -20064111.792 8
        44.900          51.800
  21706756.132    21706755.493    21706754.336   -18431135.927 6 -14361919.652 5
        36.400          35.600
  23110542.527    23110540.609    23110538.307   -10122129.701 4  -7887371.319 4
        29.900          29.500
  21300886.410    21300885.523    21300883.828   -21138654.396 6 -16471666.683 6
        39.300          38.600
 09  1  6  1 36  0.0000000  0  9G 6G28G 9G21G 3G22G14G19G18
  24492973.564    24492972.505    24492973.413     -829164.471 1   -646099.485 2
        11.000          17.800
  25565280.981    25565279.056    25565277.005      579765.008      451765.826 1
                         6.500
  21414994.904    21414994.249    21414993.499   -18869013.827 6 -14703116.459 5
        36.300          35.300
  23909320.675    23909319.269    23909317.435    -8731470.384 2  -6803734.784 2
        16.100          13.900
  24430186.688    24430185.725    24430186.291     -675917.137 2   -526686.091 3
        15.100          18.600
  20258846.161    20258845.568    20258842.291   -25748910.205 7 -20064076.425 8
        44.900          51.800
  21692183.425    21692182.702    21692181.535   -18507716.876 6 -14421593.110 5
        36.400          35.900
  23117202.609    23117200.866    23117198.638   -10087129.663 5  -7860098.590 4
        30.100          29.700
  21312006.808    21312005.928    21312004.227   -21080215.770 6 -16426130.090 6
        39.300          38.400
 09  1  6  1 36 30.0000000  0  9G 6G28G 9G21G 3G22G14G19G18
  24510328.803    24510327.901    24510328.682     -737961.586 2   -575032.329 3
        12.600          18.600
  25570187.429    25570187.766    25570185.395      605540.934      471851.076 1
                        11.000
  21415766.127    21415765.487    21415764.586   -18864961.723 6 -14699958.977 5
        36.500          35.200
  23931103.289    23931102.013    23931100.265    -8617001.471 2  -6714538.268 2
        15.100          13.900
  24447694.183    24447693.238    24447693.175     -583918.286 2   -454998.696 3
        16.100          18.600
  20258933.583    20258933.067    20258929.884   -25748449.935 7 -20063717.774 8
        44.900          51.700
  21677681.686    21677680.924    21677679.611   -18583924.205 6 -14480975.434 5
        36.300          35.900
  23123966.351    23123964.657    23123962.698   -10051585.196 5  -7832401.614 5
        30.400          30.100
  21323191.844    21323191.018    21323189.193   -21021438.049 6 -16380329.265 6
        39.300          38.200
 09  1  6  1 37  0.0000000  0  8G 6G 9G21G 3G22G14G19G18
  24527713.141    24527712.045    24527712.477     -646610.088 1   -503849.334 2
        11.000          17.800
  21416677.681    21416677.003    21416676.190   -18860171.230 6 -14696226.119 5
        36.500          35.200
  23952914.207    23952913.782    23952911.336    -8502382.160 2  -6625224.577 2
        15.100          13.900
  24465236.237    24465235.301    24465236.384     -491728.056 2   -383162.149 2
        13.900          17.000
  20259099.561    20259098.985    20259095.717   -25747578.328 7 -20063038.601 8
        44.900          51.700
  21663250.498    21663249.677    21663248.472   -18659760.631 6 -14540068.743 6
        36.400          36.100
  23130832.731    23130831.168    23130829.173   -10015502.180 5  -7804284.989 5
        30.100          30.100
  21334440.478    21334439.642    21334437.846   -20962326.289 6 -16334268.151 6
        39.100          38.200
 09  1  6  1 37 30.0000000  0  9G 6G 9G11G21G 3G22G14G19G18
  24545119.500    24545118.792    24545119.416     -555133.460 1   -432568.842 2
         6.500          17.000
  21417725.926    21417725.204    21417724.315   -18854662.877 6 -14691933.895 5
        36.400          34.900
  24870063.527    24870062.220    24870058.178           -.0421           .34111
                         9.000
  23974750.512    23974749.352    23974747.475    -8387634.589 2  -6535810.935 2
        17.000          15.100
  24482811.131    24482810.839    24482811.902     -399370.355 2   -311195.120 2
        13.900          17.000
  20259339.649    20259339.140    20259335.810   -25746316.310 7 -20062055.212 8
        44.900          51.700
  21648885.988    21648885.339    21648884.009   -18735245.758 6 -14598888.315 6
        36.500          36.200
  23137797.268    23137795.576    23137793.867    -9978902.904 4  -7775766.084 4
        29.700          29.900
  21345748.512    21345747.684    21345745.940   -20902901.694 6 -16287963.275 6
        38.900          38.100
 09  1  6  1 38  0.0000000  0  9G 6G 9G11G21G 3G22G14G19G18
  24562554.856    24562554.105    24562554.064     -463511.926 1   -361175.455 2
         6.500          15.100
  21418914.910    21418914.186    21418913.524   -18848414.404 6 -14687064.957 5
        36.300          35.200
  24851397.020    24851397.399    24851393.707      -98079.748      -76425.344 1
                         6.500
  23996614.933    23996613.974    23996612.211    -8272738.715 2  -6446281.725 2
        17.000          16.100
  24500422.943    24500422.344    24500421.624     -306825.284 2   -239082.097 2
        13.900          15.100
  20259658.488    20259657.994    20259654.748   -25744640.530 7 -20060749.410 8
        44.900          51.700
  21634593.103    21634592.350    21634591.175   -18810355.615 6 -14657415.473 6
        36.500          36.400
  23144864.293    23144862.579    23144860.574    -9941766.257 5  -7746828.462 5
        30.100          30.100
  21357120.669    21357119.718    21357117.858   -20843142.137 6 -16241397.389 6
        39.100          38.000
 09  1  6  1 38 30.0000000  0  9G 9G 6G11G21G 3G22G14G19G18
  21420245.392    21420244.729    21420243.926   -18841422.704 6 -14681616.878 5
        36.300          35.300
  24580018.580    24580017.251    24580016.976     -371745.191 1   -289668.941 2
        11.000          17.000
  24832777.973    24832776.381    24832777.330     -195916.986     -152662.099 1
                         9.000
  24018506.989    24018506.542    24018504.208    -8157693.971 2  -6356636.540 2
        16.100          15.100
  24518068.588    24518067.830    24518068.466     -214092.990 2   -166823.190 2
        12.600          15.100
  20260056.796    20260056.276    20260053.051   -25742547.715 7 -20059118.643 8
        44.900          51.700
  21620372.327    21620371.550    21620370.587   -18885085.810 6 -14715646.782 6
        36.500          36.600
  23152033.390    23152031.799    23152029.927    -9904090.863 4  -7717471.017 4
        29.700          29.700
  21368556.373    21368555.583    21368553.810   -20783045.417 6 -16194568.774 6
        38.900          37.600
 09  1  6  1 39  0.0000000  0  9G 9G 6G11G21G 3G22G14G19G18
  21421715.204    21421714.518    21421713.802   -18833698.236 6 -14675597.814 5
        36.400          35.100
  24597506.242    24597505.546    24597505.267     -279846.249 2   -218059.425 3
        13.900          18.600
  24814204.953    24814205.077    24814206.207     -293519.043     -228715.626 1
                        11.000
  24040424.769    24040424.257    24040422.539    -8042512.333 2  -6266884.668 2
        13.900          13.900
  24535748.092    24535747.458    24535747.279     -121186.707 1    -94428.699 2
        11.000          13.900
  20260532.524    20260531.948    20260528.793   -25740047.727 7 -20057170.597 8
        44.900          51.700
  21606222.317    21606221.568    21606220.523   -18959444.955 6 -14773588.964 6
        36.600          36.800
  23159303.287    23159301.549    23159299.830    -9865888.173 4  -7687702.697 4
        29.000          29.200
  21380054.446    21380053.571    21380051.840   -20722622.502 6 -16147485.986 6
        38.700          37.600
 09  1  6  1 39 30.0000000  0  9G 9G 6G11G21G 3G22G14G19G18
  21423324.666    21423323.999    21423322.985   -18825241.101 6 -14669007.836 5
        36.300          34.700
  24615016.813    24615016.952    24615018.437     -187817.784 1   -146348.953 3
        11.000          19.900
  24795676.784    24795677.067    24795677.487     -390883.499 1   -304584.036 2
         6.500          12.600
  24062368.279    24062367.168    24062367.231    -7927195.826 2  -6177027.697 1
        12.600          11.000
  24553460.426    24553459.210    24553459.510      -28108.810 1    -21900.485 2
         9.000          15.100
  20261085.900    20261085.307    20261082.143   -25737139.897 7 -20054904.755 8
        44.800          51.700
  21592143.149    21592142.330    21592141.343   -19033431.677 6 -14831240.947 6
        36.700          37.000
  23166673.285    23166671.460    23166668.934    -9827159.938 4  -7657524.874 4
        29.000          28.600
  21391614.781    21391613.886    21391611.986   -20661873.507 6 -16100149.107 6
        38.700          37.600
 09  1  6  1 40  0.0000000  0  9G 6G 9G11G21G 3G22G14G19G18
  24632554.365    24632553.765    24632553.999      -95666.861 2    -74543.016 3
        15.100          19.300
  21425072.541    21425071.825    21425070.826   -18816055.757 6 -14661850.429 5
        36.000          34.600
  24777194.975    24777193.831    24777195.208     -488011.774 1   -380268.417 2
         6.500          12.600
  24084337.867    24084336.567    24084335.116    -7811751.096 2  -6087070.814 1
        15.100          11.000
  24571205.419    24571204.484    24571203.999       65133.407 1     50755.747 2
         9.000          15.100
  20261716.068    20261715.546    20261712.259   -25733828.366 7 -20052324.336 8
        44.900          51.700
  21578134.132    21578133.370    21578132.380   -19107049.073 6 -14888605.137 6
        36.900          37.200
  23174141.229    23174139.726    23174137.815    -9787912.300 4  -7626942.318 4
        29.000          28.800
  21403235.636    21403234.935    21403233.167   -20600803.562 6 -16052562.136 6
        38.600          37.400
 09  1  6  1 40 30.0000000  0  9G 6G 9G11G21G 3G22G14G19G18
  24650114.552    24650113.324    24650112.696       -3392.357 2     -2640.804 2
        16.100          17.000
  21426959.690    21426958.968    21426958.078   -18806138.755 6 -14654122.893 5
        36.200          34.900
  24758759.901    24758759.321    24758759.804     -584897.942 1   -455764.118 2
         6.500          12.600
  24106329.749    24106328.565    24106328.459    -7696176.800 2  -5997012.948 1
        15.100          11.000
  24588979.990    24588978.592    24588978.349      158540.580 1    123540.568 2
        11.000          13.900
  20262423.713    20262423.148    20262419.889   -25730109.722 7 -20049426.689 8
        44.800          51.600
  21564196.646    21564195.822    21564194.661   -19180292.391 6 -14945677.844 6
        37.000          37.200
  23181709.575    23181707.852    23181705.867    -9748142.648 4  -7595952.986 4
        28.800          29.200
  21414918.725    21414917.941    21414916.043   -20539409.755 6 -16004722.806 6
        38.400          37.200
 09  1  6  1 41  0.0000000  0  9G 9G 6G11G21G 3G22G14G19G18
  21428987.667    21428986.773    21428985.900   -18795483.862 6 -14645820.381 5
        36.400          35.300
  24667696.706    24667696.132    24667695.021       89009.157 2     69360.349 2
        13.900          15.100
  24740371.067    24740370.728    24740369.160     -681533.148     -531064.306 1
         3.000          11.000
  24128347.252    24128346.954    24128346.700    -7580468.555 2  -5906850.732 1
        15.100           9.000
  24606785.356    24606784.448    24606785.883      252116.099 2    196456.580 2
        12.600          13.900
  20263210.044    20263209.527    20263206.358   -25725976.931 7 -20046206.329 8
        44.700          51.700
  21550331.628    21550330.807    21550329.579   -19253153.555 6 -15002452.764 6
        37.100          37.200
  23189377.974    23189376.115    23189374.099    -9707846.234 4  -7564553.187 4
        28.800          29.700
  21426664.476    21426663.587    21426661.682   -20477686.289 6 -15956626.598 6
        38.300          37.200
 09  1  6  1 41 30.0000000  0  9G 9G 6G11G21G 3G22G14G19G18
  21431153.538    21431152.823    21431152.131   -18784099.411 5 -14636949.373 5
        35.900          35.100
  24685301.645    24685302.020    24685300.825      181526.974 2    141452.175 2
        12.600          15.100
  24722028.123    24722028.192    24722024.854     -777922.554     -606172.930 1
                        11.000
  24150390.328    24150389.580    24150389.031    -7464636.383 2  -5816591.960 1
        13.900           9.000
  24624622.575    24624621.813    24624621.984      345849.284 2    269495.414 2
        15.100          13.900
  20264073.882    20264073.316    20264070.145   -25721437.659 7 -20042669.234 8
        44.700          51.600
  21536537.954    21536537.136    21536536.018   -19325639.197 6 -15058935.075 6
        37.300          37.400
  23197144.236    23197142.522    23197140.662    -9667033.087 4  -7532750.756 4
        28.800          29.900
  21438470.956    21438470.121    21438468.396   -20415641.665 6 -15908280.141 6
        38.100          37.000
 09  1  6  1 42  0.0000000  0  9G 9G 6G11G21G 3G22G14G19G18
  21433459.946    21433459.307    21433458.799   -18771978.740 5 -14627504.701 5
        35.700          35.200
  24702931.635    24702931.069    24702930.595      274165.504 2    213638.037 2
        12.600          17.800
  24703735.801    24703735.114    24703730.813     -874056.297     -681082.272 1
         3.000          11.000
  24172457.475    24172456.258    24172455.706    -7348675.658 2  -5726233.000 1
        17.000           9.000
  24642490.384    24642490.076    24642489.261      439744.154 2    342660.208 2
        13.900          13.900
  20265016.421    20265015.881    20265012.725   -25716484.462 7 -20038809.598 8
        44.700          51.600
  21522817.569    21522816.694    21522815.552   -19397740.974 6 -15115118.267 6
        37.500          37.600
  23205010.051    23205008.153    23205006.548    -9625697.688 4  -7500541.366 4
        28.600          29.900
  21450340.065    21450339.332    21450337.361   -20353269.449 6 -15859678.415 6
        38.300          36.900
 09  1  6  1 42 30.0000000  0  9G 9G 6G11G21G 3G22G14G19G18
  21435906.062    21435905.292    21435904.349   -18759126.570 6 -14617490.013 5
        36.200          35.100
  24720580.853    24720579.939    24720581.490      366917.508 1    285912.283 2
         9.000          17.800
  24685490.525    24685489.325    24685484.451     -969936.673     -755794.206 1
                        11.000
  24194548.029    24194546.670    24194545.949    -7232592.928 3  -5635778.976 1
        18.600           6.500
  24660387.943    24660387.366    24660385.872      533793.618 2    415945.478 2
        13.900          13.900
  20266037.000    20266036.438    20266033.153   -25711121.685 7 -20034630.812 8
        44.700          51.500
  21509169.389    21509168.589    21509167.356   -19469462.298 6 -15171005.003 6
        37.700          37.700
  23212974.367    23212972.586    23212970.742    -9583846.360 4  -7467929.952 4
        28.600          29.900
  21462270.384    21462269.560    21462267.878   -20290575.024 6 -15810825.618 6
        38.000          37.000
 09  1  6  1 43  0.0000000  0  9G 9G 6G11G21G 3G22G14G19G18
  21438490.194    21438489.500    21438488.630   -18745546.264 6 -14606907.958 5
        36.200          35.100
  24738253.051    24738251.378    24738251.752      459777.364 1    358270.588 2
         6.500          17.800
  24667290.212    24667291.450    24667288.356    -1065564.057     -830309.004 1
         3.000          11.000
  24216659.575    24216659.011    24216657.731    -7116393.527 3  -5545234.017 1
        18.600           6.500
  24678312.483    24678311.458    24678311.715      627991.705 1    489346.581 2
        11.000          16.100
  20267134.869    20267134.339    20267131.118   -25705351.938 7 -20030134.905 8
        44.600          51.500
  21495593.216    21495592.465    21495591.346   -19540804.625 6 -15226596.418 6
        37.700          37.700
  23221035.530    23221033.647    23221031.829    -9541483.504 4  -7434919.954 4
        28.800          29.700
  21474261.457    21474260.626    21474258.828   -20227561.814 6 -15761724.412 6
        38.100          36.700
 09  1  6  1 43 30.0000000  0  9G 9G 6G11G21G 3G22G14G19G18
  21441213.918    21441213.162    21441212.355   -18731233.192 6 -14595754.911 5
        36.000          35.100
  24755941.625    24755940.078    24755944.235      552747.106      430714.547 2
                        12.600
  24649143.772    24649143.489    24649141.735    -1160930.319 1   -904620.383 1
         6.500          11.000
  24238795.545    24238794.062    24238793.357    -7000074.363 3  -5454595.747 1
        18.600           6.500
  24696266.274    24696265.374    24696266.556      722340.445 2    562865.061 3
        12.600          18.600
  20268311.318    20268310.779    20268307.599   -25699169.895 7 -20025317.731 8
        44.700          51.500
  21482090.379    21482089.699    21482088.738   -19611761.712 6 -15281887.642 6
        37.600          37.900
  23229195.203    23229193.300    23229191.371    -9498605.691 4  -7401508.693 4
        28.600          29.900
  21486313.923    21486313.093    21486311.338   -20164225.593 6 -15712371.515 6
        37.900          36.700
 09  1  6  1 44  0.0000000  0  9G 9G 6G11G21G 3G22G14G19G18
  21444077.298    21444076.578    21444075.829   -18716184.989 5 -14584029.038 5
        35.900          34.900
  24773655.645    24773657.031    24773654.495      645827.211      503244.409 1
                        11.000
  24631048.797    24631048.055    24631045.645    -1256030.353 1   -978724.291 2
        11.000          12.600
  24260953.439    24260952.008    24260949.871    -6883634.570 2  -5363863.463 1
        17.800           9.000
  24714249.076    24714247.887    24714248.813      816839.727 2    636500.867 3
        12.600          18.600
  20269566.682    20269566.179    20269562.935   -25692572.824 7 -20020177.158 8
        44.600          51.500
  21468661.965    21468661.164    21468660.082   -19682329.369 6 -15336875.416 6
        37.700          37.900
  23237452.817    23237450.953    23237448.899    -9455211.841 4  -7367695.322 4
        28.400          29.500
  21498428.289    21498427.527    21498425.618   -20100564.092 6 -15662765.157 6
        37.700          36.400
 09  1  6  1 44 30.0000000  0  9G 9G14G 6G11G21G 3G22G19G18
  21447079.321    21447078.693    21447077.977   -18700408.986 5 -14571736.042 5
        35.900          34.900
  21455306.458    21455305.602    21455304.461   -19752513.300 6 -15391564.189 6
        37.800          38.000
  24791390.392    24791387.643    24791387.621      739007.761      575852.551 2
                        12.600
  24613002.075    24613001.862    24612998.627    -1350868.556 2  -1052624.194 2
        13.900          12.600
  24283131.306    24283130.297    24283129.518    -6767083.732 2  -5273044.689 2
        17.800          12.600
  24732259.744    24732258.886    24732257.181      911480.328 2    710246.760 2
        13.900          17.000
  20270899.852    20270899.285    20270896.108   -25685567.029 7 -20014718.096 8
        44.600          51.500
  23245806.412    23245804.912    23245803.001    -9411310.746 4  -7333486.680 4
        28.100          28.800
  21510603.280    21510602.371    21510600.393   -20036584.672 6 -15612911.065 6
        37.700          36.100
 09  1  6  1 45  0.0000000  0  9G 9G14G 6G11G21G 3G22G19G18
  21450221.197    21450220.611    21450219.866   -18683898.488 5 -14558870.718 5
        35.900          34.900
  21442025.528    21442024.753    21442023.544   -19822305.059 6 -15445947.370 6
        38.000          38.200
  24809136.954    24809140.689    24809142.450      832293.249      648542.586 1
                         9.000
  24595006.116    24595005.338    24595002.836    -1445435.163 2  -1126312.431 2
        13.900          12.600
  24305332.187    24305331.523    24305330.094    -6650416.652 3  -5182135.343 2
        19.300          13.900
  24750295.248    24750294.618    24750294.741     1006266.040 2    784105.723 2
        12.600          16.100
  20272312.249    20272311.686    20272308.368   -25678145.147 7 -20008934.810 8
        44.600          51.400
  23254258.533    23254256.935    23254254.660    -9366896.910 4  -7298878.509 4
        28.600          28.800
  21522840.010    21522839.158    21522837.074   -19972280.808 6 -15562804.157 6
        37.800          36.000
 09  1  6  1 45 30.0000000  0  9G 9G14G 6G11G21G 3G22G19G18
  21453500.847    21453500.160    21453499.561   -18666664.056 5 -14545441.288 5
        35.900          35.100
  21428817.652    21428816.827    21428815.562   -19891713.360 6 -15500031.750 6
        37.900          38.300
  24826911.073    24826909.158    24826906.951      925671.132      721304.527 1
         3.000          11.000
  24577061.657    24577060.295    24577057.438    -1539737.435 1  -1199794.671 1
        11.000          11.000
  24327553.416    24327552.345    24327551.093    -6533644.936 3  -5091144.430 2
        19.300          16.100
  24768357.786    24768357.361    24768357.669     1101184.198 2    858067.907 2
        12.600          17.000
  20273801.900    20273801.365    20273798.037   -25670316.806 7 -20002834.803 8
        44.600          51.300
  23262805.530    23262803.648    23262801.790    -9321982.147 4  -7263880.000 4
        28.600          29.500
  21535135.921    21535135.262    21535133.464   -19907663.314 6 -15512452.864 6
        37.700          36.100
 09  1  6  1 46  0.0000000  0  9G 9G14G 6G11G21G 3G22G19G18
  21456918.072    21456917.467    21456916.827   -18648705.996 5 -14531447.998 5
        35.900          35.100
  21415682.805    21415681.981    21415680.770   -19960736.910 6 -15553816.331 6
        38.000          38.400
  24844696.297    24844696.105    24844694.330     1019138.437      794136.191 1
         3.000          11.000
  24559166.922    24559166.389    24559164.388    -1633772.800 1  -1273068.953 1
         9.000           6.500
  24349793.798    24349792.400    24349791.624    -6416771.695 2  -5000074.414 2
        17.000          16.100
  24786444.044    24786443.537    24786444.634     1196231.718 1    932130.895 2
        11.000          17.000
  20275368.894    20275368.368    20275365.190   -25662081.938 7 -19996418.022 8
        44.600          51.400
  23271447.313    23271445.524    23271443.513    -9276568.311 4  -7228492.610 4
        27.900          29.200
  21547491.910    21547491.147    21547489.349   -19842732.734 6 -15461857.613 5
        37.600          35.800
 09  1  6  1 46 30.0000000  0  9G 9G14G19G 6G11G21G 3G22G18
  21460474.580    21460473.910    21460473.038   -18630016.605 5 -14516884.837 5
        35.800          34.600
  21402623.033    21402622.290    21402621.083   -20029365.960 6 -15607293.499 6
        38.100          38.500
  23280185.324    23280183.513    23280181.921    -9230648.548 4  -7192710.992 4
        27.900          29.200
  24862497.601    24862498.305    24862498.423     1112701.420      867042.436 1
                        11.000
  24541323.143    24541324.300    24541320.863    -1727530.094 1  -1346126.578 1
         6.500           6.500
  24372054.279    24372053.235    24372052.152    -6299790.184 1  -4908920.042 2
        11.000          15.100
  24804558.300    24804557.555    24804557.106     1291414.474 1   1006299.242 2
         9.000          17.000
  20277015.084    20277014.526    20277011.237   -25653431.410 7 -19989677.350 8
        44.500          51.300
  21559909.068    21559908.128    21559906.186   -19777480.940 6 -15411012.055 5
        37.600          35.600
 09  1  6  1 47  0.0000000  0  9G 9G14G19G 6G11G21G 3G22G18
  21464168.758    21464168.204    21464167.314   -18610603.118 5 -14501757.445 5
        35.900          34.500
  21389637.463    21389636.779    21389635.621   -20097605.482 6 -15660467.142 6
        38.100          38.700
  23289018.751    23289016.981    23289015.074    -9184231.286 4  -7156541.697 4
        28.100          29.900
  24880319.526    24880317.885    24880319.461     1206350.687      940015.947 1
         3.000          11.000
  24523533.158    24523532.835    24523531.334    -1821013.261    -1418970.611 1
         3.000           6.500
  24394332.901    24394331.305    24394332.054    -6182708.663 1  -4817687.756 2
         6.500          13.900
  24822694.813    24822693.673    24822694.401     1386723.284 1   1080565.802 2
         6.500          17.800
  20278739.012    20278738.448    20278735.292   -25644371.759 7 -19982617.879 8
        44.400          51.300
  21572385.676    21572384.829    21572383.074   -19711915.556 6 -15359922.149 5
        37.500          35.700
 09  1  6  1 47 30.0000000  0  9G 9G14G19G 6G11G21G 3G22G18
  21468001.274    21468000.520    21467999.610   -18590465.029 6 -14486065.422 5
        36.200          34.700
  21376726.345    21376725.675    21376724.495   -20165453.507 6 -15713335.720 6
        38.100          38.900
  23297945.583    23297944.167    23297942.399    -9137317.341 4  -7119985.386 4
        27.400          29.700
  24898158.267    24898156.928    24898156.271     1300084.442 1   1013055.210 1
        11.000          11.000
  24505798.084    24505798.449    24505795.423    -1914218.493    -1491598.037 1
                         9.000
  24416631.337    24416630.775    24416630.077    -6065528.504    -4726378.616 2
         3.000          12.600
  24840854.428    24840853.361    24840854.251     1482156.391 1   1154929.208 2
         9.000          17.000
  20280541.140    20280540.561    20280537.400   -25634901.771 7 -19975238.664 8
        44.400          51.300
  21584922.425    21584921.519    21584919.360   -19646036.237 6 -15308587.618 5
        37.700          35.300
 09  1  6  1 48  0.0000000  0  9G 9G14G19G 6G11G21G 3G22G18
  21471972.081    21471971.499    21471970.780   -18569596.914 5 -14469804.559 5
        35.900          34.800
  21363891.154    21363890.382    21363889.365   -20232902.729 6 -15765893.544 6
        38.100          39.000
  23306968.497    23306966.810    23306965.036    -9089902.345 4  -7083038.653 4
        27.100          29.900
  24916009.749    24916009.824    24916009.172     1393906.431 2   1086163.260 1
        13.900           6.500
  24488115.818    24488115.836    24488114.960    -2007137.185    -1564002.214 1
                         9.000
  24438950.860    24438950.350    24438948.627    -5948245.687    -4634989.441 2
         3.000          12.600
  24859039.980    24859039.298    24859039.133     1577716.846 1   1229391.885 2
        11.000          15.100
  20282422.447    20282421.916    20282418.751   -25625014.920 7 -19967534.623 8
        44.300          51.200
  21597519.485    21597518.564    21597516.477   -19579837.211 6 -15257003.965 5
        37.200          35.200
 09  1  6  1 48 30.0000000  0  9G 9G14G19G 6G11G21G 3G22G18
  21476082.138    21476081.366    21476080.531   -18547999.122 5 -14452975.107 5
        35.700          34.500
  21351132.073    21351131.297    21351130.324   -20299951.842 6 -15818139.593 6
        38.100          39.200
  23316086.266    23316084.660    23316083.281    -9041988.066 4  -7045702.867 5
        27.100          30.100
  24933880.709    24933879.859    24933878.705     1487813.797 2   1159337.835
        15.100           3.000
  24470489.764    24470487.773    24470488.498    -2099766.535    -1636180.934 1
                        11.000
  24461289.947    24461288.674    24461285.770    -5830862.244    -4543521.888 2
         3.000          12.600
  24877247.879    24877247.344    24877247.719     1673401.666 2   1303951.478 2
        12.600          12.600
  20284383.297    20284382.759    20284379.572   -25614710.809 7 -19959505.445 8
        44.300          51.200
  21610177.480    21610176.660    21610174.578   -19513319.085 6 -15205171.656 5
        37.400          35.300
 09  1  6  1 49  0.0000000  0  9G 9G14G19G 6G11G21G 3G22G18
  21480329.108    21480328.418    21480327.822   -18525680.181 5 -14435583.725 5
        35.400          34.700
  21338448.089    21338447.373    21338446.310   -20366606.649 6 -15870078.395 6
        38.200          39.300
  23325297.774    23325295.662    23325293.929    -8993583.864 4  -7007985.312 4
        27.100          29.500
  24951764.455    24951763.601    24951764.369     1581796.713 2   1232571.303
        16.100           3.000
  24452917.867    24452917.512    24452917.321    -2192111.225    -1708137.807 1
                        11.000
  24483643.650    24483642.224    24483640.083    -5713387.713 1  -4451983.358 2
         6.500          13.900
  24895477.998    24895476.582    24895476.906     1769200.773 2   1378600.104 2
        12.600          12.600
  20286422.161    20286421.606    20286418.311   -25603996.756 7 -19951156.829 8
        44.300          51.100
  21622894.589    21622893.729    21622891.930   -19446489.924 6 -15153096.989 5
        37.200          35.400
 09  1  6  1 49 30.0000000  0  9G 9G14G19G 6G11G21G 3G22G18
  21484713.349    21484712.633    21484711.994   -18502641.454 5 -14417631.470 5
        35.400          34.800
  21325839.258    21325838.456    21325837.333   -20432867.119 6 -15921709.923 6
        38.200          39.300
  23334600.963    23334599.702    23334597.742    -8944692.381 4  -6969888.056 4
        27.600          29.500
  24969663.632    24969662.544    24969663.311     1675851.173 2   1305860.531 1
        13.900           6.500
  24435399.688    24435399.665    24435396.143    -2284169.738    -1779871.792 1
                         9.000
  24506015.010    24506013.940    24506013.384    -5595825.419 1  -4360376.469 2
         6.500          12.600
  24913726.516    24913726.420    24913728.629     1865110.834 1   1453335.237 1
        11.000          11.000
  20288538.749    20288538.215    20288535.072   -25592873.551 7 -19942489.396 8
        44.200          51.100
  21635670.636    21635669.819    21635667.962   -19379351.374 6 -15100781.239 5
        37.200          35.200
 09  1  6  1 50  0.0000000  0  9G 9G14G19G 6G11G21G 3G22G18
  21489233.366    21489232.550    21489231.990   -18478888.526 5 -14399122.693 5
        35.400          34.800
  21313304.759    21313304.026    21313302.797   -20498736.604 6 -15973036.789 6
        38.300          39.400
  23343996.023    23343994.374    23343992.991    -8895320.056 4  -6931416.135 4
        27.100          29.200
  24987573.837    24987573.190    24987573.550     1769970.551 2   1379200.300 1
        15.100           6.500
  24417938.205    24417938.144    24417932.172    -2375943.918    -1851384.146 1
                        11.000
  24528402.735    24528401.806    24528399.526    -5478181.824 1  -4268706.193 1
         6.500           9.000
  24931998.248    24931998.291    24931999.150     1961124.367 1   1528150.992 1
        11.000           9.000
  20290732.517    20290731.976    20290728.797   -25581345.342 7 -19933506.374 8
        44.300          51.100
  21648504.656    21648503.749    21648501.763   -19311908.325 6 -15048228.211 5
        37.100          34.800
 09  1  6  1 50 30.0000000  0  9G 9G14G19G 6G11G21G 3G22G18
  21493890.317    21493889.647    21493888.751   -18454416.649 5 -14380053.700 5
        35.600          34.600
  21300845.849    21300845.043    21300843.835   -20564208.676 6 -16024053.984 6
        38.300          39.500
  23353483.640    23353482.139    23353480.252    -8845463.504 4  -6892566.878 4
        26.800          28.600
  25005496.493    25005495.904    25005495.559     1864157.375 1   1452592.590 1
        11.000           6.500
  24400529.764    24400528.060    24400521.739    -2467425.744    -1922668.652 1
                        11.000
  24550804.173    24550804.412    24550803.425    -5360453.516 1  -4176969.956
         9.000           3.000
  24950290.055    24950289.121    24950290.026     2057244.066 1   1603049.463 1
        11.000          11.000
  20293004.515    20293003.960    20293000.650   -25569406.375 7 -19924203.280 8
        44.200          51.000
  21661397.514    21661396.648    21661394.801   -19244156.078 6 -14995434.253 5
        36.900          34.800
 09  1  6  1 51  0.0000000  0  9G 9G14G19G 6G11G21G 3G22G18
  21498684.428    21498683.797    21498682.922   -18429223.307 5 -14360422.528 5
        35.600          34.600
  21288463.459    21288462.690    21288461.517   -20629278.378 6 -16074757.641 6
        38.400          39.600
  23363063.849    23363062.039    23363060.082    -8795121.079 4  -6853339.020 4
        27.600          28.600
  25023431.463    25023431.455    25023430.933     1958412.386 1   1526038.000 1
         6.500           6.500
  24383174.181    24383172.586    24383169.751    -2558609.201    -1993720.620 1
                         9.000
  24573225.181    24573223.761    24573223.810    -5242639.504 2  -4085166.869
        13.900
  24968604.699    24968603.155    24968602.256     2153470.337 2   1678030.958 2
        13.900          12.600
  20295355.103    20295354.575    20295351.332   -25557053.592 7 -19914577.731 8
        44.100          50.900
  21674349.546    21674348.660    21674346.867   -19176092.331 6 -14942397.565 5
        36.700          34.800
 09  1  6  1 51 30.0000000  0  8G 9G14G19G 6G11G 3G22G18
  21503614.949    21503614.320    21503613.285   -18403313.505 5 -14340233.068 5
        35.500          34.400
  21276157.048    21276156.290    21276155.104   -20693948.563 6 -16125149.982 6
        38.400          39.700
  23372734.688    23372732.984    23372731.331    -8744299.012 4  -6813737.400 4
        27.400          28.400
  25041380.980    25041379.574    25041378.954     2052728.978     1599531.397 1
         3.000           9.000
  24365881.198    24365880.067    24365875.340    -2649495.899    -2064541.384 1
                         6.500
  24986930.370    24986930.967    24986931.712     2249796.533 2   1753090.310 2
        12.600          12.600
  20297783.821    20297783.309    20297780.107   -25544290.130 7 -19904632.176 8
        44.100          50.900
  21687359.953    21687359.065    21687357.327   -19107721.516 6 -14889121.608 5
        36.400          34.600
 09  1  6  1 52  0.0000000  0  9G 9G14G19G 6G21G11G 3G22G18
  21508682.483    21508681.899    21508681.234   -18376681.608 5 -14319480.939 5
        35.300          34.400
  21263927.983    21263927.323    21263926.201   -20758211.857 6 -16175225.263 6
        38.500          39.800
  23382497.729    23382496.525    23382494.673    -8692992.849 4  -6773758.587 4
        27.900          28.400
  25059341.453    25059341.701    25059340.431     2147110.632     1673075.521 1
                        11.000
  24618110.553    24618109.734    24618109.815           -.79013         -.5921
        20.500           3.000
  24348643.544    24348643.546    24348640.436    -2740076.470 1  -2135123.656 1
         6.500           9.000
  25005279.939    25005278.566    25005279.715     2346225.869 1   1828230.059 1
         6.500          11.000
  20300292.124    20300291.554    20300288.324   -25531109.628 7 -19894361.655 8
        44.100          50.800
  21700430.084    21700429.186    21700427.270   -19039038.122 6 -14835602.076 5
        36.500          34.600
 09  1  6  1 52 30.0000000  0  9G 9G14G19G 6G21G11G 3G22G18
  21513887.340    21513886.655    21513886.003   -18349330.530 5 -14298168.404 5
        35.100          34.500
  21251776.501    21251775.748    21251774.568   -20822068.845 6 -16224983.945 6
        38.500          39.900
  23392352.880    23392351.333    23392349.183    -8641206.200 4  -6733405.365 4
        27.900          28.100
  25077314.423    25077313.332    25077311.534     2241553.149     1746667.096 1
                        11.000
  24640576.294    24640575.550    24640573.770      118057.013 3     91992.477 1
        18.600           9.000
  24331465.099    24331464.216    24331462.719    -2830349.974 1  -2205466.658 1
         6.500          11.000
  25023649.740    25023649.743    25023649.655     2442754.069 1   1903446.829 2
         9.000          12.600
  20302879.312    20302878.740    20302875.437   -25517513.835 7 -19883767.531 8
        44.000          50.700
  21713559.359    21713558.437    21713556.574   -18970044.252 6 -14781840.616 5
        36.600          34.900
 09  1  6  1 53  0.0000000  0  9G 9G14G19G 6G21G11G 3G22G18
  21519226.655    21519225.921    21519224.847   -18321274.066 5 -14276306.225 5
        35.300          34.100
  21239699.991    21239699.267    21239698.126   -20885531.105 6 -16274435.049 6
        38.600          40.000
  23402295.982    23402294.340    23402292.371    -8588953.972 4  -6692689.343 4
        27.400          28.100
  25095291.760    25095288.811    25095291.335     2336041.170     1820294.115 1
                         9.000
  24663055.177    24663053.654    24663051.273      236180.140 2    184036.432 1
        13.900          11.000
  24314343.327    24314342.712    24314339.801    -2920326.840 1  -2275578.501 1
         6.500          11.000
  25042036.372    25042035.792    25042036.144     2539365.954 2   1978728.795 2
        12.600          13.900
  20305543.215    20305542.652    20305539.305   -25503515.178 7 -19872859.486 8
        44.100          50.600
  21726744.712    21726743.891    21726742.097   -18900753.509 6 -14727847.840 5
        36.200          34.700
 09  1  6  1 53 30.0000000  0  9G 9G14G19G 6G21G11G 3G22G18
  21524700.973    21524700.162    21524699.085   -18292505.541 5 -14253889.193 5
        34.900          33.900
  21227700.359    21227699.629    21227698.470   -20948590.131 6 -16323571.944 6
        38.800          40.200
  23412328.842    23412327.138    23412325.503    -8536230.681 4  -6651606.266 4
        26.800          28.600
  25113286.331    25113284.727    25113283.223     2430579.429     1893959.163 1
                         6.500
  24685546.786    24685544.463    24685542.878      354373.713 1    276135.271 2
         6.500          12.600
  24297277.365    24297278.437    24297276.332    -3009996.990    -2345451.317 1
         3.000          11.000
  25060433.997    25060436.378    25060436.536     2636065.481     2054079.098 2
         3.000          12.600
  20308285.058    20308284.504    20308281.326   -25489106.171 7 -19861631.689 8
        44.000          50.700
  21739988.209    21739987.363    21739985.425   -18831159.029 6 -14673618.375 5
        36.400          34.300
 09  1  6  1 54  0.0000000  0  9G 9G14G19G 6G21G11G 3G22G18
  21530310.977    21530310.291    21530309.421   -18263023.950 5 -14230916.517 5
        34.800          34.100
  21215778.004    21215777.242    21215776.152   -21011242.493 6 -16372391.958 6
        38.900          40.300
  23422451.099    23422449.740    23422448.201    -8483035.965 4  -6610155.846 4
        26.200          29.000
  25131281.914    25131282.553    25131277.710     2525167.668     1967665.695 1
                         9.000
  24708050.276    24708049.294    24708046.978      472638.051      368289.215 2
         3.000          15.100
  24280272.044    24280272.146    24280269.626    -3099355.459    -2415081.262 1
                         9.000
  25078855.041    25078856.231    25078851.736     2732852.727     2129497.765 1
                         9.000
  20311105.482    20311104.972    20311101.744   -25474284.435 7 -19850082.283 8
        44.000          50.600
  21753289.712    21753288.824    21753286.833   -18761259.467 6 -14619151.181 5
        36.200          34.100
 09  1  6  1 54 30.0000000  0  9G 9G14G19G 6G21G11G 3G22G18
  21536056.616    21536056.003    21536054.878   -18232831.689 5 -14207390.086 5
        35.300          34.400
  21203932.976    21203932.208    21203930.978   -21073488.845 6 -16420895.601 6
        38.900          40.500
  23432663.109    23432661.404    23432659.467    -8429373.947 4  -6568341.288 4
        26.800          28.600
  25149292.660    25149290.305    25149289.503     2619801.455     2041407.874 1
                        11.000
  24730567.850    24730567.245    24730565.288      590969.188      460495.173 2
         3.000          16.100
  24263327.562    24263327.845    24263324.755    -3188401.439    -2484467.780 1
         3.000           6.500
  25097290.125    25097289.105    25097288.129     2829723.114     2204981.007 1
         3.000           9.000
  20314004.312    20314003.796    20314000.541   -25459051.342 7 -19838212.342 8
        43.900          50.500
  21766648.715    21766647.868    21766645.981   -18691057.081 5 -14564448.027 5
        35.900          34.000
 09  1  6  1 55  0.0000000  0  9G 9G14G19G 6G21G11G 3G22G18
  21541937.773    21541937.110    21541936.208   -18201925.396 5 -14183307.258 5
        35.100          34.100
  21192166.278    21192165.397    21192164.268   -21135323.281 6 -16469078.269 6
        39.100          40.600
  23442964.677    23442962.770    23442960.422    -8375241.783 4  -6526160.381 4
        27.400          28.100
  25167306.883    25167307.101    25167306.876     2714482.774     2115185.426 2
         3.000          13.900
  24753096.962    24753097.368    24753096.314      709369.740 1    552755.254 2
         6.500          16.100
  24246443.697    24246443.940    24246441.451    -3277127.469 1  -2553604.961 2
         6.500          12.600
  25115739.633    25115738.735    25115739.375     2926678.198 1   2280530.438 1
         6.500           9.000
  20316982.178    20316981.673    20316978.483   -25443402.218 7 -19826018.219 8
        43.800          50.500
  21780066.254    21780065.358    21780063.291   -18620548.096 5 -14509505.966 5
        35.900          33.900
 09  1  6  1 55 30.0000000  0  9G 9G14G19G 6G21G11G 3G22G18
  21547954.408    21547953.597    21547952.670   -18170308.188 5 -14158670.468 5
        34.800          34.000
  21180477.700    21180476.972    21180475.815   -21196746.751 6 -16516940.706 6
        39.200          40.700
  23453354.030    23453352.153    23453350.326    -8320643.547 4  -6483616.301 4
        26.800          28.400
  25185333.431    25185332.970    25185334.019     2809207.092     2188996.593 2
                        13.900
  24775640.102    24775640.812    24775639.813      827835.495 1    645066.182 2
         9.000          17.000
  24229620.944    24229620.990    24229618.864    -3365533.008 1  -2622492.345 2
         6.500          13.900
  25134205.508    25134203.366    25134204.493     3023713.352 1   2356142.294 1
         6.500          11.000
  20320039.087    20320038.537    20320035.226   -25427338.590 7 -19813501.107 8
        43.800          50.400
  21793541.626    21793540.741    21793538.608   -18549734.865 6 -14454326.828 5
        36.000          33.800
 09  1  6  1 56  0.0000000  0  9G 9G14G19G 6G21G11G 3G22G18
  21554105.422    21554104.659    21554103.826   -18137983.783 5 -14133482.628 5
        34.800          33.900
  21168867.210    21168866.471    21168865.249   -21257760.500 6 -16564483.880 6
        39.200          40.800
  23463831.254    23463829.751    23463827.904    -8265583.666 4  -6440712.500 4
        26.200          28.100
  25203365.354    25203363.327    25203367.569     2903969.284     2262837.226 2
                        12.600
  24798196.802    24798195.954    24798194.140      946361.833 1    737424.292 2
         9.000          15.100
  24212859.669    24212859.228    24212857.567    -3453618.163 1  -2691130.096 2
         9.000          15.100
  25152686.093    25152684.268    25152682.550     3120823.163     2431812.298 1
                        11.000
  20323174.201    20323173.660    20323170.460   -25410863.136 7 -19800663.087 8
        43.800          50.300
  21807074.021    21807073.167    21807071.294   -18478620.935 5 -14398913.376 5
        35.800          34.100
 09  1  6  1 56 30.0000000  0  8G 9G14G19G21G11G 3G22G18
  21560389.490    21560388.743    21560387.824   -18104960.632 5 -14107750.301 5
        34.800          33.900
  21157333.281    21157332.590    21157331.366   -21318371.105 6 -16611712.918 6
        39.200          40.800
  23474394.785    23474393.115    23474391.422    -8210071.932 4  -6397456.611 4
        26.200          28.400
  24820761.247    24820760.592    24820759.183     1064939.606 1    829822.505 2
        11.000          13.900
  24196158.170    24196157.323    24196155.710    -3541387.319 2  -2759521.657 2
        12.600          16.100
  25171171.027    25171169.083    25171175.858     3217997.842     2507533.872 1
                         6.500
  20326386.435    20326385.893    20326382.625   -25393982.962 7 -19787509.705 8
        43.700          50.300
  21820661.949    21820661.208    21820659.451   -18407214.307 5 -14343271.855 5
        35.500          33.900
 09  1  6  1 57  0.0000000  0  8G 9G14G18G21G11G 3G22G19
  21566807.375    21566806.703    21566805.865   -18071234.479 5 -14081470.177 5
        34.600          34.000
  21145877.526    21145876.796    21145875.628   -21378571.829 6 -16658622.570 6
        39.300          41.000
  21834307.147    21834306.215    21834304.534   -18335509.827 5 -14287398.236 5
        35.300          33.800
  24843336.593    24843335.693    24843332.755     1183571.993 1    922263.264 1
        11.000           9.000
  24179519.397    24179518.095    24179516.436    -3628832.551 2  -2827660.820 2
        15.100          17.000
  25189683.513    25189678.779    25189679.278     3315240.314     2583308.100 2
                        12.600
  20329676.698    20329676.183    20329672.916   -25376692.081 7 -19774036.292 8
        43.600          50.200
  23485044.976    23485043.095    23485041.332    -8154104.762 4  -6353845.837 4
        25.900          27.600
 09  1  6  1 57 30.0000000  0  8G 9G14G18G21G11G 3G22G19
  21573361.406    21573360.782    21573359.795   -18036792.786 5 -14054632.496 5
        34.500          33.800
  21134502.573    21134501.894    21134500.662   -21438347.724 6 -16705201.186 6
        39.400          41.100
  21848011.025    21848010.112    21848008.402   -18263494.432 5 -14231282.346 5
        34.800          33.500
  24865923.521    24865923.185    24865920.828     1302270.661 2   1014755.673 1
        12.600           6.500
  24162943.010    24162942.459    24162941.431    -3715937.469 2  -2895534.799 3
        17.000          19.300
  25208201.285    25208199.351    25208199.368     3412561.485     2659142.629 2
         3.000          13.900
  20333047.868    20333047.356    20333044.121   -25358976.387 7 -19760231.853 8
        43.600          50.100
  23495784.045    23495782.446    23495780.717    -8097670.366 4  -6309870.981 4
        26.500          27.900
 09  1  6  1 58  0.0000000  0  7G 9G14G18G11G19G 3G22
  21580047.366    21580046.771    21580045.995   -18001656.934 5 -14027253.909 5
        34.500          33.500
  21123204.840    21123204.071    21123202.928   -21497717.779 6 -16751463.561 6
        39.300          41.200
  21861770.148    21861769.299    21861767.597   -18191189.213 5 -14174940.623 5
        34.800          33.200
  24146428.056    24146427.683    24146427.263    -3802719.571 2  -2963157.215 3
        17.800          20.500
  23506608.027    23506606.222    23506604.504    -8040791.006 4  -6265549.403 4
        25.300          27.900
  25226729.275    25226727.962    25226728.755     3509938.582     2735020.894 2
                        16.100
  20336495.945    20336495.404    20336492.148   -25340856.867 7 -19746112.747 8
        43.500          50.100
 09  1  6  1 58 30.0000000  0  7G 9G14G18G11G19G 3G22
  21586866.051    21586865.371    21586864.210   -17965826.219 5 -13999333.874 5
        34.600          33.600
  21111984.869    21111984.114    21111982.892   -21556679.147 6 -16797407.475 6
        39.400          41.300
  21875584.874    21875584.163    21875582.298   -18118592.755 5 -14118371.957 5
        35.100          33.100
  24129976.549    24129976.450    24129974.541    -3889174.318 2  -3030524.554 3
        17.800          19.300
  23517516.546    23517514.665    23517512.889    -7983467.137 4  -6220881.454 4
        25.900          27.600
  25245272.495    25245271.625    25245270.806     3607370.978     2810942.266 2
         3.000          17.800
  20340021.439    20340020.919    20340017.714   -25322330.241 7 -19731676.416 8
        43.400          50.100
 09  1  6  1 59  0.0000000  0  7G 9G14G18G11G19G 3G22
  21593820.084    21593819.249    21593818.390   -17929282.912 5 -13970858.573 5
        34.600          34.000
  21100846.404    21100845.673    21100844.434   -21615211.933 6 -16843017.429 6
        39.400          41.300
  21889458.381    21889457.556    21889455.890   -18045686.991 5 -14061562.273 5
        34.900          33.100
  24113591.833    24113591.150    24113588.466    -3975280.087 2  -3097619.939 2
        17.000          17.800
  23528512.895    23528511.244    23528508.848    -7925681.800 4  -6175853.904 4
        27.100          27.100
  25263824.437    25263823.708    25263823.566     3704874.525     2886919.035 2
                        15.100
  20343627.882    20343627.349    20343624.119   -25303378.676 7 -19716908.961 8
        43.400          50.000
 09  1  6  1 59 30.0000000  0  7G 9G14G18G11G19G 3G22
  21600905.534    21600904.875    21600904.171   -17892047.011 5 -13941843.589 5
        34.500          33.900
  21089786.315    21089785.514    21089784.275   -21673333.359 6 -16888306.846 6
        39.400          41.400
  21903387.012    21903386.280    21903384.714   -17972490.976 5 -14004526.419 5
        34.900          33.000
  24097268.811    24097268.694    24097266.242    -4061052.679 2  -3164455.718 3
        16.100          18.600
  23539592.697    23539591.088    23539589.012    -7867455.603 4  -6130482.824 4
        26.200          27.100
  25282388.395    25282385.517    25282385.346     3802427.765     2962934.538 1
                        11.000
  20347311.654    20347311.084    20347307.853   -25284020.150 7 -19701824.395 8
        43.400          49.900
                            4 15
RINEX FILE SPLICE                                           COMMENT
teqc  2008Oct2      WCDA Operator       20090106 03:18:26UTCCOMMENT
STATION INFORMATION EFFECTIVE FROM: 2001/01/13 18:20:00     COMMENT
                                TO: CURRENT DATE (above)    COMMENT
BIT 2 OF LLI FLAGS (+4) DATA COLLECTED UNDER 'AS' CONDITION COMMENT
L1 PHASE CENTRE 0.110m ABOVE ARP                            COMMENT
L2 PHASE CENTRE 0.128m ABOVE ARP                            COMMENT
where ARP is the Antenna Reference Point for HI measurement COMMENT
CONTACT gps@pgc.nrcan.gc.ca FOR ADDITIONAL INFORMATION      COMMENT
    P1 =    P1  TurboRogue; =    Y1  Benchmark              COMMENT
    L1 = L1(CA)                                             COMMENT
    P2 =    P2  TurboRogue; =    Y2  Benchmark              COMMENT
    L2 = L2(P2) TurboRogue; = L2(Y2) Benchmark              COMMENT
 SNR is mapped to RINEX snr flag value [0-9]                COMMENT
  L1 & L2: min(max(int(snr_dBHz/6), 0), 9)                  COMMENT
 09  1  6  2  0  0.0000000  0  7G 9G14G18G11G19G 3G22
  21608123.670    21608122.910    21608121.700   -17854117.592 5 -13912288.198 5
        34.800          33.800
  21078804.969    21078804.204    21078803.018   -21731040.064 6 -16933273.101 6
        39.300          41.500
  21917371.626    21917370.771    21917368.875   -17899003.058 5 -13947263.113 5
        34.700          32.700
  24081010.453    24081010.749    24081009.341    -4146487.192 2  -3231028.074 3
        15.100          18.600
  23550756.771    23550755.212    23550752.855    -7808788.440 4  -6084768.163 4
        24.900          26.500
  25300961.313    25300961.393    25300961.359     3900031.291     3038989.153 2
                        12.600
  20351073.516    20351072.946    20351069.631   -25264251.750 7 -19686420.446 8
        43.300          49.800
 09  1  6  2  0 30.0000000  0  7G 9G14G18G11G19G 3G22
  21615473.874    21615473.141    21615472.652   -17815489.632 5 -13882188.484 5
        34.300          33.600
  21067904.061    21067903.244    21067902.087   -21788325.071 6 -16977910.761 6
        39.300          41.600
  21931412.399    21931411.659    21931409.601   -17825218.123 5 -13889768.358 5
        34.800          32.600
  24064819.600    24064819.287    24064817.487    -4231574.940 2  -3297330.196 3
        15.100          18.600
  23562005.259    23562003.430    23562001.941    -7749676.518 4  -6038706.915 4
        24.900          27.600
  25319544.415    25319543.334    25319546.013     3997687.678     3115084.984 2
                        12.600
  20354914.319    20354913.842    20354910.606   -25244067.313 7 -19670692.313 8
        43.300          49.800
 09  1  6  2  1  0.0000000  0  6G 9G14G18G11G19G22
  21622953.924    21622953.274    21622952.645   -17776181.583 5 -13851558.838 5
        34.000          33.500
  21057080.194    21057079.465    21057078.419   -21845203.973 6 -17022231.978 6
        39.200          41.800
  21945506.512    21945505.677    21945503.732   -17751153.085 5 -13832055.349 5
        34.500          32.300
  24048691.229    24048690.468    24048688.918    -4316330.389 2  -3363373.388 3
        16.100          18.600
  23573334.601    23573333.186    23573331.548    -7690138.575 4  -5992313.709 4
        24.600          27.600
  20358831.300    20358830.736    20358827.523   -25223484.022 7 -19654653.384 8
        43.200          49.800
 09  1  6  2  1 30.0000000  0  6G 9G14G18G11G19G22
  21630566.118    21630565.399    21630564.309   -17736181.227 5 -13820389.733 5
        34.500          33.400
  21046336.765    21046335.923    21046334.718   -21901662.076 6 -17066225.301 6
        39.300          41.800
  21959656.406    21959655.429    21959653.514   -17676795.365 5 -13774114.269 5
        34.300          32.100
  24032629.177    24032628.588    24032626.878    -4400736.747 2  -3429144.566 3
        17.800          18.600
  23584747.231    23584745.882    23584744.189    -7630163.245 3  -5945579.684 4
        23.800          27.400
  20362826.683    20362826.158    20362822.962   -25202487.582 7 -19638292.521 8
        43.100          49.700
 09  1  6  2  2  0.0000000  0  6G 9G14G18G11G19G22
  21638311.988    21638311.403    21638310.769   -17695474.855 5 -13788670.481 5
        34.300          33.500
  21035676.153    21035675.409    21035674.284   -21957683.382 6 -17109878.263 7
        39.200          42.000
  21973864.837    21973863.862    21973861.814   -17602130.256 5 -13715933.673 5
        34.500          31.800
  24016637.131    24016636.541    24016634.923    -4484776.296 2  -3494629.911 3
        17.000          19.300
  23596246.185    23596244.601    23596242.986    -7569737.586 4  -5898494.762 4
        24.200          27.400
  20366903.842    20366903.258    20366899.961   -25181062.661 7 -19621597.775 8
        43.100          49.600
 09  1  6  2  2 30.0000000  0  6G 9G14G18G11G19G22
  21646189.008    21646188.315    21646187.671   -17654080.984 5 -13756415.518 5
        33.900          33.400
  21025095.771    21025095.081    21025093.933   -22013283.623 6 -17153203.121 7
        39.200          42.100
  21988128.170    21988127.226    21988124.928   -17527175.833 5 -13657527.628 5
        34.100          31.600
  24000713.311    24000712.364    24000709.536    -4568464.091 2  -3559841.182 3
        17.800          19.300
  23607826.776    23607824.895    23607823.816    -7508881.018 3  -5851074.055 4
        23.800          27.100
  20371059.052    20371058.497    20371055.291   -25159226.756 7 -19604582.783 8
        43.000          49.600
 09  1  6  2  3  0.0000000  0  6G 9G14G18G11G19G22
  21654194.627    21654193.849    21654193.201   -17612010.829 5 -13723633.578 5
        33.800          33.200
  21014593.869    21014593.093    21014591.852   -22068471.922 6 -17196206.985 7
        39.100          42.200
  22002444.398    22002443.463    22002441.541   -17451942.528 5 -13598904.280 5
        33.800          31.800
  23984852.653    23984851.836    23984849.825    -4651806.709 2  -3624783.474 3
        17.800          19.900
  23619487.518    23619485.613    23619483.785    -7447605.329 3  -5803326.764 4
        23.800          27.100
  20375290.585    20375290.109    20375286.991   -25136989.297 7 -19587254.890 8
        42.900          49.500
 09  1  6  2  3 30.0000000  0  6G 9G14G18G11G19G22
  21662329.011    21662328.348    21662327.718   -17569264.266 5 -13690324.569 5
        33.800          33.200
  21004170.970    21004170.098    21004168.837   -22123245.519 6 -17238887.703 7
        39.200          42.400
  22016814.141    22016813.263    22016811.413   -17376429.019 5 -13540062.595 5
        33.800          31.600
  23969059.636    23969059.320    23969056.445    -4734799.903 3  -3689453.481 3
        18.600          18.600
  23631227.554    23631225.677    23631224.239    -7385911.263 3  -5755253.485 4
        23.800          27.400
  20379599.002    20379598.457    20379595.349   -25114348.458 7 -19569612.676 8
        42.800          49.500
 09  1  6  2  4  0.0000000  0  6G 9G14G18G11G19G22
  21670594.352    21670593.666    21670592.807   -17525829.539 5 -13656479.326 5
        33.800          33.100
  20993829.331    20993828.611    20993827.317   -22177590.210 6 -17281234.210 7
        39.100          42.400
  22031239.429    22031238.590    22031236.555   -17300623.073 5 -13480993.027 5
        33.800          31.300
  23953334.923    23953334.617    23953333.198    -4817428.064 2  -3753839.067 3
        17.000          19.900
  23643048.648    23643046.945    23643045.657    -7323787.900 3  -5706845.688 4
        23.800          26.500
  20383986.728    20383986.143    20383983.000   -25091291.097 7 -19551645.901 8
        42.700          49.400
 09  1  6  2  4 30.0000000  0  6G 9G18G11G19G22G14
  21678990.176    21678989.513    21678988.775   -17481709.715 5 -13622100.241 5
        33.600          33.200
  22045720.156    22045719.164    22045717.218   -17224526.884 5 -13421697.297 5
        33.200          31.100
  23937681.776    23937681.274    23937679.314    -4899689.877 2  -3817939.192 3
        17.800          19.900
  23654951.766    23654950.310    23654947.899    -7261238.602 4  -5658105.975 4
        24.600          25.600
  20388453.506    20388452.987    20388449.777   -25067818.114 7 -19533355.264 8
        42.800          49.400
  20983569.404    20983568.621    20983567.432   -22231506.395 6 -17323246.817 7
        39.100          42.600
 09  1  6  2  5  0.0000000  0  6G 9G18G11G19G22G14
  21687514.032    21687513.326    21687512.720   -17436916.460 5 -13587196.408 5
        33.400          33.500
  22060254.046    22060253.118    22060251.184   -17148151.071 5 -13362183.686 5
        33.100          31.300
  23922096.292    23922095.836    23922093.716    -4981592.906 2  -3881759.712 3
        16.100          21.100
  23666933.116    23666931.450    23666929.473    -7198275.815 4  -5609044.086 4
        24.200          24.900
  20392997.348    20392996.810    20392993.715   -25043939.843 7 -19514748.820 8
        42.700          49.400
  20973389.211    20973388.453    20973387.395   -22285002.985 6 -17364932.462 7
        39.100          42.700
 09  1  6  2  5 30.0000000  0  6G 9G18G11G19G22G14
  21696166.739    21696165.954    21696165.451   -17391445.789 5 -13551764.720 5
        33.200          33.200
  22074841.835    22074840.952    22074839.172   -17071491.081 5 -13302448.631 5
        33.000          31.300
  23906578.684    23906578.562    23906577.905    -5063129.038 2  -3945294.356 3
        15.100          21.600
  23678994.841    23678992.633    23678990.655    -7134896.284 4  -5559657.429 4
        24.600          24.900
  20397619.410    20397618.895    20397615.811   -25019650.531 7 -19495822.083 8
        42.600          49.300
  20963290.293    20963289.486    20963288.322   -22338073.730 6 -17406286.281 7
        39.100          42.700
 09  1  6  2  6  0.0000000  0  6G 9G18G11G19G22G14
  21704947.731    21704947.061    21704946.280   -17345301.923 5 -13515808.457 5
        33.500          33.200
  22089483.298    22089482.411    22089480.582   -16994549.508 5 -13242494.162 5
        33.000          31.300
  23891134.087    23891133.193    23891131.935    -5144297.669 2  -4008542.638 3
        12.600          21.600
  23691133.185    23691131.465    23691129.358    -7071104.882 4  -5509949.840 4
        24.600          25.300
  20402319.262    20402318.714    20402315.678   -24994952.532 7 -19476576.888 8
        42.500          49.200
  20953272.060    20953271.319    20953270.060   -22390719.942 6 -17447309.296 7
        39.100          42.900
 09  1  6  2  6 30.0000000  0  6G 9G18G11G19G22G14
  21713857.106    21713856.347    21713855.599   -17298483.329 5 -13479326.439 5
        33.600          33.100
  22104178.860    22104177.966    22104176.081   -16917324.938 5 -13182319.181 5
        33.000          31.300
  23875758.884    23875758.265    23875757.100    -5225094.224 2  -4071500.986 3
        12.600          21.600
  23703350.714    23703349.381    23703347.381    -7006901.193 4  -5459920.999 4
        24.600          25.900
  20407097.478    20407096.926    20407093.828   -24969843.105 7 -19457011.096 8
        42.500          49.200
  20943335.322    20943334.640    20943333.338   -22442937.914 6 -17487998.623 7
        39.300          43.000
 09  1  6  2  7  0.0000000  0  6G 9G18G11G19G22G14
  21722893.621    21722892.725    21722891.761   -17250998.133 5 -13442324.989 5
        33.500          33.100
  22118926.981    22118926.027    22118923.961   -16839823.707 5 -13121928.617 5
        32.800          31.100
  23860453.829    23860453.726    23860451.807    -5305521.681 2  -4134171.712 3
        12.600          20.500
  23715645.056    23715643.065    23715641.696    -6942293.551 4  -5409577.382 4
        24.200          25.900
  20411952.862    20411952.338    20411949.204   -24944327.993 7 -19437129.192 8
        42.500          49.100
  20933479.067    20933478.288    20933476.957   -22494733.075 6 -17528358.483 7
        39.300          43.000
 09  1  6  2  7 30.0000000  0  6G 9G18G11G19G22G14
  21732057.492    21732056.735    21732056.060   -17202840.022 5 -13404799.186 5
        33.200          33.200
  22133728.898    22133727.984    22133726.081   -16762038.351 5 -13061316.653 5
        32.700          31.000
  23845221.370    23845220.838    23845219.219    -5385569.369 2  -4196546.517 3
        13.900          19.900
  23728017.564    23728015.782    23728014.051    -6877275.823 3  -5358914.214 4
        22.600          25.900
  20416886.901    20416886.404    20416883.282   -24918399.176 7 -19416924.917 8
        42.500          49.100
  20923704.976    20923704.240    20923702.878   -22546095.964 6 -17568381.507 7
        39.300          43.000
 09  1  6  2  8  0.0000000  0  6G 9G18G11G19G22G14
  21741348.391    21741347.717    21741347.178   -17154013.655 5 -13366752.672 5
        32.800          32.800
  22148584.373    22148583.473    22148581.600   -16683972.601 5 -13000486.202 5
        32.600          31.000
  23830061.721    23830061.335    23830058.729    -5465237.604 2  -4258625.654 3
        16.100          19.300
  23740466.845    23740464.708    23740463.641    -6811853.475 3  -5307935.772 4
        22.100          26.500
  20421899.208    20421898.668    20421895.482   -24892059.528 7 -19396400.513 8
        42.400          48.900
  20914012.732    20914012.013    20914010.686   -22597028.659 6 -17608069.315 7
        39.400          43.100
 09  1  6  2  8 30.0000000  0  6G 9G18G11G19G22G14
  21750766.979    21750766.230    21750765.393   -17104520.308 5 -13328186.425 5
        33.100          32.300
  22163493.065    22163492.109    22163490.231   -16605627.126 5 -12939437.784 5
        32.700          30.600
  23814975.532    23814974.711    23814971.134    -5544523.735 2  -4320407.023 3
        17.000          19.300
  23752993.205    23752991.290    23752989.538    -6746028.690 3  -5256643.731 4
        22.600          26.500
  20426989.679    20426989.129    20426986.059   -24865308.803 7 -19375555.793 8
        42.400          48.900
  20904402.794    20904402.027    20904400.626   -22647530.075 6 -17647421.066 7
        39.500          43.300
 09  1  6  2  9  0.0000000  0  6G 9G18G11G19G22G14
  21760311.543    21760310.865    21760309.787   -17054363.204 5 -13289102.965 5
        33.000          31.800
  22178454.353    22178453.447    22178451.863   -16527003.889 5 -12878172.930 5
        31.800          30.600
  23799959.229    23799959.191    23799956.251    -5623426.515 2  -4381889.693 3
        16.100          18.600
  23765595.361    23765593.515    23765591.659    -6679805.135 3  -5205040.966 4
        22.600          26.800
  20432158.211    20432157.676    20432154.513   -24838148.191 7 -19354391.679 8
        42.300          48.800
  20894874.638    20894873.866    20894872.511   -22697600.894 6 -17686437.281 7
        39.500          43.400
 09  1  6  2  9 30.0000000  0  6G 9G18G11G19G22G14
  21769979.769    21769979.127    21769978.232   -17003556.272 5 -13249513.152 5
        33.000          32.000
  22193466.216    22193465.402    22193463.656   -16448115.514 5 -12816701.480 5
        31.600          30.200
  23785015.326    23785014.940    23785013.063    -5701955.122 2  -4443080.791 2
        17.000          17.800
  23778270.367    23778268.522    23778266.772    -6613196.686 3  -5153138.288 4
        22.600          27.100
  20437402.347    20437401.851    20437398.664   -24810589.917 7 -19332917.702 8
        42.300          48.700
  20885426.463    20885425.699    20885424.280   -22747251.634 6 -17725126.168 7
        39.600          43.600
 09  1  6  2 10  0.0000000  0  6G 9G18G11G19G22G14
  21779773.209    21779772.507    21779771.714   -16952091.274 5 -13209410.556 5
        32.700          32.000
  22208530.527    22208529.572    22208527.885   -16368952.699 5 -12755016.168 5
        31.800          30.800
  23770146.178    23770145.329    23770142.927    -5780097.056 3  -4503970.599 2
        18.600          17.000
  23791019.771    23791018.024    23791016.228    -6546196.428 3  -5100930.325 4
        23.400          26.500
  20442724.171    20442723.651    20442720.527   -24782623.376 7 -19311125.591 8
        42.300          48.700
  20876060.071    20876059.243    20876057.948   -22796471.930 6 -17763479.640 7
        39.500          43.600
