     2.11           OBSERVATION DATA    G (GPS)             RINEX VERSION / TYPE
teqc  2008Oct2      WCDA Operator       20090112 00:18:58UTCPGM / RUN BY / DATE
Solaris x86 5.10|AMD64|cc SC5.8 -xarch=amd64|=+|=+          COMMENT
teqc  2008Oct2      WCDA Operator       20090111 01:18:36UTCCOMMENT
flin  WCDA-ACP   965000   CFS Flin Flon SASK Canada         MARKER NAME
40135M001                                                   MARKER NUMBER
PGC-WCDA            GEOL. SURV. CANADA                      OBSERVER / AGENCY
1115                AOA BENCHMARK ACT   3.3.32.4            REC # / TYPE / VERS
231                 AOAD/M_T        SCIS                    ANT # / TYPE
  -766174.4630 -3611375.3160  5184056.2210                  APPROX POSITION XYZ
        0.1500        0.0000        0.0000                  ANTENNA: DELTA H/E/N
     1     1                                                WAVELENGTH FACT L1/2
     7    C1    P1    P2    L1    L2    S1    S2            # / TYPES OF OBSERV
STATION INFORMATION EFFECTIVE FROM: 2001/01/13 18:20:00     COMMENT
                                TO: CURRENT DATE (above)    COMMENT
BIT 2 OF LLI FLAGS (+4) DATA COLLECTED UNDER 'AS' CONDITION COMMENT
L1 PHASE CENTRE 0.110m ABOVE ARP                            COMMENT
L2 PHASE CENTRE 0.128m ABOVE ARP                            COMMENT
where ARP is the Antenna Reference Point for HI measurement COMMENT
CONTACT gps@pgc.nrcan.gc.ca FOR ADDITIONAL INFORMATION      COMMENT
    P1 =    P1  TurboRogue; =    Y1  Benchmark              COMMENT
    L1 = L1(CA)                                             COMMENT
    P2 =    P2  TurboRogue; =    Y2  Benchmark              COMMENT
    L2 = L2(P2) TurboRogue; = L2(Y2) Benchmark              COMMENT
 SNR is mapped to RINEX snr flag value [0-9]                COMMENT
  L1 & L2: min(max(int(snr_dBHz/6), 0), 9)                  COMMENT
  2009     1    11     0     0    0.0000000     GPS         TIME OF FIRST OBS
                                                            END OF HEADER
 09  1 11  0  0  0.0000000  0 11G22G26G19G15G14G21G24G 3G18G 6G 9
  21093362.240    21093361.736    21093358.878   -21373080.467 6 -16654340.512 7
        41.300          42.400
  24034439.167    24034438.617    24034437.788    -1562233.145 1  -1217316.377 2
        11.000          16.100
  23361418.876    23361417.192    23361415.121    -8795748.776 4  -6853827.949 4
        27.400          27.100
  22644265.927    22644265.604    22644264.197   -11609389.700 5  -9046267.581 5
        32.100          34.700
  24493619.834    24493619.021    24493618.342    -3788465.203 2  -2952048.962 2
        13.900          15.100
  21188667.652    21188666.844    21188665.053   -23005687.107 6 -17926501.091 6
        39.100          36.000
  24972956.205    24972955.514    24972957.251     1116300.215      869846.676 1
         3.000           9.000
  22521191.739    22521190.867    22521190.776   -10343933.687 5  -8060204.318 5
        30.100          30.200
  20409778.354    20409777.493    20409776.347   -25919278.194 6 -20196829.689 7
        38.900          47.500
  22502195.330    22502194.787    22502194.712   -11421189.673 5  -8899624.087 5
        31.100          31.600
  22786207.091    22786206.589    22786205.941   -10856831.025 4  -8459863.893 4
        26.200          26.500
 09  1 11  0  0 30.0000000  0 11G22G26G19G15G14G21G24G 3G18G 6G 9
  21082701.362    21082700.859    21082697.965   -21429103.634 6 -16697994.926 7
        41.300          42.500
  24057179.063    24057178.599    24057176.349    -1442737.590 2  -1124202.948 2
        12.600          16.100
  23351697.204    23351695.783    23351693.691    -8846833.604 4  -6893634.298 4
        26.500          26.800
  22660324.223    22660324.085    22660322.700   -11525001.537 5  -8980510.570 5
        32.300          34.500
  24472054.081    24472052.711    24472052.589    -3901792.907 2  -3040356.244 2
        13.900          16.100
  21201610.820    21201610.012    21201608.318   -22937669.791 6 -17873500.591 5
        38.900          35.900
  24993477.006    24993477.068    24993477.485     1224136.576      953874.983 1
                         9.000
  22527112.521    22527111.586    22527111.675   -10312820.075 5  -8035959.941 5
        30.200          30.200
  20410219.821    20410218.989    20410216.674   -25916958.187 6 -20195021.888 7
        38.900          47.600
  22509448.598    22509448.053    22509447.796   -11383073.506 5  -8869923.170 5
        30.800          31.600
  22768934.806    22768934.057    22768933.346   -10947599.323 4  -8530592.431 4
        25.900          26.800
 09  1 11  0  1  0.0000000  0 11G22G26G19G15G14G21G24G 3G18G 6G 9
  21072101.821    21072101.286    21072098.448   -21484803.941 6 -16741397.758 7
        41.300          42.500
  24079952.099    24079951.153    24079949.748    -1323065.258 2  -1030951.755 2
        13.900          16.100
  23342074.218    23342073.167    23342071.467    -8897400.482 4  -6933037.047 4
        26.500          27.100
  22676445.184    22676445.082    22676443.479   -11440285.277 5  -8914497.890 5
        32.000          34.100
  24450508.344    24450507.427    24450507.735    -4015012.306 2  -3128579.117 2
        13.900          17.800
  21214637.466    21214636.548    21214634.905   -22869215.087 6 -17820159.272 5
        38.900          35.900
  25014010.087    25014009.882    25014011.623     1332038.256     1037954.168 2
         3.000          12.600
  22533142.156    22533141.456    22533141.541   -10281133.215 5  -8011268.883 5
        30.600          30.200
  20410735.902    20410735.022    20410733.948   -25914245.884 6 -20192908.401 7
        38.800          47.400
  22516800.424    22516799.916    22516799.940   -11344438.429 5  -8839817.923 5
        30.600          31.600
  22751743.083    22751742.439    22751742.009   -11037940.847 4  -8600988.399 4
        25.300          27.400
 09  1 11  0  1 30.0000000  0 11G22G26G19G15G14G21G24G 3G18G 6G 9
  21061566.387    21061565.869    21061562.920   -21540168.490 6 -16784538.960 7
        41.400          42.600
  24102759.737    24102759.456    24102757.591    -1203206.555 2   -937555.343 2
        15.100          16.100
  23332553.327    23332551.887    23332550.361    -8947435.184 4  -6972025.112 4
        26.500          27.900
  22692630.585    22692630.385    22692628.620   -11355230.470 5  -8848221.416 5
        31.800          33.900
  24428987.390    24428986.327    24428986.151    -4128108.783 2  -3216706.214 3
        12.600          18.600
  21227749.348    21227748.470    21227746.820   -22800311.685 6 -17766468.320 5
        38.900          35.800
  25034557.938    25034556.506    25034558.885     1440016.240     1122092.809 1
         3.000          11.000
  22539283.436    22539282.502    22539282.321   -10248861.822 5  -7986122.340 4
        30.200          29.700
  20411328.884    20411328.041    20411325.767   -25911129.363 6 -20190479.940 7
        38.800          47.300
  22524253.379    22524252.738    22524252.830   -11305273.380 5  -8809299.705 5
        30.400          31.600
  22734635.805    22734635.170    22734634.872   -11127840.033 4  -8671039.693 4
        25.300          27.600
 09  1 11  0  2  0.0000000  0 11G22G26G19G15G14G21G24G 3G18G 6G 9
  21051093.092    21051092.515    21051089.632   -21595206.632 6 -16827425.821 7
        41.400          42.800
  24125600.920    24125600.986    24125599.041    -1083175.588 2   -844024.686 2
        13.900          17.800
  23323131.359    23323129.706    23323128.316    -8996947.183 4  -7010605.870 4
        26.200          27.600
  22708877.661    22708877.551    22708875.884   -11269850.789 5  -8781691.793 5
        31.600          33.600
  24407488.315    24407487.373    24407486.341    -4241091.598 2  -3304744.738 3
        13.900          18.600
  21240944.209    21240943.357    21240941.702   -22730971.903 6 -17712437.324 5
        38.700          35.700
  25055117.802    25055116.198    25055116.365     1548057.886     1206281.058 1
         3.000           9.000
  22545533.339    22545532.464    22545531.967   -10216018.878 5  -7960530.435 4
        30.100          29.500
  20411996.863    20411995.970    20411994.805   -25907619.594 6 -20187745.050 7
        38.900          47.400
  22531804.813    22531804.089    22531803.913   -11265591.323 5  -8778378.623 5
        30.400          31.500
  22717611.445    22717610.511    22717610.420   -11217304.365 4  -8740752.130 4
        24.900          27.900
 09  1 11  0  2 30.0000000  0 11G22G26G19G15G14G21G24G 3G18G 6G 9
  21040680.499    21040679.931    21040676.988   -21649925.387 6 -16870063.803 7
        41.400          42.800
  24148473.231    24148472.596    24148471.702     -962982.700 1   -750367.885 3
        11.000          18.600
  23313807.996    23313806.311    23313804.638    -9045942.147 4  -7048783.746 4
        26.200          27.600
  22725184.809    22725184.830    22725183.321   -11184155.941 5  -8714916.587 5
        31.600          33.600
  24386007.478    24386007.472    24386007.248    -4353966.063 2  -3392698.851 3
        15.100          19.300
  21254220.336    21254219.531    21254218.044   -22661204.217 6 -17658072.902 5
        38.500          35.500
  25075687.749    25075686.698    25075687.803     1656154.106     1290511.863 1
         3.000           9.000
  22551890.107    22551889.360    22551888.993   -10182613.174 5  -7934500.014 4
        30.400          29.500
  20412738.148    20412737.337    20412735.040   -25903723.947 6 -20184709.482 7
        38.900          47.600
  22539452.701    22539452.134    22539451.780   -11225400.933 5  -8747061.437 5
        30.600          31.300
  22700668.524    22700668.083    22700667.797   -11306337.484 4  -8810128.562 4
        25.300          28.100
 09  1 11  0  3  0.0000000  0 11G22G21G26G19G15G14G24G 3G18G 6G 9
  21030329.523    21030329.040    21030325.970   -21704319.537 6 -16912448.857 7
        41.600          42.700
  21267578.974    21267578.051    21267576.495   -22591005.869 6 -17603372.897 5
        38.600          35.600
  24171376.763    24171376.330    24171374.689     -842626.307 1   -656583.701 2
        11.000          17.800
  23304584.071    23304582.377    23304580.747    -9094414.285 4  -7086554.224 4
        27.100          27.600
  22741552.563    22741552.383    22741550.602   -11098144.260 5  -8647894.490 5
        31.800          33.400
  24364550.251    24364549.612    24364549.695    -4466725.854 2  -3480563.641 3
        15.100          19.300
  25096268.091    25096268.767    25096268.451     1764307.696     1374787.369 1
                         6.500
  22558354.546    22558353.695    22558353.507   -10148641.994 5  -7908028.960 4
        30.100          29.700
  20413553.641    20413552.781    20413551.747   -25899438.307 6 -20181370.015 7
        38.900          47.400
  22547198.033    22547197.363    22547197.124   -11184699.743 5  -8715346.233 5
        30.800          31.500
  22683809.829    22683809.066    22683808.975   -11394932.022 4  -8879163.237 4
        26.200          28.600
 09  1 11  0  3 30.0000000  0 11G22G26G19G15G14G21G24G 3G18G 6G 9
  21020041.996    21020041.492    21020038.623   -21758380.422 6 -16954574.222 7
        41.500          42.800
  24194311.311    24194310.864    24194309.543     -722101.406 2   -562668.192 2
        12.600          17.000
  23295461.767    23295460.167    23295458.342    -9142354.131 4  -7123909.945 4
        27.400          28.400
  22757981.408    22757981.213    22757979.421   -11011809.977 5  -8580621.014 5
        31.100          33.000
  24343116.489    24343115.723    24343115.502    -4579360.942 2  -3568331.236 3
        13.900          19.300
  21281020.457    21281019.548    21281017.907   -22520370.199 6 -17548332.117 5
        38.500          35.300
  25116863.654    25116861.802    25116860.905     1872525.473     1459112.856 1
                         6.500
  22564927.641    22564926.813    22564926.942   -10114099.073 4  -7881112.412 4
        29.700          29.700
  20414445.032    20414444.154    20414441.949   -25894754.699 6 -20177720.450 7
        38.900          47.800
  22555041.499    22555040.820    22555040.843   -11143481.354 5  -8683228.001 5
        30.600          31.800
  22667036.286    22667035.683    22667035.628   -11483076.317 4  -8947847.075 4
        26.200          29.000
 09  1 11  0  4  0.0000000  0 11G22G26G19G15G14G21G24G 3G18G 6G 9
  21009817.830    21009817.352    21009814.439   -21812108.810 6 -16996440.486 7
        41.600          43.000
  24217277.200    24217276.148    24217276.419     -601412.375 1   -468624.795 2
        11.000          16.100
  23286439.538    23286437.798    23286437.088    -9189761.354 4  -7160850.608 4
        26.800          29.000
  22774470.680    22774470.458    22774469.055   -10925157.049 5  -8513099.250 5
        30.800          33.200
  24321707.001    24321705.624    24321705.414    -4691871.060 2  -3656001.441 3
        13.900          19.300
  21294544.680    21294543.780    21294542.207   -22449299.683 6 -17492952.504 5
        38.400          35.100
  25137464.678    25137465.747    25137464.283     1980804.339     1543485.055
                         3.000
  22571609.604    22571608.661    22571608.819   -10078987.317 4  -7853752.595 5
        29.200          30.100
  20415411.708    20415410.778    20415409.699   -25889674.793 6 -20173762.075 7
        39.100          47.800
  22562982.821    22562982.261    22562982.211   -11101749.052 5  -8650709.329 5
        30.400          31.800
  22650348.973    22650348.063    22650348.274   -11570768.609 4  -9016178.700 4
        26.200          29.000
 09  1 11  0  4 30.0000000  0 10G22G21G26G19G15G14G 3G18G 6G 9
  20999657.388    20999656.855    20999653.700   -21865503.412 6 -17038046.661 7
        41.800          43.000
  21308151.502    21308150.662    21308149.055   -22377795.559 6 -17437235.014 5
        38.400          34.900
  24240274.489    24240274.237    24240273.390     -480561.554 1   -374455.324 2
        11.000          16.100
  23277520.464    23277518.809    23277517.626    -9236633.657 4  -7197374.465 4
        27.600          29.500
  22791020.160    22791020.165    22791018.930   -10838187.106 5  -8445330.452 5
        30.600          33.400
  24300321.931    24300320.789    24300319.508    -4804253.533 2  -3743572.169 3
        15.100          18.600
  22578398.771    22578397.951    22578398.035   -10043307.740 4  -7825950.328 4
        29.200          29.900
  20416453.843    20416452.951    20416450.824   -25884197.742 6 -20169494.242 7
        39.000          47.600
  22571021.904    22571021.319    22571020.981   -11059503.805 5  -8617790.965 5
        30.400          31.300
  22633749.056    22633748.249    22633747.804   -11658004.854 4  -9084154.973 4
        27.100          28.800
 09  1 11  0  5  0.0000000  0 10G21G22G26G19G15G14G 3G18G 6G 9
  21321838.943    21321838.132    21321836.645   -22305866.367 6 -17381186.300 5
        38.000          34.800
  20989558.739    20989558.251    20989555.288   -21918570.952 6 -17079397.983 7
        41.500          43.000
  24263300.874    24263300.317    24263299.536     -359558.940 2   -280167.578 2
        12.600          16.100
  23268701.751    23268700.340    23268698.972    -9282976.733 4  -7233485.943 5
        28.400          30.100
  22807628.622    22807628.563    22807627.202   -10750909.809 5  -8377322.166 5
        30.600          33.400
  24278959.458    24278958.552    24278957.039    -4916513.714 2  -3831047.599 3
        16.100          19.300
  22585294.386    22585293.765    22585293.959   -10007069.375 4  -7797712.639 4
        29.200          29.900
  20417570.194    20417569.333    20417568.240   -25878331.417 6 -20164923.075 7
        39.100          47.700
  22579156.814    22579156.252    22579156.008   -11016754.434 5  -8584479.765 5
        30.400          31.500
  22617234.131    22617233.477    22617233.369   -11744788.891 4  -9151778.873 4
        27.100          29.500
 09  1 11  0  5 30.0000000  0 10G21G22G26G19G15G14G 3G18G 6G 9
  21335608.675    21335607.901    21335606.390   -22233506.663 6 -17324802.121 5
        38.100          34.800
  20979523.968    20979523.490    20979520.610   -21971303.297 6 -17120488.111 7
        41.400          43.100
  24286356.699    24286355.424    24286355.060     -238400.814 1   -185758.641 2
         9.000          17.000
  23259985.638    23259983.697    23259982.285    -9328782.640 4  -7269178.845 4
        27.600          29.900
  22824296.487    22824296.184    22824294.975   -10663321.174 5  -8309071.276 5
        30.800          33.400
  24257621.979    24257621.246    24257619.239    -5028643.156 2  -3918421.149 3
        16.100          18.600
  22592297.811    22592296.988    22592297.423    -9970267.355 4  -7769035.734 4
        29.000          29.900
  20418761.830    20418761.001    20418758.761   -25872069.203 6 -20160043.424 7
        39.100          47.900
  22587389.037    22587388.330    22587387.959   -10973496.260 5  -8550772.102 5
        31.000          31.600
  22600807.824    22600807.222    22600806.990   -11831110.254 4  -9219042.238 4
        27.400          29.500
 09  1 11  0  6  0.0000000  0 10G21G22G26G19G15G14G 3G18G 6G 9
  21349460.055    21349459.155    21349457.569   -22160717.957 6 -17268083.659 5
        38.000          34.600
  20969553.381    20969552.923    20969549.934   -22023699.960 6 -17161316.674 7
        41.600          43.200
  24309440.881    24309440.533    24309439.422     -117090.038 1    -91230.776 3
         9.000          18.600
  23251371.610    23251369.890    23251367.906    -9374049.588 4  -7304451.766 4
        28.400          29.500
  22841022.837    22841022.671    22841021.173   -10575423.423 5  -8240579.522 5
        30.800          32.700
  24236308.628    24236308.140    24236307.306    -5140639.635 2  -4005691.096 2
        15.100          17.800
  22599408.158    22599407.263    22599407.514    -9932902.850 4  -7739920.536 4
        28.600          29.900
  20420028.814    20420027.935    20420026.900   -25865411.216 6 -20154855.378 7
        39.200          47.800
  22595716.848    22595716.257    22595716.160   -10929731.045 5  -8516669.342 5
        30.600          31.500
  22584470.208    22584469.467    22584469.051   -11916965.755 4  -9285942.604 4
        27.100          29.200
 09  1 11  0  6 30.0000000  0 10G21G22G26G19G15G14G 3G18G 6G 9
  21363392.003    21363391.072    21363389.258   -22087505.867 6 -17211035.287 5
        37.900          34.300
  20959645.749    20959645.224    20959642.294   -22075765.044 6 -17201886.866 7
        41.600          43.300
  24332552.798    24332552.099    24332551.676        4366.345 1      3410.541 3
         6.500          19.300
  23242859.604    23242857.839    23242855.882    -9418780.282 4  -7339306.834 4
        28.800          29.900
  22857806.673    22857806.544    22857804.931   -10487223.538 5  -8171852.326 5
        30.200          32.100
  24215021.379    24215021.103    24215020.071    -5252505.312 2  -4092859.105 2
        13.900          17.800
  22606624.398    22606623.527    22606623.611    -9894982.022 4  -7710371.851 5
        28.800          30.200
  20421370.272    20421369.432    20421367.338   -25858361.650 6 -20149362.206 7
        39.300          47.900
  22604140.601    22604139.969    22604139.936   -10885464.559 5  -8482175.970 5
        30.400          31.500
  22568220.934    22568220.144    22568219.527   -12002356.912 4  -9352481.146 4
        27.900          28.800
 09  1 11  0  7  0.0000000  0 11G21G22G26G19G15G14G24G 3G18G 6G 9
  21377403.241    21377402.477    21377400.596   -22013875.491 6 -17153660.975 5
        37.900          33.800
  20949800.754    20949800.243    20949797.309   -22127500.729 6 -17242200.384 7
        41.500          43.300
  24355691.523    24355691.006    24355690.373      125961.995 1     98160.345 3
         6.500          19.300
  23234449.167    23234447.549    23234445.837    -9462976.884 4  -7373745.726 5
        28.600          30.400
  22874646.913    22874646.798    22874645.068   -10398727.253 4  -8102894.176 5
        29.700          31.800
  24193759.232    24193758.180    24193757.298    -5364241.949 2  -4179926.576 2
        15.100          17.800
  25261318.205    25261317.040    25261316.965           -.4551           .4011
         3.000
  22613945.487    22613944.547    22613944.544    -9856510.647 4  -7680394.150 5
        28.800          30.100
  20422785.697    20422784.777    20422783.664   -25850924.265 6 -20143566.833 8
        39.100          48.200
  22612658.379    22612657.647    22612657.618   -10840702.201 4  -8447296.219 5
        29.900          31.100
  22552059.734    22552059.047    22552058.356   -12087283.485 4  -9418657.684 4
        27.900          28.600
 09  1 11  0  7 30.0000000  0 10G21G22G26G19G15G14G 3G18G 6G 9
  21391493.991    21391493.146    21391491.370   -21939827.878 6 -17095961.541 5
        37.700          33.800
  20940018.769    20940018.265    20940015.301   -22178905.323 6 -17282255.907 7
        41.600          43.500
  24378856.671    24378857.018    24378854.701      247694.293 1    193016.622 3
        11.000          19.300
  23226140.834    23226139.017    23226137.626    -9506637.698 4  -7407767.129 5
        28.100          30.600
  22891543.375    22891543.055    22891541.419   -10309936.410 4  -8033706.507 5
        29.500          32.000
  24172521.855    24172520.527    24172519.534    -5475847.494 2  -4266891.877 2
        15.100          17.000
  22621370.892    22621370.101    22621369.685    -9817489.419 4  -7649988.003 4
        29.500          29.500
  20424274.642    20424273.846    20424271.747   -25843098.668 6 -20137468.963 8
        39.300          48.000
  22621270.407    22621269.719    22621269.668   -10795445.731 4  -8412031.434 5
        29.700          31.100
  22535987.625    22535986.991    22535986.876   -12171741.619 4  -9484469.194 4
        27.100          29.500
 09  1 11  0  8  0.0000000  0 11G21G22G26G19G15G14G24G 3G18G 6G 9
  21405665.448    21405664.634    21405663.092   -21865355.073 6 -17037930.792 5
        37.300          33.600
  20930301.553    20930300.983    20930298.111   -22229969.576 6 -17322046.227 7
        41.500          43.600
  24402049.510    24402048.947    24402047.503      369570.151 2    287984.811 3
        15.100          19.900
  23217936.251    23217934.427    23217932.969    -9549751.433 4  -7441362.233 5
        28.100          30.400
  22908497.261    22908496.997    22908495.397   -10220843.970 4  -7964283.819 5
        29.700          32.100
  24151309.643    24151308.999    24151308.907    -5587310.299 2  -4353745.959 2
        15.100          17.000
  25302670.562    25302670.767                           -.5181

  22628902.308    22628901.358    22628901.237    -9777911.107 4  -7619147.756 4
        29.000          29.500
  20425839.419    20425838.585    20425837.605   -25834875.606 6 -20131061.375 7
        39.300          47.800
  22629978.038    22629977.349    22629977.374   -10749687.183 4  -8376375.428 5
        29.500          31.100
  22520007.534    22520006.992    22520006.431   -12255718.655 4  -9549905.819 4
        27.900          29.700
 09  1 11  0  8 30.0000000  0 10G21G22G26G19G15G14G 3G18G 6G 9
  21419916.593    21419915.691    21419913.912   -21790466.537 6 -16979576.100 5
        37.500          33.600
  20920647.576    20920647.098    20920644.123   -22280700.954 6 -17361577.164 7
        41.500          43.600
  24425266.540    24425265.820    24425264.913      491577.954 2    383055.800 3
        13.900          19.300
  23209834.456    23209832.938    23209831.471    -9592325.673 4  -7474536.948 5
        28.100          30.200
  22925506.037    22925505.668    22925504.303   -10131461.165 4  -7894634.873 5
        28.800          32.100
  24130125.458    24130124.798    24130123.304    -5698636.868 2  -4440493.870 2
        16.100          16.100
  22636537.630    22636536.666    22636536.763    -9737786.130 4  -7587881.548 4
        28.600          29.200
  20427478.171    20427477.342    20427475.300   -25826264.329 6 -20124351.287 8
        39.300          48.100
  22638779.253    22638778.618    22638778.288   -10703436.927 4  -8340336.272 5
        29.700          30.800
  22504117.760    22504117.090    22504116.604   -12339219.941 4  -9614971.741 4
        28.100          29.900
 09  1 11  0  9  0.0000000  0 10G21G22G26G19G15G14G 3G18G 6G 9
  21434245.800    21434244.899    21434243.171   -21715166.362 6 -16920900.646 5
        37.500          33.500
  20911056.834    20911056.349    20911053.498   -22331100.513 6 -17400849.545 7
        41.500          43.800
  24448508.139    24448507.460    24448506.417      613713.061 2    478225.981 2
        12.600          17.800
  23201835.572    23201833.974    23201832.624    -9634360.776 4  -7507291.562 5
        28.100          30.200
  22942569.416    22942569.142    22942567.760   -10041792.399 4  -7824763.114 5
        28.600          32.300
  24108966.456    24108965.516    24108964.099    -5809827.590 2  -4527135.936 2
        16.100          15.100
  22644276.531    22644275.699    22644275.678    -9697118.424 4  -7556192.427 4
        28.600          29.500
  20429190.306    20429189.492    20429188.489   -25817266.650 6 -20117340.104 8
        39.300          48.000
  22647673.104    22647672.571    22647672.312   -10656699.119 4  -8303917.209 5
        29.700          31.000
  22488318.787    22488318.030    22488317.628   -12422244.107 4  -9679665.876 4
        28.400          29.900
 09  1 11  0  9 30.0000000  0 10G21G22G26G19G15G14G 3G18G 6G 9
  21448656.555    21448655.648    21448653.861   -21639437.319 6 -16861891.007 5
        37.400          33.400
  20901532.861    20901532.359    20901529.516   -22381149.495 6 -17439848.744 7
        41.400          43.900
  24471776.757    24471776.184    24471775.291      735991.052 1    573507.497 2
        11.000          17.000
  23193943.555    23193941.619    23193939.959    -9675836.597 4  -7539610.376 5
        28.100          30.400
  22959690.571    22959690.294    22959688.364    -9951821.907 4  -7754656.238 5
        29.000          31.600
  24087837.152    24087836.349    24087835.163    -5920861.985 2  -4613656.207 2
        17.000          15.100
  22652122.031    22652121.139    22652121.045    -9655890.864 4  -7524067.064 4
        28.600          29.200
  20430979.610    20430978.737    20430976.695   -25807864.253 6 -20110013.557 8
        39.400          48.200
  22656662.809    22656662.294    22656662.384   -10609457.023 4  -8267105.192 5
        29.200          31.300
  22472614.745    22472613.947    22472613.647   -12504769.232 4  -9743971.151 4
        28.600          29.900
 09  1 11  0 10  0.0000000  0 10G21G22G26G19G15G14G 3G18G 6G 9
  21463146.460    21463145.630    21463143.984   -21563291.524 6 -16802556.628 5
        37.100          33.200
  20892073.702    20892073.212    20892070.541   -22430857.339 6 -17478582.121 7
        41.500          44.100
  24495069.738    24495068.899    24495068.835      858398.686 1    668890.039 2
         9.000          15.100
  23186155.204    23186153.276    23186151.750    -9716762.645 4  -7571500.799 5
        27.900          30.200
  22976866.391    22976865.856    22976864.326    -9861562.112 4  -7684323.929 5
        28.800          31.300
  24066736.187    24066735.172    24066734.598    -6031748.477 2  -4700061.224 2
        17.000          16.100
  22660071.384    22660070.609    22660070.388    -9614116.311 4  -7491515.461 4
        28.400          29.000
  20432843.782    20432842.974    20432841.949   -25798067.774 6 -20102379.930 8
        39.400          48.200
  22665746.157    22665745.584    22665745.671   -10561723.021 4  -8229909.875 5
        28.600          31.100
  22457004.334    22457003.478    22457003.096   -12586802.602 4  -9807893.247 4
        28.400          29.700
 09  1 11  0 10 30.0000000  0 10G21G22G26G19G15G14G 3G18G 6G 9
  21477714.627    21477713.979    21477712.277   -21486734.326 6 -16742901.675 5
        37.100          33.100
  20882679.151    20882678.613    20882675.670   -22480227.243 6 -17517052.174 7
        41.600          44.100
  24518386.358    24518386.302    24518385.841      980929.294 1    764368.412 2
         9.000          12.600
  23178471.217    23178469.243    23178468.119    -9757141.254 4  -7602964.633 5
        27.600          30.200
  22994096.237    22994095.776    22994094.199    -9771019.242 4  -7613771.034 5
        29.700          31.100
  24045662.433    24045661.959    24045660.942    -6142489.038 2  -4786352.532 2
        16.100          16.100
  22668123.554    22668122.740    22668122.888    -9571800.204 4  -7458541.885 4
        28.400          29.200
  20434782.207    20434781.401    20434779.385   -25787881.168 6 -20094442.313 8
        39.500          48.300
  22674922.433    22674921.766    22674921.814   -10513502.712 4  -8192335.623 5
        28.800          30.600
  22441487.076    22441486.306    22441486.102   -12668344.707 4  -9871432.534 4
        27.600          29.500
 09  1 11  0 11  0.0000000  0 10G21G22G26G19G15G14G 3G18G 6G 9
  21492361.080    21492360.148    21492358.592   -21409767.274 6 -16682927.357 5
        36.600          33.000
  20873348.831    20873348.236    20873345.195   -22529258.557 6 -17555258.389 7
        41.600          44.000
  24541725.998    24541725.628    24541725.080     1103580.223      859940.554 1
         3.000          11.000
  23170892.201    23170890.204    23170888.716    -9796970.843 4  -7634000.665 5
        28.400          30.100
  23011379.303    23011379.065    23011377.383    -9680195.926 4  -7542999.606 5
        29.700          31.500
  24024617.163    24024616.637    24024616.582    -6253081.774 2  -4872528.656 2
        16.100          17.000
  22676278.979    22676278.066    22676278.065    -9528944.656 4  -7425147.957 4
        28.600          29.200
  20436794.890    20436794.055    20436792.952   -25777304.530 6 -20086200.769 8
        39.500          48.400
  22684190.510    22684189.742    22684189.808   -10464798.242 4  -8154384.091 5
        28.400          30.400
  22426064.615    22426063.833    22426063.240   -12749392.425 4  -9934586.580 4
        28.600          29.700
 09  1 11  0 11 30.0000000  0 10G21G22G26G19G15G14G 3G18G 6G 9
  21507085.754    21507084.921    21507083.268   -21332389.086 6 -16622632.680 5
        36.600          32.800
  20864083.330    20864082.862    20864080.013   -22577947.641 6 -17593197.928 7
        41.500          44.200
  24565089.354    24565089.015    24565087.205     1226351.548 1    955606.513 1
         6.500           6.500
  23163418.260    23163416.547    23163414.597    -9836247.546 4  -7664605.876 4
        29.000          29.700
  23028715.928    23028715.655    23028713.847    -9589091.305 4  -7472008.990 5
        28.800          31.500
  24003600.957    24003600.151    24003600.914    -6363521.848 2  -4958585.831 2
        16.100          17.800
  22684537.324    22684536.311    22684536.253    -9485548.227 4  -7391332.565 4
        28.600          29.500
  20438882.315    20438881.506    20438879.507   -25766335.127 6 -20077653.178 8
        39.500          48.500
  22693551.220    22693550.534    22693550.541   -10415608.620 4  -8116054.523 5
        28.800          30.600
  22410736.558    22410735.995    22410735.678   -12829939.727 4  -9997350.702 4
        28.800          29.900
 09  1 11  0 12  0.0000000  0 10G21G22G26G19G15G14G 3G18G 6G 9
  21521888.135    21521887.209    21521885.177   -21254603.251 6 -16562020.345 5
        36.700          32.600
  20854883.266    20854882.730    20854879.758   -22626295.584 6 -17630871.648 7
        41.700          44.400
  24588475.000    24588474.451    24588472.928     1349238.390 1   1051362.519
         6.500           3.000
  23156048.429    23156047.083    23156045.393    -9874972.126 4  -7694780.868 4
        29.000          29.200
  23046105.228    23046105.004    23046103.139    -9497710.483 4  -7400803.156 5
        28.400          31.600
  23982614.139    23982613.056    23982613.785    -6473809.540 2  -5044524.251 3
        16.100          19.300
  22692896.858    22692896.097    22692896.409    -9441615.493 4  -7357099.272 4
        28.100          29.500
  20441043.759    20441043.021    20441041.956   -25754975.911 6 -20068801.834 8
        39.600          48.300
  22703003.317    22703002.651    22703002.443   -10365937.989 4  -8077350.133 5
        28.600          30.400
  22395504.314    22395503.843    22395503.486   -12909985.348 4 -10059723.896 5
        28.800          30.200
 09  1 11  0 12 30.0000000  0 10G21G22G26G19G15G14G 3G18G 6G 9
  21536767.795    21536766.907    21536765.305   -21176408.455 6 -16501089.343 5
        36.300          32.700
  20845748.394    20845747.861    20845744.949   -22674298.924 6 -17668276.839 7
        41.700          44.400
  24611882.297    24611880.875    24611879.269     1472241.058 1   1147208.756 1
         6.500           9.000
  23148785.142    23148783.849    23148782.231    -9913140.461 4  -7724522.427 4
        28.800          28.800
  23063546.736    23063546.480    23063545.112    -9406053.009 4  -7329381.747 5
        27.900          31.500
  23961656.657    23961656.477    23961656.540    -6583939.921 2  -5130340.097 3
        17.000          19.300
  22701359.682    22701358.819    22701358.555    -9397145.366 4  -7322447.228 4
        28.100          29.200
  20443280.226    20443279.405    20443277.494   -25743223.670 6 -20059644.239 8
        39.600          48.500
  22712546.544    22712545.904    22712546.096   -10315785.280 4  -8038270.099 5
        28.100          30.400
  22380369.016    22380368.270    22380368.040   -12989522.998 4 -10121701.272 5
        28.800          30.400
 09  1 11  0 13  0.0000000  0 10G21G22G26G19G15G14G 3G18G 6G 9
  21551725.678    21551724.705    21551722.945   -21097805.688 6 -16439840.446 5
        36.400          32.400
  20836679.583    20836679.069    20836676.077   -22721956.218 6 -17705412.386 7
        41.800          44.600
  24635310.473    24635309.202    24635307.669     1595357.329 1   1243143.494 1
         6.500           9.000
  23141628.587    23141626.888    23141625.203    -9950750.504 4  -7753828.941 4
        28.800          28.800
  23081040.900    23081040.427    23081039.232    -9314119.990 4  -7257745.635 5
        27.600          31.000
  23940730.414    23940729.400    23940729.482    -6693910.639 2  -5216031.519 3
        17.800          20.500
  22709923.836    22709923.010    22709923.243    -9352139.317 4  -7287377.587 4
        27.900          29.500
  20445591.422    20445590.631    20445589.482   -25731078.333 6 -20050180.332 8
        39.700          48.600
  22722181.883    22722181.216    22722181.368   -10265152.040 4  -7998815.628 5
        28.600          30.600
  22365330.851    22365330.043    22365329.670   -13068548.966 4 -10183279.927 5
        28.800          30.200
 09  1 11  0 13 30.0000000  0 10G21G22G26G19G15G14G 3G18G 6G 9
  21566760.089    21566759.211    21566757.506   -21018798.313 6 -16378276.266 5
        36.200          32.300
  20827676.353    20827675.845    20827672.974   -22769268.375 6 -17742278.992 7
        41.800          44.800
  24658759.787    24658758.437    24658757.987     1718582.781 1   1339163.312 1
         9.000           9.000
  23134577.925    23134576.389    23134574.120    -9987802.611 4  -7782700.703 4
        28.800          28.600
  23098586.257    23098586.259    23098585.152    -9221915.826 4  -7185898.240 5
        27.600          30.800
  23919833.766    23919832.946    23919833.183    -6803721.323 2  -5301598.239 3
        17.800          20.500
  22718589.378    22718588.641    22718588.926    -9306601.233 4  -7251893.373 4
        27.900          29.200
  20447977.176    20447976.308    20447974.345   -25718541.638 6 -20040411.478 8
        39.700          48.700
  22731907.988    22731907.313    22731907.148   -10214041.970 4  -7958989.602 5
        28.600          30.400
  22350390.099    22350389.351    22350389.281   -13147061.901 4 -10244458.827 5
        28.400          30.200
 09  1 11  0 14  0.0000000  0 10G21G22G26G19G15G14G 3G18G 6G 9
  21581870.384    21581869.483    21581867.843   -20939393.499 6 -16316402.397 5
        36.100          32.300
  20818737.866    20818737.322    20818734.502   -22816240.438 6 -17778880.591 7
        41.800          44.800
  24682227.453    24682226.232    24682226.779     1841908.965 1   1435261.647 1
         9.000           9.000
  23127632.183    23127630.853    23127628.925   -10024301.384 4  -7811141.300 4
        29.200          29.000
  23116182.814    23116182.591    23116180.612    -9129448.675 4  -7113845.918 5
        28.100          30.100
  23898967.621    23898966.714    23898966.244    -6913375.849 2  -5387043.284 3
        17.800          20.500
  22727354.731    22727353.926    22727354.606    -9260538.466 4  -7216000.305 4
        27.600          29.500
  20450436.192    20450435.391    20450434.187   -25705618.830 6 -20030341.752 8
        39.700          48.700
  22741723.010    22741722.604    22741722.713   -10162462.617 4  -7918797.904 5
        28.400          30.600
  22335546.709    22335546.184    22335545.984   -13225064.134 4 -10305239.772 5
        29.000          30.400
 09  1 11  0 14 30.0000000  0 10G22G26G19G15G14G21G 3G18G 6G 9
  20809865.029    20809864.477    20809861.613   -22862867.298 6 -17815213.203 7
        41.700          44.900
  24705714.378    24705713.099    24705714.508     1965338.110 1   1531440.206 1
         6.500           9.000
  23120793.057    23120791.432    23120789.738   -10060241.056 4  -7839146.235 4
        28.600          29.000
  23133829.249    23133828.980    23133827.039    -9036716.320 4  -7041586.925 5
        28.400          30.200
  23878131.795    23878131.047    23878130.664    -7022867.352 2  -5472361.308 3
        17.000          20.500
  21597056.814    21597055.922    21597054.177   -20859588.135 6 -16254216.410 5
        36.000          32.100
  22736220.850    22736220.046    22736220.171    -9213948.388 4  -7179696.356 4
        27.900          29.200
  20452969.533    20452968.736    20452966.833   -25692306.333 6 -20019968.373 8
        39.800          48.900
  22751628.354    22751627.601    22751627.487   -10110411.652 4  -7878238.717 5
        28.400          30.600
  22320802.432    22320801.766    22320801.222   -13302547.677 4 -10365616.550 5
        29.500          30.200
 09  1 11  0 15  0.0000000  0 10G22G26G19G15G14G21G 3G18G 6G 9
  20801056.898    20801056.433    20801053.578   -22909154.266 6 -17851280.962 7
        41.900          45.100
  24729220.159    24729218.573    24729220.503     2088861.265     1627692.003 1
         3.000          11.000
  23114059.231    23114057.831    23114056.323   -10095626.682 4  -7866719.445 4
        28.600          29.500
  23151524.173    23151523.862    23151522.160    -8943727.070 4  -6969127.763 4
        27.400          29.900
  23857326.735    23857325.435    23857325.528    -7132200.402 2  -5557555.853 3
        17.800          21.600
  21612317.764    21612317.063    21612315.599   -20779390.011 5 -16191724.370 5
        35.800          32.300
  22745185.219    22745184.363    22745184.554    -9166839.255 4  -7142987.935 4
        28.100          28.800
  20455575.829    20455574.953    20455573.761   -25678610.315 6 -20009296.148 8
        39.800          48.800
  22761621.539    22761620.953    22761620.827   -10057896.966 4  -7837318.200 5
        28.400          30.800
  22306155.760    22306154.979    22306154.726   -13379515.856 4 -10425591.749 5
        29.500          30.200
 09  1 11  0 15 30.0000000  0 10G22G26G19G15G14G21G 3G18G 6G 9
  20792315.999    20792315.435    20792312.534   -22955088.460 6 -17887073.828 7
        41.900          45.200
  24752745.324    24752743.516    24752744.585     2212487.793     1724024.309 1
                        11.000
  23107433.780    23107432.457    23107430.966   -10130444.492 4  -7893850.199 4
        29.000          29.500
  23169269.551    23169269.866    23169268.296    -8850471.454 4  -6896461.047 5
        26.500          30.100
  23836554.526    23836553.836    23836552.922    -7241360.655 3  -5642615.765 3
        18.600          21.600
  21627655.868    21627655.038    21627653.450   -20698788.497 5 -16128918.007 5
        35.500          32.100
  22754250.569    22754249.827    22754249.708    -9119200.806 4  -7105867.063 4
        28.400          29.000
  20458257.433    20458256.558    20458254.674   -25664518.499 6 -19998315.510 8
        39.700          49.000
  22771705.064    22771704.383    22771704.187   -10004908.584 4  -7796028.557 5
        28.800          30.400
  22291610.363    22291609.544    22291609.195   -13455952.988 4 -10485153.142 5
        29.500          30.200
 09  1 11  0 16  0.0000000  0 10G22G26G19G15G14G21G 3G18G 6G 9
  20783640.999    20783640.461    20783637.462   -23000675.882 7 -17922596.485 7
        42.100          45.200
  24776288.940    24776287.591    24776288.560     2336208.517     1820430.062 1
                        11.000
  23100915.563    23100913.998    23100911.751   -10164700.161 4  -7920542.924 4
        29.200          29.200
  23187064.780    23187064.873    23187063.607    -8756958.583 4  -6823593.874 5
        26.800          30.600
  23815813.433    23815812.719    23815812.338    -7350352.930 3  -5727544.788 3
        18.600          21.100
  21643069.220    21643068.311    21643066.390   -20617791.939 5 -16065803.818 5
        35.600          31.600
  22763415.093    22763414.131    22763413.943    -9071042.123 4  -7068340.832 4
        27.600          28.800
  20461012.886    20461012.042    20461010.683   -25650038.212 6 -19987032.162 8
        39.800          49.000
  22781876.418    22781875.869    22781875.834    -9951455.298 4  -7754376.646 5
        28.400          30.400
  22277165.060    22277164.382    22277163.695   -13531862.875 4 -10544303.693 5
        29.700          30.100
 09  1 11  0 16 30.0000000  0 10G22G26G19G15G14G21G 3G18G 6G 9
  20775032.019    20775031.480    20775028.433   -23045916.756 7 -17957849.106 7
        42.100          45.400
  24799848.809    24799848.545    24799848.625     2460019.823     1916906.360 2
                        12.600
  23094503.806    23094501.980    23094500.438   -10198393.725 4  -7946797.647 4
        28.600          29.200
  23204908.201    23204908.038    23204906.857    -8663191.231 4  -6750528.406 5
        27.600          31.000
  23795104.811    23795104.448    23795103.649    -7459176.517 3  -5812342.357 3
        19.300          21.100
  21658556.924    21658555.994    21658554.366   -20536403.124 5 -16002383.970 5
        35.300          31.800
  22772677.709    22772676.691    22772676.938    -9022366.040 4  -7030411.414 4
        27.600          29.000
  20463842.041    20463841.201    20463839.487   -25635170.470 6 -19975446.906 8
        39.700          48.900
  22792136.659    22792135.714    22792135.841    -9897540.047 4  -7712364.767 5
        28.400          30.400
  22262820.794    22262820.119    22262819.388   -13607243.463 4 -10603041.796 5
        29.900          30.200
 09  1 11  0 17  0.0000000  0 10G22G26G19G15G14G21G 3G18G 6G 9
  20766487.971    20766487.453    20766484.476   -23090815.371 7 -17992835.026 7
        42.100          45.400
  24823423.602    24823424.156    24823425.080     2583913.908     2013447.164 2
         3.000          12.600
  23088198.509    23088196.726    23088194.816   -10231528.953 4  -7972617.294 4
        28.600          29.500
  23222798.915    23222798.844    23222797.228    -8569177.240 4  -6677270.749 5
        27.900          30.800
  23774428.388    23774427.677    23774426.938    -7567834.582 3  -5897010.948 3
        19.300          20.500
  21674118.087    21674117.174    21674115.573   -20454629.034 5 -15938663.910 5
        35.300          32.000
  22782037.687    22782036.962    22782036.700    -8973179.844 4  -6992084.504 4
        28.100          29.000
  20466744.047    20466743.215    20466741.890   -25619920.435 6 -19963563.754 8
        39.800          49.000
  22802482.459    22802481.832    22802481.982    -9843170.112 4  -7669998.578 5
        28.100          30.100
  22248576.409    22248575.681    22248575.336   -13682096.785 4 -10661369.042 5
        29.500          30.400
 09  1 11  0 17 30.0000000  0 10G22G26G19G15G14G21G 3G18G 6G 9
  20758013.604    20758013.091    20758010.052   -23135348.382 7 -18027536.057 7
        42.100          45.500
  24847018.869    24847019.539    24847021.674     2707910.982     2110068.193 2
         3.000          12.600
  23082003.275    23082001.554    23082000.013   -10264082.032 4  -7997983.321 4
        27.900          29.900
  23240740.255    23240740.017    23240738.198    -8474896.037 4  -6603804.871 5
        27.400          30.200
  23753787.575    23753786.975    23753786.457    -7676302.180 3  -5981531.121 3
        19.900          21.100
  21689756.517    21689755.761    21689754.039   -20372448.135 5 -15874626.859 5
        35.300          31.600
  22791498.539    22791497.695    22791497.541    -8923462.617 4  -6953343.803 4
        27.600          29.000
  20469722.995    20469722.235    20469720.439   -25604265.778 6 -19951365.319 8
        39.800          49.000
  22812919.122    22812918.605    22812918.525    -9788324.968 4  -7627262.107 5
        27.900          30.100
  22234437.378    22234436.917    22234436.559   -13756396.671 4 -10719265.031 5
        29.700          30.800
 09  1 11  0 18  0.0000000  0 10G22G26G19G15G14G21G 3G18G 6G 9
  20749605.720    20749605.217    20749602.264   -23179531.897 7 -18061964.762 7
        42.200          45.600
  24870631.544    24870631.322    24870632.909     2831991.846     2206754.533 2
                        12.600
  23075916.630    23075914.788    23075913.095   -10296068.611 4  -8022907.921 4
        28.600          29.700
  23258728.533    23258728.508    23258726.555    -8380366.981 4  -6530145.857 4
        27.100          29.900
  23733180.646    23733179.651    23733179.160    -7784594.331 3  -6065914.591 3
        19.300          21.600
  21705468.918    21705468.056    21705466.423   -20289878.907 5 -15810287.210 5
        34.900          31.500
  22801056.883    22801056.053    22801055.885    -8873233.680 4  -6914204.369 4
        27.600          29.000
  20472775.820    20472774.986    20472773.583   -25588223.489 6 -19938864.826 8
        39.900          49.100
  22823442.365    22823442.066    22823442.149    -9733023.483 4  -7584170.049 4
        27.600          29.900
  22220401.583    22220400.925    22220400.744   -13830157.001 5 -10776740.586 5
        30.100          31.800
 09  1 11  0 18 30.0000000  0 10G22G26G19G15G14G21G 3G18G 6G 9
  20741263.823    20741263.290    20741260.393   -23223368.981 7 -18096123.518 7
        42.200          45.700
  24894259.237    24894258.983    24894259.097     2956149.790     2303500.903 2
                        12.600
  23069937.358    23069935.814    23069933.673   -10327491.585 4  -8047393.351 5
        29.900          30.100
  23276762.873    23276762.547    23276760.900    -8285596.472 4  -6456298.703 5
        26.200          30.200
  23712605.960    23712605.295    23712604.572    -7892712.966 3  -6150162.842 3
        18.600          20.500
  21721253.973    21721253.225    21721251.746   -20206927.063 5 -15745649.423 5
        34.800          31.500
  22810711.311    22810710.230    22810710.263    -8822499.209 4  -6874671.017 4
        27.400          29.200
  20475901.486    20475900.623    20475898.968   -25571797.643 6 -19926065.462 8
        39.900          49.200
  22834051.825    22834051.170    22834051.141    -9677271.540 4  -7540726.967 4
        27.600          29.000
  22206468.111    22206467.281    22206466.995   -13903378.586 4 -10833796.336 5
        29.900          31.800
 09  1 11  0 19  0.0000000  0 10G22G26G19G15G14G21G 3G18G 6G 9
  20732989.872    20732989.311    20732986.322   -23266849.250 7 -18130004.238 7
        42.300          45.800
  24917901.287    24917900.540    24917901.861     3080392.395     2400313.300 1
                        11.000
  23064066.822    23064065.312    23064063.485   -10358340.014 5  -8071431.081 5
        30.100          30.600
  23294844.210    23294843.857    23294842.417    -8190576.399 4  -6382257.079 4
        25.600          29.700
  23692066.850    23692066.413    23692065.393    -8000646.122 3  -6234266.561 3
        19.300          20.500
  21737113.595    21737112.800    21737111.369   -20123584.212 5 -15680706.951 5
        34.700          31.500
  22820463.182    22820462.406    22820462.473    -8771251.349 4  -6834737.622 4
        27.600          29.000
  20479102.129    20479101.251    20479099.902   -25554978.486 6 -19912959.621 8
        40.000          49.200
  22844748.530    22844747.826    22844747.668    -9621061.660 4  -7496927.054 4
        27.400          29.000
  22192639.418    22192638.468    22192638.171   -13976048.504 5 -10890422.221 5
        30.100          31.500
 09  1 11  0 19 30.0000000  0 11G22G26G19G15G14G21G28G 3G18G 6G 9
  20724781.957    20724781.458    20724778.441   -23309981.944 7 -18163614.122 7
        42.300          45.900
  24941558.360    24941557.140    24941557.942     3204706.530     2497181.412 1
                        11.000
  23058304.326    23058302.446    23058300.750   -10388623.401 4  -8095028.516 5
        29.700          30.600
  23312970.764    23312970.647    23312969.470    -8095319.615 4  -6308031.004 4
        25.300          29.900
  23671561.369    23671560.579    23671560.236    -8108402.688 3  -6318232.681 3
        19.300          21.600
  21753045.384    21753044.579    21753043.044   -20039862.548 5 -15615469.300 5
        34.600          31.000
  25623503.830    25623501.675    25623502.058           -.1581           .2231
                         3.000
  22830310.629    22830309.923    22830309.918    -8719502.532 4  -6794413.864 4
        27.600          28.800
  20482375.580    20482374.661    20482372.958   -25537776.934 6 -19899555.812 8
        40.000          49.200
  22855529.739    22855529.146    22855529.015    -9564406.089 4  -7452779.847 4
        27.600          29.500
  22178914.077    22178913.479    22178913.045   -14048173.710 5 -10946623.658 5
        30.400          31.300
 09  1 11  0 20  0.0000000  0 11G22G26G19G15G14G21G28G 3G18G 6G 9
  20716640.723    20716640.269    20716637.323   -23352763.728 7 -18196950.569 7
        42.300          45.900
  24965229.453    24965229.879    24965226.971     3329092.619     2594105.543 1
                        11.000
  23052649.693    23052647.960    23052646.269   -10418337.878 4  -8118182.646 5
        29.700          30.600
  23331142.489    23331142.409    23331141.284    -7999825.896 4  -6233620.313 4
        24.900          29.700
  23651090.685    23651089.800    23651088.781    -8215977.850 3  -6402057.461 3
        19.300          21.100
  21769049.812    21769048.893    21769047.190   -19955760.895 5 -15549935.556 5
        34.700          31.100
  25617699.096    25617699.034    25617698.641      -30493.173      -23759.130 1
                         6.500
  22840253.738    22840252.878    22840252.909    -8667252.528 4  -6753699.580 4
        27.600          28.600
  20485722.079    20485721.241    20485719.702   -25520190.163 6 -19885851.831 8
        40.000          49.200
  22866395.956    22866395.377    22866394.981    -9507304.501 4  -7408285.115 4
        27.400          29.200
  22165293.907    22165293.107    22165292.550   -14119748.549 5 -11002396.240 5
        30.100          31.300
 09  1 11  0 20 30.0000000  0 11G22G26G19G15G14G21G28G 3G18G 6G 9
  20708566.799    20708566.252    20708563.304   -23395192.787 7 -18230012.165 7
        42.200          46.000
  24988915.168    24988913.824    24988911.582     3453549.330     2691084.741 2
                        12.600
  23047103.656    23047101.986    23047100.600   -10447481.188 4  -8140891.720 5
        29.700          31.000
  23349359.330    23349359.407    23349357.527    -7904096.374 4  -6159025.871 4
        25.600          29.200
  23630654.782    23630653.806    23630653.261    -8323368.212 3  -6485738.239 3
        18.600          21.600
  21785125.907    21785125.075    21785123.508   -19871279.425 5 -15484105.848 5
        34.500          30.800
  25611987.550    25611985.689    25611979.120      -60512.311      -47149.988 1
                         6.500
  22850291.897    22850290.919    22850291.090    -8614501.670 4  -6712595.014 4
        27.400          28.600
  20489142.239    20489141.340    20489139.777   -25502217.430 6 -19871847.098 8
        40.100          49.200
  22877346.066    22877345.354    22877345.928    -9449757.704 4  -7363443.460 4
        26.800          29.500
  22151779.164    22151778.506    22151778.026   -14190768.890 5 -11057736.737 5
        30.400          31.500
 09  1 11  0 21  0.0000000  0 11G22G26G19G15G14G21G28G 3G18G 6G 9
  20700561.236    20700560.695    20700557.705   -23437262.490 7 -18262793.745 7
        42.300          46.100
  25012615.230    25012612.405    25012607.764     3578080.094     2788121.670 1
                        11.000
  23041668.135    23041666.521    23041664.871   -10476046.248 5  -8163150.196 5
        30.400          31.100
  23367621.704    23367621.447    23367619.862    -7808127.182 4  -6084244.689 4
        25.300          29.000
  23610255.653    23610254.656    23610254.291    -8430566.056 3  -6569268.991 3
        19.900          22.600
  21801275.186    21801274.355    21801272.750   -19786414.102 5 -15417977.038 5
        34.000          30.800
  25606364.302    25606366.077    25606363.219      -90050.044      -70169.794 1
                         6.500
  22860425.704    22860424.953    22860424.732    -8561246.483 4  -6671097.466 4
        27.100          27.900
  20492636.819    20492635.954    20492634.510   -25483852.708 6 -19857536.922 8
        40.000          49.200
  22888382.701    22888381.970    22888382.123    -9391761.885 4  -7318251.916 4
        26.800          29.500
  22138371.781    22138371.072    22138370.553   -14261225.619 5 -11112638.062 5
        30.800          31.300
 09  1 11  0 21 30.0000000  0 11G22G26G19G15G14G21G28G 3G18G 6G 9
  20692622.776    20692622.245    20692619.193   -23478979.441 7 -18295300.455 7
        42.300          46.100
  25036321.650    25036319.275    25036317.040     3702674.768     2885208.370 1
                         9.000
  23036341.426    23036339.491    23036337.489   -10504039.828 5  -8184963.378 5
        30.600          30.600
  23385927.222    23385927.355    23385925.927    -7711928.050 4  -6009284.314 4
        24.900          28.600
  23589892.022    23589891.014    23589890.744    -8537577.025 3  -6652654.130 3
        20.500          22.600
  21817495.864    21817494.918    21817493.197   -19701174.400 5 -15351556.509 5
        33.900          30.400
  25600834.474    25600832.877    25600831.231     -119112.712      -92818.351 1
                         9.000
  22870654.101    22870653.339    22870653.236    -8507496.897 4  -6629214.676 4
        27.100          27.900
  20496204.661    20496203.815    20496202.144   -25465103.936 6 -19842927.483 8
        40.100          49.100
  22899502.196    22899501.564    22899501.768    -9333326.904 4  -7272718.178 4
        26.200          29.000
  22125070.628    22125069.940    22125069.253   -14331123.692 5 -11167104.082 5
        31.000          31.500
 09  1 11  0 22  0.0000000  0 11G22G26G19G15G14G21G28G 3G18G 6G 9
  20684753.068    20684752.482    20684749.544   -23520334.933 7 -18327525.505 7
        42.300          46.200
  25060040.949    25060041.929    25060040.365     3827339.186     2982349.422 1
                         6.500
  23031124.842    23031123.156    23031121.179   -10531452.929 5  -8206324.232 5
        30.400          31.000
  23404277.469    23404278.404    23404276.467    -7615493.491 4  -5934140.495 4
        25.300          27.400
  23569565.919    23569565.186    23569564.588    -8644391.116 3  -6735885.863 3
        20.500          22.100
  21833788.760    21833787.930    21833786.328   -19615553.779 5 -15284839.152 5
        34.000          30.400
  25595395.560    25595396.584    25595395.465     -147691.089     -115087.180 1
                         9.000
  22880977.721    22880976.851    22880976.875    -8453247.005 4  -6586942.038 4
        27.400          28.100
  20499846.951    20499846.106    20499844.565   -25445963.438 6 -19828012.806 8
        40.200          49.100
  22910707.050    22910706.286    22910706.399    -9274446.838 4  -7226837.613 4
        26.200          29.000
  22111877.645    22111877.033    22111876.656   -14400452.095 5 -11221126.194 5
        30.600          32.100
 09  1 11  0 22 30.0000000  0 11G22G26G19G15G14G21G28G 3G18G 6G 9
  20676950.376    20676949.773    20676946.786   -23561338.739 7 -18359476.519 7
        42.300          46.300
  25083774.080    25083775.915    25083771.823     3952060.050     3079534.481
                         3.000
  23026016.786    23026015.021    23026013.489   -10558294.966 5  -8227240.089 5
        30.200          31.300
  23422670.939    23422671.628    23422669.760    -7518836.088 4  -5858823.033 4
        24.900          27.100
  23549275.820    23549274.788    23549274.457    -8751016.911 3  -6818970.870 3
        20.500          23.000
  21850151.984    21850151.213    21850149.795   -19529564.204 5 -15217834.301 5
        33.800          30.600
  25590048.061    25590048.850    25590044.648     -175794.764     -136986.127
                         3.000
  22891393.920    22891392.929    22891392.599    -8398509.609 4  -6544289.520 4
        27.100          27.600
  20503561.829    20503560.995    20503559.377   -25426441.831 6 -19812801.161 8
        40.200          49.000
  22921993.355    22921993.012    22921993.239    -9215134.579 4  -7180620.279 4
        26.200          29.200
  22098792.380    22098791.621    22098791.090   -14469217.877 5 -11274709.899 5
        31.300          32.600
 09  1 11  0 23  0.0000000  0 11G22G26G19G15G14G21G28G 3G18G 6G 9
  20669215.607    20669215.056    20669212.169   -23601984.529 7 -18391148.560 7
        42.200          46.400
  25107519.874    25107521.072    25107517.145     4076840.707     3176766.112
                         3.000
  23021018.750    23021017.020    23021015.296   -10584559.686 5  -8247706.102 5
        30.200          31.000
  23441108.093    23441108.010    23441106.386    -7421952.698 4  -5783329.471 4
        25.300          27.900
  23529022.853    23529022.108    23529021.307    -8857447.020 3  -6901903.398 3
        20.500          22.600
  21866586.160    21866585.240    21866583.618   -19443202.703 5 -15150539.635 5
        33.500          30.100
  25584790.602    25584789.278    25584787.752     -203416.973     -158509.952
                         3.000
  22901903.198    22901902.294    22901902.346    -8343281.485 4  -6501254.627 4
        26.500          27.900
  20507350.198    20507349.322    20507347.744   -25406533.757 6 -19797288.373 8
        40.200          48.900
  22933363.323    22933362.512    22933362.821    -9155386.727 4  -7134063.520 4
        26.500          29.000
  22085815.139    22085814.551    22085813.908   -14537412.568 5 -11327848.605 5
        31.100          32.300
 09  1 11  0 23 30.0000000  0 10G22G19G15G14G21G28G 3G18G 6G 9
  20661548.482    20661547.977    20661545.037   -23642275.260 7 -18422543.927 7
        42.200          46.400
  23016130.313    23016128.460    23016126.617   -10610249.516 5  -8267724.144 5
        30.400          30.800
  23459586.704    23459586.286    23459584.742    -7324849.084 4  -5707664.320 4
        25.300          27.900
  23508806.073    23508805.465    23508805.004    -8963683.034 3  -6984684.683 3
        19.900          21.600
  21883089.971    21883089.198    21883087.672   -19356473.681 5 -15082958.589 4
        33.400          29.700
  25579628.971    25579628.205    25579626.678     -230559.925 1   -179660.305 2
        11.000          12.600
  22912504.877    22912503.991    22912504.401    -8287568.863 4  -6457842.198 4
        26.200          28.100
  20511211.383    20511210.541    20511208.989   -25386242.837 6 -19781477.263 8
        40.100          48.900
  22944814.935    22944814.326    22944814.326    -9095208.869 4  -7087171.683 4
        27.100          28.600
  22072946.511    22072945.851    22072945.376   -14605036.963 5 -11380542.920 5
        31.100          32.600
 09  1 11  0 24  0.0000000  0 10G22G19G15G14G21G28G 3G18G 6G 9
  20653950.244    20653949.743    20653946.753   -23682204.151 7 -18453657.342 7
        42.300          46.400
  23011352.337    23011350.724    23011348.862   -10635357.668 5  -8287288.937 5
        30.800          31.100
  23478107.669    23478107.098    23478105.449    -7227521.662 4  -5631824.761 4
        24.900          27.900
  23488628.914    23488628.736    23488627.445    -9069717.030 3  -7067308.560 3
        21.100          21.600
  21899664.878    21899663.989    21899662.443   -19269372.958 5 -15015087.908 4
        33.400          29.700
  25574551.517    25574551.420    25574550.419     -257216.663     -200431.858 1
         3.000           6.500
  22923199.741    22923198.907    22923198.922    -8231367.761 4  -6414049.141 4
        26.200          28.100
  20515146.528    20515145.667    20515144.109   -25365563.720 6 -19765363.662 8
        40.200          48.900
  22956348.938    22956348.319    22956348.058    -9034597.593 4  -7039942.123 4
        27.600          28.100
  22060188.311    22060187.672    22060187.106   -14672081.885 5 -11432785.696 5
        31.500          32.400
 09  1 11  0 24 30.0000000  0 10G22G19G15G14G21G28G 3G18G 6G 9
  20646422.677    20646422.083    20646418.987   -23721762.887 7 -18484482.327 7
        42.400          46.500
  23006686.701    23006684.997    23006683.189   -10659875.676 5  -8306393.876 5
        30.800          31.100
  23496671.530    23496671.431    23496670.463    -7129964.569 4  -5555806.243 4
        24.200          28.100
  23468491.594    23468491.076    23468490.365    -9175539.171 3  -7149767.361 3
        21.100          21.600
  21916311.211    21916310.470    21916309.120   -19181894.750 5 -14946923.080 4
        33.000          29.700
  25569574.787    25569573.921    25569572.184     -283378.219     -220817.403
         3.000           3.000
  22933988.302    22933987.445    22933987.715    -8174672.245 4  -6369870.812 4
        25.900          27.900
  20519156.932    20519156.130    20519154.575   -25344488.480 6 -19748941.392 8
        40.200          48.800
  22967966.351    22967965.775    22967965.346    -8973547.070 4  -6992370.290 4
        27.400          27.400
  22047542.393    22047541.728    22047541.085   -14738536.724 5 -11484568.675 5
        32.100          32.300
 09  1 11  0 25  0.0000000  0 10G22G19G15G14G21G28G 3G18G 6G 9
  20638962.473    20638961.923    20638958.934   -23760965.855 7 -18515030.088 7
        42.300          46.700
  23002130.506    23002128.737    23002127.262   -10683817.554 5  -8325049.878 5
        30.400          31.100
  23515276.193    23515276.440    23515275.228    -7032195.091 3  -5479622.244 4
        23.400          28.600
  23448392.126    23448391.213    23448390.538    -9281162.379 3  -7232071.135 3
        21.100          21.100
  21933026.678    21933025.786    21933024.117   -19094055.636 5 -14878477.030 4
        33.000          29.500
  25564690.031    25564689.446    25564688.559     -309058.192     -240827.910 1
         3.000           9.000
  22944868.303    22944867.368    22944867.175    -8117499.740 4  -6325320.827 4
        26.500          27.900
  20523239.933    20523239.054    20523237.484   -25323032.524 6 -19732222.464 8
        40.200          48.700
  22979664.392    22979663.486    22979663.338    -8912074.837 4  -6944469.844 4
        27.400          27.600
  22035006.609    22035005.766    22035005.051   -14804413.837 5 -11535901.481 5
        32.100          32.400
 09  1 11  0 25 30.0000000  0 10G22G19G15G14G21G28G 3G18G 6G 9
  20631571.005    20631570.500    20631567.631   -23799807.877 7 -18545296.590 7
        42.300          46.800
  22997685.080    22997683.447    22997681.820   -10707178.372 5  -8343253.113 5
        30.400          31.300
  23533922.270    23533922.021    23533920.559    -6934211.618 3  -5403271.484 4
        23.800          27.900
  23428332.084    23428331.347    23428329.670    -9386580.906 3  -7314215.430 3
        22.100          21.600
  21949811.210    21949810.270    21949808.529   -19005853.346 5 -14809747.990 4
        33.200          29.200
  25559892.621    25559892.965    25559892.470     -334251.835     -260459.256 1
                         9.000
  22955838.529    22955837.643    22955837.915    -8059848.782 4  -6280398.006 4
        25.900          27.900
  20527396.127    20527395.210    20527393.586   -25301191.933 6 -19715203.819 8
        40.300          48.600
  22991442.802    22991441.943    22991441.618    -8850179.024 4  -6896239.339 4
        26.800          27.600
  22022581.916    22022581.220    22022580.490   -14869706.277 5 -11586778.687 5
        32.400          33.100
 09  1 11  0 26  0.0000000  0 10G22G19G15G14G21G28G 3G18G 6G 9
  20624250.046    20624249.441    20624246.433   -23838280.575 7 -18575275.311 7
        42.400          46.800
  22993352.093    22993350.480    22993348.789   -10729949.707 5  -8360997.009 5
        30.600          31.500
  23552609.998    23552609.705    23552607.948    -6836008.733 4  -5326749.764 4
        24.600          27.400
  23408312.537    23408311.715    23408310.207    -9491785.339 3  -7396192.903 3
        22.600          22.100
  21966665.793    21966664.871    21966663.011   -18917282.080 5 -14740731.425 4
        33.000          29.200
  25555196.245    25555195.258    25555193.003     -358950.202     -279704.802 1
         3.000           9.000
  22966901.537    22966900.654    22966900.860    -8001714.016 4  -6235098.205 4
        25.900          28.600
  20531626.767    20531625.961    20531624.298   -25278959.414 6 -19697879.773 8
        40.500          48.600
  23003302.367    23003301.868    23003301.946    -8787854.212 4  -6847674.558 4
        26.200          27.900
  22010270.465    22010269.707    22010269.214   -14934403.223 5 -11637191.873 5
        32.300          33.000
 09  1 11  0 26 30.0000000  0 10G22G19G15G14G21G28G 3G18G 6G 9
  20616996.998    20616996.430    20616993.315   -23876395.515 7 -18604975.257 7
        42.400          46.800
  22989128.823    22989127.083    22989125.264   -10752142.839 5  -8378290.360 5
        30.600          31.000
  23571336.523    23571336.166    23571334.238    -6737600.512 4  -5250068.033 4
        24.600          26.800
  23388331.537    23388330.753    23388329.571    -9596785.579 3  -7478011.261 3
        22.600          22.600
  21983588.190    21983587.175    21983585.201   -18828355.442 5 -14671437.953 4
        32.700          29.000
  25550586.237    25550583.891    25550584.385     -383164.509     -298573.007 1
                        11.000
  22978053.415    22978052.400    22978052.524    -7943109.290 4  -6189432.194 4
        25.600          27.900
  20535929.843    20535928.947    20535927.289   -25256347.206 6 -19680259.865 8
        40.500          48.500
  23015241.664    23015241.105    23015240.868    -8725114.596 4  -6798786.556 4
        26.500          27.600
  21998070.283    21998069.573    21998069.342   -14998513.793 5 -11687148.144 5
        32.100          33.100
 09  1 11  0 27  0.0000000  0 10G22G19G15G14G21G28G 3G18G 6G 9
  20609811.525    20609811.057    20609808.158   -23914154.251 7 -18634397.644 7
        42.300          46.900
  22985015.257    22985013.607    22985011.601   -10773759.788 5  -8395134.734 5
        30.600          30.600
  23590101.355    23590101.069    23590099.227    -6638991.459 4  -5173229.804 4
        24.600          27.400
  23368389.644    23368388.910    23368387.655    -9701582.192 3  -7559670.946 3
        22.600          23.000
  22000576.681    22000575.857    22000574.101   -18739077.974 5 -14601871.106 4
        32.400          28.800
  25546070.899    25546071.104    25546068.894     -406895.884     -317064.980 2
         3.000          13.900
  22989294.235    22989293.151    22989293.240    -7884040.150 4  -6143404.297 4
        25.600          27.900
  20540304.430    20540303.576    20540301.979   -25233358.321 6 -19662346.446 8
        40.600          48.500
  23027258.587    23027257.969    23027257.590    -8661965.220 4  -6749579.256 4
        25.600          27.600
  21985982.396    21985981.620    21985981.114   -15062037.680 5 -11736647.255 5
        32.300          33.400
 09  1 11  0 27 30.0000000  0 10G22G19G15G14G21G28G 3G18G 6G 9
  20602696.665    20602696.122    20602693.186   -23951543.525 7 -18663532.133 7
        42.300          47.000
  22981013.808    22981012.019    22981010.164   -10794787.280 5  -8411519.797 5
        30.600          30.800
  23608905.937    23608906.096    23608904.304    -6540172.112 3  -5096227.724 4
        23.800          27.900
  23348488.247    23348487.632    23348486.822    -9806161.133 3  -7641161.008 3
        22.600          23.400
  22017634.486    22017633.683    22017631.834   -18649439.113 5 -14532022.657 4
        32.400          28.800
  25541651.167    25541650.826    25541648.132     -430131.324 1   -335170.558 2
         6.500          15.100
  23000624.277    23000623.530    23000624.081    -7824496.818 4  -6097006.900 4
        25.600          28.400
  20544753.015    20544752.174    20544750.589   -25209980.711 6 -19644130.120 8
        40.600          48.500
  23039355.207    23039354.388    23039354.490    -8598396.286 4  -6700045.043 4
        24.900          28.400
  21974008.407    21974007.731    21974007.126   -15124960.184 5 -11785677.759 5
        32.400          33.000
 09  1 11  0 28  0.0000000  0 10G22G19G15G14G21G28G 3G18G 6G 9
  20595651.036    20595650.488    20595647.544   -23988568.520 7 -18692382.775 7
        42.400          47.000
  22977124.018    22977122.068    22977120.189   -10815229.549 5  -8427448.834 5
        30.400          30.800
  23627749.361    23627749.432    23627747.554    -6441149.418 4  -5019067.187 4
        24.200          27.600
  23328628.240    23328627.659    23328627.120    -9910525.407 3  -7722483.800 3
        22.600          23.800
  22034759.862    22034758.983    22034756.974   -18559445.550 5 -14461897.811 4
        32.600          28.600
  25537320.452    25537319.662    25537319.203     -452875.053     -352892.915 2
                        12.600
  23012044.477    23012043.623    23012043.799    -7764486.175 4  -6050245.366 4
        25.900          28.600
  20549274.578    20549273.715    20549272.172   -25186219.472 6 -19625614.863 8
        40.600          48.400
  23051530.674    23051529.921    23051529.994    -8534414.904 4  -6650189.432 4
        25.600          28.400
  21962148.686    21962147.894    21962147.268   -15187283.188 5 -11834241.125 5
        32.300          33.000
 09  1 11  0 28 30.0000000  0 10G22G19G15G14G21G28G 3G18G 6G 9
  20588674.724    20588674.180    20588671.263   -24025229.418 7 -18720949.702 7
        42.400          47.100
  22973344.747    22973343.157    22973341.532   -10835087.288 5  -8442922.395 5
        30.100          31.100
  23646630.392    23646630.469    23646628.472    -6341926.859 3  -4941750.896 4
        23.800          26.800
  23308809.595    23308808.964    23308808.400   -10014674.193 3  -7803638.673 4
        23.000          24.600
  22051951.924    22051951.076    22051949.347   -18469100.363 5 -14391498.970 4
        32.300          28.600
  25533087.472    25533085.377    25533087.341     -475126.989     -370231.980 2
         3.000          12.600
  23023552.227    23023551.225    23023551.601    -7704012.139 4  -6003122.743 4
        25.900          27.900
  20553868.984    20553868.179    20553866.578   -25162075.902 6 -19606801.687 8
        40.600          48.300
  23063783.775    23063783.075    23063782.879    -8470024.582 4  -6600015.161 4
        26.200          28.400
  21950403.281    21950402.757    21950402.248   -15249005.309 5 -11882336.264 5
        32.400          33.400
 09  1 11  0 29  0.0000000  0 10G22G19G15G14G21G28G 3G18G 6G 9
  20581767.887    20581767.350    20581764.210   -24061525.979 7 -18749232.730 7
        42.500          47.200
  22969677.150    22969675.638    22969673.916   -10854360.965 5  -8457940.845 5
        30.200          31.500
  23665549.753    23665549.340    23665547.296    -6242507.515 3  -4864281.263 4
        23.400          26.800
  23289032.056    23289031.373    23289030.709   -10118607.017 3  -7884625.268 4
        23.800          24.900
  22069210.184    22069209.329    22069208.109   -18378406.348 5 -14320828.325 4
        31.300          29.500
  25528948.087    25528947.265    25528943.475     -496887.281 1   -387188.002 1
        11.000           9.000
  23035147.592    23035146.822    23035146.670    -7643078.282 4  -5955641.810 4
        26.200          27.600
  20558535.872    20558535.022    20558533.451   -25137551.309 6 -19587691.608 8
        40.600          48.300
  23076114.056    23076113.350    23076113.340    -8405228.829 4  -6549524.979 4
        25.900          28.100
  21938772.624    21938772.026    21938771.689   -15310124.883 5 -11929961.883 5
        32.600          33.500
 09  1 11  0 29 30.0000000  0 10G22G19G15G14G21G28G 3G18G 6G 9
  20574929.556    20574929.035    20574926.047   -24097460.434 7 -18777233.598 7
        42.500          47.200
  22966120.367    22966118.792    22966117.073   -10873052.207 5  -8472505.449 5
        30.800          31.300
  23684505.094    23684504.943    23684502.873    -6142895.849 3  -4786661.786 4
        23.000          27.100
  23269295.435    23269294.907    23269294.021   -10222324.172 3  -7965443.814 4
        23.800          24.600
  22086534.304    22086533.477    22086532.149   -18287367.770 5 -14249889.194 4
        31.500          29.200
  25524896.119    25524897.226    25524895.880     -518157.450     -403762.100 1
         3.000           9.000
  23046829.554    23046828.642    23046828.877    -7581689.507 4  -5907806.412 4
        26.200          27.900
  20563274.629    20563273.787    20563272.120   -25112648.897 6 -19568287.126 8
        40.700          48.100
  23088520.285    23088519.636    23088519.504    -8340032.477 4  -6498722.640 4
        25.600          27.600
  21927256.712    21927256.141    21927255.530   -15370641.546 5 -11977117.708 5
        32.700          33.100
 09  1 11  0 30  0.0000000  0 10G22G19G15G14G21G28G 3G18G 6G 9
  20568160.535    20568160.009    20568157.066   -24133031.919 7 -18804951.631 7
        42.400          47.300
  22962674.514    22962672.821    22962671.096   -10891160.092 5  -8486615.496 5
        31.000          31.000
  23703497.063    23703496.759    23703494.349    -6043094.091 3  -4708894.185 4
        22.100          26.800
  23249600.311    23249599.283    23249598.421   -10325823.696 3  -8046092.765 4
        23.000          24.600
  22103923.729    22103922.840    22103921.387   -18195986.242 5 -14178682.824 4
        31.300          28.800
  25520945.060    25520943.526    25520944.173     -538936.178 1   -419953.216 2
         9.000          12.600
  23058597.729    23058596.961    23058597.179    -7519847.442 4  -5859617.800 4
        25.900          28.400
  20568085.340    20568084.482    20568082.820   -25087368.387 6 -19548588.023 8
        40.700          48.000
  23101002.489    23101002.058    23101001.934    -8274437.671 4  -6447609.805 4
        25.600          27.400
  21915855.879    21915855.247    21915854.997   -15430552.583 5 -12023801.613 5
        32.700          33.500
 09  1 11  0 30 30.0000000  0 10G22G19G15G14G21G28G 3G18G 6G 9
  20561463.162    20561462.656    20561459.625   -24168226.734 7 -18832376.157 7
        42.500          47.300
  22959342.334    22959340.866    22959338.663   -10908671.634 5  -8500260.853 5
        31.300          30.800
  23722527.150    23722526.647    23722524.198    -5943091.402 3  -4630970.019 4
        21.600          26.200
  23229949.042    23229948.222    23229947.546   -10429090.686 3  -8126560.526 4
        23.800          24.900
  22121380.243    22121379.642    22121378.150   -18104250.546 5 -14107200.477 4
        31.300          28.600
  25517088.032    25517086.557    25517084.448     -559210.253 2   -435751.138 1
        12.600          11.000
  23070453.969    23070453.163    23070453.265    -7457542.346 4  -5811068.382 4
        26.200          27.600
  20572970.451    20572969.574    20572967.889   -25061697.187 6 -19528584.485 8
        40.700          48.000
  23113562.441    23113561.729    23113561.754    -8208433.859 4  -6396178.280 4
        24.900          26.800
  21904573.674    21904573.027    21904572.360   -15489842.320 5 -12070001.388 5
        33.000          33.500
 09  1 11  0 31  0.0000000  0 10G22G19G15G14G21G28G 3G18G 6G 9
  20554836.585    20554836.053    20554832.964   -24203049.962 7 -18859511.136 7
        42.600          47.400
  22956122.263    22956120.726    22956119.229   -10925591.880 5  -8513445.466 5
        30.800          31.100
  23741593.582    23741592.997    23741590.642    -5842896.362 3  -4552895.971 4
        21.600          25.300
  23210341.612    23210340.955    23210339.939   -10532129.179 4  -8206850.243 4
        24.200          25.300
  22138903.196    22138902.352    22138900.627   -18012168.907 5 -14035448.564 4
        31.600          28.100
  25513320.673    25513320.747    25513321.795     -578984.350 1   -451159.511 2
         9.000          12.600
  23082396.932    23082396.146    23082395.996    -7394782.286 4  -5762164.445 4
        26.200          27.400
  20577928.403    20577927.620    20577926.052   -25035641.873 6 -19508281.640 7
        40.700          47.900
  23126198.607    23126198.125    23126198.166    -8142029.585 4  -6344434.685 4
        24.900          26.800
  21893408.430    21893407.832    21893407.378   -15548514.235 5 -12115719.749 5
        32.800          33.500
 09  1 11  0 31 30.0000000  0 10G22G19G15G14G21G28G 3G18G 6G 9
  20548279.600    20548279.043    20548276.017   -24237507.090 7 -18886360.841 7
        42.500          47.500
  22953014.313    22953012.504    22953010.698   -10941925.616 5  -8526173.048 5
        30.400          31.100
  23760694.912    23760694.548    23760692.278    -5742516.332 3  -4474677.758 4
        20.500          24.600
  23190776.590    23190775.810    23190774.932   -10634942.905 3  -8286964.820 4
        23.800          24.900
  22156490.081    22156489.185    22156487.670   -17919748.389 5 -13963432.585 4
        31.000          28.100
  25509653.765    25509653.593    25509653.065     -598263.319 1   -466181.921 2
        11.000          13.900
  23094424.680    23094423.740    23094423.908    -7331575.668 4  -5712912.535 4
        25.900          27.100
  20582958.854    20582958.016    20582956.320   -25009207.765 6 -19487683.629 7
        40.700          47.900
  23138910.195    23138909.332    23138909.592    -8075232.599 4  -6292385.101 4
        24.600          27.100
  21882360.624    21882360.003    21882359.597   -15606570.783 5 -12160958.599 5
        32.800          33.600
 09  1 11  0 32  0.0000000  0 10G22G19G15G14G21G28G 3G18G 6G 9
  20541792.376    20541791.792    20541788.758   -24271597.903 7 -18912925.102 7
        42.500          47.600
  22950017.616    22950015.963    22950014.211   -10957673.214 5  -8538443.901 5
        31.100          31.300
  23779831.324    23779831.112    23779828.643    -5641954.161 3  -4396317.628 4
        21.100          24.200
  23171254.443    23171253.606    23171252.894   -10737530.740 3  -8366903.364 4
        23.000          24.900
  22174141.030    22174140.080    22174138.661   -17826991.545 5 -13891154.535 4
        30.400          28.100
  25506082.023    25506080.766    25506078.252     -617046.747 1   -480818.321 1
        11.000          11.000
  23106536.973    23106536.124    23106535.819    -7267925.477 4  -5663314.985 4
        25.900          26.500
  20588060.947    20588060.106    20588058.530   -24982395.964 6 -19466791.312 7
        40.800          47.800
  23151695.495    23151694.541    23151694.362    -8008046.146 4  -6240032.027 4
        24.200          26.800
  21871430.472    21871429.857    21871429.212   -15664010.287 5 -12205716.638 5
        33.100          33.500
 09  1 11  0 32 30.0000000  0 10G22G19G15G14G21G28G 3G18G 6G 9
  20535375.770    20535375.156    20535372.113   -24305317.449 7 -18939200.070 7
        42.500          47.600
  22947133.296    22947131.660    22947129.792   -10972830.350 5  -8550254.656 5
        31.800          31.100
  23799002.545    23799002.454    23799000.031    -5541208.183 3  -4317814.253 4
        22.100          24.600
  23151776.813    23151776.308    23151775.519   -10839886.636 4  -8446661.181 4
        24.200          25.600
  22191855.985    22191855.287    22191854.334   -17733896.462 5 -13818612.927 4
        30.200          28.100
  25502601.678    25502600.199    25502598.375     -635330.160     -495065.163 1
         3.000           9.000
  23118733.414    23118732.666    23118732.860    -7203830.093 4  -5613370.536 4
        25.300          26.800
  20593235.599    20593234.707    20593233.112   -24955203.129 6 -19445602.087 7
        40.800          47.700
  23164554.420    23164554.279    23164554.210    -7940468.530 4  -6187374.147 4
        24.200          27.400
  21860618.633    21860617.999    21860617.658   -15720826.016 5 -12249988.626 5
        33.100          33.900
 09  1 11  0 33  0.0000000  0 10G22G19G15G14G21G28G 3G18G 6G 9
  20529030.131    20529029.590    20529026.616   -24338663.451 7 -18965183.962 7
        42.600          47.800
  22944361.734    22944360.046    22944358.284   -10987395.268 5  -8561603.939 5
        32.000          31.100
  23818208.582    23818208.390    23818206.272    -5440279.122 3  -4239168.229 4
        22.100          25.600
  23132343.976    23132343.181    23132342.342   -10942007.836 4  -8526236.121 4
        24.200          25.300
  22209636.145    22209635.254    22209633.836   -17640463.800 5 -13745808.263 4
        30.600          27.900
  25499217.236    25499216.398    25499214.434     -653111.683     -508920.870 1
                         9.000
  23131015.084    23131014.422    23131013.972    -7139291.037 4  -5563080.376 4
        25.300          26.800
  20598482.780    20598481.934    20598480.281   -24927628.445 6 -19424115.319 7
        40.800          47.600
  23177488.282    23177487.788    23177487.944    -7872501.307 4  -6134412.697 4
        24.200          27.600
  21849926.311    21849925.685    21849925.470   -15777014.615 5 -12293771.934 5
        33.200          34.300
 09  1 11  0 33 30.0000000  0 10G22G19G15G14G21G28G 3G18G 6G 9
  20522755.690    20522755.150    20522752.101   -24371636.032 7 -18990876.878 7
        42.600          47.800
  22941702.911    22941701.222    22941699.449   -11001367.205 5  -8572491.164 5
        31.600          31.100
  23837448.741    23837448.931    23837446.631    -5339168.985 3  -4160381.107 4
        22.100          25.600
  23112956.005    23112955.270    23112954.399   -11043892.108 4  -8605626.446 4
        24.600          25.600
  22227479.577    22227478.841    22227477.469   -17546695.157 5 -13672741.803 4
        30.400          27.600
  25495928.584    25495927.741    25495928.112     -670390.180     -522384.648 2
         3.000          12.600
  23143380.471    23143379.641    23143379.707    -7074310.765 4  -5512446.389 4
        25.300          27.400
  20603802.719    20603801.929    20603800.232   -24899671.723 6 -19402330.856 7
        40.800          47.400
  23190496.481    23190495.788    23190495.518    -7804146.735 4  -6081149.405 4
        24.600          27.900
  21839354.010    21839353.325    21839352.673   -15832573.118 5 -12337064.263 5
        33.400          33.600
 09  1 11  0 34  0.0000000  0 10G22G19G15G14G21G28G 3G18G 6G 9
  20516551.730    20516551.174    20516548.193   -24404237.861 7 -19016280.896 7
        42.700          47.900
  22939156.262    22939154.764    22939153.159   -11014749.321 5  -8582918.787 5
        31.600          31.300
  23856722.800    23856723.092    23856720.682    -5237883.575 3  -4081457.414 4
        22.100          25.900
  23093612.937    23093611.956    23093611.316   -11145541.140 4  -8684833.459 4
        24.200          25.600
  22245385.804    22245385.171    22245383.915   -17452595.949 5 -13599417.759 4
        30.100          27.400
  25492737.559    25492736.244    25492736.152     -687168.422 1   -535458.660 1
         6.500           9.000
  23155828.629    23155827.738    23155827.822    -7008895.381 4  -5461473.380 4
        24.900          27.100
  20609194.701    20609193.871    20609192.313   -24871336.763 6 -19380251.661 7
        40.800          47.400
  23203575.865    23203575.324    23203575.617    -7735410.508 4  -6027588.717 4
        24.600          28.100
  21828901.210    21828900.535    21828899.974   -15887502.531 5 -12379866.389 5
        33.100          33.600
 09  1 11  0 34 30.0000000  0 10G22G19G15G14G21G28G 3G18G 6G 9
  20510418.857    20510418.333    20510415.342   -24436466.527 7 -19041394.138 8
        42.700          48.000
  22936722.539    22936720.819    22936718.674   -11027539.966 5  -8592885.519 5
        31.800          30.800
  23876029.954    23876029.762    23876028.194    -5136423.302 3  -4002397.452 4
        21.100          25.900
  23074314.825    23074314.122    23074313.332   -11246951.720 4  -8763854.670 4
        24.600          25.600
  22263355.199    22263354.445    22263353.103   -17358166.604 4 -13525836.461 4
        29.700          27.100
  25489638.828    25489637.784    25489636.497     -703443.694     -548140.668 1
         3.000           6.500
  23168358.511    23168357.994    23168358.603    -6943045.592 4  -5410161.847 4
        24.200          26.500
  20614658.836    20614658.025    20614656.398   -24842622.710 6 -19357877.074 7
        40.900          47.400
  23216728.019    23216727.713    23216727.915    -7666294.014 4  -5973731.720 4
        24.200          27.600
  21818569.010    21818568.318    21818567.949   -15941798.639 5 -12422175.028 5
        33.600          34.300
 09  1 11  0 35  0.0000000  0 10G22G19G15G14G21G28G 3G18G 6G 9
  20504355.991    20504355.495    20504352.509   -24468326.395 7 -19066220.004 8
        42.700          48.100
  22934399.883    22934398.503    22934396.436   -11039743.908 5  -8602395.081 5
        32.100          30.400
  23895369.431    23895368.541    23895367.118    -5034795.777 3  -3923207.173 4
        20.500          25.300
  23055061.466    23055061.030    23055060.342   -11348126.803 4  -8842692.385 4
        24.600          25.600
  22281386.229    22281385.273    22281383.856   -17263414.316 4 -13452003.515 4
        29.200          26.800
  25486638.075    25486636.424    25486636.392     -719221.575     -560435.147 1
         3.000           6.500
  23180970.682    23180970.478    23180970.468    -6876769.357 4  -5358518.053 4
        24.600          27.100
  20620194.026    20620193.235    20620191.622   -24813534.994 6 -19335211.318 7
        41.000          47.300
  23229951.481    23229951.148    23229951.232    -7596804.689 3  -5919584.212 4
        23.800          27.400
  21808356.761    21808356.093    21808355.576   -15995464.328 5 -12463992.432 5
        33.800          34.100
 09  1 11  0 35 30.0000000  0 10G22G19G15G14G21G28G 3G18G 6G 9
  20498365.145    20498364.629    20498361.627   -24499808.729 7 -19090751.687 8
        42.700          48.200
  22932191.167    22932189.461    22932187.448   -11051352.186 5  -8611440.475 5
        32.100          30.400
  23914741.659    23914740.872    23914739.221    -4932994.745 3  -3843881.683 4
        20.500          24.200
  23035855.040    23035854.615    23035853.830   -11449056.507 4  -8921338.897 4
        24.600          25.600
  22299479.790    22299478.730    22299477.578   -17168332.333 4 -13377913.679 4
        29.200          26.800
  25483731.145    25483730.505    25483729.037     -734492.002 1   -572334.265 1
         6.500           6.500
  23193664.529    23193663.817    23193664.881    -6810060.682 3  -5306537.256 4
        23.800          26.800
  20625801.938    20625801.106    20625799.406   -24784065.337 6 -19312247.946 7
        40.900          47.100
  23243247.243    23243246.781    23243246.588    -7526936.665 3  -5865141.613 4
        23.800          26.800
  21798266.453    21798265.805    21798265.159   -16048489.010 5 -12505310.351 5
        33.800          33.900
 09  1 11  0 36  0.0000000  0 10G22G19G15G14G21G28G 3G18G 6G 9
  20492445.835    20492445.278    20492442.257   -24530915.285 7 -19114990.556 8
        42.800          48.300
  22930095.344    22930093.406    22930091.143   -11062367.188 5  -8620023.579 5
        31.600          30.400
  23934146.182    23934145.385    23934143.553    -4831024.664 3  -3764424.469 4
        21.100          24.600
  23016696.020    23016695.010    23016694.284   -11549741.371 4  -8999794.617 4
        25.300          25.600
  22317635.059    22317634.339    22317632.771   -17072925.359 4 -13303570.597 4
        29.700          26.500
  25480921.283    25480921.454    25480920.317     -749256.918 1   -583839.379 2
         6.500          12.600
  23206441.026    23206440.215    23206440.453    -6742924.780 4  -5254223.577 4
        24.200          26.800
  20631481.917    20631481.073    20631479.375   -24754216.785 6 -19288989.332 7
        41.000          47.000
  23256613.765    23256613.120    23256613.273    -7456695.067 3  -5810407.911 4
        23.400          26.500
  21788298.325    21788297.635    21788296.989   -16100872.584 5 -12546128.717 5
        34.000          34.300
 09  1 11  0 36 30.0000000  0 10G22G19G15G14G21G28G 3G18G 6G 9
  20486596.745    20486596.212    20486593.213   -24561652.232 7 -19138941.422 8
        42.800          48.400
  22928110.713    22928108.831    22928107.092   -11072795.322 5  -8628149.391 5
        31.300          30.800
  23953580.369    23953579.923    23953578.247    -4728894.851 3  -3684842.794 4
        20.500          24.600
  22997581.686    22997580.948    22997580.027   -11650186.579 4  -9078063.594 4
        25.300          25.300
  22335850.577    22335849.839    22335848.467   -16977202.051 4 -13228981.017 4
        29.500          26.800
  25478205.886    25478205.240    25478207.302     -763522.540     -594955.442 2
                        13.900
  23219295.852    23219295.078    23219295.257    -6675371.654 4  -5201584.771 4
        24.200          26.800
  20637232.607    20637231.856    20637230.158   -24723996.748 6 -19265441.247 7
        41.100          47.000
  23270050.073    23270049.274    23270048.997    -7386089.339 4  -5755390.474 4
        24.200          26.200
  21778451.235    21778450.551    21778450.078   -16152619.611 5 -12586451.060 5
        34.000          34.600
 09  1 11  0 37  0.0000000  0 10G22G19G15G14G21G28G 3G18G 6G 9
  20480819.937    20480819.350    20480816.383   -24592010.012 7 -19162596.830 8
        42.900          48.500
  22926239.494    22926237.723    22926235.949   -11082627.417 5  -8635810.749 5
        31.100          30.600
  23973045.694    23973046.036    23973045.021    -4626598.071 3  -3605131.011 4
        19.300          24.900
  22978514.979    22978514.398    22978513.624   -11750381.352 4  -9156137.425 4
        25.300          25.600
  22354128.066    22354127.221    22354125.525   -16881155.518 4 -13154139.572 4
        29.500          27.100
  25475590.690    25475589.435    25475586.441     -777279.532     -605675.128 1
                         6.500
  23232231.726    23232230.640    23232230.918    -6607394.378 4  -5148615.479 4
        24.200          26.200
  20643055.595    20643054.834    20643053.238   -24693396.372 6 -19241596.794 7
        41.100          47.000
  23283555.849    23283555.240    23283555.578    -7315112.893 4  -5700084.147 4
        24.200          26.200
  21768727.339    21768726.657    21768726.042   -16203718.602 5 -12626268.446 5
        34.000          34.100
 09  1 11  0 37 30.0000000  0 10G22G19G15G14G21G28G 3G18G 6G 9
  20475115.278    20475114.716    20475111.701   -24621988.076 7 -19185956.358 8
        43.000          48.500
  22924482.330    22924480.447    22924478.379   -11091862.642 5  -8643007.021 5
        31.300          30.400
  23992543.905    23992544.197    23992542.820    -4524136.286 3  -3525290.666 4
        19.300          25.300
  22959496.857    22959496.018    22959495.349   -11850323.228 4  -9234014.193 4
        25.600          25.600
  22372466.344    22372465.473    22372464.017   -16784787.153 4 -13079047.351 4
        29.200          26.800
  25473068.404    25473068.292    25473067.049     -790527.162     -615997.919
         3.000           3.000
  23245247.511    23245246.598    23245246.713    -6538995.732 4  -5095317.826 4
        24.900          25.900
  20648951.095    20648950.266    20648948.640   -24662415.661 6 -19217455.977 7
        41.000          46.800
  23297132.338    23297132.056    23297131.969    -7243767.970 4  -5644490.718 4
        24.600          26.200
  21759127.354    21759126.695    21759126.134   -16254166.944 5 -12665578.834 5
        34.000          34.400
 09  1 11  0 38  0.0000000  0 10G22G19G15G14G21G28G 3G18G 6G 9
  20469482.216    20469481.693    20469478.631   -24651589.848 7 -19209022.669 8
        43.100          48.600
  22922837.208    22922835.424    22922834.113   -11100505.521 5  -8649741.730 5
        30.800          31.000
  24012071.944    24012071.705    24012070.655    -4421516.103 3  -3445326.891 4
        18.600          25.300
  22940525.839    22940525.376    22940524.688   -11950015.136 4  -9311696.184 4
        25.600          25.900
  22390864.507    22390863.663    22390862.116   -16688103.438 4 -13003709.407 4
        28.800          26.200
  25470643.010    25470642.279    25470642.416     -803268.969     -625926.652
                         3.000
  23258342.313    23258341.456    23258341.474    -6470182.239 4  -5041696.921 4
        24.600          25.900
  20654917.990    20654917.172    20654915.524   -24631059.402 6 -19193022.526 7
        41.000          46.700
  23310777.862    23310777.294    23310777.357    -7172061.690 4  -5588615.703 4
        24.200          26.500
  21749650.755    21749650.008    21749649.379   -16303966.413 5 -12704383.594 5
        34.100          34.100
 09  1 11  0 38 30.0000000  0 10G22G19G15G14G21G28G 3G18G 6G 9
  20463919.197    20463918.662    20463915.602   -24680823.579 7 -19231802.196 8
        43.200          48.700
  22921303.346    22921301.712    22921300.129   -11108565.545 5  -8656022.264 5
        30.600          30.800
  24031627.884    24031627.839    24031626.576    -4318748.837 2  -3365248.509 4
        17.800          24.600
  22921601.611    22921600.715    22921599.993   -12049464.746 4  -9389189.367 4
        25.900          25.900
  22409320.378    22409319.678    22409318.277   -16591115.800 4 -12928134.636 4
        28.600          25.900
  25468314.380    25468313.777    25468310.360     -815513.868     -635468.213 1
         3.000           6.500
  23271513.617    23271513.003    23271512.841    -6400966.618 4  -4987762.678 4
        24.200          25.300
  20660954.513    20660953.668    20660952.015   -24599337.505 6 -19168304.161 7
        41.100          46.600
  23324489.432    23324488.965    23324489.167    -7100005.978 3  -5532468.415 4
        23.800          26.500
  21740296.349    21740295.670    21740294.567   -16353124.605 5 -12742688.674 5
        34.400          33.600
 09  1 11  0 39  0.0000000  0 10G 9G22G19G15G14G21G28G 3G18G 6
  21731067.228    21731066.610    21731066.154   -16401622.479 5 -12780479.210 5
        34.100          34.100
  20458429.370    20458428.884    20458425.795   -24709672.678 7 -19254282.010 8
        43.300          48.800
  22919884.016    22919882.334    22919880.473   -11116025.323 5  -8661835.069 5
        31.000          30.600
  24051214.918    24051214.815    24051213.668    -4215819.733 2  -3285044.012 4
        17.800          24.200
  22902726.744    22902726.159    22902725.044   -12148653.024 4  -9466478.921 4
        26.500          26.200
  22427837.132    22427836.376    22427835.060   -16493809.328 4 -12852311.423 4
        28.600          25.900
  25466081.838    25466080.844    25466080.150     -827244.383     -644608.832 1
         3.000           6.500
  23284763.962    23284763.327    23284763.508    -6331334.146 3  -4933503.615 4
        23.800          24.900
  20667063.619    20667062.759    20667061.190   -24567233.445 6 -19143288.003 7
        41.100          46.500
  23338270.431    23338269.811    23338269.977    -7027586.484 3  -5476037.649 4
        23.400          26.200
 09  1 11  0 39 30.0000000  0 10G 9G22G19G15G14G21G28G 3G18G 6
  21721963.948    21721963.289    21721962.755   -16449460.744 5 -12817755.768 5
        34.400          34.100
  20453012.364    20453011.808    20453008.754   -24738139.705 7 -19276464.105 8
        43.300          48.900
  22918577.912    22918576.313    22918574.678   -11122887.606 5  -8667182.311 5
        31.000          30.200
  24070831.854    24070831.630    24070830.604    -4112734.233 2  -3204717.646 4
        17.800          24.200
  22883901.059    22883900.421    22883899.446   -12247581.766 4  -9543566.237 4
        26.200          26.500
  22446413.747    22446412.913    22446411.619   -16396189.213 4 -12776243.806 4
        28.600          25.600
  25463945.812    25463944.992    25463946.054     -838463.226     -653350.738 1
         3.000           6.500
  23298092.749    23298092.156    23298092.049    -6261290.775 3  -4878924.361 4
        23.400          24.200
  20673244.824    20673244.000    20673242.450   -24534750.683 6 -19117976.754 7
        41.000          46.400
  23352119.972    23352118.990    23352119.432    -6954808.810 3  -5419327.781 4
        23.000          26.200
 09  1 11  0 40  0.0000000  0 10G 9G22G19G15G14G21G28G 3G18G 6
  21712984.437    21712983.741    21712983.045   -16496649.430 5 -12854526.165 5
        34.500          34.400
  20447665.858    20447665.296    20447662.197   -24766235.910 7 -19298357.247 8
        43.300          49.000
  22917383.684    22917382.229    22917380.159   -11129164.354 5  -8672073.278 5
        31.000          30.200
  24090476.260    24090475.751    24090473.874    -4009506.376 2  -3124280.361 3
        17.800          23.800
  22865123.154    22865122.376    22865121.391   -12346260.956 4  -9620459.084 4
        25.900          26.800
  22465047.289    22465046.593    22465045.194   -16298269.465 4 -12699942.718 4
        28.400          25.900
  25461905.722    25461905.515    25461907.366     -849181.857 1   -661702.927 1
         6.500           6.500
  23311497.204    23311496.172    23311496.368    -6190851.338 3  -4824036.482 4
        23.000          24.600
  20679495.874    20679495.034    20679493.309   -24501901.802 6 -19092380.220 7
        41.100          46.300
  23366034.053    23366033.530    23366033.955    -6881687.760 3  -5362350.355 4
        22.600          26.800
 09  1 11  0 40 30.0000000  0 10G 9G22G19G15G14G21G28G 3G18G 6
  21704130.530    21704129.827    21704129.335   -16543176.526 5 -12890781.024 5
        34.600          34.700
  20442391.744    20442391.236    20442388.217   -24793950.843 7 -19319953.293 8
        43.400          49.100
  22916303.016    22916301.228    22916298.916   -11134846.287 5  -8676500.762 5
        31.300          30.400
  24110148.626    24110147.881    24110145.860    -3906128.468 2  -3043726.148 3
        17.800          23.400
  22846395.088    22846394.257    22846393.082   -12444679.130 4  -9697148.547 4
        26.500          27.100
  22483739.248    22483738.399    22483737.156   -16200042.479 4 -12623402.226 4
        27.600          26.200
  25459964.641    25459964.477    25459963.877     -859390.340 1   -669657.743
         9.000
  23324978.270    23324977.305    23324977.570    -6120008.769 3  -4768834.481 4
        23.000          25.300
  20685818.328    20685817.489    20685815.756   -24468677.195 6 -19066490.910 7
        41.100          46.100
  23380015.196    23380014.457    23380015.242    -6808216.310 3  -5305099.894 4
        22.100          26.200
 09  1 11  0 41  0.0000000  0  9G 9G22G19G15G14G21G 3G18G 6
  21695404.044    21695403.383    21695402.709   -16589034.025 5 -12926514.129 5
        34.500          34.500
  20437191.760    20437191.191    20437188.049   -24821277.977 7 -19341247.160 8
        43.500          49.200
  22915335.928    22915334.056    22915332.193   -11139927.438 5  -8680460.110 5
        31.600          30.800
  24129849.318    24129849.131    24129846.847    -3802597.118 3  -2963052.370 3
        18.600          23.000
  22827717.588    22827716.886    22827715.853   -12542828.862 4  -9773628.842 4
        26.800          27.400
  22502490.648    22502489.648    22502488.224   -16101504.647 4 -12546619.530 4
        27.900          25.600
  23338536.421    23338535.300    23338535.298    -6048760.363 3  -4713316.260 4
        22.100          24.600
  20692213.039    20692212.262    20692210.585   -24435071.986 6 -19040305.027 7
        41.100          46.000
  23394063.723    23394062.829    23394062.947    -6734391.511 3  -5247574.094 4
        22.100          24.900
 09  1 11  0 41 30.0000000  0 10G 9G22G28G19G15G14G21G 3G18G 6
  21686803.867    21686803.194    21686802.750   -16634228.188 5 -12961730.347 5
        34.600          34.800
  20432063.775    20432063.251    20432060.135   -24848225.088 7 -19362244.903 8
        43.600          49.300
  25456372.694    25456371.768    25456372.348           -.43111          .39211
         9.000           6.500
  22914482.029    22914480.280    22914478.370   -11144415.724 5  -8683957.477 5
        32.100          31.300
  24149577.740    24149577.672    24149575.283    -3698922.379 3  -2882266.869 3
        19.900          23.400
  22809090.109    22809089.114    22809088.591   -12640716.556 4  -9849904.944 4
        26.500          27.400
  22521299.036    22521298.090    22521296.360   -16002666.135 4 -12469602.517 4
        28.100          25.300
  23352169.377    23352168.539    23352168.414    -5977117.027 3  -4657490.292 3
        22.100          23.800
  20698678.843    20698678.033    20698676.285   -24401094.648 6 -19013829.172 7
        41.200          45.900
  23408177.220    23408176.726    23408176.370    -6660223.956 3  -5189781.187 4
        23.000          24.200
 09  1 11  0 42  0.0000000  0 10G 9G22G28G19G15G14G21G 3G18G 6
  21678330.399    21678329.695    21678328.969   -16678757.918 5 -12996428.823 5
        34.700          34.900
  20427008.072    20427007.525    20427004.489   -24874792.881 7 -19382947.074 8
        43.600          49.400
  25454721.720    25454720.722    25454721.124       -8675.835 1     -6759.659 1
         9.000           9.000
  22913740.306    22913738.624    22913736.374   -11148312.680 5  -8686994.075 5
        31.800          30.600
  24169333.057    24169332.535    24169330.253    -3595107.781 3  -2801372.363 3
        19.300          22.600
  22790512.507    22790511.715    22790510.767   -12738341.786 4  -9925976.536 4
        26.800          27.400
  22540163.832    22540163.150    22540161.314   -15903529.832 4 -12392353.456 4
        27.600          24.900
  23365877.512    23365876.407    23365876.434    -5905082.445 3  -4601359.463 4
        23.000          24.600
  20705214.922    20705214.129    20705212.433   -24366746.821 6 -18987064.627 7
        41.100          45.700
  23422355.487    23422354.908    23422354.789    -6585717.468 3  -5131724.193 4
        22.600          24.200
 09  1 11  0 42 30.0000000  0 10G 9G22G28G19G15G14G21G 3G18G 6
  21669983.104    21669982.500    21669981.856   -16722621.213 5 -13030608.009 5
        34.700          34.700
  20422024.781    20422024.244    20422021.073   -24900980.705 7 -19403353.165 8
        43.700          49.500
  25453166.836    25453167.401    25453165.810      -16842.721 1    -13123.445
         6.500           3.000
  22913111.335    22913109.551    22913107.476   -11151618.001 5  -8689569.657 5
        31.500          30.600
  24189114.265    24189113.514    24189111.836    -3491155.213 3  -2720370.353 3
        18.600          22.600
  22771985.491    22771984.604    22771983.539   -12835702.711 4 -10001842.176 4
        27.100          27.100
  22559084.681    22559084.117    22559082.820   -15804097.995 4 -12314874.127 4
        27.400          25.300
  23379659.269    23379658.300    23379658.296    -5832659.544 3  -4544926.037 4
        22.600          24.900
  20711821.678    20711820.796    20711819.080   -24332028.760 6 -18960011.588 7
        41.200          45.600
  23436597.755    23436597.005    23436596.728    -6510874.918 3  -5073405.326 4
        22.600          24.200
 09  1 11  0 43  0.0000000  0 10G 9G22G28G19G15G14G21G 3G18G 6
  21661764.235    21661763.414    21661762.844   -16765813.849 5 -13064264.599 5
        34.800          35.100
  20417114.148    20417113.613    20417110.516   -24926785.911 7 -19423461.110 8
        43.800          49.500
  25451709.784    25451710.168    25451707.910      -24498.719      -19089.119
         3.000           3.000
  22912595.073    22912593.349    22912591.536   -11154329.442 5  -8691682.473 5
        31.500          30.800
  24208921.095    24208921.383    24208919.840    -3387064.131 2  -2639260.428 3
        17.800          22.600
  22753509.393    22753508.580    22753507.803   -12932795.272 4 -10077498.706 4
        27.400          27.600
  22578062.152    22578061.721    22578060.366   -15704370.356 4 -12237164.295 4
        27.400          24.900
  23393514.099    23393513.317    23393513.377    -5759848.838 3  -4488190.437 4
        21.600          24.600
  20718499.096    20718498.283    20718496.519   -24296938.588 6 -18932668.593 7
        41.200          45.600
  23450903.521    23450902.854    23450903.083    -6435696.458 3  -5014824.718 4
        22.100          24.200
 09  1 11  0 43 30.0000000  0 10G 9G22G28G19G15G14G21G 3G18G 6
  21653673.606    21653672.793    21653672.147   -16808329.689 5 -13097393.815 5
        34.600          34.900
  20412277.224    20412276.727    20412273.628   -24952203.875 7 -19443267.311 8
        43.800          49.600
  25450349.489    25450349.520    25450351.097      -31639.228      -24653.164 1
         3.000           6.500
  22912193.028    22912191.399    22912189.403   -11156442.965 5  -8693329.373 5
        31.800          31.000
  24228755.915    24228755.832    24228754.214    -3282833.099 2  -2558041.440 3
        17.800          21.100
  22735085.500    22735084.644    22735083.846   -13029613.676 4 -10152941.596 4
        27.400          27.900
  22597096.684    22597095.852    22597094.664   -15604344.834 4 -12159222.349 4
        27.100          24.900
  23407443.516    23407442.978    23407443.088    -5686648.971 3  -4431151.584 4
        22.600          24.600
  20725247.808    20725247.027    20725245.383   -24261472.944 6 -18905033.022 7
        41.100          45.500
  23465273.197    23465273.002    23465273.032    -6360180.770 3  -4955981.323 3
        22.100          23.400
 09  1 11  0 44  0.0000000  0 10G 9G22G28G19G15G14G21G 3G18G 6
  21645711.362    21645710.650    21645710.105   -16850171.386 5 -13129997.726 5
        34.800          35.200
  20407513.296    20407512.775    20407509.626   -24977238.671 7 -19462774.941 8
        43.800          49.700
  25449087.629    25449088.222    25449086.327      -38268.701 1    -29819.061 1
         6.500           9.000
  22911903.904    22911901.890    22911900.138   -11157963.653 5  -8694514.327 5
        31.600          31.300
  24248615.739    24248615.572    24248613.928    -3178468.486 2  -2476718.344 3
        17.000          21.100
  22716713.179    22716712.541    22716711.349   -13126160.623 4 -10228172.966 4
        27.600          28.100
  22616186.302    22616185.590    22616184.199   -15504028.240 4 -12081053.591 4
        27.100          24.600
  23421445.664    23421444.835    23421445.387    -5613067.410 3  -4373815.318 4
        21.600          24.900
  20732067.480    20732066.555    20732064.811   -24225636.500 6 -18877108.517 7
        41.100          45.300
  23479706.763    23479706.329    23479705.887    -6284335.213 3  -4896880.885 3
        21.600          23.400
 09  1 11  0 44 30.0000000  0 10G 9G22G28G19G15G14G21G 3G18G 6
  21637877.507    21637876.724    21637876.337   -16891338.487 5 -13162075.982 5
        35.100          35.400
  20402822.103    20402821.571    20402818.453   -25001891.114 7 -19481984.631 8
        43.900          49.800
  25447925.429    25447925.188    25447923.946      -44388.058 2    -34587.492 2
        12.600          12.600
  22911726.841    22911725.138    22911723.416   -11158892.526 5  -8695238.124 5
        31.600          31.500
  24268499.564    24268499.824    24268498.832    -3073973.629 2  -2395293.772 3
        17.000          21.600
  22698392.432    22698391.628    22698390.937   -13222435.991 4 -10303192.711 4
        27.600          28.600
  22635331.114    22635330.265    22635328.717   -15403423.942 4 -12002660.645 4
        27.400          24.600
  23435519.854    23435518.873    23435519.364    -5539107.772 3  -4316184.432 4
        21.100          25.300
  20738956.979    20738956.146    20738954.397   -24189431.422 6 -18848896.767 7
        41.200          45.200
  23494201.627    23494201.096    23494200.773    -6208163.703 3  -4837526.473 3
        22.100          23.400
 09  1 11  0 45  0.0000000  0 10G 9G22G28G19G15G14G21G 3G18G 6
  21630172.853    21630172.091    21630171.472   -16931827.363 5 -13193625.746 5
        35.300          35.400
  20398203.917    20398203.436    20398200.440   -25026159.265 7 -19500894.875 8
        43.900          50.000
  25446858.547    25446857.830    25446857.991      -49995.395 1    -38956.788 2
        11.000          12.600
  22911663.195    22911661.420    22911659.590   -11159228.382 5  -8695499.834 5
        31.600          31.600
  24288408.722    24288409.675    24288408.022    -2969349.155 2  -2313768.205 3
        17.000          22.100
  22680124.132    22680123.167    22680122.648   -13318436.561 4 -10377998.325 4
        27.900          28.400
  22654530.593    22654529.397    22654527.810   -15302532.400 4 -11924043.871 4
        27.100          24.600
  23449665.693    23449664.779    23449664.954    -5464771.629 3  -4258260.194 4
        22.100          24.600
  20745916.985    20745916.174    20745914.385   -24152856.429 6 -18820396.769 7
        41.200          45.100
  23508758.293    23508757.961    23508757.596    -6131667.380 3  -4777918.943 3
        22.100          23.400
 09  1 11  0 45 30.0000000  0 10G 9G22G28G19G15G14G21G 3G18G 6
  21622598.319    21622597.606    21622596.918   -16971631.038 5 -13224641.587 5
        35.300          35.300
  20393660.315    20393659.804    20393656.719   -25050036.429 7 -19519500.452 8
        43.900          50.000
  25445889.278    25445887.875    25445889.614      -55085.058      -42922.713 1
         3.000           9.000
  22911712.846    22911711.291    22911709.668   -11158965.813 5  -8695295.231 5
        31.500          32.000
  24308343.720    24308344.410    24308342.962    -2864591.570 2  -2232138.928 3
        15.100          21.600
  22661909.370    22661908.616    22661907.969   -13414154.868 4 -10452584.000 4
        27.900          28.400
  22673784.586    22673783.590    22673782.329   -15201350.338 4 -11845200.718 4
        26.500          24.900
  23463882.988    23463882.086    23463882.402    -5390056.496 3  -4200040.605 3
        21.600          23.800
  20752948.290    20752947.463    20752945.812   -24115906.196 6 -18791604.377 7
        41.100          44.900
  23523377.922    23523376.944    23523376.763    -6054843.448 3  -4718056.156 4
        21.600          24.200
 09  1 11  0 46  0.0000000  0 10G 9G22G28G19G15G14G21G 3G18G 6
  21615152.645    21615152.115    21615151.516   -17010757.503 5 -13255129.735 5
        35.100          35.400
  20389189.183    20389188.638    20389185.551   -25073532.800 7 -19537809.308 8
        44.000          50.100
  25445019.233    25445018.563    25445017.080      -59667.128 1    -46493.091
         6.500           3.000
  22911874.905    22911873.288    22911871.280   -11158115.679 5  -8694632.787 5
        31.800          31.600
  24328301.620    24328302.322    24328300.887    -2759713.293 2  -2150415.602 3
        17.000          21.600
  22643746.927    22643745.911    22643745.405   -13509599.645 4 -10526956.525 4
        28.100          28.600
  22693091.500    22693090.681    22693089.351   -15099890.119 4 -11766140.835 4
        26.200          24.600
  23478170.800    23478169.853    23478170.147    -5314975.560 3  -4141535.998 3
        22.100          23.800
  20760048.858    20760048.066    20760046.371   -24078591.959 6 -18762528.348 7
        41.100          44.800
  23538056.777    23538055.733    23538055.918    -5977705.038 3  -4657948.311 4
        19.900          24.600
 09  1 11  0 46 30.0000000  0 10G 9G22G28G19G15G14G21G 3G18G 6
  21607837.072    21607836.457    21607835.698   -17049202.035 5 -13285086.504 5
        35.300          35.400
  20384791.090    20384790.499    20384787.306   -25096645.434 7 -19555819.148 8
        44.000          50.200
  25444243.544    25444241.541    25444243.173      -63738.646      -49665.860
         3.000           3.000
  22912148.785    22912146.958    22912145.017   -11156674.908 5  -8693510.100 5
        31.300          30.800
  24348283.594    24348283.226    24348281.766    -2654713.212 2  -2068597.367 3
        17.000          21.600
  22625637.224    22625636.455    22625635.626   -13604766.472 4 -10601112.472 4
        28.600          28.600
  22712452.360    22712451.232    22712449.758   -14998150.928 4 -11686863.560 4
        26.200          24.600
  23492527.179    23492526.552    23492527.163    -5239528.436 3  -4082746.019 3
        21.100          23.000
  20767219.471    20767218.571    20767216.834   -24040911.197 6 -18733166.714 7
        41.100          44.700
  23552795.139    23552794.828    23552795.162    -5900251.870 3  -4597595.226 4
        21.100          25.600
 09  1 11  0 47  0.0000000  0 10G 9G22G28G19G15G14G21G 3G18G 6
  21600651.742    21600651.049    21600650.684   -17086959.893 5 -13314508.205 5
        34.900          35.400
  20380466.680    20380466.133    20380463.017   -25119369.914 7 -19573526.531 8
        44.000          50.300
  25443565.832    25443565.399    25443565.226      -67296.288      -52438.041
         3.000
  22912536.063    22912534.213    22912532.327   -11154640.734 5  -8691925.027 5
        31.100          31.000
  24368287.784    24368287.814    24368286.117    -2549590.771 2  -1986683.790 3
        16.100          20.500
  22607581.704    22607580.999    22607579.663   -13699650.571 4 -10675048.115 4
        29.000          28.800
  22731865.911    22731864.956    22731863.498   -14896131.827 4 -11607368.180 4
        26.200          24.900
  23506954.782    23506954.202    23506954.298    -5163715.233 3  -4023670.814 3
        21.100          23.400
  20774460.118    20774459.242    20774457.504   -24002861.625 6 -18703517.695 7
        41.200          44.700
  23567594.384    23567593.257    23567593.903    -5822484.123 3  -4536996.994 4
        21.600          25.300
 09  1 11  0 47 30.0000000  0  9G 9G22G19G15G14G21G 3G18G 6
  21593597.496    21593596.774    21593596.167   -17124031.558 5 -13343395.207 5
        35.300          35.400
  20376215.781    20376215.171    20376212.110   -25141708.517 7 -19590933.231 8
        44.000          50.400
  22913035.557    22913033.918    22913031.853   -11152015.814 5  -8689879.643 5
        31.600          31.500
  24388314.252    24388314.152    24388313.410    -2444349.992 2  -1904678.014 3
        16.100          20.500
  22589579.265    22589578.598    22589577.388   -13794252.557 4 -10748763.924 4
        28.800          28.800
  22751331.900    22751330.952    22751329.340   -14793837.245 4 -11527658.140 4
        25.900          24.200
  23521450.446    23521449.471    23521449.354    -5087540.801 3  -3964314.123 3
        21.100          22.600
  20781770.366    20781769.562    20781767.834   -23964445.663 6 -18673583.178 7
        41.200          44.600
  23582451.361    23582450.956    23582451.437    -5744406.231 3  -4476157.096 4
        21.100          24.900
 09  1 11  0 48  0.0000000  0  9G 9G22G19G15G14G21G 3G18G 6
  21586673.967    21586673.265    21586672.452   -17160415.023 5 -13371745.951 5
        35.500          35.500
  20372038.481    20372037.889    20372034.827   -25163660.343 7 -19608038.544 8
        44.000          50.500
  22913647.550    22913645.711    22913644.053   -11148799.700 5  -8687373.575 5
        31.800          31.800
  24408363.113    24408363.169    24408361.775    -2338992.522 2  -1822581.298 3
        17.000          19.900
  22571631.543    22571630.711    22571629.289   -13888570.070 4 -10822258.068 4
        29.200          28.800
  22770849.906    22770848.839    22770847.510   -14691268.790 4 -11447734.692 3
        25.300          23.800
  23536013.631    23536012.877    23536012.771    -5011008.443 3  -3904678.511 3
        21.600          22.600
  20789150.343    20789149.533    20789147.799   -23925663.273 6 -18643363.133 7
        41.100          44.500
  23597368.237    23597367.660    23597367.560    -5666020.534 3  -4415077.339 4
        21.100          24.200
 09  1 11  0 48 30.0000000  0 10G 9G22G28G19G15G14G21G 3G18G 6
  21579883.044    21579882.387    21579881.828   -17196100.659 5 -13399552.927 5
        35.300          35.600
  20367936.396    20367935.857    20367932.822   -25185216.411 7 -19624835.475 8
        44.000          50.500
  25442121.239    25442120.006    25442118.857           -.63311         -.26711
         9.000           9.000
  22914373.442    22914371.721    22914369.775   -11144984.991 5  -8684401.065 5
        31.600          31.300
  24428435.803    24428435.865    24428433.489    -2233512.077 2  -1740388.753 3
        17.800          18.600
  22553739.640    22553738.753    22553737.305   -13982593.394 4 -10895522.975 4
        29.900          29.200
  22790420.875    22790420.020    22790418.716   -14588420.300 4 -11367593.033 3
        24.900          22.600
  23550647.259    23550646.231    23550646.272    -4934111.923 3  -3844759.156 3
        22.100          23.000
  20796601.544    20796600.745    20796599.029   -23886506.953 6 -18612851.713 7
        41.200          44.400
  23612344.030    23612343.331    23612343.601    -5587321.879 3  -4353753.723 3
        20.500          23.800
 09  1 11  0 49  0.0000000  0 10G 9G22G28G19G15G14G21G 3G18G 6
  21573223.960    21573223.329    21573222.826   -17231093.920 5 -13426820.399 5
        35.200          35.500
  20363908.468    20363907.896    20363904.797   -25206383.874 7 -19641329.599 8
        44.100          50.600
  25441835.939    25441835.090    25441834.266       -1500.245 1     -1168.836 1
         9.000           9.000
  22915211.512    22915210.086    22915208.167   -11140579.342 5  -8680968.093 5
        31.500          31.100
  24448530.237    24448529.693    24448527.015    -2127918.358 3  -1658107.930 3
        18.600          18.600
  22535901.922    22535901.133    22535900.276   -14076328.499 4 -10968563.292 4
        29.500          29.200
  22810043.931    22810043.121    22810041.203   -14485301.169 4 -11287240.471 3
        25.600          22.100
  23565346.937    23565345.731    23565346.536    -4856861.940 3  -3784564.356 3
        21.600          23.400
  20804122.379    20804121.543    20804119.756   -23846984.935 6 -18582055.335 7
        41.200          44.200
  23627377.224    23627376.780    23627377.044    -5508320.466 3  -4292194.184 3
        19.900          22.600
 09  1 11  0 49 30.0000000  0 10G 9G22G28G19G15G14G21G 3G18G 6
  21566696.066    21566695.443    21566695.016   -17265398.472 5 -13453551.213 5
        35.500          35.700
  20359953.390    20359952.817    20359949.774   -25227167.598 7 -19657524.701 8
        44.000          50.700
  25441648.443    25441647.744    25441645.446       -2491.781 1     -1941.540
         9.000           3.000
  22916161.133    22916159.625    22916157.640   -11135588.555 5  -8677079.170 5
        31.300          30.800
  24468643.428    24468643.430    24468641.168    -2022218.480 2  -1575744.407 3
        17.000          18.600
  22518119.069    22518118.124    22518117.057   -14169778.839 4 -11041381.717 4
        29.200          29.000
  22829716.766    22829716.223    22829714.179   -14381919.295 4 -11206683.170 3
        25.600          22.600
  23580113.233    23580112.406    23580112.317    -4779266.586 3  -3724100.449 3
        22.600          23.400
  20811711.686    20811710.843    20811709.088   -23807102.597 6 -18550978.184 7
        41.200          44.000
  23642466.842    23642465.998    23642466.607    -5429024.236 3  -4230404.912 3
        18.600          21.600
 09  1 11  0 50  0.0000000  0 10G 9G22G28G19G15G14G21G 3G18G 6
  21560300.285    21560299.634    21560299.052   -17299008.097 5 -13479740.519 5
        35.500          35.600
  20356072.339    20356071.791    20356068.754   -25247562.374 7 -19673416.730 8
        44.100          50.700
  25441557.178    25441555.892    25441555.718       -2970.444 1     -2314.533 1
         9.000           6.500
  22917223.257    22917221.602    22917219.804   -11130008.037 5  -8672730.709 5
        31.100          30.800
  24488777.994    24488778.118    24488775.728    -1916409.738 2  -1493296.054 3
        15.100          18.600
  22500391.200    22500390.553    22500389.469   -14262938.269 4 -11113973.468 4
        29.700          29.000
  22849440.531    22849439.869    22849437.689   -14278272.288 4 -11125919.282 3
        24.900          23.000
  23594944.811    23594943.901    23594944.265    -4701324.007 3  -3663365.983 3
        22.100          23.800
  20819370.325    20819369.545    20819367.765   -23766855.952 6 -18519617.160 7
        41.200          44.000
  23657612.739    23657612.257    23657612.240    -5349431.276 3  -4168384.440 3
        19.300          21.100
 09  1 11  0 50 30.0000000  0 10G 9G22G28G19G15G14G21G 3G18G 6
  21554037.926    21554037.178    21554036.588   -17331917.399 5 -13505384.122 5
        35.400          35.400
  20352266.137    20352265.558    20352262.541   -25267564.205 7 -19689002.566 8
        44.100          50.800
  25441560.808    25441561.873    25441564.059       -2932.576       -2285.025
                         3.000
  22918397.752    22918396.208    22918394.401   -11123834.718 5  -8667920.325 5
        30.800          30.400
  24508933.045    24508933.676    24508931.217    -1810490.724 2  -1410761.773 3
        15.100          19.900
  22482720.271    22482719.581    22482718.316   -14355801.398 4 -11186334.334 4
        29.900          29.200
  22869215.106    22869213.802    22869212.182   -14174358.353 4 -11044947.409 3
        24.200          23.400
  23609842.705    23609842.066    23609842.147    -4623033.555 3  -3602360.458 3
        21.600          23.400
  20827098.948    20827098.114    20827096.428   -23726241.840 6 -18487969.800 7
        41.200          43.800
  23672815.674    23672815.418    23672815.145    -5269540.729 3  -4106132.082 3
        19.900          21.600
 09  1 11  0 51  0.0000000  0 10G 9G22G28G19G15G14G21G 3G18G 6
  21547908.238    21547907.597    21547906.940   -17364129.129 5 -13530484.165 5
        35.600          35.600
  20348534.052    20348533.525    20348530.359   -25287176.554 7 -19704284.910 8
        44.200          50.800
  25441665.632    25441665.698    25441665.324       -2382.415       -1856.941

  22919684.724    22919683.095    22919680.958   -11117073.185 5  -8662651.593 5
        31.000          30.200
  24529107.734    24529109.009    24529107.292    -1704467.312 2  -1328146.148 3
        15.100          20.500
  22465104.779    22465104.042    22465102.962   -14448370.622 4 -11258466.183 4
        29.900          29.700
  22889038.726    22889037.503    22889035.972   -14070183.862 4 -10963772.507 3
        24.200          23.000
  23624806.055    23624805.349    23624805.478    -4544402.205 3  -3541089.276 3
        22.100          23.800
  20834896.673    20834895.876    20834894.054   -23685264.828 6 -18456039.657 7
        41.200          43.600
  23688073.718    23688073.066    23688073.453    -5189359.560 3  -4043653.263 3
        19.900          21.600
 09  1 11  0 51 30.0000000  0  9G 9G22G19G15G14G21G 3G18G 6
  21541910.989    21541910.260    21541909.779   -17395645.308 5 -13555042.220 5
        35.600          35.900
  20344875.400    20344874.795    20344871.751   -25306402.897 7 -19719266.472 8
        44.100          50.800
  22921082.602    22921080.781    22921078.744   -11109727.564 5  -8656927.734 5
        31.300          30.400
  24549303.228    24549303.809    24549302.070    -1598345.294 2  -1245453.689 3
        15.100          20.500
  22447544.881    22447544.079    22447543.017   -14540648.195 5 -11330370.771 4
        30.100          29.900
  22908910.240    22908909.495    22908908.435   -13965754.786 4 -10882399.221 3
        24.200          23.000
  23639833.065    23639832.065    23639831.877    -4465437.045 3  -3479558.008 3
        21.600          23.400
  20842762.719    20842761.773    20842759.893   -23643929.259 6 -18423830.120 7
        41.100          43.600
  23703385.788    23703385.338    23703385.085    -5108894.187 3  -3980952.986 3
        20.500          22.600
 09  1 11  0 52  0.0000000  0 10G 9G22G28G19G15G14G21G 3G18G 6
  21536048.512    21536047.898    21536047.310   -17426451.688 5 -13579047.179 5
        35.500          35.700
  20341292.776    20341292.201    20341289.070   -25325229.923 7 -19733936.875 8
        44.200          50.800
  25442170.907    25442170.649    25442169.208           -.12711          .25011
         6.500           6.500
  22922594.081    22922592.122    22922590.395   -11101785.567 5  -8650739.175 5
        31.000          31.000
  24569518.929    24569519.021    24569517.136    -1492113.474 2  -1162675.672 3
        13.900          21.100
  22430043.131    22430042.506    22430041.600   -14632619.588 5 -11402036.775 5
        30.200          30.200
  22928833.090    22928832.438    22928831.429   -13861060.083 4 -10800818.963 3
        24.200          23.400
  23654925.241    23654924.388    23654924.217    -4386127.452 3  -3417758.321 3
        21.100          23.800
  20850699.069    20850698.201    20850696.464   -23602222.766 6 -18391331.550 7
        41.200          43.500
  23718754.011    23718753.501    23718752.984    -5028134.654 3  -3918023.493 3
        21.100          22.100
 09  1 11  0 52 30.0000000  0 10G 9G22G28G19G15G14G21G 3G18G 6
  21530320.898    21530320.172    21530319.247   -17456552.733 5 -13602502.532 5
        35.900          35.600
  20337784.944    20337784.420    20337781.256   -25343663.325 7 -19748300.561 8
        44.200          50.800
  25442569.747    25442567.726    25442568.838        2095.768 1      1633.408 1
         6.500           6.500
  22924217.268    22924215.691    22924213.825   -11093253.579 5  -8644090.868 5
        31.000          31.100
  24589753.968    24589753.685    24589752.191    -1385780.152 2  -1079818.565 3
        15.100          22.100
  22412598.965    22412598.316    22412597.205   -14724289.206 5 -11473467.635 4
        30.400          29.900
  22948805.154    22948803.959    22948802.812   -13756107.829 4 -10719038.015 3
        24.200          22.600
  23670080.003    23670079.405    23670080.465    -4306482.553 3  -3355697.380 3
        19.300          23.800
  20858704.862    20858704.000    20858702.289   -23560151.868 6 -18358549.029 7
        41.200          43.400
  23734176.347    23734175.795    23734175.289    -4947089.755 3  -3854871.639 3
        22.600          23.000
 09  1 11  0 53  0.0000000  0 10G 9G22G28G19G15G14G21G 3G18G 6
  21524726.756    21524725.952    21524725.392   -17485949.644 5 -13625409.209 5
        35.700          35.800
  20334351.724    20334351.215    20334348.183   -25361704.574 7 -19762358.674 8
        44.100          50.900
  25443065.101    25443064.834    25443064.179        4704.496        3666.220 1
                         9.000
  22925952.560    22925951.039    22925949.424   -11084134.923 5  -8636985.417 5
        31.500          31.600
  24610006.383    24610006.518    24610005.478    -1279349.792 2   -996885.843 3
        13.900          22.600
  22395211.770    22395211.231    22395210.303   -14815658.203 5 -11544664.248 5
        30.200          30.100
  22968824.794    22968823.992    22968822.624   -13650903.679 4 -10637060.776 3
        24.200          22.600
  23685299.331    23685298.727    23685298.757    -4226508.308 3  -3293379.799 3
        21.100          23.400
  20866779.481    20866778.572    20866776.749   -23517720.036 6 -18325485.262 7
        41.100          43.200
  23749651.539    23749650.810    23749651.259    -4865764.966 3  -3791501.681 3
        21.600          23.000
 09  1 11  0 53 30.0000000  0 10G 9G22G28G19G15G14G21G 3G18G 6
  21519267.077    21519266.318    21519265.792   -17514639.673 5 -13647765.066 5
        35.600          35.700
  20330993.552    20330993.015    20330989.941   -25379351.873 7 -19776109.809 8
        44.100          50.900
  25443661.269    25443660.064    25443660.219        7827.674 1      6099.841 1
         9.000           9.000
  22927800.159    22927798.248    22927796.440   -11074428.347 5  -8629421.861 5
        31.500          31.500
  24630277.661    24630277.466    24630276.598    -1172822.770 2   -913877.800 3
        13.900          23.000
  22377882.653    22377881.920    22377881.407   -14906723.125 5 -11615623.909 5
        30.100          30.400
  22988892.322    22988891.605    22988890.104   -13545447.389 3 -10554887.067 3
        23.800          22.100
  23700580.706    23700579.507    23700579.758    -4146205.861 3  -3230806.464 3
        19.900          22.600
  20874922.825    20874922.009    20874920.279   -23474925.793 6 -18292139.094 7
        41.100          43.200
  23765181.123    23765180.420    23765180.327    -4784161.211 3  -3727914.356 3
        21.100          23.400
 09  1 11  0 54  0.0000000  0 10G 9G22G28G19G15G14G21G 3G18G 6
  21513941.795    21513941.146    21513940.568   -17542623.929 5 -13669570.979 5
        35.700          35.700
  20327710.005    20327709.432    20327706.306   -25396607.551 7 -19789555.788 8
        44.200          50.900
  25444352.199    25444351.024    25444348.679       11462.279        8932.036 1
         3.000           9.000
  22929758.163    22929756.413    22929754.557   -11064137.183 5  -8621402.781 5
        31.100          31.500
  24650566.306    24650566.595    24650564.754    -1066203.372 2   -830797.776 3
        13.900          23.000
  22360611.711    22360610.948    22360609.915   -14997484.965 5 -11686347.409 5
        30.800          30.600
  23009007.319    23009006.215    23009004.758   -13439743.795 3 -10472520.663 3
        23.400          21.600
  23715923.026    23715922.166    23715922.074    -4065580.539 3  -3167981.554 3
        20.500          21.600
  20883134.634    20883133.772    20883132.133   -23431772.360 6 -18258513.042 7
        41.100          43.100
  23780761.698    23780760.824    23780761.069    -4702284.106 3  -3664114.030 3
        19.900          23.000
 09  1 11  0 54 30.0000000  0 10G 9G22G28G19G15G14G21G 3G18G 6
  21508750.816    21508750.024    21508749.198   -17569904.040 5 -13690828.195 5
        35.800          35.500
  20324500.266    20324499.714    20324496.646   -25413474.519 7 -19802698.876 8
        44.200          51.000
  25445140.655    25445139.221    25445139.291       15605.521       12160.541 1
         3.000          11.000
  22931826.999    22931825.384    22931823.824   -11053265.107 5  -8612931.047 5
        31.600          31.600
  24670871.498    24670871.857    24670871.570     -959496.790 2   -747649.821 3
        13.900          20.500
  22343397.465    22343396.714    22343395.809   -15087945.655 5 -11756836.245 5
        30.800          30.600
  23029167.806    23029166.964    23029165.190   -13333798.405 3 -10389965.842 3
        22.100          20.500
  23731325.940    23731325.008    23731325.008    -3984638.269 3  -3104909.648 3
        21.600          21.600
  20891414.116    20891413.325    20891411.566   -23388263.377 6 -18224609.936 7
        41.200          43.000
  23796392.921    23796392.080    23796392.022    -4620139.541 2  -3600105.292 3
        17.800          22.600
 09  1 11  0 55  0.0000000  0 10G 9G22G28G19G15G14G21G 3G18G 6
  21503695.027    21503694.320    21503693.685   -17596471.258 5 -13711529.919 5
        35.800          35.500
  20321366.189    20321365.634    20321362.538   -25429944.301 7 -19815532.468 8
        44.200          51.000
  25446027.488    25446026.101    25446024.995       20264.595       15791.047
         3.000
  22934007.807    22934006.426    22934004.387   -11041804.975 5  -8604001.078 5
        31.800          31.300
  24691196.037    24691195.943    24691193.872     -852697.340 2   -664429.496 3
        15.100          23.400
  22326242.533    22326241.703    22326240.904   -15178095.345 5 -11827082.747 5
        31.000          30.600
  23049375.280    23049374.599    23049373.230   -13227605.839 3 -10307218.420 3
        23.000          20.500
  23746789.958    23746789.058    23746788.965    -3903374.191 3  -3041587.007 3
        22.100          22.600
  20899762.631    20899761.856    20899760.121   -23344391.706 6 -18190424.215 7
        41.200          43.000
  23812075.957    23812075.910    23812075.533    -4537722.622 3  -3535884.363 3
        18.600          22.600
 09  1 11  0 55 30.0000000  0  9G 9G22G19G15G14G21G 3G18G 6
  21498774.125    21498773.279    21498772.661   -17622330.993 5 -13731680.358 5
        35.700          35.400
  20318306.429    20318305.914    20318302.796   -25446023.174 7 -19828061.459 8
        44.300          51.000
  22936299.561    22936297.725    22936295.467   -11029764.386 5  -8594618.812 5
        32.000          31.500
  24711536.352    24711535.412    24711533.406     -745813.675 2   -581143.556 4
        15.100          24.200
  22309145.440    22309144.850    22309144.165   -15267939.568 5 -11897091.215 5
        31.000          31.000
  23069628.245    23069627.735    23069626.578   -13121175.064 3 -10224285.362 3
        23.000          20.500
  23762312.148    23762311.738    23762312.614    -3821798.780 3  -2978021.729 3
        21.100          23.400
  20908178.812    20908177.924    20908176.180   -23300164.895 6 -18155961.764 7
        41.200          42.800
  23827809.570    23827808.724    23827809.699    -4455043.132 3  -3471458.786 3
        18.600          23.000
 09  1 11  0 56  0.0000000  0  9G 9G22G19G15G14G21G 3G18G 6
  21493990.839    21493990.101    21493989.389   -17647466.768 5 -13751266.668 5
        35.800          35.400
  20315324.014    20315323.479    20315320.439   -25461695.697 7 -19840273.811 8
        44.400          51.100
  22938704.214    22938702.370    22938700.336   -11017129.020 5  -8584773.080 5
        32.100          32.300
  24731894.326    24731893.977    24731891.329     -638832.638 2   -497781.727 3
        13.900          23.400
  22292110.202    22292109.420    22292108.581   -15357461.684 5 -11966848.687 5
        31.300          31.100
  23089929.249    23089928.605    23089927.621   -13014492.943 3 -10141156.458 3
        23.400          19.900
  23777898.147    23777897.063    23777897.019    -3739899.661 3  -2914204.244 3
        21.100          23.000
  20916665.294    20916664.421    20916662.591   -23255568.238 6 -18121211.119 7
        41.300          42.700
  23843594.583    23843594.363    23843595.265    -4372088.707 2  -3406818.997 3
        17.000          23.400
 09  1 11  0 56 30.0000000  0 10G 9G22G28G19G15G14G21G 3G18G 6
  21489344.520    21489343.749    21489342.866   -17671884.509 6 -13770293.475 5
        36.000          35.400
  20312417.609    20312417.077    20312413.987   -25476969.054 7 -19852175.124 8
        44.400          51.100
  25449272.201    25449273.262    25449273.515           -.4491          -.17311
                        11.000
  22941219.845    22941218.244    22941216.301   -11003906.501 5  -8574469.835 5
        32.000          32.000
  24752268.550    24752268.789    24752265.579     -531763.376 2   -414351.159 3
        13.900          23.000
  22275135.069    22275134.205    22275133.273   -15446667.031 5 -12036359.330 5
        31.500          31.000
  23110275.840    23110275.190    23110274.720   -12907568.859 3 -10057839.014 3
        22.600          20.500
  23793543.139    23793541.927    23793541.427    -3657686.866 3  -2850142.334 3
        21.100          22.600
  20925220.655    20925219.808    20925217.834   -23210609.576 6 -18086178.392 7
        41.300          42.400
  23859431.041    23859430.696    23859431.245    -4288869.307 3  -3341972.725 3
        18.600          23.000
 09  1 11  0 57  0.0000000  0 10G 9G22G28G19G15G14G21G 3G18G 6
  21484831.706    21484831.089    21484830.568   -17695597.226 5 -13788770.912 5
        35.700          35.500
  20309584.677    20309584.105    20309580.986   -25491856.411 7 -19863775.659 8
        44.400          51.100
  25450552.599    25450551.736    25450548.910        6710.222        5228.952 1
         3.000           6.500
  22943844.649    22943842.997    22943841.362   -10990111.723 5  -8563720.662 5
        31.600          32.000
  24772658.381    24772657.582    24772654.388     -424621.522 2   -330864.011 3
        12.600          23.000
  22258217.533    22258216.677    22258215.895   -15535568.175 5 -12105632.934 5
        31.300          31.100
  23130666.081    23130665.349    23130664.543   -12800419.126 3  -9974345.732 3
        22.100          21.100
  23809244.017    23809243.073    23809242.787    -3575176.937 3  -2785848.888 3
        20.500          23.000
  20933842.083    20933841.192    20933839.395   -23165303.294 6 -18050874.794 7
        41.100          42.400
  23875315.090    23875314.295    23875314.523    -4205401.709 3  -3276933.048 3
        19.300          23.000
 09  1 11  0 57 30.0000000  0 10G 9G22G28G19G15G14G21G 3G18G 6
  21480455.352    21480454.638    21480453.956   -17718595.863 6 -13806691.921 5
        36.100          35.200
  20306826.755    20306826.276    20306823.076   -25506349.128 7 -19875068.684 8
        44.500          51.100
  25451926.859    25451926.151    25451923.673       13930.880 1     10855.373 1
         9.000           6.500
  22946580.194    22946578.583    22946576.932   -10975737.306 5  -8552519.834 5
        31.500          32.400
  24793061.707    24793060.901    24793058.042     -317401.319 1   -247315.830 3
        11.000          22.600
  22241359.800    22241359.229    22241358.232   -15624155.899 5 -12174662.309 5
        31.800          31.100
  23151100.738    23151099.741    23151098.603   -12693038.283 3  -9890672.375 3
        23.000          21.600
  23825002.432    23825001.165    23825001.652    -3492365.580 3  -2721320.569 3
        19.300          23.800
  20942531.109    20942530.221    20942528.341   -23119642.292 6 -18015294.790 7
        41.100          42.200
  23891246.615    23891245.960    23891246.149    -4121680.810 3  -3211695.999 3
        19.300          23.400
 09  1 11  0 58  0.0000000  0 10G14G22G28G19G15G21G 3G18G 6G 9
  22224562.814    22224562.226    22224561.352   -15712424.415 5 -12243442.959 5
        32.000          31.500
  20304144.761    20304144.206    20304141.046   -25520443.429 7 -19886051.250 8
        44.600          51.100
  25453395.506    25453395.289    25453395.676       21665.181       16882.022 1
                        11.000
  22949426.099    22949424.524    22949422.903   -10960780.005 5  -8540864.794 5
        31.500          32.000
  24813478.862    24813478.118    24813476.797     -210100.427 1   -163704.786 3
         9.000          20.500
  23171579.067    23171578.373    23171576.863   -12585424.009 3  -9806817.117 3
        22.600          21.600
  23840818.398    23840817.085    23840817.974    -3409251.549 2  -2656556.402 4
        17.800          24.200
  20951288.235    20951287.371    20951285.536   -23073622.969 6 -17979435.575 7
        41.100          42.100
  23907227.245    23907226.491    23907226.112    -4037705.507 3  -3146260.706 3
        20.500          23.800
  21476215.870    21476215.188    21476214.359   -17740875.149 6 -13824052.396 5
        36.200          35.200
 09  1 11  0 58 30.0000000  0 10G14G22G28G19G15G21G 3G18G 6G 9
  22207826.686    22207826.025    22207825.210   -15800373.080 5 -12311974.362 5
        32.000          31.800
  20301538.462    20301537.896    20301534.790   -25534139.551 7 -19896723.550 8
        44.600          51.200
  25454966.966    25454966.925    25454965.036       29911.802       23308.021 1
         3.000           6.500
  22952383.510    22952381.776    22952379.807   -10945241.757 5  -8528757.081 5
        31.600          31.800
  24833910.314    24833911.501    24833909.540     -102721.727 1    -80033.107 2
         6.500          15.100
  23192101.737    23192100.812    23192099.051   -12477579.385 3  -9722782.376 3
        22.100          21.100
  23856691.394    23856690.766    23856690.752    -3325838.527 2  -2591559.259 3
        17.000          23.400
  20960113.352    20960112.565    20960110.628   -23027246.717 6 -17943298.232 7
        41.200          42.000
  23923254.377    23923253.771    23923253.478    -3953479.581 3  -3080630.130 3
        20.500          22.600
  21472113.068    21472112.329    21472111.796   -17762435.040 6 -13840852.303 5
        36.200          35.400
 09  1 11  0 59  0.0000000  0 10G 9G22G28G19G15G14G21G 3G18G 6
  21468146.749    21468146.045    21468145.314   -17783279.388 6 -13857094.652 5
        36.500          35.500
  20299007.113    20299006.545    20299003.429   -25547441.694 7 -19907088.852 8
        44.600          51.200
  25456632.109    25456631.949    25456632.306       38665.964       30129.306 1
         3.000           9.000
  22955449.603    22955448.065    22955446.309   -10929128.043 5  -8516200.941 5
        31.500          31.800
  24854355.969    24854358.531    24854355.442        4728.283 1      3694.166 2
         6.500          13.900
  22191151.211    22191150.471    22191149.293   -15888005.110 5 -12380259.047 5
        32.600          32.000
  23212666.232    23212665.189    23212663.451   -12369512.095 3  -9638574.123 3
        21.600          19.900
  23872620.019    23872618.858    23872619.254    -3242134.317 2  -2526335.206 3
        16.100          22.600
  20969005.338    20969004.462    20969002.617   -22980519.075 6 -17906887.080 7
        41.100          42.000
  23939327.891    23939327.173    23939327.149    -3869010.573 3  -3014810.147 3
        18.600          22.600
 09  1 11  0 59 30.0000000  0  9G14G22G28G19G21G 3G18G 6G 9
  22174536.895    22174536.331    22174535.372   -15975311.636 5 -12448290.095 5
        32.300          32.000
  20296552.355    20296551.768    20296548.558   -25560342.417 7 -19917141.361 8
        44.700          51.300
  25458396.179    25458395.286    25458394.605       47934.608       37351.653 1
                         9.000
  22958626.442    22958624.817    22958622.922   -10912432.215 5  -8503191.200 5
        30.800          31.100
  23233273.845    23233273.001    23233271.718   -12261216.380 3  -9554187.873 3
        21.600          19.900
  23888603.894    23888603.248    23888603.215    -3158134.586 2  -2460880.903 3
        17.000          21.600
  20977965.365    20977964.541    20977962.821   -22933433.260 6 -17870196.830 7
        41.100          42.000
  23955449.642    23955448.712    23955448.400    -3784293.937 2  -2948797.213 3
        17.800          22.100
  21464317.932    21464317.193    21464316.462   -17803399.199 6 -13872772.423 5
        36.500          35.500
                            4 15
RINEX FILE SPLICE                                           COMMENT
teqc  2008Oct2      WCDA Operator       20090111 02:18:10UTCCOMMENT
STATION INFORMATION EFFECTIVE FROM: 2001/01/13 18:20:00     COMMENT
                                TO: CURRENT DATE (above)    COMMENT
BIT 2 OF LLI FLAGS (+4) DATA COLLECTED UNDER 'AS' CONDITION COMMENT
L1 PHASE CENTRE 0.110m ABOVE ARP                            COMMENT
L2 PHASE CENTRE 0.128m ABOVE ARP                            COMMENT
where ARP is the Antenna Reference Point for HI measurement COMMENT
CONTACT gps@pgc.nrcan.gc.ca FOR ADDITIONAL INFORMATION      COMMENT
    P1 =    P1  TurboRogue; =    Y1  Benchmark              COMMENT
    L1 = L1(CA)                                             COMMENT
    P2 =    P2  TurboRogue; =    Y2  Benchmark              COMMENT
    L2 = L2(P2) TurboRogue; = L2(Y2) Benchmark              COMMENT
 SNR is mapped to RINEX snr flag value [0-9]                COMMENT
  L1 & L2: min(max(int(snr_dBHz/6), 0), 9)                  COMMENT
 09  1 11  1  0  0.0000000  0  9G28G22G19G14G21G 3G18G 6G 9
  25460256.011    25460256.053    25460254.212       57706.110 1     44965.881 1
         6.500           6.500
  20294171.479    20294170.966    20294167.816   -25572853.042 7 -19926889.896 8
        44.700          51.300
  22961912.365    22961910.485    22961908.492   -10895166.817 5  -8489737.649 5
        30.600          31.000
  22157983.295    22157982.582    22157981.487   -16062302.788 5 -12516075.397 5
        32.600          32.100
  23253922.562    23253921.743    23253920.258   -12152706.097 3  -9469634.426 3
        22.100          19.900
  23904641.642    23904641.310    23904641.664    -3073854.083 2  -2395207.803 3
        15.100          20.500
  20986991.457    20986990.626    20986988.842   -22886001.209 6 -17833236.790 6
        41.100          41.900
  23971614.260    23971613.193    23971614.284    -3699344.279 2  -2882602.696 3
        17.000          21.100
  21460625.070    21460624.346    21460623.657   -17822805.360 6 -13887894.103 5
        36.500          35.400
 09  1 11  1  0 30.0000000  0  9G22G28G19G14G21G 3G18G 6G 9
  20291867.769    20291867.202    20291864.057   -25584959.470 7 -19936323.478 8
        44.700          51.300
  25462213.217    25462212.704    25462211.992       67992.787 1     52981.462 1
         6.500          11.000
  22965308.506    22965306.859    22965304.840   -10877319.781 5  -8475830.858 5
        31.000          31.000
  22141492.292    22141491.452    22141490.573   -16148964.029 5 -12583603.621 5
        32.600          32.400
  23274614.023    23274613.101    23274611.700   -12043970.559 3  -9384905.456 3
        21.100          19.300
  23920735.513    23920734.633    23920734.842    -2989282.476 2  -2329307.866 3
        16.100          19.300
  20996085.712    20996084.848    20996083.071   -22838210.582 6 -17795997.335 6
        41.200          41.800
  23987826.341    23987825.971    23987825.725    -3614151.338 2  -2816218.609 3
        17.800          20.500
  21457070.405    21457069.797    21457069.234   -17841483.969 6 -13902448.856 5
        36.400          35.500
 09  1 11  1  1  0.0000000  0 10G22G28G19G15G14G21G 3G18G 6G 9
  20289642.547    20289641.951    20289638.833   -25596653.178 7 -19945435.455 8
        44.700          51.400
  25464268.491    25464268.809    25464269.982       78802.765       61404.730 1
                        11.000
  22968816.701    22968815.037    22968813.145   -10858883.328 5  -8461464.796 5
        30.800          30.800
  24936285.956    24936287.116    24936284.054           -.20911         -.00812
         9.000          13.900
  22125065.940    22125065.084    22125064.198   -16235285.250 5 -12650866.895 5
        32.700          32.400
  23295349.981    23295349.326    23295347.519   -11935003.535 3  -9299996.096 3
        21.600          19.300
  23936885.608    23936885.057    23936885.009    -2904414.779 2  -2263177.186 3
        17.800          18.600
  21005249.495    21005248.769    21005246.985   -22790053.832 6 -17758472.587 6
        41.100          41.600
  24004084.885    24004084.557    24004084.790    -3528709.446 2  -2749640.518 3
        17.800          19.900
  21453656.214    21453655.581    21453655.061   -17859425.633 6 -13916429.367 5
        36.400          35.400
 09  1 11  1  1 30.0000000  0 10G22G28G19G15G14G21G 3G18G 6G 9
  20287492.204    20287491.667    20287488.461   -25607953.101 7 -19954240.586 8
        44.700          51.400
  25466421.197    25466421.633    25466420.081       90116.363       70220.575 1
                         6.500
  22972433.034    22972431.343    22972429.469   -10839878.219 5  -8446655.621 5
        30.600          30.800
  24956799.950    24956802.107    24956798.706      107805.639 1     84004.515 1
         9.000          11.000
  22108700.925    22108700.083    22108698.934   -16321284.211 5 -12717879.056 5
        33.000          32.300
  23316125.983    23316124.974    23316123.389   -11825826.650 3  -9214923.220 3
        21.100          19.900
  23953087.343    23953086.304    23953086.641    -2819272.968 2  -2196832.928 2
        16.100          17.800
  21014479.536    21014478.602    21014476.914   -22741550.548 6 -17720677.820 6
        40.900          41.700
  24020387.067    24020386.257    24020386.539    -3443040.761 2  -2682885.722 3
        17.000          18.600
  21450379.159    21450378.411    21450377.444   -17876648.771 6 -13929849.988 5
        36.600          35.300
 09  1 11  1  2  0.0000000  0 10G22G28G19G15G14G21G 3G18G 6G 9
  20285416.930    20285416.399    20285413.281   -25618858.518 7 -19962738.310 8
        44.700          51.500
  25468672.065    25468671.028    25468670.594      101933.643       79428.907 1
         3.000           6.500
  22976158.039    22976156.289    22976154.519   -10820304.519 5  -8431403.381 5
        30.800          31.100
  24977326.020    24977326.289    24977325.641      215670.164 1    168054.806 1
         9.000          11.000
  22092397.307    22092396.524    22092395.645   -16406959.505 5 -12784639.018 5
        33.000          32.700
  23336940.938    23336940.014    23336938.827   -11716441.711 3  -9129688.223 3
        19.900          20.500
  23969341.367    23969340.097    23969340.294    -2733859.474 2  -2130276.968 3
        17.800          18.600
  21023775.299    21023774.414    21023772.792   -22692700.896 6 -17682613.157 6
        41.000          41.600
  24036733.170    24036732.091    24036731.787    -3357147.719 2  -2615956.085 2
        17.800          17.000
  21447238.556    21447237.748    21447237.052   -17893152.106 6 -13942709.727 5
        36.400          35.400
 09  1 11  1  2 30.0000000  0 10G22G28G19G15G14G21G 3G18G 6G 9
  20283418.981    20283418.464    20283415.390   -25629357.664 7 -19970919.458 8
        44.700          51.500
  25471018.630    25471018.313    25471016.711      114265.661       89038.280 1
         3.000           6.500
  22979993.030    22979991.379    22979989.558   -10800151.518 5  -8415699.754 5
        31.100          31.300
  24997865.661    24997865.587    24997864.795      323603.121 1    252158.413 2
        11.000          12.600
  22076158.154    22076157.365    22076156.240   -16492297.572 5 -12851136.195 5
        33.400          32.800
  23357797.608    23357796.652    23357795.912   -11606839.284 3  -9044283.771 3
        20.500          21.100
  23985647.879    23985647.482    23985647.769    -2648165.854 3  -2063502.728 3
        18.600          19.300
  21033139.098    21033138.231    21033136.501   -22643494.009 6 -17644270.125 6
        40.900          41.500
  24053121.790    24053121.440    24053120.828    -3271021.733 3  -2548844.920 2
        19.900          16.100
  21444237.378    21444236.578    21444235.693   -17908923.292 6 -13954998.955 5
        36.300          35.300
 09  1 11  1  3  0.0000000  0 10G22G28G19G15G14G21G 3G18G 6G 9
  20281497.313    20281496.756    20281493.657   -25639456.280 7 -19978788.507 8
        44.700          51.500
  25473463.096    25473462.756    25473459.799      127105.328 1     99043.305 1
        11.000           6.500
  22983936.601    22983935.212    22983933.197   -10779426.894 5  -8399550.696 5
        30.800          31.100
  25018416.782    25018416.332    25018415.124      431596.234 1    336308.846 2
        11.000          13.900
  22059982.061    22059981.338    22059980.072   -16577303.794 5 -12917374.800 5
        33.600          32.800
  23378693.535    23378692.706    23378692.095   -11497028.399 3  -8958716.872 3
        19.300          21.100
  24002006.587    24002005.828    24002005.732    -2562201.276 2  -1996517.348 3
        17.000          19.300
  21042569.338    21042568.511    21042566.795   -22593937.041 6 -17605654.302 6
        40.700          41.200
  24069552.726    24069552.743    24069552.886    -3184671.881 3  -2481559.329 2
        19.300          17.000
  21441374.441    21441373.827    21441373.070   -17923967.814 6 -13966721.957 5
        36.500          35.500
 09  1 11  1  3 30.0000000  0 10G22G28G19G15G14G21G 3G18G 6G 9
  20279651.595    20279651.079    20279647.925   -25649155.406 7 -19986346.265 8
        44.800          51.500
  25476003.565    25476002.129    25475999.273      140451.465 1    109442.796 1
         6.500           9.000
  22987989.229    22987987.459    22987985.527   -10758132.594 5  -8382957.739 5
        30.800          31.100
  25038976.876    25038977.648    25038976.579      539646.777 1    420504.035 2
         9.000          13.900
  22043869.207    22043868.329    22043867.303   -16661977.279 5 -12983354.129 5
        33.600          33.000
  23399629.698    23399628.506    23399627.386   -11387011.815 2  -8872989.710 3
        17.000          20.500
  24018415.955    24018415.206    24018415.302    -2475970.136 2  -1929324.263 3
        17.000          19.300
  21052066.137    21052065.276    21052063.519   -22544031.693 6 -17566767.019 6
        40.900          41.200
  24086026.685    24086026.340    24086026.347    -3098102.431 3  -2414102.633 2
        18.600          17.800
  21438649.450    21438648.960    21438648.482   -17938285.952 6 -13977878.944 5
        36.500          35.600
 09  1 11  1  4  0.0000000  0 10G22G28G19G15G14G21G 3G18G 6G 9
  20277882.160    20277881.620    20277878.468   -25658453.793 7 -19993591.757 8
        44.800          51.500
  25478640.271    25478636.674    25478638.001      154303.766      120236.815 2
                        12.600
  22992149.418    22992147.622    22992145.789   -10736269.335 5  -8365921.441 5
        31.000          31.000
  25059547.175    25059549.764    25059547.839      647753.577 1    504743.068 2
         6.500          12.600
  22027819.868    22027819.122    22027818.082   -16746316.143 5 -13049072.711 5
        33.600          33.100
  23420603.777    23420602.643    23420601.581   -11276791.334 2  -8787103.660 3
        17.800          19.900
  24034874.885    24034874.056    24034874.805    -2389475.112 2  -1861925.556 3
        17.000          19.300
  21061629.089    21061628.168    21061626.350   -22493777.861 6 -17527608.189 6
        40.700          40.900
  24102542.111    24102541.665    24102541.601    -3011315.443 2  -2346476.407 3
        17.800          18.600
  21436063.539    21436062.865    21436062.208   -17951876.492 6 -13988468.974 5
        36.500          35.500
 09  1 11  1  4 30.0000000  0 10G22G28G19G15G14G21G 3G18G 6G 9
  20276190.953    20276190.410    20276187.250   -25667341.346 7 -20000517.120 8
        44.800          51.600
  25481375.271    25481373.769    25481372.436      168671.722      131432.672 1
         3.000           9.000
  22996420.121    22996418.441    22996416.323   -10713828.053 5  -8348434.721 5
        31.500          31.300
  25080132.286    25080133.092    25080132.429      755924.396      589031.989 2
                        12.600
  22011836.589    22011835.864    22011834.811   -16830309.123 5 -13114521.772 5
        33.800          33.400
  23441618.745    23441617.922    23441616.404   -11166359.519 3  -8701052.926 3
        19.900          19.900
  24051386.082    24051385.212    24051385.728    -2302709.292 2  -1794315.855 3
        17.800          19.300
  21071260.052    21071259.248    21071257.401   -22443166.501 6 -17488170.762 6
        40.700          40.700
  24119099.627    24119098.829    24119099.652    -2924303.816 2  -2278675.163 3
        15.100          19.900
  21433617.702    21433617.106    21433616.356   -17964729.035 6 -13998483.938 5
        36.600          35.500
 09  1 11  1  5  0.0000000  0 10G22G28G19G15G14G21G 3G18G 6G 9
  20274575.287    20274574.709    20274571.572   -25675831.833 7 -20007133.080 8
        44.800          51.600
  25484202.422    25484201.312    25484199.193      183540.726      143018.741
         3.000           3.000
  23000797.202    23000795.575    23000793.873   -10690824.212 5  -8330509.641 5
        31.100          31.500
  25100725.447    25100726.117    25100726.101      864143.634      673358.656 1
                        11.000
  21995916.765    21995915.874    21995914.679   -16913969.002 5 -13179711.276 5
        33.900          33.200
  23462670.102    23462669.137    23462667.890   -11055732.740 3  -8614850.252 2
        21.100          17.800
  24067945.114    24067944.242    24067944.692    -2215689.730 2  -1726508.410 3
        17.000          19.900
  21080956.462    21080955.640    21080953.754   -22392211.861 6 -17448465.844 6
        40.700          40.600
  24135697.825    24135696.793    24135696.382    -2837084.944 2  -2210712.434 3
        16.100          20.500
  21431309.752    21431309.137    21431308.533   -17976856.963 6 -14007934.265 5
        36.400          35.400
 09  1 11  1  5 30.0000000  0 10G22G28G19G15G14G21G 3G18G 6G 9
  20273035.533    20273034.984    20273031.793   -25683923.246 7 -20013438.075 8
        44.800          51.600
  25487129.109    25487127.122    25487127.361      198912.048      154996.330
         3.000           3.000
  23005282.127    23005280.566    23005278.545   -10667256.951 5  -8312145.544 5
        31.300          31.500
  25121329.426    25121327.895    25121327.795      972411.418      757723.165 2
                        12.600
  21980060.933    21980060.078    21980058.917   -16997292.239 5 -13244638.458 5
        34.000          33.400
  23483759.048    23483757.728    23483756.825   -10944911.240 3  -8528495.845 3
        20.500          18.600
  24084553.267    24084552.496    24084552.235    -2128417.140 3  -1658503.818 3
        18.600          19.900
  21090718.283    21090717.398    21090715.580   -22340913.327 6 -17408492.958 6
        40.600          40.500
  24152333.529    24152333.030    24152333.099    -2749659.496 2  -2142588.732 3
        17.000          21.100
  21429140.463    21429139.752    21429139.001   -17988257.735 6 -14016817.980 5
        36.500          35.300
 09  1 11  1  6  0.0000000  0 10G22G28G19G15G14G21G 3G18G 6G 9
  20271571.791    20271571.259    20271568.199   -25691614.770 7 -20019431.467 8
        44.800          51.700
  25490149.639    25490147.775    25490147.161      214785.373 1    167365.317 1
         9.000           6.500
  23009873.848    23009872.005    23009870.244   -10643127.100 5  -8293343.072 5
        30.200          31.500
  25141938.960    25141939.145    25141941.983     1080726.108      842124.206 1
                         9.000
  21964269.272    21964268.605    21964267.393   -17080277.241 5 -13309302.086 5
        34.500          33.500
  23504883.729    23504883.278    23504881.764   -10833896.967 3  -8441991.237 2
        20.500          16.100
  24101209.616    24101208.132    24101207.461    -2040894.699 3  -1590304.544 3
        18.600          19.300
  21100545.398    21100544.563    21100542.912   -22289270.719 6 -17368251.962 6
        40.500          40.500
  24169009.165    24169008.743    24169008.590    -2662030.210 2  -2074306.210 3
        17.000          20.500
  21427109.493    21427108.778    21427108.126   -17998930.475 6 -14025134.402 5
        36.500          35.500
 09  1 11  1  6 30.0000000  0 10G22G28G19G15G14G21G 3G18G 6G 9
  20270185.675    20270185.111    20270181.942   -25698899.386 7 -20025107.786 8
        44.800          51.700
  25493266.394    25493264.638    25493263.061      231166.851 1    180130.064 1
        11.000           9.000
  23014573.333    23014571.923    23014570.186   -10618428.984 4  -8274097.791 5
        29.900          31.800
  25162559.637    25162558.624    25162557.531     1189092.831      926565.782 1
                         9.000
  21948543.499    21948542.724    21948541.627   -17162915.933 5 -13373695.861 5
        34.300          33.500
  23526047.041    23526046.206    23526044.888   -10722685.632 3  -8355333.061 2
        19.900          17.800
  24117911.895    24117910.872    24117910.020    -1953118.656 3  -1521907.643 3
        18.600          19.300
  21110439.258    21110438.403    21110436.663   -22237278.464 6 -17327738.515 6
        40.400          40.300
  24185723.886    24185723.024    24185722.904    -2574193.073 2  -2005861.707 3
        16.100          20.500
  21425218.464    21425217.851    21425217.147   -18008867.787 6 -14032877.755 5
        36.600          35.500
 09  1 11  1  7  0.0000000  0 10G22G28G19G15G14G21G 3G18G 6G 9
  20268875.425    20268874.914    20268871.741   -25705784.422 7 -20030472.745 8
        44.800          51.700
  25496475.737    25496474.521    25496476.226      248048.039      193284.274 1
         3.000          11.000
  23019379.856    23019378.175    23019376.543   -10593171.774 4  -8254416.863 5
        29.700          31.500
  25183191.788    25183191.539    25183191.218     1297501.753     1011040.226 2
                        12.600
  21932882.671    21932881.839    21932880.821   -17245214.570 5 -13437824.657 5
        34.600          33.600
  23547245.828    23547244.717    23547243.647   -10611287.232 3  -8268529.155 3
        19.900          19.300
  24134660.506    24134659.815    24134660.098    -1865099.682 2  -1453321.458 3
        17.800          20.500
  21120397.918    21120397.073    21120395.375   -22184944.698 6 -17286958.954 6
        40.300          40.200
  24202475.985    24202474.762    24202475.145    -2486159.046 2  -1937263.773 3
        15.100          19.900
  21423466.008    21423465.284    21423464.517   -18018077.288 6 -14040053.983 5
        36.600          35.300
 09  1 11  1  7 30.0000000  0 10G22G28G19G15G14G21G 3G18G 6G 9
  20267641.792    20267641.277    20267638.157   -25712267.121 7 -20035524.197 8
        44.900          51.700
  25499784.901    25499783.896    25499783.622      265431.097 1    206829.564 2
         6.500          12.600
  23024292.793    23024291.109    23024289.284   -10567353.858 4  -8234299.003 5
        29.700          31.100
  25203831.048    25203829.443    25203830.071     1405954.373     1095548.714 2
                        13.900
  21917287.225    21917286.449    21917285.414   -17327169.060 5 -13501685.291 5
        34.600          33.900
  23568479.788    23568478.815    23568477.093   -10499701.510 3  -8181579.258 3
        18.600          18.600
  24151455.384    24151455.157    24151456.117    -1776838.154 2  -1384546.254 3
        17.800          19.900
  21130422.140    21130421.317    21130419.550   -22132267.298 6 -17245911.628 6
        40.300          40.000
  24219266.257    24219265.437    24219264.736    -2397928.127 2  -1868512.421 3
        16.100          19.900
  21421852.678    21421851.946    21421851.142   -18026555.424 6 -14046660.324 5
        36.700          35.400
 09  1 11  1  8  0.0000000  0 10G22G28G19G15G14G21G 3G18G 6G 9
  20266485.938    20266485.394    20266482.261   -25718341.273 7 -20040257.301 8
        44.800          51.700
  25503188.534    25503187.171    25503189.843      283321.186      220769.938 1
                        11.000
  23029313.312    23029311.658    23029310.015   -10540970.376 5  -8213740.460 5
        30.200          31.100
  25224478.649    25224477.897    25224477.719     1514454.645     1180094.317 2
         3.000          16.100
  21901758.672    21901757.979    21901756.805   -17408772.113 5 -13565272.067 5
        34.700          34.000
  23589750.647    23589749.537    23589747.694   -10387924.398 2  -8094480.235 3
        17.800          19.300
  24168299.336    24168298.593    24168298.211    -1688331.069 3  -1315579.716 3
        18.600          19.900
  21140512.866    21140511.975    21140510.108   -22079241.200 6 -17204592.585 6
        40.300          39.900
  24236094.060    24236093.362    24236093.297    -2309496.986 2  -1799605.073 3
        17.000          19.900
  21420379.648    21420379.027    21420378.128   -18034295.691 6 -14052691.693 5
        36.800          35.200
 09  1 11  1  8 30.0000000  0 10G22G28G19G15G14G21G 3G18G 6G 9
  20265406.474    20265405.892    20265402.711   -25724014.338 7 -20044677.865 8
        44.800          51.700
  25506687.955    25506688.212    25506686.206      301709.610      235098.487 1
                         6.500
  23034440.225    23034438.295    23034436.509   -10514031.008 5  -8192748.731 5
        31.000          31.100
  25245132.568    25245132.792    25245130.491     1622992.688 1   1264669.353 2
         9.000          15.100
  21886295.979    21886295.172    21886293.878   -17490030.308 5 -13628590.130 5
        35.100          34.000
  23611055.063    23611054.238    23611052.393   -10275966.413 3  -8007240.267 3
        19.300          19.300
  24185185.682    24185184.605    24185184.825    -1599589.633 3  -1246430.559 3
        18.600          19.300
  21150667.970    21150667.060    21150665.280   -22025875.090 6 -17163008.602 6
        40.200          39.700
  24252957.675    24252956.755    24252957.804    -2220876.869 2  -1730550.455 3
        17.000          20.500
  21419045.827    21419045.030    21419044.308   -18041305.942 6 -14058154.229 5
        36.600          35.500
 09  1 11  1  9  0.0000000  0 10G22G28G19G15G14G21G 3G18G 6G 9
  20264404.072    20264403.556    20264400.459   -25729281.457 7 -20048782.112 8
        44.800          51.800
  25510283.193    25510282.011    25510280.941      320600.546      249818.690 1
                         6.500
  23039673.084    23039671.134    23039669.442   -10486532.014 5  -8171320.947 5
        30.800          31.000
  25265794.916    25265793.824    25265792.447     1731571.901 1   1349276.467 2
         9.000          13.900
  21870899.787    21870899.009    21870897.762   -17570937.570 5 -13691634.740 5
        35.200          34.300
  23632394.989    23632393.840    23632392.402   -10163825.132 2  -7919857.475 3
        17.000          18.600
  24202117.998    24202117.239    24202116.411    -1510612.403 3  -1177097.668 3
        19.300          18.600
  21160888.723    21160887.859    21160886.156   -21972164.719 6 -17121156.364 6
        40.200          39.700
  24269857.897    24269857.280    24269857.922    -2132065.847 2  -1661347.088 3
        16.100          20.500
  21417851.851    21417851.074    21417850.366   -18047580.855 6 -14063043.761 5
        36.700          35.700
 09  1 11  1  9 30.0000000  0 10G22G28G19G15G14G21G 3G18G 6G 9
  20263478.602    20263478.063    20263474.939   -25734144.986 7 -20052571.871 8
        44.800          51.800
  25513975.173    25513973.745    25513971.519      339990.470 1    264927.671 1
         6.500           9.000
  23045011.671    23045009.965    23045008.168   -10458477.335 5  -8149460.152 5
        31.100          31.000
  25286463.563    25286463.238    25286461.649     1840187.785 1   1433912.131 2
         6.500          13.900
  21855570.120    21855569.288    21855568.210   -17651495.223 5 -13754406.925 5
        35.100          34.500
  23653767.845    23653766.970    23653766.350   -10051505.427 2  -7832335.665 2
        16.100          17.800
  24219093.851    24219092.837    24219092.362    -1421404.504 2  -1107585.042 2
        17.000          17.800
  21171174.350    21171173.490    21171171.592   -21918113.494 6 -17079038.527 6
        40.200          39.400
  24286793.446    24286792.467    24286793.044    -2043069.536 2  -1591999.326 3
        16.100          18.600
  21416797.121    21416796.306    21416795.407   -18053122.970 6 -14067362.289 5
        36.700          35.400
 09  1 11  1 10  0.0000000  0 10G22G28G19G15G14G21G 3G18G 6G 9
  20262630.332    20262629.842    20262626.795   -25738602.201 7 -20056045.020 8
        44.800          51.800
  25517758.762    25517756.645    25517756.336      359881.083      280426.832 1
         3.000           9.000
  23050456.015    23050454.368    23050452.738   -10429865.899 5  -8127165.516 5
        31.000          31.100
  25307139.921    25307139.340    25307137.570     1948840.838 1   1518576.775 2
         6.500          13.900
  21840307.504    21840306.769    21840305.800   -17731699.398 5 -13816903.667 5
        35.100          34.600
  23675174.860    23675174.217    23675174.028    -9939007.119 2  -7744674.663 2
        16.100          17.000
  24236113.063    24236111.693    24236112.073    -1331966.939 2  -1037893.448 3
        15.100          18.600
  21181525.211    21181524.372    21181522.292   -21863719.746 6 -17036653.783 6
        40.300          39.200
  24303763.980    24303763.571    24303762.989    -1953888.222 2  -1522507.432 2
        16.100          17.000
  21415882.565    21415881.791    21415880.919   -18057929.338 6 -14071107.506 5
        36.800          35.500
 09  1 11  1 10 30.0000000  0 10G22G28G19G15G14G21G 3G18G 6G 9
  20261859.598    20261859.073    20261855.987   -25742652.649 7 -20059201.213 8
        44.800          51.800
  25521639.478    25521637.288    25521638.042      380271.601 1    296315.505 1
         9.000           9.000
  23056006.671    23056004.737    23056002.693   -10400698.833 5  -8104437.938 5
        30.600          30.800
  25327821.001    25327820.774    25327820.228     2057529.724     1603269.405 2
         3.000          12.600
  21825112.578    21825111.765    21825110.926   -17811548.554 5 -13879123.778 5
        35.100          34.600
  23696616.230    23696615.948    23696616.021    -9826332.381 2  -7656876.189 2
        16.100          17.000
  24253174.750    24253173.541    24253175.134    -1242302.373 2   -968024.983 3
        13.900          19.300
  21191940.921    21191940.105    21191938.311   -21808983.845 6 -16994002.432 6
        40.200          39.200
  24320769.708    24320769.394    24320768.559    -1864524.767 2  -1452873.579 2
        17.000          16.100
  21415108.042    21415107.246    21415106.349   -18061999.569 6 -14074279.111 5
        37.000          35.300
 09  1 11  1 11  0.0000000  0 10G22G28G19G15G14G21G 3G18G 6G 9
  20261167.267    20261166.765    20261163.589   -25746290.924 7 -20062036.228 8
        44.900          51.700
  25525615.239    25525612.797    25525613.055      401166.690      312597.386 1
                         6.500
  23061663.192    23061661.311    23061659.753   -10370972.413 5  -8081274.487 5
        30.400          31.100
  25348510.871    25348508.830    25348511.039     2166258.073     1687992.775 2
                        12.600
  21809986.714    21809985.989    21809985.128   -17891036.044 5 -13941062.061 5
        35.500          34.800
  23718091.835    23718091.376    23718091.043    -9713478.347 2  -7568938.008 2
        15.100          16.100
  24270281.024    24270280.326    24270280.882    -1152409.059 2   -897978.237 3
        12.600          18.600
  21202422.885    21202421.967    21202420.127   -21753901.569 6 -16951081.178 6
        40.200          39.100
  24337810.140    24337809.036    24337809.427    -1774976.917 2  -1383096.055 2
        16.100          17.000
  21414474.386    21414473.684    21414472.779   -18065328.352 6 -14076872.966 5
        36.800          35.200
 09  1 11  1 11 30.0000000  0  9G22G28G19G14G21G 3G18G 6G 9
  20260550.624    20260550.077    20260546.944   -25749531.402 7 -20064561.272 8
        44.800          51.700
  25529685.901    25529683.361    25529681.904      422550.702      329260.306 1
                         9.000
  23067423.118    23067421.490    23067419.828   -10340702.551 4  -8057687.582 5
        29.700          31.100
  21794927.172    21794926.388    21794925.141   -17970175.361 5 -14002729.052 5
        35.800          34.900
  23739598.645    23739597.791    23739597.429    -9600462.056 2  -7480873.390 2
        16.100          16.100
  24287427.198    24287426.631    24287427.366    -1062304.236 2   -827766.720 3
        13.900          18.600
  21212967.484    21212966.650    21212964.879   -21698488.341 6 -16907902.037 6
        40.100          39.000
  24354880.726    24354880.330    24354881.465    -1685262.230 2  -1313188.509 2
        12.600          16.100
  21413979.262    21413978.669    21413977.702   -18067930.017 6 -14078900.238 5
        36.800          35.400
 09  1 11  1 12  0.0000000  0  9G22G28G19G14G21G 3G18G 6G 9
  20260010.366    20260009.796    20260006.626   -25752370.701 7 -20066773.709 8
        44.800          51.700
  25533848.139    25533845.877    25533844.458      444426.066 1    346306.001 1
         6.500           9.000
  23073287.407    23073285.515    23073283.589   -10309887.467 4  -8033675.834 5
        29.700          31.000
  21779934.730    21779933.954    21779932.516   -18048961.941 6 -14064121.181 5
        36.100          35.100
  23761136.094    23761134.748    23761134.273    -9487282.430 2  -7392681.483 2
        15.100          15.100
  24304615.593    24304614.532    24304613.360     -971987.895 2   -757390.383 3
        15.100          19.900
  21223576.043    21223575.082    21223573.314   -21642741.087 6 -16864462.615 6
        40.100          38.900
  24371984.838    24371985.060    24371984.560    -1595380.197 2  -1243150.607 2
        13.900          16.100
  21413623.222    21413622.458    21413621.960   -18069801.225 6 -14080358.316 5
        36.500          35.700
 09  1 11  1 12 30.0000000  0  9G22G28G19G14G21G 3G18G 6G 9
  20259548.400    20259547.930    20259544.768   -25754797.747 7 -20068664.912 8
        44.800          51.700
  25538105.700    25538104.657    25538104.805      466802.558 1    363742.179 2
         6.500          12.600
  23079256.907    23079254.960    23079252.938   -10278518.253 5  -8009232.292 5
        30.600          30.800
  21765011.312    21765010.579    21765009.286   -18127383.873 6 -14125229.169 5
        36.000          35.200
  23782706.193    23782705.111    23782703.469    -9373931.205 2  -7304355.876 2
        15.100          15.100
  24321842.362    24321841.158    24321842.871     -881452.516 2   -686843.357 3
        16.100          19.900
  21234249.659    21234248.834    21234246.996   -21586650.300 6 -16820755.509 6
        40.000          38.900
  24389123.253    24389123.449    24389122.038    -1505323.364 2  -1172976.441 2
        15.100          15.100
  21413408.120    21413407.397    21413406.793   -18070931.298 6 -14081238.889 5
        36.700          35.600
 09  1 11  1 13  0.0000000  0  9G22G28G19G14G21G 3G18G 6G 9
  20259165.915    20259165.353    20259162.254   -25756807.881 7 -20070231.247 8
        44.900          51.700
  25542456.182    25542455.942    25542457.635      489683.656      381571.643 1
                         9.000
  23085331.850    23085330.162    23085328.472   -10246591.448 5  -7984354.251 5
        30.100          31.000
  21750158.498    21750157.801    21750156.671   -18205435.338 6 -14186048.479 5
        36.100          35.300
  23804309.398    23804308.311    23804306.684    -9260406.260 2  -7215894.913 2
        15.100          13.900
  24339113.853    24339112.923    24339113.413     -790696.510 2   -616124.413 3
        17.000          19.900
  21244989.364    21244988.557    21244986.960   -21530211.999 6 -16776777.613 6
        39.900          38.900
  24406293.951    24406293.505    24406292.922    -1415089.945 2  -1102664.697 2
        15.100          15.100
  21413335.265    21413334.476    21413333.554   -18071315.633 6 -14081538.368 5
        36.900          35.400
 09  1 11  1 13 30.0000000  0  9G22G28G19G14G21G 3G18G 6G 9
  20258860.727    20258860.131    20258856.891   -25758412.584 7 -20071481.662 8
        44.900          51.700
  25546905.055    25546904.875    25546904.431      513056.807      399784.454 1
                         9.000
  23091510.958    23091509.244    23091507.877   -10214120.588 4  -7959052.290 5
        29.900          31.300
  21735374.431    21735373.659    21735372.526   -18283126.980 6 -14246587.410 5
        36.300          35.600
  23825942.896    23825942.065    23825939.330    -9146721.543 2  -7127309.424 2
        13.900          12.600
  24356422.176    24356421.366    24356421.574     -699735.261 2   -545245.541 3
        16.100          19.900
  21255793.021    21255792.187    21255790.489   -21473438.686 6 -16732538.664 6
        39.900          38.700
  24423494.832    24423494.488    24423495.112    -1324694.927 2  -1032227.052 2
        12.600          15.100
  21413401.599    21413400.791    21413400.191   -18070966.006 6 -14081265.929 5
        36.500          35.500
 09  1 11  1 14  0.0000000  0  9G22G28G19G14G21G 3G18G 6G 9
  20258632.342    20258631.819    20258628.693   -25759611.830 7 -20072416.137 8
        44.900          51.700
  25551447.352    25551447.706    25551447.611      536921.159      418380.034 2
                        15.100
  23097793.218    23097791.465    23097789.858   -10181107.404 5  -7933327.722 5
        30.200          31.000
  21720658.919    21720658.173    21720656.933   -18360457.506 6 -14306844.948 5
        36.500          35.600
  23847605.342    23847605.356    23847603.613    -9032879.602 2  -7038601.429 2
        13.900          13.900
  24373770.346    24373769.882    24373769.954     -608571.352 2   -474208.784 3
        16.100          19.300
  21266660.227    21266659.423    21266657.760   -21416331.426 6 -16688039.499 6
        40.000          38.700
  24440726.181    24440726.394    24440727.338    -1234141.075 2   -961665.616 2
        12.600          13.900
  21413607.768    21413607.147    21413606.399   -18069882.126 6 -14080421.347 5
        36.800          35.600
 09  1 11  1 14 30.0000000  0  9G22G28G19G14G21G 3G18G 6G 9
  20258481.624    20258481.064    20258477.896   -25760404.202 7 -20073033.567 8
        44.900          51.700
  25556080.603    25556081.442    25556081.499      561276.860      437358.467 2
                        12.600
  23104178.739    23104176.805    23104175.003   -10147552.047 5  -7907180.692 5
        30.100          30.400
  21706012.692    21706011.828    21706010.541   -18437424.225 6 -14366819.005 5
        36.500          35.600
  23869298.162    23869297.817    23869296.391    -8918881.484 2  -6949771.754 2
        13.900          13.900
  24391156.726    24391155.621    24391156.228     -517206.195 2   -403015.184 3
        16.100          19.300
  21277590.990    21277590.176    21277588.419   -21358889.764 6 -16643279.765 6
        39.700          38.500
  24457989.505    24457989.259    24457987.747    -1143429.924 2   -890981.597 2
        13.900          13.900
  21413954.014    21413953.264    21413952.548   -18068062.757 6 -14079003.656 5
        36.800          35.400
 09  1 11  1 15  0.0000000  0  9G22G28G19G14G21G 3G18G 6G 9
  20258407.362    20258406.803    20258403.644   -25760794.504 7 -20073337.696 8
        44.900          51.600
  25560806.252    25560809.404    25560805.074      586118.386      456715.482 1
                         6.500
  23110666.072    23110664.406    23110662.301   -10113460.678 5  -7880615.994 4
        30.400          29.900
  21691434.896    21691434.090    21691432.865   -18514030.954 6 -14426512.551 5
        36.500          35.800
  23891021.086    23891020.242    23891017.971    -8804734.188 2  -6860825.852 2
        15.100          13.900
  24408579.700    24408578.512    24408578.175     -425648.317 2   -331671.410 2
        15.100          17.800
  21288584.360    21288583.534    21288581.785   -21301119.073 6 -16598263.641 6
        39.700          38.300
  24475280.307    24475279.542    24475278.554    -1052569.439 2   -820181.219 2
        15.100          16.100
  21414439.377    21414438.719    21414437.756   -18065513.194 6 -14077016.978 5
        37.000          35.600
 09  1 11  1 15 30.0000000  0  9G22G28G19G14G21G 3G18G 6G 9
  20258410.271    20258409.684    20258406.450   -25760779.809 7 -20073326.242 8
        45.000          51.600
  25565629.007    25565627.483    25565627.394      611446.833      476451.114 1
                         9.000
  23117255.723    23117253.943    23117251.859   -10078832.455 5  -7853632.957 4
        30.400          29.700
  21676926.111    21676925.391    21676924.136   -18590273.810 6 -14485922.552 5
        36.500          35.800
  23912771.148    23912770.583    23912768.498    -8690437.567 2  -6771763.561 2
        17.000          15.100
  24426038.580    24426037.449    24426038.497     -333898.086 2   -260177.726 3
        16.100          18.600
  21299640.657    21299639.959    21299638.276   -21243017.399 6 -16552989.608 6
        39.700          38.400
  24492597.797    24492596.670    24492597.415     -961559.848 2   -749264.678 2
        12.600          17.000
  21415063.699    21415063.004    21415062.321   -18062230.910 6 -14074459.355 5
        36.700          35.300
 09  1 11  1 16  0.0000000  0  8G22G19G14G21G 3G18G 6G 9
  20258489.966    20258489.474    20258486.292   -25760359.999 7 -20072999.113 8
        45.100          51.600
  23123947.097    23123945.371    23123943.237   -10043668.868 5  -7826232.765 4
        30.600          29.700
  21662487.085    21662486.365    21662485.211   -18666151.389 6 -14545047.927 6
        36.500          36.000
  23934549.074    23934548.250    23934546.429    -8575993.731 2  -6682586.566 2
        15.100          13.900
  24443534.271    24443533.906    24443534.489     -241958.457 2   -188536.483 3
        16.100          18.600
  21310759.985    21310759.114    21310757.427   -21184585.517 6 -16507458.273 6
        39.600          38.100
  24509943.975    24509943.222    24509944.038     -870403.790 2   -678234.028 3
        13.900          18.600
  21415827.933    21415827.247    21415826.372   -18058215.496 6 -14071330.461 5
        36.900          35.300
 09  1 11  1 16 30.0000000  0  9G22G19G11G14G21G 3G18G 6G 9
  20258648.289    20258647.732    20258644.491   -25759528.663 7 -20072351.317 8
        45.100          51.600
  23130741.092    23130739.454    23130737.447   -10007965.586 5  -7798412.025 5
        30.600          30.100
  24884235.372    24884235.635    24884231.288           -.4431           .12911
                         6.500
  21648118.950    21648118.208    21648117.143   -18741656.343 6 -14603882.944 6
        36.600          36.200
  23956355.977    23956355.215    23956352.889    -8461399.025 2  -6593292.009 2
        15.100          15.100
  24461066.732    24461066.311    24461066.502     -149826.641 2   -116745.477 2
        15.100          17.800
  21321943.215    21321942.323    21321940.432   -21125818.119 6 -16461665.492 6
        39.600          38.000
  24527319.840    24527319.001    24527319.203     -779098.514 2   -607087.065 2
        12.600          17.800
  21416732.664    21416731.962    21416731.103   -18053461.114 6 -14067625.745 5
        36.900          35.300
 09  1 11  1 17  0.0000000  0  9G19G22G11G14G21G 3G18G 6G 9
  23137636.366    23137634.572    23137632.714    -9971731.081 5  -7770177.348 5
        30.100          30.200
  20258883.502    20258882.946    20258879.642   -25758292.531 7 -20071388.094 8
        45.000          51.500
  24865534.726    24865532.929    24865530.720      -98264.206      -76568.970 1
                         6.500
  21633820.778    21633819.943    21633818.825   -18816794.805 6 -14662432.388 6
        36.500          36.400
  23978189.865    23978189.140    23978187.070    -8346663.222 2  -6503887.514 2
        17.000          15.100
  24478632.988    24478632.353    24478633.255      -57512.605 2    -44812.459 2
        12.600          17.000
  21333188.416    21333187.625    21333185.967   -21066723.216 6 -16415617.513 6
        39.500          38.100
  24544719.498    24544718.779    24544719.903     -687653.912 1   -535831.547 2
         9.000          16.100
  21417776.570    21417775.843    21417775.000   -18047975.445 6 -14063351.197 5
        36.700          35.200
 09  1 11  1 17 30.0000000  0  9G19G22G11G14G21G 3G18G 6G 9
  23144635.163    23144633.338    23144631.776    -9934950.937 4  -7741517.493 4
        29.500          29.900
  20259198.747    20259198.208    20259195.010   -25756635.469 7 -20070096.876 8
        45.000          51.500
  24846880.249    24846879.000    24846878.897     -196282.874     -152947.130 1
                         9.000
  21619595.502    21619594.585    21619593.637   -18891549.250 6 -14720682.593 6
        36.700          36.600
  24000053.006    24000051.542    24000050.262    -8231772.069 2  -6414361.968 2
        17.800          15.100
  24496236.968    24496237.044    24496237.158       34996.393 2     27272.437 2
        15.100          15.100
  21344499.165    21344498.318    21344496.648   -21007285.272 6 -16369302.236 6
        39.400          37.900
  24562150.719    24562148.881    24562149.801     -596056.539     -464456.981 2
         3.000          15.100
  21418962.634    21418961.983    21418961.223   -18041742.127 6 -14058494.066 5
        36.800          35.300
 09  1 11  1 18  0.0000000  0  9G19G22G11G14G21G 3G18G 6G 9
  23151735.940    23151734.373    23151732.406    -9897636.690 5  -7712441.464 5
        30.100          30.100
  20259592.396    20259591.857    20259588.640   -25754567.215 7 -20068485.247 8
        45.000          51.600
  24828272.930    24828271.427    24828272.755     -294064.001     -229140.196 1
                        11.000
  21605441.363    21605440.619    21605439.774   -18965927.963 6 -14778640.021 6
        36.700          36.700
  24021943.554    24021942.551    24021940.695    -8116737.773 2  -6324724.887 2
        16.100          15.100
  24513876.197    24513875.531    24513875.100      127687.918 2     99499.581 2
        12.600          13.900
  21355873.190    21355872.381    21355870.527   -20947514.825 6 -16322727.859 6
        39.400          37.700
  24579607.570    24579607.644    24579606.895     -504319.297 1   -392973.455 2
        11.000          15.100
  21420289.144    21420288.526    21420287.705   -18034771.279 6 -14053062.232 5
        36.700          35.400
 09  1 11  1 18 30.0000000  0  9G19G22G11G14G21G 3G18G 6G 9
  23158936.650    23158935.047    23158933.255    -9859795.659 4  -7682954.942 4
        29.700          29.700
  20260063.178    20260062.629    20260059.459   -25752093.036 7 -20066557.314 8
        44.900          51.600
  24809710.635    24809710.648    24809712.607     -391610.852     -305150.729 2
         3.000          12.600
  21591358.264    21591357.522    21591356.643   -19039935.362 6 -14836308.115 6
        36.900          37.000
  24043859.088    24043857.727    24043856.396    -8001568.343 2  -6234982.511 2
        13.900          12.600
  24531547.601    24531547.026    24531546.822      220553.697 2    171862.497 2
        12.600          13.900
  21367309.157    21367308.214    21367306.418   -20887418.209 6 -16275899.326 6
        39.200          37.500
  24597091.355    24597090.407    24597089.702     -412450.445 2   -321387.398 2
        13.900          17.800
  21421754.810    21421754.180    21421753.407   -18027068.620 6 -14047060.159 5
        36.700          35.100
 09  1 11  1 19  0.0000000  0  9G19G22G11G14G21G 3G18G 6G 9
  23166236.438    23166234.868    23166233.435    -9821433.526 4  -7653062.365 4
        28.800          29.500
  20260610.531    20260609.947    20260606.801   -25749216.920 7 -20064316.182 8
        44.900          51.600
  24791192.842    24791193.046    24791192.998     -488925.031 1   -380979.986 1
         6.500          11.000
  21577345.105    21577344.445    21577343.534   -19113574.621 6 -14893689.343 6
        37.100          37.000
  24065798.821    24065797.515    24065797.199    -7886270.222 2  -6145139.849 1
        13.900          11.000
  24549251.086    24549250.201    24549249.601      313586.366 1    244355.469 2
         9.000          13.900
  21378806.167    21378805.302    21378803.565   -20827000.391 6 -16228820.506 6
        39.100          37.300
  24614594.486    24614594.332    24614596.323     -320457.130 1   -249704.344 3
         9.000          19.300
  21423359.097    21423358.467    21423357.476   -18018638.542 6 -14040491.260 5
        36.800          34.900
 09  1 11  1 19 30.0000000  0  9G19G22G11G14G21G 3G18G 6G 9
  23173638.395    23173636.720    23173634.493    -9782537.825 4  -7622754.028 4
        29.200          28.800
  20261237.065    20261236.506    20261233.276   -25745924.531 7 -20061750.681 8
        44.900          51.500
  24772722.851    24772722.443    24772722.968     -585989.978 1   -456615.025 1
         6.500          11.000
  21563405.055    21563404.315    21563403.411   -19186830.339 6 -14950771.711 6
        37.100          37.100
  24087766.490    24087765.466    24087764.562    -7770831.274 2  -6055187.456 1
        15.100          11.000
  24566988.448    24566987.554    24566988.418      406796.909 1    316987.024 2
         9.000          15.100
  21390367.056    21390366.215    21390364.368   -20766247.740 6 -16181480.775 6
        39.100          37.300
  24632127.416    24632126.602    24632128.313     -228328.114 2   -177915.483 3
        12.600          19.300
  21425104.302    21425103.587    21425102.686   -18009467.263 6 -14033344.811 5
        36.500          34.800
 09  1 11  1 20  0.0000000  0  9G19G22G11G14G21G 3G18G 6G 9
  23181140.195    23181138.545    23181136.759    -9743114.365 4  -7592034.458 4
        29.000          28.600
  20261942.080    20261941.507    20261938.262   -25742219.636 7 -20058863.747 8
        44.900          51.500
  24754300.800    24754299.893    24754299.149     -682807.076 1   -532056.928 1
         6.500          11.000
  21549537.393    21549536.804    21549535.700   -19259705.249 6 -15007557.344 6
        37.300          37.200
  24109759.029    24109757.909    24109757.804    -7655257.972 2  -5965130.347 1
        16.100           9.000
  24584760.080    24584759.048    24584758.470      500177.954 1    389751.458 2
        11.000          15.100
  21401990.602    21401989.807    21401988.011   -20705164.936 6 -16133883.785 6
        38.900          37.200
  24649684.577    24649684.104    24649683.482     -136070.190 2   -106026.189 2
        16.100          17.800
  21426989.693    21426988.992    21426988.238   -17999559.285 6 -14025624.304 5
        36.600          35.100
 09  1 11  1 20 30.0000000  0  9G19G22G11G14G21G 3G18G 6G 9
  23188741.418    23188739.744    23188738.131    -9703170.096 4  -7560909.047 4
        28.800          29.200
  20262724.548    20262724.011    20262720.847   -25738107.380 7 -20055659.391 8
        44.800          51.500
  24735923.365    24735921.449    24735921.018     -779379.374     -607308.076 1
         3.000           9.000
  21535741.696    21535740.983    21535739.725   -19332203.605 6 -15064049.563 6
        37.700          37.200
  24131775.091    24131774.712    24131774.137    -7539558.137 2  -5874974.673 1
        15.100          11.000
  24602559.981    24602559.037    24602559.002      593721.405 2    462642.489 2
        12.600          15.100
  21413676.024    21413675.187    21413673.257   -20643758.648 6 -16086034.729 6
        38.900          37.100
  24667263.132    24667261.944    24667261.682      -43691.601 2    -34042.928 2
        15.100          15.100
  21429014.667    21429013.824    21429013.008   -17988920.295 6 -14017334.183 5
        36.900          35.400
 09  1 11  1 21  0.0000000  0  9G19G22G11G14G21G 3G18G 6G 9
  23196441.115    23196439.118    23196437.414    -9662709.704 4  -7529381.468 4
        28.800          29.900
  20263584.082    20263583.511    20263580.414   -25733590.354 7 -20052139.630 8
        44.700          51.500
  24717592.420    24717592.396    24717588.317     -875707.051     -682368.585 1
                        11.000
  21522016.976    21522016.265    21522015.045   -19404326.873 6 -15120249.501 6
        37.800          37.400
  24153815.694    24153814.344    24153814.099    -7423736.520 2  -5784724.116 1
        13.900           9.000
  24620389.693    24620388.527    24620389.422      687421.419 2    535655.495 2
        15.100          13.900
  21425422.060    21425421.223    21425419.517   -20582032.054 6 -16037936.083 6
        38.700          37.000
  24684862.591    24684862.879    24684861.974       48802.124 2     38030.075 2
        12.600          15.100
  21431177.207    21431176.539    21431175.822   -17977553.534 6 -14008476.960 5
        36.500          35.300
 09  1 11  1 21 30.0000000  0  9G19G22G11G14G21G 3G18G 6G 9
  23204238.741    23204237.118    23204235.222    -9621732.027 4  -7497450.820 5
        29.000          30.100
  20264521.269    20264520.709    20264517.588   -25728665.519 7 -20048302.096 8
        44.700          51.500
  24699310.993    24699309.897    24699305.049     -971784.939     -757234.448 1
                        11.000
  21508364.618    21508363.888    21508362.483   -19476071.045 6 -15176154.042 6
        37.900          37.400
  24175879.534    24175878.834    24175877.994    -7307792.524 2  -5694378.196 1
        17.800           9.000
  24638249.986    24638248.887    24638250.178      781277.862 2    608790.351 2
        13.900          13.900
  21437229.756    21437228.850    21437227.015   -20519983.049 6 -15989586.215 6
        38.600          36.800
  24702487.476    24702486.932    24702485.836      141410.757 1    110192.634 2
        11.000          16.100
  21433479.149    21433478.483    21433477.901   -17965456.495 6 -13999050.700 5
        36.300          35.300
 09  1 11  1 22  0.0000000  0  9G19G22G11G14G21G 3G18G 6G 9
  23212135.038    23212133.277    23212131.830    -9580236.341 4  -7465116.526 5
        28.600          30.100
  20265536.510    20265535.985    20265532.751   -25723330.482 7 -20044144.922 8
        44.700          51.400
  24681074.160    24681073.145    24681069.814    -1067607.976     -831901.732 1
         3.000           9.000
  21494785.109    21494784.246    21494782.887   -19547432.497 6 -15231760.360 6
        37.800          37.500
  24197966.321    24197965.315    24197964.568    -7191726.435 3  -5603937.131 1
        19.300           9.000
  24656140.397    24656139.893    24656139.357      875290.686 2    682047.057 2
        13.900          13.900
  21449098.964    21449098.071    21449096.184   -20457609.789 6 -15940983.670 6
        38.600          36.700
  24720130.810    24720130.291    24720131.596      234134.112 1    182444.540 2
        11.000          17.800
  21435920.895    21435920.111    21435919.207   -17952627.139 6 -13989053.790 5
        36.600          35.300
 09  1 11  1 22 30.0000000  0  9G19G22G11G14G21G 3G18G 6G 9
  23220131.398    23220129.525    23220127.548    -9538217.933 4  -7432374.911 5
        29.200          30.100
  20266631.099    20266630.568    20266627.391   -25717578.182 7 -20039662.609 8
        44.700          51.400
  24662889.358    24662889.370    24662887.475    -1163167.300     -906363.525 1
         3.000          11.000
  21481279.589    21481278.721    21481277.674   -19618403.414 6 -15287062.365 6
        37.700          37.700
  24220077.390    24220076.708    24220076.224    -7075533.873 3  -5513397.486 1
        19.300           6.500
  24674061.343    24674060.037    24674059.096      969462.902 2    755427.983 2
        12.600          15.100
  21461030.899    21461030.034    21461028.287   -20394906.703 6 -15892124.125 6
        38.400          36.600
  24737799.535    24737799.623    24737799.153      326975.709 1    254788.588 3
         9.000          18.600
  21438502.586    21438501.875    21438501.084   -17939059.630 6 -13978481.707 5
        36.600          35.300
 09  1 11  1 23  0.0000000  0  9G19G22G11G14G21G 3G18G 6G 9
  23228223.707    23228221.917    23228219.908    -9495690.966 4  -7399237.018 4
        29.200          29.900
  20267802.812    20267802.266    20267799.126   -25711421.085 7 -20034864.870 8
        44.700          51.400
  24644754.752    24644753.792    24644751.898    -1258473.056 1   -980627.730 2
         9.000          12.600
  21467846.100    21467845.526    21467844.464   -19688995.139 6 -15342068.890 6
        37.900          37.700
  24242210.440    24242209.414    24242208.149    -6959229.022 3  -5422770.356 1
        18.600           9.000
  24692008.160    24692007.326    24692008.277     1063779.518 1    828921.433 2
        11.000          17.800
  21473023.206    21473022.377    21473020.570   -20331886.593 6 -15843017.546 6
        38.400          36.500
  24755485.501    24755485.068    24755484.720      419920.603      327213.156 2
                        15.100
  21441222.455    21441221.772    21441220.965   -17924766.573 6 -13967344.257 5
        36.600          35.200
 09  1 11  1 23 30.0000000  0  9G19G14G22G11G21G 3G18G 6G 9
  23236414.237    23236412.368    23236410.608    -9452649.630 4  -7365698.323 4
        28.600          29.700
  21454487.019    21454486.319    21454485.283   -19759198.459 6 -15396772.769 6
        38.100          37.900
  20269052.916    20269052.430    20269049.229   -25704851.410 7 -20029745.641 8
        44.700          51.400
  24626670.217    24626669.622    24626666.829    -1353514.554 2  -1054686.026 2
        13.900          12.600
  24264364.577    24264363.405    24264362.715    -6842806.825 2  -5332051.780 1
        17.800           9.000
  24709984.958    24709983.494    24709985.113     1158245.075 1    902530.927 3
        11.000          19.300
  21485077.260    21485076.399    21485074.566   -20268542.834 6 -15793658.773 6
        38.400          36.500
  24773191.306    24773192.192    24773193.703      512973.623      399721.763 1
                         9.000
  21444081.658    21444080.879    21444080.196   -17909740.736 6 -13955635.814 5
        36.400          35.100
 09  1 11  1 24  0.0000000  0  9G19G14G22G11G21G 3G18G 6G 9
  23244703.201    23244701.350    23244699.208    -9409091.955 4  -7331757.280 4
        28.600          29.200
  21441202.468    21441201.749    21441200.795   -19829008.846 6 -15451170.463 6
        38.100          38.100
  20270382.418    20270381.843    20270378.701   -25697865.065 7 -20024301.733 8
        44.600          51.300
  24608635.838    24608635.154    24608632.100    -1448285.416 2  -1128533.422 2
        13.900          12.600
  24286540.986    24286540.196    24286539.215    -6726265.865 3  -5241240.702 2
        19.300          12.600
  24727989.831    24727988.691    24727988.103     1252859.828 2    976256.711 2
        12.600          17.000
  21497193.268    21497192.434    21497190.628   -20204872.238 6 -15744045.324 6
        38.200          36.300
  24790924.660    24790921.594    24790919.880      606135.504      472314.490 2
                        12.600
  21447080.930    21447080.240    21447079.587   -17893979.150 6 -13943354.052 5
        36.500          35.200
 09  1 11  1 24 30.0000000  0  9G19G14G22G11G21G 3G18G 6G 9
  23253087.401    23253085.666    23253083.840    -9365031.150 4  -7297424.182 4
        28.400          28.800
  21427990.929    21427990.212    21427989.135   -19898436.463 6 -15505269.894 6
        38.100          38.200
  20271789.033    20271788.485    20271785.173   -25690473.589 7 -20018542.138 8
        44.700          51.200
  24590651.109    24590650.589    24590646.866    -1542794.856 1  -1202177.086 2
        11.000          12.600
  24308738.474    24308737.461    24308735.931    -6609619.468 3  -5150347.439 2
        20.500          13.900
  24746019.751    24746019.549    24746018.886     1347610.237 2   1050088.148 2
        12.600          16.100
  21509369.189    21509368.406    21509366.513   -20140886.901 6 -15694186.623 5
        38.100          35.900
  24808663.966    24808663.604    24808666.457      699392.076      544981.929 1
                         6.500
  21450217.998    21450217.424    21450216.735   -17877493.647 6 -13930508.205 5
        36.400          35.100
 09  1 11  1 25  0.0000000  0  9G19G14G22G11G21G 3G18G 6G 9
  23261567.346    23261565.674    23261563.241    -9320470.435 4  -7262701.552 4
        28.800          28.800
  21414852.136    21414851.448    21414850.279   -19967481.432 6 -15559071.157 6
        38.200          38.300
  20273272.426    20273271.921    20273268.601   -25682677.988 7 -20012467.639 8
        44.600          51.200
  24572716.876    24572715.735    24572712.268    -1637041.336 1  -1275615.872 1
         9.000           9.000
  24330954.970    24330953.816    24330952.324    -6492871.248 3  -5059374.851 2
        19.900          16.100
  24764074.676    24764074.105    24764074.746     1442491.834 1   1124021.834 2
        11.000          16.100
  21521604.899    21521604.008    21521601.947   -20076588.992 6 -15644084.353 5
        38.300          35.800
  24826431.660    24826430.424    24826428.554      792739.339      617720.058 1
                         9.000
  21453492.485    21453491.875    21453491.255   -17860286.253 6 -13917099.843 5
        36.400          35.200
 09  1 11  1 25 30.0000000  0  9G19G14G18G22G11G21G 3G 6G 9
  23270143.678    23270141.834    23270139.905    -9275400.449 4  -7227582.081 4
        28.400          29.200
  21401788.547    21401787.793    21401786.645   -20036131.239 6 -15612564.500 6
        38.400          38.500
  21533901.581    21533900.788    21533898.996   -20011968.083 6 -15593730.397 5
        38.200          35.800
  20274835.076    20274834.512    20274831.329   -25674466.313 7 -20006068.930 8
        44.600          51.200
  24554833.090    24554833.132    24554831.348    -1731011.399 1  -1348839.227 1
         6.500           9.000
  24353192.576    24353191.280    24353189.846    -6376012.530 2  -4968316.156 2
        17.800          16.100
  24782155.937    24782156.363    24782156.082     1537512.407 1   1198063.823 2
        11.000          16.100
  24844214.628    24844213.229    24844213.018      886185.615      690535.295 1
         3.000          11.000
  21456906.245    21456905.568    21456904.992   -17842346.792 6 -13903121.045 5
        36.500          35.100
 09  1 11  1 26  0.0000000  0  9G19G14G18G22G11G21G 3G 6G 9
  23278815.792    23278814.191    23278812.488    -9229825.597 4  -7192069.213 4
        27.900          29.000
  21388799.811    21388799.108    21388797.876   -20104387.344 6 -15665751.066 6
        38.400          38.600
  21546259.567    21546258.686    21546256.736   -19947027.434 6 -15543127.297 5
        38.100          35.500
  20276476.324    20276475.777    20276472.514   -25665841.466 7 -19999348.272 8
        44.600          51.200
  24537001.571    24537004.125    24537000.403    -1824705.432    -1421847.571 1
         3.000           9.000
  24375450.087    24375448.895    24375447.295    -6259048.004 2  -4877175.020 2
        12.600          16.100
  24800264.396    24800262.945    24800263.563     1632667.074 1   1272210.288 2
         9.000          17.000
  24862013.410    24862012.574    24862011.903      979725.649      763423.636 1
                        11.000
  21460458.803    21460458.105    21460457.281   -17823678.130 6 -13888574.035 5
        36.300          34.700
 09  1 11  1 26 30.0000000  0  9G19G14G18G22G11G21G 3G 6G 9
  23287585.069    23287583.223    23287581.807    -9183743.320 4  -7156160.954 4
        28.100          29.200
  21375886.936    21375886.234    21375885.198   -20172244.272 6 -15718626.581 6
        38.300          38.800
  21558678.740    21558677.942    21558676.041   -19881763.363 6 -15492272.174 5
        37.900          35.400
  20278197.069    20278196.538    20278193.381   -25656798.486 7 -19992301.797 8
        44.500          51.100
  24519226.866    24519225.509    24519225.232    -1918116.266    -1494635.194 1
                         6.500
  24397726.938    24397726.230    24397725.582    -6141975.327 1  -4785949.615 2
         9.000          13.900
  24818397.844    24818395.880    24818396.893     1727957.100 1   1346462.204 2
         9.000          17.000
  24879829.156    24879829.281    24879831.567     1073360.999      836386.243 1
                         9.000
  21464150.817    21464150.158    21464149.275   -17804276.263 6 -13873455.694 5
        36.500          34.600
 09  1 11  1 27  0.0000000  0  9G19G14G18G22G11G21G 3G 6G 9
  23296449.112    23296447.315    23296445.435    -9137165.152 4  -7119866.268 4
        28.100          29.900
  21363048.730    21363048.000    21363046.867   -20239710.378 6 -15771197.563 6
        38.400          38.900
  21571157.868    21571157.050    21571155.191   -19816185.997 6 -15441172.929 5
        38.000          35.500
  20279995.524    20279994.956    20279991.821   -25647347.815 7 -19984937.635 8
        44.400          51.100
  24501504.698    24501505.064    24501502.198    -2011250.505    -1567207.302 1
                         9.000
  24420023.160    24420022.990    24420021.220    -6024806.625 1  -4694649.387 2
         9.000          12.600
  24836553.957    24836552.939    24836553.231     1823369.763 1   1420809.682 2
         9.000          17.000
  24897666.440    24897665.362    24897665.172     1167079.485 1    909413.629 1
        11.000          11.000
  21467980.773    21467979.992    21467979.119   -17784151.600 6 -13857774.133 5
        36.600          34.700
 09  1 11  1 27 30.0000000  0  9G19G14G18G 9G22G11G21G 3G 6
  23305405.434    23305404.001    23305402.395    -9090096.787 4  -7083189.620 5
        27.600          30.100
  21350284.130    21350283.372    21350282.405   -20306788.164 6 -15823465.960 6
        38.300          39.100
  21583695.772    21583694.891    21583692.786   -19750299.942 6 -15389833.143 5
        38.100          35.200
  21471946.764    21471946.084    21471945.387   -17763308.856 6 -13841533.038 5
        36.400          34.800
  20281870.964    20281870.435    20281867.293   -25637491.934 7 -19977257.725 8
        44.300          51.100
  24483834.782    24483832.722    24483833.434    -2104109.541    -1639565.010 1
                        11.000
  24442338.596    24442336.788    24442335.368    -5907547.531 1  -4603278.684 1
         6.500          11.000
  24854732.465    24854731.757    24854731.650     1918898.744 1   1495247.819 2
        11.000          15.100
  24915513.077    24915512.240    24915513.044     1260874.445 2    982500.601 1
        13.900           9.000
 09  1 11  1 28  0.0000000  0  9G19G14G18G 9G22G11G21G 3G 6
  23314457.131    23314455.525    23314454.111    -9042529.174 4  -7046123.947 4
        27.400          29.900
  21337595.982    21337595.130    21337594.057   -20373465.692 6 -15875422.466 6
        38.400          39.200
  21596293.962    21596293.055    21596290.916   -19684095.200 6 -15338245.032 5
        37.700          34.900
  21476051.605    21476050.841    21476049.989   -17741738.159 6 -13824724.698 5
        36.200          34.600
  20283825.702    20283825.116    20283821.949   -25627220.216 7 -19969253.785 8
        44.300          51.000
  24466220.646    24466221.435    24466217.653    -2196680.283    -1711698.045 1
                        11.000
  24464671.914    24464671.489    24464667.956    -5790189.712 1  -4511831.093 2
         6.500          12.600
  24872935.218    24872934.230    24872934.013     2014552.077 2   1569782.854 2
        12.600          12.600
  24933378.350    24933377.733    24933377.285     1354753.979 2   1055653.489
        16.100           3.000
 09  1 11  1 28 30.0000000  0  9G19G14G18G22G11G21G 3G 6G 9
  23323603.022    23323601.471    23323600.099    -8994467.066 4  -7008672.968 5
        27.400          30.100
  21324983.337    21324982.605    21324981.583   -20439744.364 6 -15927068.176 6
        38.400          39.200
  21608952.254    21608951.521    21608949.529   -19617574.824 6 -15286410.970 5
        37.800          35.100
  20285858.935    20285858.402    20285855.154   -25616535.403 7 -19960927.954 8
        44.300          51.000
  24448658.414    24448659.253    24448655.815    -2288962.561    -1783606.322 1
                        11.000
  24487021.891    24487021.019    24487018.549    -5672737.791 1  -4420310.176 2
         9.000          12.600
  24891159.595    24891158.706    24891159.353     2110324.305 2   1644410.559 1
        13.900           9.000
  24951257.581    24951257.100    24951257.407     1448712.863 2   1128868.184
        15.100           3.000
  21480294.149    21480293.479    21480292.810   -17719442.464 6 -13807351.428 5
        36.100          34.800
 09  1 11  1 29  0.0000000  0  9G14G19G18G22G11G21G 3G 6G 9
  21312445.219    21312444.470    21312443.314   -20505633.420 6 -15978410.284 6
        38.600          39.300
  23332841.412    23332839.385    23332837.609    -8945922.301 4  -6970845.879 4
        27.400          29.500
  21621668.545    21621667.729    21621666.068   -19550749.753 6 -15234339.493 5
        37.600          35.200
  20287968.881    20287968.366    20287965.228   -25605447.196 7 -19952287.793 8
        44.300          51.000
  24431153.047    24431152.917    24431148.640    -2380963.823    -1855295.659 1
                         9.000
  24509386.556    24509385.757    24509385.064    -5555204.032 1  -4328725.496 1
         6.500          11.000
  24909403.302    24909403.477    24909403.897     2206202.073 2   1719120.502 1
        12.600          11.000
  24969150.763    24969150.175    24969151.385     1542738.216 2   1202134.719 1
        15.100           6.500
  21484672.911    21484672.147    21484671.517   -17696432.965 6 -13789421.946 5
        36.000          34.900
 09  1 11  1 29 30.0000000  0  9G14G19G18G22G11G21G 3G 6G 9
  21299982.311    21299981.633    21299980.551   -20571125.272 6 -16029442.890 6
        38.500          39.300
  23342171.341    23342169.858    23342168.055    -8896890.747 4  -6932639.470 4
        27.900          29.500
  21634444.000    21634443.171    21634441.440   -19483614.640 6 -15182026.421 5
        37.500          34.900
  20290156.824    20290156.311    20290153.209   -25593949.327 7 -19943328.414 8
        44.300          50.900
  24413703.539    24413702.412    24413696.025    -2472675.589    -1926759.357 1
                        11.000
  24531769.254    24531768.178    24531767.200    -5437584.573 1  -4237074.040 1
         9.000           9.000
  24927668.377    24927667.803    24927670.070     2302188.668 1   1793915.299 1
        11.000          11.000
  24987056.779    24987056.381    24987057.088     1636833.378 2   1275455.631 1
        13.900           6.500
  21489188.211    21489187.457    21489186.856   -17672704.410 5 -13770932.163 5
        35.900          34.800
 09  1 11  1 30  0.0000000  0  9G14G19G18G 9G22G11G21G 3G 6
  21287596.961    21287596.185    21287595.094   -20636211.319 6 -16080159.281 6
        38.600          39.500
  23351595.197    23351593.934    23351592.190    -8847366.823 4  -6894049.418 4
        27.600          28.800
  21647279.735    21647278.917    21647277.121   -19416162.214 6 -15129466.085 5
        37.500          34.700
  21493841.803    21493841.187    21493840.259   -17648249.813 6 -13751876.632 5
        36.200          34.700
  20292424.504    20292423.899    20292420.643   -25582033.471 7 -19934043.328 8
        44.300          50.800
  24396305.125    24396304.879    24396299.762    -2564087.493    -1997989.372 1
                         9.000
  24554168.183    24554168.316    24554167.425    -5319873.683 1  -4145351.338
        11.000           3.000
  24945956.320    24945956.017    24945957.597     2398288.800 1   1868798.490 1
        11.000          11.000
  25004977.026    25004976.076    25004975.876     1731003.393 2   1348834.838
        13.900           3.000
 09  1 11  1 30 30.0000000  0  9G14G19G18G22G11G21G 3G 6G 9
  21275288.928    21275288.142    21275286.852   -20700891.131 6 -16130559.125 6
        38.700          39.500
  23361112.562    23361111.307    23361109.237    -8797353.026 4  -6855077.623 4
        27.600          28.400
  21660175.726    21660174.823    21660172.891   -19348394.524 6 -15076660.095 5
        37.400          34.600
  20294771.213    20294770.722    20294767.500   -25569700.765 7 -19924433.426 8
        44.200          50.700
  24378966.781    24378964.748    24378961.605    -2655197.928    -2068984.445 1
                         6.500
  24576584.800    24576585.022    24576583.771    -5202074.418 2  -4053559.701
        15.100
  24964266.444    24964265.645    24964266.456     2494499.337 2   1943767.719 2
        12.600          12.600
  25022909.510    25022908.523    25022909.275     1825244.707 1   1422269.601 1
         9.000           6.500
  21498633.216    21498632.542    21498631.729   -17623070.987 6 -13732256.771 5
        36.100          34.600
 09  1 11  1 31  0.0000000  0  8G14G19G18G22G11G 3G 6G 9
  21263055.659    21263054.858    21263053.632   -20765177.412 6 -16180652.321 6
        38.700          39.700
  23370720.740    23370718.897    23370716.837    -8746865.185 4  -6815736.446 4
        27.900          28.400
  21673128.589    21673127.761    21673125.997   -19280325.771 6 -15023619.506 5
        37.100          34.600
  20297194.794    20297194.288    20297191.086   -25556964.487 7 -19914509.054 8
        44.100          50.700
  24361684.692    24361683.747    24361681.245    -2746017.449    -2139752.874 1
         3.000           9.000
  24982593.363    24982592.119    24982592.386     2590803.692 2   2018810.034 1
        15.100          11.000
  25040852.966    25040851.046    25040853.537     1919541.089     1495747.193 1
         3.000           9.000
  21503559.732    21503558.981    21503558.040   -17597182.531 6 -13712083.943 5
        36.100          34.400
 09  1 11  1 31 30.0000000  0  9G14G19G18G22G21G11G 3G 6G 9
  21250899.577    21250898.688    21250897.418   -20829058.622 6 -16230429.878 6
        38.800          39.800
  23380419.601    23380417.846    23380416.147    -8695895.194 4  -6776019.561 4
        27.100          28.100
  21686140.757    21686139.887    21686138.148   -19211946.242 6 -14970336.760 5
        36.700          34.500
  20299697.341    20299696.752    20299693.527   -25543814.298 7 -19904262.150 8
        44.100          50.600
  24621462.994    24621461.837    24621462.181           -.06213         -.1311
        20.500           3.000
  24344459.436    24344459.002    24344457.604    -2836533.908 1  -2210285.196 1
         6.500          11.000
  25000934.784    25000935.761    25000936.282     2687208.863 1   2093930.938 2
        11.000          12.600
  25058810.015    25058809.976    25058809.296     2013899.796     1569273.386 1
                        11.000
  21508622.603    21508621.997    21508621.319   -17570575.012 5 -13691350.812 5
        35.800          34.500
 09  1 11  1 32  0.0000000  0  9G14G19G18G22G21G11G 3G 6G 9
  21238820.763    21238819.877    21238818.711   -20892532.435 6 -16279889.983 6
        38.800          39.900
  23390210.350    23390208.837    23390207.240    -8644443.588 4  -6735927.409 4
        27.900          28.400
  21699212.217    21699211.327    21699209.558   -19143255.431 6 -14916811.453 5
        36.900          34.500
  20302278.693    20302278.115    20302274.835   -25530249.097 7 -19893691.862 8
        44.100          50.500
  24643923.542    24643922.514    24643922.096      118031.248 3     91972.340 1
        18.600           6.500
  24327294.017    24327294.106    24327291.232    -2926743.147 1  -2280578.104 1
         6.500          11.000
  25019299.055    25019297.963    25019300.248     2783713.471 1   2169129.313 2
         6.500          12.600
  25076778.591    25076776.850    25076777.015     2108319.563     1642847.278 1
                        11.000
  21513822.772    21513822.108    21513821.464   -17543248.348 5 -13670057.303 5
        35.700          34.500
 09  1 11  1 32 30.0000000  0  9G14G19G18G22G21G11G 3G 6G 9
  21226819.121    21226818.327    21226817.056   -20955601.707 6 -16329034.860 6
        39.100          40.000
  23400092.429    23400090.617    23400088.469    -8592516.372 4  -6695464.646 4
        27.900          27.900
  21712341.936    21712341.162    21712339.469   -19074258.060 6 -14863047.271 5
        37.000          34.600
  20304938.385    20304937.808    20304934.467   -25516272.600 7 -19882801.083 8
        44.100          50.500
  24666398.062    24666397.163    24666394.371      236136.147 2    184002.109 1
        13.900          11.000
  24310185.095    24310184.028    24310182.432    -3016646.455    -2350632.603 1
         3.000          11.000
  25037683.594    25037683.559    25037683.454     2880310.899 1   2244400.051 2
        11.000          13.900
  25094756.497    25094754.449    25094755.266     2202793.983     1716463.665 1
                        11.000
  21519159.139    21519158.410    21519157.245   -17515207.472 5 -13648207.273 5
        35.800          34.100
 09  1 11  1 33  0.0000000  0  9G14G18G19G22G21G11G 3G 6G 9
  21214894.577    21214893.807    21214892.538   -21018265.227 6 -16377863.569 6
        39.100          40.100
  21725529.794    21725528.988    21725527.338   -19004954.861 6 -14809044.782 5
        36.600          34.300
  23410063.646    23410061.962    23410060.022    -8540115.779 4  -6654633.020 4
        27.900          28.100
  20307676.284    20307675.731    20307672.552   -25501884.246 7 -19871589.379 8
        44.000          50.400
  24688886.093    24688884.722    24688882.680      354312.506 1    276087.530 2
         9.000          12.600
  24293133.434    24293131.766    24293132.378    -3106241.414    -2420446.833 1
                         9.000
  25056081.784    25056082.036    25056082.437     2976997.989 1   2319740.617 2
         9.000          13.900
  25112743.586    25112743.846    25112741.723     2297320.367     1790123.322 1
                         6.500
  21524630.794    21524629.934    21524628.899   -17486453.329 5 -13625801.446 5
        35.600          33.800
 09  1 11  1 33 30.0000000  0  9G14G18G19G22G21G11G 3G 6G 9
  21203046.870    21203046.124    21203044.839   -21080525.413 6 -16426377.991 6
        39.300          40.300
  21738775.408    21738774.551    21738772.548   -18935350.116 6 -14754807.318 5
        36.800          34.000
  23420124.108    23420122.205    23420120.514    -8487247.209 4  -6613436.739 4
        27.100          28.600
  20310491.867    20310491.316    20310488.157   -25487088.054 7 -19860059.875 8
        44.000          50.400
  24711385.773    24711384.188    24711384.076      472554.611      368224.174 2
         3.000          15.100
  24276141.782    24276143.344    24276139.729    -3195528.900    -2490021.428 1
                         6.500
  25074495.509    25074495.656    25074495.689     3073768.363     2395146.171 2
                        12.600
  25130739.391    25130741.477    25130741.976     2391892.372     1863818.036 1
                         9.000
  21530237.154    21530236.433    21530235.532   -17456990.664 5 -13602843.520 5
        35.500          34.100
 09  1 11  1 34  0.0000000  0  9G14G18G19G22G21G11G 3G 6G 9
  21191277.669    21191276.922    21191275.652   -21142372.853 6 -16474570.790 6
        39.300          40.400
  21752079.561    21752078.785    21752076.835   -18865435.847 6 -14700328.669 5
        36.500          34.000
  23430274.740    23430273.282    23430271.759    -8433903.979 4  -6571870.596 4
        27.100          29.000
  20313386.946    20313386.428    20313383.170   -25471874.681 7 -19848205.300 8
        44.100          50.400
  24733900.501    24733899.586    24733898.121      590868.816 1    460416.976 2
         6.500          15.100
  24259213.482    24259213.395    24259209.576    -3284497.543 1  -2559347.709 1
         6.500           6.500
  25092930.448    25092928.926    25092927.129     3170628.748     2470621.705 1
                        11.000
  25148747.096    25148745.183    25148745.611     2486515.942     1937551.591 1
                         9.000
  21535980.278    21535979.624    21535978.551   -17426811.609 5 -13579327.381 5
        35.800          34.400
 09  1 11  1 34 30.0000000  0  9G14G18G22G21G19G11G 3G 6G 9
  21179585.981    21179585.143    21179583.876   -21203813.158 6 -16522446.346 6
        39.400          40.500
  21765441.545    21765440.596    21765438.587   -18795219.229 6 -14645614.430 5
        36.400          33.900
  20316359.943    20316359.408    20316356.240   -25456251.183 7 -19836031.144 8
        43.900          50.300
  24756426.478    24756426.192    24756424.806      709246.111 1    552658.972 2
         6.500          17.800
  23440514.717    23440512.990    23440510.847    -8380095.513 4  -6529941.920 4
        27.600          28.400
  24242342.568    24242341.896    24242340.035    -3373151.957 1  -2628429.020 1
         6.500          11.000
  25111376.660    25111376.202    25111375.301     3267568.768     2546159.278 1
         3.000           9.000
  25166760.997    25166761.150    25166759.405     2581181.743     2011317.064 2
                        12.600
  21541857.752    21541857.085    21541856.206   -17395924.450 5 -13555259.463 5
        35.700          34.300
 09  1 11  1 35  0.0000000  0  9G14G18G22G21G19G11G 3G 6G 9
  21167971.047    21167970.280    21167969.057   -21264849.726 6 -16570007.300 6
        39.400          40.600
  21778859.533    21778858.855    21778856.710   -18724706.206 6 -14590669.217 5
        36.400          33.800
  20319410.294    20319409.755    20319406.452   -25440221.845 7 -19823540.751 8
        43.900          50.200
  24778963.014    24778963.671    24778961.840      827680.124 1    644945.171 2
         9.000          17.000
  23450841.664    23450839.804    23450837.388    -8325827.993 4  -6487655.544 4
        27.400          27.900
  24225532.023    24225531.806    24225530.633    -3461493.752 1  -2697266.739 2
         6.500          15.100
  25129839.078    25129838.016    25129837.840     3364581.609 1   2621753.714 1
         6.500          11.000
  25184780.336    25184780.367    25184780.871     2675882.480     2085109.784 2
                        13.900
  21547869.081    21547868.321    21547867.404   -17364334.796 5 -13530644.145 5
        35.300          34.100
 09  1 11  1 35 30.0000000  0  8G14G18G 9G21G22G19G11G 3
  21156433.663    21156432.868    21156431.614   -21325479.554 6 -16617251.315 6
        39.500          40.700
  21792334.497    21792333.674    21792331.640   -18653895.223 6 -14535491.832 5
        36.300          33.800
  21554014.145    21554013.366    21554012.574   -17332042.109 5 -13505481.019 5
        35.400          34.000
  24801510.758    24801511.728    24801510.065      946170.233 1    737275.086 2
        11.000          15.100
  20322538.122    20322537.610    20322534.421   -25423784.578 7 -19810732.486 8
        43.800          50.100
  23461255.540    23461253.740    23461251.686    -8271101.819 4  -6445011.775 4
        26.800          27.900
  24208781.612    24208781.451    24208780.172    -3549518.784 1  -2765857.652 2
         9.000          15.100
  25148314.200    25148312.996    25148312.939     3461665.415     2697403.472 1
         3.000          11.000
 09  1 11  1 36  0.0000000  0  8G14G18G 9G21G22G19G11G 3
  21144973.234    21144972.387    21144971.175   -21385704.975 6 -16664180.208 6
        39.500          40.900
  21805865.275    21805864.444    21805862.712   -18582790.413 6 -14480085.487 5
        36.200          33.900
  21560292.119    21560291.491    21560290.465   -17299050.703 5 -13479773.429 5
        35.500          33.900
  24824069.303    24824068.952    24824067.723     1064711.131 1    829644.572 2
        11.000          12.600
  20325743.034    20325742.491    20325739.237   -25406943.003 7 -19797609.180 8
        43.800          50.100
  23471755.462    23471753.849    23471752.261    -8215922.345 4  -6402014.780 4
        26.200          27.900
  24192092.880    24192092.459    24192090.044    -3637227.561 2  -2834202.150 2
        12.600          17.000
  25166799.646    25166799.007    25166796.917     3558814.783     2773104.256 1
                         9.000
 09  1 11  1 36 30.0000000  0  8G14G18G 9G21G22G19G11G 3
  21133594.673    21133593.918    21133592.667   -21445498.986 6 -16710772.937 6
        39.600          41.000
  21819456.704    21819455.918    21819454.175   -18511366.315 6 -14424430.350 5
        36.000          33.600
  21566707.901    21566707.222    21566706.497   -17265335.776 5 -13453502.055 5
        35.200          33.900
  24846641.917    24846640.860    24846638.904     1183326.713 1    922072.260 1
        11.000           9.000
  20329029.846    20329029.322    20329026.088   -25389670.351 7 -19784149.969 8
        43.600          50.000
  23482346.914    23482345.179    23482343.266    -8160265.450 4  -6358645.773 4
        26.800          28.100
  24175467.854    24175467.352    24175465.628    -3724591.392 2  -2902277.865 2
        16.100          17.000
  25185302.135    25185303.853    25185302.238     3656053.127     2848875.622 1
                         9.000
 09  1 11  1 37  0.0000000  0  7G14G18G 9G19G11G 3G22
  21122294.080    21122293.258    21122292.002   -21504884.136 6 -16757047.073 6
        39.600          41.000
  21833104.410    21833103.561    21833101.916   -18439647.296 5 -14368545.399 5
        35.700          33.600
  21573256.614    21573255.904    21573254.937   -17230922.234 5 -13426686.313 5
        35.100          33.800
  23493023.846    23493022.129    23493020.034    -8104157.119 4  -6314925.010 4
        26.200          27.400
  24158903.947    24158903.395    24158903.061    -3811631.617 2  -2970101.414 3
        16.100          19.300
  25203820.554    25203819.707    25203818.259     3753354.184     2924696.276 2
                        12.600
  20332394.198    20332393.683    20332390.446   -25371990.424 7 -19770373.402 8
        43.600          49.900
 09  1 11  1 37 30.0000000  0  7G14G18G 9G19G11G 3G22
  21111069.751    21111069.016    21111067.780   -21563867.980 6 -16803008.506 6
        39.600          41.000
  21846806.353    21846805.467    21846803.849   -18367642.609 5 -14312437.857 5
        35.400          33.200
  21579936.229    21579935.613    21579934.853   -17195819.750 5 -13399333.727 5
        35.100          33.600
  23503784.548    23503782.810    23503781.159    -8047608.200 4  -6270860.913 4
        26.500          27.400
  24142400.859    24142401.164    24142399.831    -3898353.972 2  -3037677.263 3
        17.800          19.300
  25222344.792    25222344.882    25222343.167     3850706.154     3000554.857 2
                        15.100
  20335834.467    20335833.949    20335830.682   -25353911.869 7 -19756286.211 8
        43.600          49.900
 09  1 11  1 38  0.0000000  0  7G14G18G 9G19G11G 3G22
  21099927.516    21099926.851    21099925.566   -21622420.331 6 -16848633.706 6
        39.700          41.100
  21860567.979    21860567.185    21860565.544   -18295324.383 5 -14256085.993 5
        35.400          33.100
  21586752.708    21586751.943    21586750.802   -17160000.976 5 -13371422.996 5
        35.200          33.600
  23514634.436    23514632.705    23514630.998    -7990591.726 4  -6226432.503 4
        26.200          27.400
  24125965.270    24125965.175    24125962.496    -3984726.922 2  -3104980.848 2
        17.000          17.800
  25240883.556    25240882.230    25240883.632     3948135.357     3076473.746 2
                        16.100
  20339356.159    20339355.614    20339352.407   -25335405.405 7 -19741865.588 8
        43.500          49.800
 09  1 11  1 38 30.0000000  0  7G14G18G 9G19G11G 3G22
  21088865.172    21088864.444    21088863.136   -21680553.731 6 -16893932.454 6
        39.700          41.200
  21874386.825    21874386.035    21874384.249   -18222706.596 5 -14199500.706 5
        35.600          33.100
  21593702.303    21593701.536    21593700.654   -17123480.287 5 -13342965.313 5
        34.900          34.000
  23525570.751    23525568.797    23525566.786    -7933123.139 4  -6181651.791 4
        25.900          26.800
  24109593.509    24109592.737    24109590.515    -4070761.199 2  -3172020.523 2
        16.100          17.800
  25259436.635    25259436.331    25259436.704     4045625.578     3152440.133 2
         3.000          17.000
  20342956.828    20342956.255    20342953.042   -25316484.097 7 -19727121.710 8
        43.500          49.800
 09  1 11  1 39  0.0000000  0  7G14G18G 9G19G11G 3G22
  21077882.203    21077881.404    21077880.150   -21738269.719 6 -16938905.943 6
        39.700          41.300
  21888261.957    21888261.167    21888259.496   -18149792.131 5 -14142684.242 5
        35.400          33.000
  21600784.502    21600783.891    21600783.120   -17086261.730 5 -13313963.842 5
        34.900          33.900
  23536591.926    23536590.294    23536587.786    -7875207.199 4  -6136522.487 4
        26.800          26.500
  24093284.944    24093284.977    24093282.886    -4156456.855 2  -3238796.375 2
        16.100          17.800
  25277998.235    25277997.346    25277996.632     4143172.063     3228450.354 2
                        13.900
  20346635.791    20346635.254    20346632.023   -25297150.559 7 -19712056.616 8
        43.400          49.700
 09  1 11  1 39 30.0000000  0  7G14G18G 9G19G11G 3G22
  21066978.389    21066977.564    21066976.373   -21795569.971 6 -16983555.484 6
        39.600          41.500
  21902193.019    21902192.112    21902190.244   -18076584.819 5 -14085639.591 5
        35.200          32.800
  21607999.426    21607998.575    21607997.369   -17048349.528 5 -13284421.868 5
        35.500          33.800
  23547696.703    23547694.912    23547693.153    -7816848.908 4  -6091048.488 4
        25.300          26.500
  24077042.399    24077041.356    24077040.627    -4241814.078 2  -3305308.506 3
        15.100          18.600
  25296569.932    25296570.495    25296568.971     4240768.864     3304499.806 1
                        11.000
  20350392.878    20350392.272    20350388.961   -25277407.598 7 -19696672.490 8
        43.400          49.600
 09  1 11  1 40  0.0000000  0  7G14G18G 9G19G11G 3G22
  21056153.703    21056153.012    21056151.800   -21852453.309 6 -17027880.157 6
        39.600          41.500
  21916179.671    21916178.759    21916176.866   -18003085.044 5 -14028367.044 5
        35.100          32.700
  21615345.092    21615344.353    21615343.803   -17009744.929 5 -13254340.359 5
        34.700          33.600
  23558885.967    23558884.277    23558882.012    -7758050.286 4  -6045231.395 4
        24.900          26.200
  24060865.490    24060864.160    24060863.083    -4326829.975 2  -3371554.646 3
        16.100          18.600
  25315151.440    25315150.102    25315152.159     4338413.594     3380586.534 2
         3.000          12.600
  20354227.623    20354227.127    20354223.897   -25257254.791 7 -19680968.999 8
        43.400          49.500
 09  1 11  1 40 30.0000000  0  7G14G18G 9G19G11G 3G22
  21045409.202    21045408.429    21045407.128   -21908916.198 6 -17071877.212 6
        39.500          41.600
  21930222.106    21930221.280    21930219.451   -17929290.949 5 -13970865.157 5
        35.200          32.300
  21622823.296    21622822.573    21622821.897   -16970446.930 5 -13223718.542 5
        34.500          33.600
  23570158.656    23570156.733    23570155.141    -7698811.076 4  -5999070.984 4
        24.900          27.400
  24044752.469    24044752.133    24044750.449    -4411499.652 2  -3437530.999 3
        16.100          18.600
  25333742.118    25333739.798    25333742.520     4436106.051     3456710.491 2
         3.000          13.900
  20358141.174    20358140.604    20358137.370   -25236689.617 7 -19664944.186 8
        43.300          49.500
 09  1 11  1 41  0.0000000  0  7G14G18G 9G19G11G 3G22
  21034745.444    21034744.601    21034743.430   -21964954.462 6 -17115543.386 6
        39.300          41.700
  21944321.213    21944320.250    21944318.379   -17855200.289 5 -13913132.177 5
        35.100          32.100
  21630434.112    21630433.455    21630432.244   -16930453.573 5 -13192554.891 5
        34.800          33.400
  23581515.467    23581513.909    23581512.211    -7639130.256 4  -5952566.449 4
        25.300          27.400
  24028707.060    24028707.020    24028705.192    -4495817.225 2  -3503232.998 3
        17.000          19.300
  25352343.551    25352343.189    25352341.183     4533846.607     3532871.876 1
                        11.000
  20362133.675    20362133.149    20362129.944   -25215708.375 7 -19648595.166 8
        43.200          49.500
 09  1 11  1 41 30.0000000  0  6G14G18G 9G19G11G22
  21024159.529    21024158.714    21024157.554   -22020583.477 6 -17158890.664 6
        39.300          41.900
  21958473.245    21958472.356    21958470.512   -17780830.050 5 -13855181.346 5
        34.700          32.000
  21638173.303    21638172.600    21638171.938   -16889782.538 5 -13160863.174 5
        34.600          33.500
  23592952.595    23592951.013    23592949.300    -7579026.376 4  -5905732.268 4
        24.600          27.100
  24012727.873    24012726.774    24012724.567    -4579796.326 2  -3568671.242 3
        17.000          19.300
  20366202.419    20366201.815    20366198.496   -25194327.797 7 -19631934.973 8
        43.100          49.300
 09  1 11  1 42  0.0000000  0  6G14G18G 9G19G11G22
  21013652.542    21013651.808    21013650.654   -22075797.959 6 -17201914.926 7
        39.300          42.000
  21972679.473    21972678.599    21972676.544   -17706176.456 5 -13797009.714 5
        34.700          31.600
  21646042.179    21646041.348    21646040.769   -16848431.337 5 -13128641.461 5
        34.400          33.400
  23604471.066    23604469.310    23604467.927    -7518497.383 4  -5858566.828 4
        24.600          27.100
  23996813.191    23996811.888    23996809.712    -4663430.183 2  -3633840.472 3
        17.000          19.300
  20370347.785    20370347.230    20370343.999   -25172543.438 7 -19614960.148 8
        43.100          49.300
 09  1 11  1 42 30.0000000  0  6G14G18G 9G19G11G22
  21003228.220    21003227.493    21003226.323   -22130578.469 6 -17244601.033 7
        39.500          42.200
  21986942.802    21986941.893    21986939.851   -17631222.175 5 -13738603.783 5
        34.400          31.600
  21654043.540    21654042.832    21654042.173   -16806383.164 5 -13095876.648 5
        34.100          33.200
  23616073.276    23616071.512    23616070.256    -7457527.172 4  -5811057.573 4
        24.200          27.100
  23980966.739    23980966.466    23980964.148    -4746697.555 2  -3698724.106 3
        17.000          19.900
  20374573.547    20374572.998    20374569.898   -25150336.568 7 -19597656.093 8
        43.000          49.300
 09  1 11  1 43  0.0000000  0  6G14G18G 9G19G11G22
  20992885.711    20992884.958    20992883.679   -22184928.878 6 -17286951.996 7
        39.400          42.200
  22001262.400    22001261.465    22001259.442   -17555972.486 5 -13679967.673 5
        34.300          31.500
  21662176.579    21662175.899    21662175.277   -16763643.899 5 -13062573.324 5
        34.100          33.200
  23627758.189    23627756.359    23627754.769    -7396122.585 3  -5763209.846 4
        23.800          26.800
  23965190.472    23965190.284    23965188.156    -4829601.079 2  -3763324.250 3
        17.800          19.300
  20378878.829    20378878.276    20378875.148   -25127712.086 7 -19580026.622 8
        42.900          49.200
 09  1 11  1 43 30.0000000  0  6G18G 9G19G11G22G14
  22015635.532    22015634.789    22015632.814   -17480439.961 5 -13621111.166 5
        34.300          31.500
  21670438.456    21670437.885    21670436.989   -16720227.369 5 -13028742.261 5
        34.300          33.100
  23639523.483    23639521.690    23639519.988    -7334297.743 4  -5715034.658 4
        24.600          27.100
  23949481.159    23949481.588    23949479.716    -4912150.090 2  -3827648.155 3
        17.000          19.300
  20383261.345    20383260.796    20383257.632   -25104681.805 7 -19562080.947 8
        42.800          49.200
  20982622.821    20982622.056    20982620.932   -22238860.217 6 -17328976.412 7
        39.300          42.300
 09  1 11  1 44  0.0000000  0  6G18G 9G19G11G22G14
  22030063.226    22030062.508    22030060.535   -17404621.452 5 -13562031.812 5
        34.100          31.100
  21678829.738    21678829.154    21678828.368   -16676131.346 5 -12994381.724 5
        34.300          33.400
  23651367.731    23651366.114    23651364.680    -7272051.238 4  -5666530.898 4
        24.600          26.500
  23933842.594    23933841.918    23933839.632    -4994337.826 2  -3891690.529 3
        17.800          20.500
  20387721.937    20387721.406    20387718.196   -25081241.610 7 -19543815.858 8
        42.800          49.100
  20972440.811    20972440.031    20972438.844   -22292367.389 6 -17370670.303 7
        39.300          42.500
 09  1 11  1 44 30.0000000  0  6G18G 9G19G11G22G14
  22044545.641    22044544.731    22044542.983   -17328515.660 5 -13502728.602 5
        33.500          31.100
  21687350.472    21687349.644    21687349.105   -16631355.079 5 -12959491.131 5
        33.900          33.500
  23663293.558    23663291.933    23663289.711    -7209383.550 4  -5617698.926 4
        25.300          25.300
  23918271.367    23918271.265    23918269.734    -5076159.510 2  -3955447.661 3
        15.100          21.100
  20392260.756    20392260.189    20392257.096   -25057389.508 7 -19525229.802 8
        42.800          49.100
  20962339.971    20962339.212    20962337.897   -22345447.832 6 -17412031.682 7
        39.300          42.500
 09  1 11  1 45  0.0000000  0  6G18G 9G19G11G22G14
  22059081.582    22059080.814    22059079.112   -17252128.436 5 -13443206.097 5
        33.400          31.300
  21695998.987    21695998.220    21695997.785   -16585905.562 5 -12924075.926 5
        33.800          33.400
  23675297.473    23675296.125    23675293.716    -7146301.850 4  -5568544.377 4
        24.900          24.900
  23902770.175    23902769.586    23902768.553    -5157617.960 2  -4018921.779 3
        12.600          21.100
  20396877.072    20396876.550    20396873.447   -25033130.527 7 -19506326.698 8
        42.700          49.100
  20952319.553    20952318.821    20952317.460   -22398105.509 6 -17453063.629 7
        39.500          42.600
 09  1 11  1 45 30.0000000  0  6G18G 9G19G11G22G14
  22073671.449    22073670.723    22073669.030   -17175458.193 5 -13383463.054 5
        33.200          31.100
  21704776.272    21704775.518    21704774.718   -16539781.964 5 -12888135.455 5
        34.000          33.200
  23687381.149    23687379.007    23687377.215    -7082806.194 4  -5519067.234 4
        24.900          24.900
  23887339.398    23887338.692    23887337.769    -5238708.480 2  -4082109.197 3
        12.600          20.500
  20401571.218    20401570.655    20401567.622   -25008462.431 7 -19487104.804 8
        42.500          49.000
  20942380.164    20942379.386    20942378.186   -22450336.997 6 -17493763.486 7
        39.500          42.700
 09  1 11  1 46  0.0000000  0  6G18G 9G19G11G22G14
  22088315.737    22088314.824    22088312.880   -17098503.901 5 -13323498.674 5
        33.200          31.300
  21713681.531    21713680.802    21713679.955   -16492984.394 5 -12851669.822 5
        33.900          33.100
  23699542.437    23699540.583    23699538.355    -7018896.680 4  -5469267.601 4
        24.600          25.300
  23871979.681    23871978.879    23871977.664    -5319426.242 2  -4145006.132 3
        12.600          20.500
  20406343.696    20406343.098    20406339.999   -24983383.358 7 -19467562.666 8
        42.500          49.000
  20932522.455    20932521.704    20932520.411   -22502139.742 6 -17534129.254 7
        39.500          42.700
 09  1 11  1 46 30.0000000  0  6G18G 9G19G11G22G14
  22103013.320    22103012.329    22103010.254   -17021269.087 5 -13263315.716 5
        33.400          31.500
  21722714.575    21722713.597    21722712.621   -16445517.720 5 -12814682.804 5
        33.900          33.000
  23711781.247    23711780.065    23711778.110    -6954579.271 4  -5419150.145 4
        24.200          25.900
  23856690.206    23856689.589    23856687.803    -5399772.324 2  -4207613.454 3
        12.600          19.900
  20411193.726    20411193.185    20411190.028   -24957896.359 7 -19447702.668 8
        42.500          48.900
  20922745.870    20922745.113    20922743.880   -22553515.939 6 -17574162.647 7
        39.600          42.900
 09  1 11  1 47  0.0000000  0  6G18G 9G19G11G22G14
  22117764.459    22117763.676    22117761.685   -16943749.302 5 -13202910.695 5
        33.100          30.800
  21731874.982    21731874.219    21731873.542   -16397377.922 5 -12777171.271 5
        33.600          33.200
  23724098.986    23724097.170    23724095.282    -6889850.398 3  -5368712.069 4
        23.800          26.200
  23841473.380    23841472.846    23841471.052    -5479738.307 2  -4269924.576 3
        13.900          19.900
  20416122.539    20416122.008    20416118.850   -24931995.117 7 -19427519.881 8
        42.600          48.800
  20913051.669    20913050.927    20913049.624   -22604458.986 6 -17613858.520 7
        39.600          43.000
 09  1 11  1 47 30.0000000  0  6G18G 9G19G11G22G14
  22132569.332    22132568.449    22132566.570   -16865949.405 5 -13142287.408 5
        33.100          31.000
  21741162.131    21741161.515    21741160.875   -16348571.157 5 -12739140.032 5
        33.200          33.000
  23736493.144    23736491.400    23736489.901    -6824716.861 3  -5317958.663 4
        22.600          26.200
  23826329.568    23826329.072    23826326.245    -5559325.556 2  -4331940.613 3
        16.100          19.300
  20421129.241    20421128.705    20421125.520   -24905684.708 7 -19407018.262 8
        42.600          48.700
  20903439.319    20903438.575    20903437.308   -22654972.385 6 -17653219.606 7
        39.700          43.100
 09  1 11  1 48  0.0000000  0  6G18G 9G19G11G22G14
  22147426.538    22147425.717    22147423.795   -16787874.407 5 -13081449.747 5
        33.100          30.600
  21750575.784    21750575.109    21750574.272   -16299103.548 5 -12700593.841 5
        33.500          32.400
  23748963.221    23748961.357    23748960.300    -6759185.238 3  -5266895.075 4
        22.600          26.800
  23811256.551    23811255.835    23811252.660    -5638536.365 2  -4393663.295 3
        17.000          18.600
  20426213.057    20426212.491    20426209.385   -24878969.109 7 -19386200.912 8
        42.500          48.700
  20893908.028    20893907.365    20893906.032   -22705059.608 6 -17692248.601 7
        39.700          43.300
 09  1 11  1 48 30.0000000  0  6G18G 9G19G11G22G14
  22162337.316    22162336.587    22162334.871   -16709516.490 5 -13020391.639 5
        32.800          30.600
  21760116.410    21760115.707    21760114.555   -16248967.755 5 -12661526.990 5
        33.200          32.000
  23761510.684    23761508.987    23761507.194    -6693249.134 3  -5215516.293 4
        22.100          26.500
  23796255.024    23796255.050    23796253.372    -5717359.099 2  -4455083.590 2
        13.900          17.800
  20431375.607    20431375.076    20431371.908   -24851839.658 7 -19365061.079 8
        42.500          48.600
  20884459.829    20884459.012    20884457.662   -22754711.022 6 -17730938.010 7
        39.800          43.400
 09  1 11  1 49  0.0000000  0  6G18G 9G19G11G22G14
  22177300.775    22177299.900    22177298.435   -16630882.774 5 -12959118.621 5
        32.100          30.400
  21769782.341    21769781.670    21769780.756   -16198172.538 5 -12621946.304 5
        33.200          32.100
  23774133.332    23774131.405    23774129.767    -6626917.660 3  -5163829.427 4
        22.600          26.800
  23781328.771    23781328.918    23781326.891    -5795797.780 2  -4516204.619 2
        17.000          17.800
  20436615.715    20436615.192    20436612.019   -24824302.637 7 -19343603.659 8
        42.400          48.500
  20875093.217    20875092.435    20875091.189   -22803932.415 6 -17769292.340 7
        39.700          43.500
 09  1 11  1 49 30.0000000  0  6G18G 9G19G11G22G14
  22192316.725    22192315.904    22192314.056   -16551974.689 5 -12897631.810 5
        32.300          30.400
  21779573.291    21779572.491    21779571.793   -16146720.608 5 -12581853.890 5
        33.000          32.100
  23786830.633    23786828.992    23786827.189    -6560193.401 3  -5111836.505 4
        23.000          27.100
  23766477.139    23766475.918    23766473.831    -5873850.488 3  -4577024.918 2
        18.600          17.000
  20441933.120    20441932.605    20441929.504   -24796359.240 7 -19321829.581 8
        42.400          48.400
  20865808.583    20865807.881    20865806.628   -22852723.311 6 -17807311.214 7
        39.700          43.700
 09  1 11  1 50  0.0000000  0  6G18G 9G19G11G22G14
  22207384.551    22207383.676    22207382.067   -16472793.056 5 -12835931.840 5
        32.300          30.800
  21789488.934    21789488.072    21789487.593   -16094613.564 5 -12541250.997 5
        33.100          32.400
  23799602.086    23799600.334    23799597.932    -6493079.288 3  -5059539.816 4
        23.400          25.900
  23751696.672    23751696.358    23751694.648    -5951515.206 3  -4637542.906 2
        18.600          17.000
  20447327.988    20447327.451    20447324.298   -24768009.400 7 -19299738.797 8
        42.400          48.400
  20856605.998    20856605.255    20856603.955   -22901083.326 6 -17844994.337 7
        39.700          43.800
 09  1 11  1 50 30.0000000  0  6G18G 9G19G11G22G14
  22222503.579    22222502.688    22222501.030   -16393341.929 5 -12774021.884 5
        32.100          30.600
  21799528.306    21799527.590    21799526.794   -16041856.834 5 -12500141.859 5
        33.100          32.400
  23812446.036    23812444.279    23812443.373    -6425581.156 3  -5006943.881 4
        23.800          26.200
  23736991.424    23736990.794    23736989.640    -6028792.584 2  -4697759.050 2
        17.000          17.800
  20452799.642    20452799.118    20452795.933   -24739255.530 7 -19277333.183 8
        42.400          48.300
  20847485.067    20847484.271    20847482.971   -22949014.588 6 -17882343.367 7
        39.700          43.900
 09  1 11  1 51  0.0000000  0  6G18G 9G19G11G22G14
  22237674.216    22237673.376    22237671.501   -16313618.725 5 -12711899.915 4
        31.800          29.900
  21809691.254    21809690.662    21809690.025   -15988448.774 5 -12458525.190 5
        32.800          32.400
  23825364.478    23825362.367    23825360.752    -6357697.135 3  -4954047.248 4
        23.800          25.300
  23722360.800    23722360.775    23722358.934    -6105676.377 2  -4757668.520 3
        17.800          18.600
  20458348.816    20458348.240    20458345.031   -24710095.190 7 -19254610.839 8
        42.400          48.300
  20838446.474    20838445.680    20838444.292   -22996512.783 6 -17919354.942 7
        39.700          44.000
 09  1 11  1 51 30.0000000  0  6G18G 9G19G11G22G14
  22252897.508    22252896.718    22252894.977   -16233619.903 5 -12649563.175 4
        31.800          29.900
  21819979.089    21819978.281    21819977.398   -15934387.393 5 -12416399.441 5
        32.700          32.000
  23838355.009    23838353.556    23838352.527    -6289425.729 3  -4900848.738 4
        23.000          24.900
  23707806.895    23707806.450    23707804.978    -6182160.027 3  -4817266.176 3
        18.600          19.300
  20463975.892    20463975.352    20463972.262   -24680524.172 7 -19231568.484 8
        42.400          48.200
  20829491.161    20829490.340    20829488.980   -23043573.125 6 -17956025.333 7
        39.700          44.100
 09  1 11  1 52  0.0000000  0  6G18G 9G19G11G22G14
  22268174.158    22268173.253    22268171.317   -16153341.823 5 -12587008.835 4
        31.800          29.900
  21830391.408    21830390.622    21830389.882   -15879670.124 5 -12373762.617 5
        32.800          32.100
  23851422.273    23851420.506    23851418.110    -6220765.549 4  -4847347.312 4
        24.600          24.900
  23693329.891    23693329.366    23693327.913    -6258236.552 3  -4876546.570 3
        18.600          19.300
  20469682.214    20469681.660    20469678.447   -24650537.803 7 -19208202.482 8
        42.400          48.100
  20820620.132    20820619.356    20820618.076   -23090190.354 6 -17992350.445 7
        39.700          44.300
 09  1 11  1 52 30.0000000  0  6G18G 9G19G11G22G14
  22283501.641    22283500.897    22283498.789   -16072795.042 5 -12524245.115 4
        31.800          29.500
  21840926.696    21840925.865    21840925.029   -15824308.366 5 -12330623.587 5
        32.700          32.300
  23864558.098    23864556.446    23864555.169    -6151728.566 3  -4793552.270 4
        23.400          24.600
  23678929.278    23678928.785    23678927.343    -6333913.343 3  -4935515.494 3
        19.300          19.900
  20475465.508    20475464.921    20475461.763   -24620145.930 7 -19184520.502 8
        42.300          48.000
  20811831.720    20811830.997    20811829.674   -23136373.577 6 -18028337.369 7
        39.700          44.400
 09  1 11  1 53  0.0000000  0  6G18G 9G19G11G22G14
  22298879.107    22298878.256    22298876.126   -15991986.480 5 -12461277.407 4
        31.500          29.200
  21851582.198    21851581.736    21851581.182   -15768310.161 5 -12286988.641 5
        32.300          32.300
  23877765.979    23877764.649    23877762.884    -6082323.370 3  -4739470.299 4
        23.000          24.600
  23664604.693    23664603.734    23664601.413    -6409193.904 3  -4994175.673 3
        20.500          21.100
  20481324.849    20481324.337    20481321.068   -24589354.846 7 -19160527.449 7
        42.300          47.800
  20803124.893    20803124.132    20803122.903   -23182128.183 6 -18063990.305 7
        39.500          44.600
 09  1 11  1 53 30.0000000  0  6G18G 9G19G11G22G14
  22314308.387    22314307.557    22314305.247   -15910905.857 5 -12398097.705 4
        31.500          29.500
  21862361.235    21862360.375    21862359.615   -15711666.907 5 -12242851.054 5
        31.800          31.600
  23891045.289    23891043.669    23891041.666    -6012541.216 3  -4685094.613 4
        23.000          24.600
  23650357.038    23650356.322    23650354.038    -6484064.915 3  -5052516.711 3
        19.900          21.100
  20487262.256    20487261.725    20487258.499   -24558153.421 7 -19136214.646 7
        42.200          47.700
  20794502.025    20794501.216    20794499.932   -23227442.109 6 -18099299.851 7
        39.500          44.600
 09  1 11  1 54  0.0000000  0  6G18G 9G19G11G22G14
  22329788.053    22329787.201    22329785.300   -15829558.720 5 -12334710.334 4
        31.100          29.700
  21873261.249    21873260.794    21873260.088   -15654385.446 5 -12198216.155 5
        31.800          31.500
  23904394.598    23904392.975    23904391.255    -5942389.542 3  -4630430.985 4
        23.000          25.300
  23636186.115    23636185.667    23636184.491    -6558528.782 3  -5110540.490 3
        19.300          22.100
  20493276.837    20493276.275    20493273.111   -24526546.596 7 -19111585.948 7
        42.100          47.600
  20785962.173    20785961.293    20785960.010   -23272319.428 6 -18134269.185 7
        39.400          44.700
 09  1 11  1 54 30.0000000  0  6G18G 9G19G11G22G14
  22345319.858    22345319.055    22345317.228   -15747938.030 5 -12271109.802 4
        30.600          29.500
  21884284.424    21884283.615    21884283.081   -15596460.235 5 -12153079.622 5
        31.800          31.600
  23917815.486    23917813.475    23917812.196    -5871863.045 3  -4575475.280 4
        22.100          26.200
  23622095.553    23622095.635    23622093.835    -6632575.431 3  -5168239.149 3
        19.900          22.100
  20499370.186    20499369.617    20499366.386   -24494526.174 7 -19086634.969 7
        42.100          47.500
  20777506.879    20777506.061    20777504.843   -23316751.920 6 -18168891.901 7
        39.300          44.800
 09  1 11  1 55  0.0000000  0  6G18G 9G19G11G22G14
  22360902.911    22360902.060    22360900.424   -15666047.518 5 -12207299.032 4
        30.400          29.500
  21895428.713    21895428.062    21895427.342   -15537896.100 5 -12107445.241 5
        31.600          31.500
  23931305.903    23931304.429    23931303.333    -5800966.944 3  -4520231.570 4
        21.600          26.200
  23608084.620    23608084.275    23608082.067    -6706204.664 3  -5225612.574 3
        19.300          21.600
  20505541.421    20505540.907    20505537.746   -24462095.527 7 -19061364.334 7
        42.000          47.400
  20769135.916    20769135.171    20769134.002   -23360741.253 6 -18203169.299 7
        39.200          45.000
 09  1 11  1 55 30.0000000  0  6G18G 9G19G11G22G14
  22376537.790    22376536.891    22376535.345   -15583885.894 5 -12143277.000 4
        30.200          29.000
  21906694.729    21906694.086    21906693.233   -15478692.769 5 -12061312.774 5
        31.600          31.100
  23944867.360    23944865.729    23944864.208    -5729702.032 3  -4464700.469 4
        21.100          26.500
  23594154.332    23594153.374    23594151.356    -6779412.225 3  -5282657.419 3
        19.300          21.100
  20511791.267    20511790.763    20511787.514   -24429252.416 7 -19035772.299 7
        42.000          47.300
  20760849.900    20760849.110    20760847.932   -23404284.834 6 -18237099.358 7
        39.300          45.100
 09  1 11  1 56  0.0000000  0  7G18G 9G19G11G12G22G14
  22392220.336    22392219.576    22392217.881   -15501473.220 5 -12079059.338 4
        30.200          28.600
  21918078.297    21918077.644    21918076.707   -15418872.487 5 -12014699.570 5
        32.000          31.300
  23958496.205    23958493.973    23958492.516    -5658089.258 3  -4408898.325 4
        20.500          27.600
  23580299.756    23580299.279    23580297.160    -6852215.126 3  -5339386.948 3
        19.300          21.100
  25266874.498    25266873.654    25266869.866           -.99712         -.83711
        12.600          11.000
  20518115.805    20518115.279    20518112.113   -24396016.618 6 -19009874.273 7
        41.900          47.200
  20752645.079    20752644.314    20752643.038   -23447401.371 6 -18270696.657 7
        39.200          45.100
 09  1 11  1 56 30.0000000  0  7G18G 9G19G22G11G14G12
  22407951.730    22407950.973    22407949.587   -15418802.308 4 -12014640.448 4
        29.500          28.400
  21929579.865    21929579.267    21929578.639   -15358428.931 5 -11967600.708 5
        31.500          31.100
  23972189.356    23972187.427    23972186.634    -5586123.765 3  -4352821.323 4
        19.300          25.300
  20524516.762    20524516.166    20524513.010   -24362379.945 6 -18983663.877 7
        41.900          47.100
  23566525.061    23566524.496    23566522.189    -6924602.808 3  -5395792.920 3
        19.300          21.600
  20744523.109    20744522.325    20744521.138   -23490082.168 6 -18303954.416 7
        39.100          45.200
  25250926.054    25250926.325    25250923.242      -83793.468 1    -65293.663 2
         6.500          12.600
 09  1 11  1 57  0.0000000  0  8G18G 9G19G22G11G14G 5G12
  22423734.945    22423733.965    22423732.371   -15335863.922 4 -11950013.141 4
        29.500          28.400
  21941202.532    21941201.862    21941200.935   -15297354.042 5 -11920009.880 5
        31.600          31.100
  23985952.585    23985951.371    23985949.255    -5513798.096 3  -4296463.676 4
        19.900          24.900
  20530995.637    20530995.082    20530991.971   -24328332.627 6 -18957133.497 7
        41.800          47.000
  23552831.018    23552830.575    23552828.911    -6996562.630 3  -5451865.492 3
        19.300          22.100
  20736486.264    20736485.426    20736484.199   -23532316.337 6 -18336864.155 7
        39.100          45.200
  25180834.280    25180834.437    25180832.985           -.2851          -.63511
                        11.000
  25235025.804    25235025.808    25235024.045     -167357.241     -130408.292 2
         3.000          15.100
 09  1 11  1 57 30.0000000  0  9G18G 9G19G22G11G14G 5G12G31
  22439566.342    22439565.484    22439564.059   -15252668.330 4 -11885185.420 4
        29.000          28.600
  21952942.546    21952941.750    21952940.792   -15235659.861 5 -11871936.497 5
        31.600          31.100
  23999782.659    23999780.833    23999779.147    -5441123.946 3  -4239834.501 4
        20.500          25.300
  20537551.089    20537550.481    20537547.283   -24293884.181 6 -18930290.554 7
        41.800          46.900
  23539218.095    23539217.862    23539215.419    -7068102.020 3  -5507610.467 3
        19.900          21.600
  20728532.697    20728531.907    20728530.597   -23574112.744 6 -18369432.782 7
        39.100          45.300
  25162930.349    25162928.057    25162929.158      -94088.355      -73315.858
                         3.000
  25219165.477    25219165.989    25219165.417     -250698.296     -195349.343 1
         3.000           9.000
  25058942.793    25058943.005    25058940.741           -.18211          .09613
         9.000          19.900
 09  1 11  1 58  0.0000000  0 10G18G 9G19G22G32G11G14G 5G12G31
  22455445.155    22455444.200    22455442.536   -15169225.821 4 -11820165.294 4
        29.000          28.400
  21964797.759    21964797.104    21964796.760   -15173358.082 5 -11823389.669 5
        31.100          31.600
  24013675.824    24013673.923    24013672.588    -5368113.734 3  -4182943.457 4
        19.900          25.600
  20544180.848    20544180.274    20544177.150   -24259044.306 6 -18903142.600 7
        41.700          46.900
  25090160.673    25090159.733    25090157.150           -.60111          .06712
         6.500          12.600
  23525683.196    23525682.569    23525680.980    -7139227.950 3  -5563033.262 3
        20.500          22.100
  20720660.797    20720659.939    20720658.684   -23615480.212 6 -18401667.167 7
        39.100          45.500
  25145056.120    25145054.936    25145056.217     -188018.841     -146508.377
                         3.000
  25203351.497    25203351.087    25203349.765     -333822.735     -260121.663
         3.000
  25036778.542    25036779.859    25036778.218     -116465.399 2    -90751.959 3
        12.600          19.300
 09  1 11  1 58 30.0000000  0  9G18G19G22G32G11G14G 5G31G 9
  22471370.556    22471369.780    22471367.860   -15085537.218 4 -11754953.410 4
        29.000          27.900
  24027632.478    24027630.944    24027629.951    -5294769.639 3  -4125792.217 4
        19.300          25.300
  20550885.067    20550884.565    20550881.344   -24223813.133 6 -18875689.737 7
        41.600          46.700
  25071862.758    25071862.483    25071863.857      -96144.618 1    -74917.304 2
         6.500          12.600
  23512227.711    23512226.913    23512225.220    -7209937.611 3  -5618131.691 3
        20.500          22.100
  20712870.496    20712869.721    20712868.452   -23656417.911 6 -18433566.669 7
        39.000          45.500
  25127212.093    25127211.397    25127212.800     -281788.042     -219575.295
                         3.000
  25014616.151    25014617.844    25014616.016     -232931.055 2   -181504.368 3
        17.800          19.300
  21976768.981    21976768.274    21976767.508   -15110450.755 5 -11774370.994 5
        31.500          31.500
 09  1 11  1 59  0.0000000  0  9G18G19G22G32G11G14G 5G31G 9
  22487344.735    22487343.788    22487341.684   -15001593.680 4 -11689542.864 4
        28.800          27.400
  24041654.852    24041652.811    24041651.280    -5221084.548 3  -4068375.294 3
        20.500          23.000
  20557665.662    20557665.166    20557661.966   -24188180.648 6 -18847924.162 7
        41.500          46.600
  25053570.394    25053570.466    25053574.346     -192260.138     -149812.496 1
         3.000          11.000
  23498853.206    23498852.703    23498851.021    -7280219.403 3  -5672896.724 3
        21.100          22.600
  20705164.098    20705163.358    20705162.034   -23696915.779 6 -18465123.447 7
        39.100          45.600
  25109403.322    25109402.449    25109403.352     -375383.301     -292506.737
                         3.000
  24992456.497    24992457.790    24992456.419     -349384.998 3   -272247.661 3
        21.100          18.600
  21988856.619    21988855.814    21988855.205   -15046930.520 5 -11724874.716 5
        31.600          31.500
 09  1 11  1 59 30.0000000  0  9G18G19G22G32G11G14G 5G31G 9
  22503372.459    22503371.836    22503370.266   -14917364.540 4 -11623909.781 4
        28.400          27.900
  24055746.145    24055744.253    24055743.262    -5147030.038 3  -4010670.483 3
        20.500          22.100
  20564528.535    20564528.031    20564524.943   -24152115.905 6 -18819821.764 7
        41.400          46.600
  25035292.831    25035291.844    25035293.279     -288314.419     -224660.060 1
         3.000          11.000
  23485566.095    23485566.078    23485564.851    -7350039.405 3  -5727301.917 3
        21.600          23.000
  20697547.334    20697546.620    20697545.309   -23736941.710 6 -18496312.482 7
        39.100          45.600
  25091630.892    25091628.754    25091631.058     -468769.673     -365275.286 1
         3.000           6.500
  24970306.219    24970306.072    24970304.968     -465792.889 3   -362955.065 2
        21.600          17.800
  22001066.139    22001065.442    22001064.586   -14982768.473 5 -11674878.329 5
        31.100          31.100
                            4 15
RINEX FILE SPLICE                                           COMMENT
teqc  2008Oct2      WCDA Operator       20090111 03:18:39UTCCOMMENT
STATION INFORMATION EFFECTIVE FROM: 2001/01/13 18:20:00     COMMENT
                                TO: CURRENT DATE (above)    COMMENT
BIT 2 OF LLI FLAGS (+4) DATA COLLECTED UNDER 'AS' CONDITION COMMENT
L1 PHASE CENTRE 0.110m ABOVE ARP                            COMMENT
L2 PHASE CENTRE 0.128m ABOVE ARP                            COMMENT
where ARP is the Antenna Reference Point for HI measurement COMMENT
CONTACT gps@pgc.nrcan.gc.ca FOR ADDITIONAL INFORMATION      COMMENT
    P1 =    P1  TurboRogue; =    Y1  Benchmark              COMMENT
    L1 = L1(CA)                                             COMMENT
    P2 =    P2  TurboRogue; =    Y2  Benchmark              COMMENT
    L2 = L2(P2) TurboRogue; = L2(Y2) Benchmark              COMMENT
 SNR is mapped to RINEX snr flag value [0-9]                COMMENT
  L1 & L2: min(max(int(snr_dBHz/6), 0), 9)                  COMMENT
 09  1 11  2  0  0.0000000  0 10G18G19G22G32G11G14G 5G12G31G 9
  22519450.877    22519449.782    22519447.970   -14832875.155 4 -11558073.915 4
        28.400          27.600
  24069904.422    24069902.706    24069900.149    -5072632.832 3  -3952698.637 3
        22.600          19.300
  20571469.139    20571468.516    20571465.296   -24115643.621 6 -18791401.807 7
        41.400          46.400
  25017024.366    25017023.767    25017023.836     -384331.001 1   -299478.190 1
        11.000           9.000
  23472363.652    23472363.467    23472362.004    -7419420.068 3  -5781364.765 3
        21.600          22.100
  20690015.892    20690015.086    20690013.881   -23776519.617 6 -18527152.405 7
        39.100          45.800
  25073895.013    25073893.747    25073894.598     -561968.136     -437897.404 1
                         9.000
  25140523.060    25140523.720    25140521.268           -.2531          -.0551
                         3.000
  24948158.624    24948158.774    24948157.054     -582176.979 3   -453643.928 2
        21.100          15.100
  22013392.663    22013391.879    22013391.412   -14917991.362 5 -11624402.663 5
        30.600          31.100
 09  1 11  2  0 30.0000000  0 10G18G19G22G32G11G14G 5G12G31G 9
  22535574.199    22535573.345    22535571.323   -14748145.648 4 -11492050.939 4
        28.400          27.100
  24084122.943    24084120.912    24084118.371    -4997915.108 3  -3894477.043 3
        21.600          19.300
  20578483.325    20578482.804    20578479.546   -24078783.505 6 -18762679.632 7
        41.400          46.300
  24998756.065    24998754.979    24998755.543     -480328.069 2   -374281.085 1
        12.600          11.000
  23459242.157    23459241.490    23459239.343    -7488378.241 3  -5835098.401 3
        22.600          21.600
  20682566.242    20682565.432    20682564.190   -23815668.162 6 -18557657.759 7
        39.000          45.900
  25056193.356    25056192.308    25056191.219     -654994.646     -510385.542 1
                         9.000
  25124934.058    25124933.806    25124931.647      -81928.920 1    -63840.524 1
        11.000           6.500
  24926011.355    24926012.701    24926011.594     -698553.447 2   -544326.860 2
        17.800          13.900
  22025832.476    22025831.756    22025830.979   -14852620.777 5 -11573464.558 5
        30.800          31.100
 09  1 11  2  1  0.0000000  0 10G18G19G22G32G11G14G 5G12G31G 9
  22551744.292    22551743.416    22551741.834   -14663169.856 4 -11425836.044 4
        27.600          27.100
  24098402.734    24098400.727    24098398.791    -4922872.104 3  -3836001.966 3
        19.900          19.300
  20585572.704    20585572.171    20585569.020   -24041528.287 6 -18733649.594 7
        41.300          46.300
  24980492.199    24980492.167    24980492.264     -576297.329 1   -449062.331 1
        11.000          11.000
  23446202.213    23446201.225    23446199.561    -7556904.213 3  -5888495.263 3
        22.600          22.100
  20675199.813    20675199.019    20675197.702   -23854379.501 6 -18587822.437 7
        39.100          46.000
  25038525.469    25038524.479    25038523.160     -747838.525     -582731.408 1
         3.000           6.500
  25109390.816    25109390.278    25109386.391     -163617.016 1   -127493.594 1
        11.000          11.000
  24903869.290    24903869.805    24903868.245     -814912.677 2   -634996.373 2
        17.000          12.600
  22038385.982    22038385.352    22038384.339   -14786651.828 5 -11522060.197 5
        30.800          31.300
 09  1 11  2  1 30.0000000  0 10G11G22G32G19G14G 5G12G31G18G 9
  23433244.881    23433244.356    23433242.608    -7624993.482 3  -5941551.837 3
        23.000          21.600
  20592737.984    20592737.436    20592734.210   -24003874.731 6 -18704309.162 7
        41.300          46.100
  24962238.710    24962237.273    24962237.168     -672234.334 1   -523818.441 1
         9.000          11.000
  24112744.812    24112743.813    24112741.180    -4847503.246 3  -3777273.002 3
        19.900          19.300
  20667917.122    20667916.301    20667915.046   -23892649.983 6 -18617643.584 7
        39.100          46.100
  25020890.599    25020890.469    25020892.715     -840493.259     -654929.841 1
                         6.500
  25093892.395    25093891.463    25093890.616     -245058.371 1   -190954.305 2
         9.000          15.100
  24881732.277    24881731.761    24881730.493     -931248.999 2   -725648.043 2
        17.000          15.100
  22567961.586    22567960.905    22567959.501   -14577945.486 4 -11359427.456 4
        27.600          26.800
  22051053.502    22051052.746    22051052.057   -14720083.990 5 -11470189.185 5
        30.800          31.100
 09  1 11  2  2  0.0000000  0 10G11G22G32G19G14G 5G12G31G18G 9
  23420374.173    23420373.588    23420371.067    -7692631.453 3  -5994256.739 3
        22.600          21.100
  20599980.823    20599980.290    20599977.146   -23965812.746 6 -18674650.473 7
        41.200          46.000
  24943988.151    24943988.115    24943988.341     -768127.404 1   -598540.257 1
        11.000          11.000
  24127149.660    24127147.704    24127147.133    -4771800.587 3  -3718283.916 3
        18.600          19.300
  20660720.473    20660719.681    20660718.335   -23930468.556 6 -18647112.598 7
        39.100          46.000
  25003302.172    25003300.893    25003299.899     -932944.650     -726969.846 2
         3.000          12.600
  25078441.514    25078441.849    25078441.212     -326238.901     -254211.747 2
         3.000          15.100
  24859600.090    24859600.104    24859600.183    -1047548.815 2   -816271.248 2
        15.100          16.100
  22584228.992    22584228.045    22584226.258   -14492462.559 4 -11292817.389 4
        28.400          26.800
  22063836.424    22063835.628    22063834.964   -14652909.030 5 -11417845.072 5
        30.800          30.600
 09  1 11  2  2 30.0000000  0 10G11G22G32G19G14G 5G12G31G18G 9
  23407589.418    23407588.741    23407586.541    -7759812.584 3  -6046605.676 3
        21.600          21.600
  20607302.458    20607301.861    20607298.705   -23927337.884 6 -18644670.060 7
        41.300          45.900
  24925751.845    24925750.543    24925749.017     -863971.212 2   -673223.702 2
        12.600          12.600
  24141619.687    24141618.459    24141616.108    -4695762.722 3  -3659033.640 3
        19.300          19.300
  20653610.676    20653609.970    20653608.625   -23967830.353 6 -18676225.680 7
        39.100          46.100
  24985747.196    24985745.911    24985747.843    -1025185.161     -798845.550 2
                        13.900
  25063048.032    25063046.735    25063044.922     -407151.341     -317260.367 2
                        13.900
  24837476.878    24837476.931    24837477.177    -1163805.524 2   -906860.886 2
        13.900          17.000
  22600545.695    22600544.794    22600543.233   -14406717.878 4 -11226003.358 4
        27.900          27.100
  22076735.166    22076734.476    22076733.705   -14585125.025 5 -11365026.355 5
        30.600          30.200
 09  1 11  2  3  0.0000000  0 10G11G22G32G19G14G 5G12G31G18G 9
  23394890.630    23394889.930    23394887.918    -7826545.154 3  -6098605.067 3
        20.500          22.100
  20614700.393    20614699.849    20614696.544   -23888461.612 6 -18614376.861 7
        41.300          45.700
  24907520.359    24907519.324    24907520.343     -959775.395 2   -747876.272 2
        12.600          15.100
  24156150.961    24156148.972    24156147.724    -4619402.895 3  -3599532.482 3
        18.600          19.900
  20646585.991    20646585.261    20646583.901   -24004745.474 6 -18704990.708 7
        39.100          46.100
  24968230.153    24968228.980    24968233.062    -1117222.187     -870562.610 1
                        11.000
  25047700.202    25047697.768    25047694.816     -487803.328 1   -380106.039 1
         6.500          11.000
  24815361.588    24815361.567    24815361.060    -1280026.928 2   -997422.994 3
        13.900          18.600
  22616909.666    22616908.708    22616907.577   -14320722.602 4 -11158994.068 4
        26.800          26.800
  22089747.723    22089746.985    22089745.958   -14516745.268 5 -11311743.438 5
        30.400          30.100
 09  1 11  2  3 30.0000000  0 10G22G32G19G11G14G 5G12G31G18G 9
  20622173.909    20622173.372    20622170.131   -23849187.866 6 -18583773.942 7
        41.300          45.600
  24889298.054    24889296.156    24889296.750    -1055542.619 2   -822500.086 2
        12.600          16.100
  24170741.038    24170739.310    24170738.089    -4542727.549 2  -3539785.482 3
        17.800          19.900
  23382276.112    23382276.139    23382274.746    -7892830.818 3  -6150256.234 3
        20.500          22.100
  20639645.669    20639644.908    20639643.511   -24041217.361 6 -18733410.358 7
        39.100          46.200
  24950757.622    24950756.243    24950758.550    -1209056.156     -942121.446 2
         3.000          12.600
  25032400.899    25032400.887    25032396.678     -568195.271     -442749.176 2
         3.000          12.600
  24793252.587    24793252.066    24793251.553    -1396214.383 2  -1087958.671 3
        12.600          21.100
  22633321.130    22633320.179    22633318.419   -14234481.981 4 -11091793.597 4
        26.800          26.500
  22102871.828    22102871.045    22102870.538   -14447776.189 5 -11258001.305 5
        30.400          30.100
 09  1 11  2  4  0.0000000  0 10G11G22G32G19G14G 5G12G31G18G 9
  23369748.297    23369748.100    23369746.099    -7958669.954 3  -6201559.455 3
        21.600          22.600
  20629722.401    20629721.877    20629718.802   -23809519.496 6 -18552863.522 7
        41.200          45.500
  24871079.730    24871078.356    24871078.666    -1151274.311 1   -897096.210 2
         9.000          16.100
  24185391.536    24185389.922    24185387.441    -4465741.713 2  -3479796.546 3
        17.000          21.100
  20632789.145    20632788.501    20632787.129   -24077247.959 6 -18761486.148 7
        39.100          46.200
  24933322.148    24933321.274    24933320.464    -1300685.991 1  -1013521.288 2
         9.000          13.900
  25017150.599    25017151.686    25017148.998     -648326.899     -505189.348 2
         3.000          16.100
  24771147.402    24771146.858    24771145.578    -1512367.706    -1178467.697 3
         3.000          19.300
  22649778.324    22649777.413    22649775.497   -14147999.494 4 -11024404.661 4
        27.400          26.500
  22116107.618    22116106.688    22116106.130   -14378222.344 4 -11203803.494 5
        29.900          30.100
 09  1 11  2  4 30.0000000  0 10G11G22G32G19G14G 5G12G31G18G 9
  23357305.380    23357304.745    23357302.860    -8024059.573 3  -6252512.398 3
        21.100          22.600
  20637346.448    20637345.887    20637342.683   -23769455.693 6 -18521644.974 7
        41.200          45.500
  24852867.492    24852866.599    24852867.872    -1246968.551 1   -971663.126 2
         6.500          15.100
  24200100.354    24200098.327    24200096.974    -4388447.648 3  -3419567.426 3
        18.600          22.100
  20626017.139    20626016.365    20626014.831   -24112836.102 6 -18789217.166 7
        39.100          46.200
  24915925.935    24915924.666    24915924.603    -1392107.680 2  -1084758.967 2
        12.600          15.100
  25001953.409    25001952.582    25001953.612     -728194.048     -567423.398 2
         3.000          17.800
  24749051.566    24749051.706    24749049.814    -1628483.481 1  -1268947.435 3
         9.000          19.900
  22666281.067    22666280.327    22666278.709   -14061275.099 4 -10956827.225 4
        27.100          26.800
  22129453.849    22129453.113    22129452.404   -14308085.994 4 -11149151.798 4
        29.900          29.900
 09  1 11  2  5  0.0000000  0 10G11G22G32G19G14G 5G12G31G18G 9
  23344947.973    23344947.373    23344945.812    -8088995.840 3  -6303112.086 3
        21.100          21.600
  20645045.556    20645045.085    20645042.009   -23728995.728 6 -18490117.731 7
        41.100          45.500
  24834664.466    24834663.454    24834664.727    -1342622.824 1  -1046198.892 2
         6.500          13.900
  24214866.290    24214865.358    24214863.381    -4310846.378 3  -3359098.921 3
        19.900          22.100
  20619329.554    20619328.721    20619327.235   -24147979.912 6 -18816601.946 7
        39.100          46.300
  24898568.560    24898566.554    24898569.521    -1483316.246 1  -1155830.517 2
        11.000          17.800
  24986806.219    24986806.203    24986803.330     -807791.918 1   -629447.683 2
        11.000          17.800
  24726964.177    24726963.952    24726964.120    -1744557.584 3  -1359394.740 4
        18.600          26.500
  22682830.648    22682829.789    22682827.763   -13974308.269 4 -10889060.880 4
        27.100          25.900
  22142911.033    22142910.395    22142909.660   -14237367.929 4 -11094046.833 4
        29.900          29.700
 09  1 11  2  5 30.0000000  0 10G11G22G32G19G14G 5G12G31G18G 9
  23332679.256    23332678.719    23332676.718    -8153468.433 3  -6353350.475 3
        21.600          21.600
  20652822.076    20652821.530    20652818.236   -23688130.966 6 -18458275.059 7
        41.200          45.300
  24816472.834    24816472.089    24816471.936    -1438227.640 1  -1120696.111 2
         9.000          12.600
  24229693.537    24229691.594    24229690.358    -4232932.556 3  -3298386.867 3
        20.500          22.100
  20612728.118    20612727.298    20612725.838   -24182670.532 6 -18843633.597 7
        39.000          46.400
  24881251.170    24881252.278    24881253.326    -1574300.040 1  -1226726.951 2
         6.500          16.100
  24971713.956    24971713.682    24971710.850     -887109.077 2   -691253.234 2
        12.600          17.000
  24704886.534    24704885.970    24704885.445    -1860578.996 3  -1449801.007 4
        22.600          28.400
  22699427.393    22699426.517    22699424.709   -13887091.762 4 -10821099.965 4
        27.100          25.600
  22156479.937    22156479.425    22156478.789   -14166062.493 4 -11038484.181 4
        29.700          29.900
 09  1 11  2  6  0.0000000  0 10G11G22G32G19G14G 5G12G31G18G 9
  23320497.569    23320496.829    23320494.696    -8217485.420 3  -6403233.846 3
        22.100          22.600
  20660673.241    20660672.663    20660669.459   -23646872.487 6 -18426125.596 7
        41.100          45.100
  24798289.636    24798288.441    24798285.882    -1533792.067 1  -1195161.837 2
        11.000          12.600
  24244577.521    24244575.677    24244574.222    -4154718.777 3  -3237441.074 3
        21.100          22.600
  20606210.932    20606210.215    20606208.772   -24216917.696 6 -18870319.698 7
        38.900          46.400
  24863981.414    24863981.311    24863981.345    -1665066.054    -1297453.674 2
         3.000          16.100
  24956670.748    24956670.842    24956668.453     -966152.828 1   -752845.792 2
        11.000          16.100
  24682817.045    24682816.647    24682815.397    -1976555.295 4  -1540172.126 4
        24.200          27.600
  22716069.485    22716068.736    22716066.887   -13799636.717 4 -10752953.180 4
        26.500          26.200
  22170158.712    22170158.043    22170157.099   -14094182.513 4 -10982473.811 5
        29.900          30.200
 09  1 11  2  6 30.0000000  0 10G11G22G32G19G14G 5G12G31G18G 9
  23308402.883    23308402.164    23308400.169    -8281043.398 3  -6452759.522 3
        22.100          23.000
  20668599.583    20668599.036    20668595.883   -23605219.084 6 -18393668.401 7
        41.000          45.100
  24780110.772    24780110.396    24780109.365    -1629313.849 1  -1269594.343 2
         9.000          12.600
  24259517.570    24259515.778    24259514.258    -4076206.831 3  -3176262.955 3
        21.600          22.600
  20599778.566    20599777.833    20599776.415   -24250720.136 6 -18896659.261 7
        38.900          46.500
  24846751.802    24846750.422    24846751.593    -1755609.529    -1368006.959 2
         3.000          16.100
  24941683.761    24941683.378    24941680.043    -1044918.769 1   -814221.824 2
        11.000          17.000
  24660755.518    24660755.995    24660754.597    -2092482.511 3  -1630505.008 4
        22.100          26.500
  22732756.975    22732756.347    22732754.584   -13711942.643 4 -10684620.150 4
        25.900          26.200
  22183945.935    22183945.197    22183944.365   -14021729.396 4 -10926016.836 4
        29.700          29.700
 09  1 11  2  7  0.0000000  0 10G11G22G32G19G14G 5G12G31G18G 9
  23296396.152    23296395.619    23296393.740    -8344139.577 3  -6501925.375 3
        23.000          23.000
  20676601.238    20676600.677    20676597.366   -23563170.256 6 -18360903.081 7
        41.000          44.900
  24761940.742    24761939.500    24761941.061    -1724791.159    -1343992.215 2
         3.000          15.100
  24274514.515    24274512.645    24274511.314    -3997398.700 3  -3114854.039 3
        23.000          23.000
  20593431.145    20593430.386    20593428.880   -24284076.483 6 -18922651.215 7
        38.800          46.600
  24829565.455    24829564.665    24829564.750    -1845926.389 1  -1438383.695 2
         9.000          17.800
  24926744.721    24926746.228    24926745.442    -1123403.056 1   -875378.360 2
         6.500          16.100
  24638704.346    24638705.298    24638703.925    -2208357.514 3  -1720797.177 4
        19.900          24.900
  22749490.041    22749489.176    22749487.647   -13624009.853 4 -10616101.110 4
        25.900          25.900
  22197842.037    22197841.200    22197840.661   -13948704.981 4 -10869114.694 4
        29.000          29.700
 09  1 11  2  7 30.0000000  0 10G11G22G32G19G14G 5G12G31G18G 9
  23284478.585    23284478.132    23284476.790    -8406764.325 3  -6550723.871 3
        23.400          23.800
  20684679.443    20684678.892    20684675.682   -23520719.191 6 -18327824.330 7
        41.000          44.900
  24743783.934    24743782.113    24743783.209    -1820215.490    -1418348.781 2
         3.000          17.000
  24289568.592    24289566.558    24289564.888    -3918289.522 3  -3053210.520 3
        22.100          22.100
  20587169.914    20587169.161    20587167.822   -24316978.856 6 -18948289.421 7
        38.700          46.800
  24812425.564    24812424.259    24812422.867    -1936005.837 1  -1508575.393 3
        11.000          18.600
  24911865.024    24911867.000    24911865.367    -1201595.092 1   -936307.195 2
         9.000          16.100
  24616666.946    24616666.849    24616666.026    -2324170.219 3  -1811040.813 3
        19.900          23.400
  22766270.193    22766269.246    22766267.303   -13535831.758 4 -10547390.923 4
        26.800          25.900
  22211847.617    22211846.905    22211846.413   -13875104.546 4 -10811763.718 4
        29.000          29.500
 09  1 11  2  8  0.0000000  0 10G11G22G32G19G14G 5G12G31G18G 9
  23272650.133    23272649.598    23272648.140    -8468922.727 3  -6599158.990 3
        23.400          23.000
  20692832.687    20692832.102    20692828.970   -23477873.439 6 -18294438.030 7
        40.900          44.900
  24725633.774    24725632.733    24725632.900    -1915592.889 1  -1492668.835 2
         9.000          17.800
  24304677.414    24304675.536    24304673.807    -3838889.732 3  -2991340.550 3
        19.900          21.100
  20580993.870    20580993.103    20580991.718   -24349434.183 6 -18973579.284 7
        38.600          46.900
  24795326.316    24795325.153    24795326.539    -2025851.857 1  -1578585.248 2
         6.500          17.800
  24897045.424    24897044.865    24897040.347    -1279498.943 2   -997011.526 3
        16.100          19.900
  24594640.244    24594640.627    24594638.982    -2439925.105 3  -1901239.418 3
        21.600          21.600
  22783095.054    22783094.058    22783092.163   -13447416.857 4 -10478496.197 4
        25.900          25.900
  22225961.142    22225960.391    22225959.509   -13800938.303 4 -10753971.861 4
        29.200          29.000
 09  1 11  2  8 30.0000000  0 10G11G22G32G19G14G 5G12G31G18G 9
  23260911.893    23260911.377    23260909.203    -8530610.263 3  -6647227.202 3
        23.800          23.000
  20701061.508    20701060.980    20701057.777   -23434630.791 6 -18260742.460 7
        41.100          44.800
  24707494.377    24707493.065    24707491.946    -2010919.691 2  -1566949.452 2
        12.600          17.800
  24319841.776    24319840.361    24319838.704    -3759199.191 3  -2929244.048 3
        19.300          21.600
  20574903.449    20574902.654    20574901.448   -24381439.678 6 -18998518.628 7
        38.600          46.900
  24778275.321    24778274.195    24778273.051    -2115458.463 1  -1648408.504 2
         6.500          15.100
  24882272.692    24882272.453    24882273.174    -1357109.017 1  -1057486.851 3
         9.000          18.600
  24572624.898    24572624.902    24572622.623    -2555616.950 3  -1991388.905 3
        21.600          19.900
  22799965.040    22799964.021    22799962.215   -13358763.395 4 -10409415.603 4
        25.300          25.600
  22240182.278    22240181.456    22240180.552   -13726206.202 4 -10695739.077 4
        29.000          29.000
 09  1 11  2  9  0.0000000  0 10G11G22G32G19G14G 5G12G31G18G 9
  23249261.913    23249261.646    23249260.252    -8591826.938 3  -6694928.493 3
        23.400          23.000
  20709365.414    20709364.852    20709361.557   -23390993.784 6 -18226739.595 7
        41.000          44.600
  24689363.403    24689362.570    24689361.469    -2106196.799 2  -1641191.320 3
        13.900          18.600
  24335061.004    24335059.402    24335058.168    -3679222.622 3  -2866924.644 3
        18.600          22.600
  20568898.290    20568897.572    20568896.084   -24412996.843 6 -19023108.624 7
        38.600          46.700
  24761269.468    24761267.583    24761267.638    -2204824.232    -1718044.179 2
                        13.900
  24867559.077    24867560.238    24867545.169    -1434424.167    -1117730.480 2
                        17.000
  24550622.303    24550621.919    24550619.317    -2671245.158 3  -2081488.805 3
        18.600          19.300
  22816879.821    22816878.934    22816877.431   -13269874.252 4 -10340151.338 4
        25.600          24.900
  22254509.756    22254509.112    22254508.715   -13650912.809 4 -10637068.906 4
        28.400          29.200
 09  1 11  2  9 30.0000000  0 10G11G22G32G19G14G 5G12G31G18G 9
  23237703.888    23237703.257    23237701.459    -8652568.715 3  -6742259.750 3
        23.800          22.600
  20717744.601    20717743.996    20717740.746   -23346960.783 6 -18192428.166 7
        41.000          44.400
  24671243.338    24671242.317    24671241.489    -2201421.223 2  -1715392.139 3
        13.900          19.300
  24350334.430    24350332.647    24350331.420    -3598960.962 3  -2804383.131 3
        20.500          23.000
  20562978.891    20562978.183    20562977.215   -24444103.479 6 -19047347.556 7
        38.600          46.300
  24744307.899    24744307.925    24744309.675    -2293944.018    -1787488.130 1
                        11.000
  24852907.997    24852908.121    24852904.794    -1511439.663 2  -1177742.424 3
        12.600          20.500
  24528632.627    24528631.656    24528629.371    -2786805.292 2  -2171535.625 3
        13.900          19.300
  22833840.072    22833839.379    22833837.227   -13180748.811 4 -10270702.956 4
        25.300          24.900
  22268944.385    22268943.633    22268943.213   -13575058.915 4 -10577961.974 4
        28.600          29.200
 09  1 11  2 10  0.0000000  0 10G11G22G32G19G14G 5G12G31G18G 9
  23226233.986    23226233.406    23226231.690    -8712843.500 4  -6789227.113 3
        24.200          23.000
  20726197.127    20726196.612    20726193.290   -23302542.181 6 -18157816.269 7
        41.000          44.300
  24653127.024    24653127.698    24653129.429    -2296601.701 1  -1789558.732 2
        11.000          17.800
  24365660.183    24365658.448    24365655.741    -3518427.095 3  -2741629.461 3
        22.600          23.000
  20557143.530    20557142.665    20557140.909   -24474769.404 6 -19071243.083 7
        38.500          46.300
  24727397.047    24727396.045    24727393.532    -2382824.430    -1856745.531 1
         3.000           9.000
  24838307.319    24838306.475    24838303.843    -1588162.132 1  -1237526.109 3
        11.000          19.900
  24506652.223    24506652.589    24506650.685    -2902304.761 1  -2261535.134 3
         9.000          18.600
  22850842.846    22850841.982    22850840.175   -13091397.752 4 -10201078.769 4
        24.600          25.300
  22283482.991    22283482.378    22283482.042   -13498657.253 4 -10518428.239 4
        28.400          29.000
 09  1 11  2 10 30.0000000  0 10G11G22G32G19G14G 5G12G31G18G 9
  23214855.492    23214854.825    23214852.704    -8772638.354 3  -6835820.509 3
        23.800          23.000
  20734725.146    20734724.593    20734721.227   -23257727.318 6 -18122895.596 7
        41.000          44.100
  24635026.623    24635027.277    24635027.543    -2391726.239 2  -1863681.747 3
        12.600          18.600
  24381038.452    24381036.710    24381035.142    -3437612.743 3  -2678657.247 4
        21.600          25.300
  20551393.802    20551393.063    20551392.231   -24504983.256 6 -19094786.342 7
        38.400          45.900
  24710532.120    24710531.198    24710530.752    -2471451.109 1  -1925805.285 1
         9.000          11.000
  24823763.825    24823763.480    24823764.225    -1664577.489 1  -1297070.545 3
        11.000          19.900
  24484686.560    24484686.862    24484685.461    -3017729.958 1  -2351476.786 2
         9.000          13.900
  22867890.877    22867889.683    22867888.173   -13001811.055 4 -10131270.981 4
        24.200          25.300
  22298127.598    22298126.968    22298126.534   -13421699.855 4 -10458461.463 4
        28.400          28.600
 09  1 11  2 11  0.0000000  0 10G11G22G32G19G14G 5G12G31G18G 9
  23203567.407    23203567.266    23203565.419    -8831953.211 3  -6882039.888 3
        23.400          22.100
  20743328.063    20743327.563    20743324.200   -23212518.557 6 -18087667.990 7
        40.900          44.100
  24616937.765    24616937.067    24616936.366    -2486795.421 2  -1937761.598 3
        15.100          19.300
  24396468.294    24396466.895    24396466.552    -3356522.416 3  -2615470.010 4
        19.900          25.600
  20545730.107    20545729.365    20545727.561   -24534746.311 6 -19117978.335 7
        38.300          45.700
  24693716.854    24693715.992    24693715.217    -2559822.344 1  -1994665.968 1
         9.000          11.000
  24809283.236    24809283.115    24809281.793    -1740684.493 2  -1356374.695 3
        17.000          19.900
  24462736.390    24462736.800    24462734.628    -3133079.636 2  -2441359.648 2
        13.900          13.900
  22884982.868    22884982.110    22884980.240   -12911991.647 4 -10061281.844 4
        24.900          24.900
  22312877.241    22312876.562    22312875.611   -13344191.033 4 -10398064.978 4
        27.900          27.600
 09  1 11  2 11 30.0000000  0 10G11G22G32G19G14G 5G12G31G18G 9
  23192372.476    23192372.113    23192369.970    -8890785.515 3  -6927883.243 3
        23.800          23.000
  20752005.935    20752005.432    20752002.158   -23166915.725 6 -18052133.318 7
        40.900          44.000
  24598856.993    24598856.465    24598856.116    -2581807.847 2  -2011797.239 3
        15.100          18.600
  24411952.189    24411950.699    24411948.478    -3275158.797 3  -2552069.796 4
        19.300          24.600
  20540152.280    20540151.479    20540150.575   -24564058.257 6 -19140818.814 7
        38.400          45.700
  24676947.404    24676946.394    24676944.312    -2647934.578    -2063324.817 1
                        11.000
  24794858.855    24794858.470    24794855.199    -1816479.930 2  -1415436.044 2
        16.100          17.800
  24440802.209    24440801.592    24440798.963    -3248351.009 2  -2531181.511 2
        15.100          16.100
  22902119.499    22902118.698    22902116.234   -12821940.178 4  -9991111.878 4
        25.300          24.900
  22327731.075    22327730.237    22327729.747   -13266133.324 4 -10337240.805 4
        28.100          27.900
 09  1 11  2 12  0.0000000  0 10G11G22G32G19G14G 5G12G31G18G 9
  23181269.021    23181268.464    23181266.720    -8949135.119 4  -6973350.469 3
        24.200          23.000
  20760758.503    20760757.976    20760754.681   -23120920.908 6 -18016293.201 7
        40.800          43.900
  24580788.211    24580786.665    24580786.149    -2676764.186 2  -2085789.143 2
        15.100          17.800
  24427485.894    24427484.650    24427482.693    -3193526.632 3  -2488460.345 3
        19.900          23.800
  20534660.051    20534659.193    20534657.361   -24592920.480 6 -19163308.859 7
        38.400          45.800
  24660229.574    24660229.029    24660229.519    -2735786.404    -2131780.732 2
                        12.600
  24780495.832    24780495.759    24780492.858    -1891962.393 1  -1474253.531 2
        11.000          17.800
  24418881.596    24418881.338    24418878.612    -3363543.496 2  -2620941.823 3
        16.100          18.600
  22919299.081    22919298.117    22919296.103   -12731659.626 4  -9920763.406 4
        24.600          24.900
  22342688.406    22342687.716    22342687.170   -13187531.154 4 -10275992.393 4
        28.100          27.400
 09  1 11  2 12 30.0000000  0 10G22G32G19G11G14G 5G12G31G18G 9
  20769584.126    20769583.601    20769580.363   -23074541.921 6 -17980153.731 7
        40.700          43.900
  24562726.460    24562725.329    24562725.597    -2771670.527 2  -2159742.106 2
        12.600          17.800
  24443069.850    24443068.212    24443066.528    -3111635.560 3  -2424649.154 4
        19.300          24.200
  23170256.396    23170255.895    23170253.812    -9007007.298 4  -7018445.676 3
        24.600          23.400
  20529251.954    20529251.213    20529250.341   -24621339.761 6 -19185453.746 7
        38.400          45.600
  24643561.081    24643558.797    24643562.014    -2823381.467    -2200036.618 2
         3.000          16.100
  24766189.242    24766188.638    24766189.321    -1967135.994 1  -1532830.391 3
         6.500          19.300
  24396976.398    24396975.886    24396972.476    -3478661.409 3  -2710644.074 3
        20.500          19.900
  22936520.791    22936520.045    22936518.184   -12641157.893 3  -9850242.588 4
        23.400          24.600
  22357747.854    22357746.904    22357746.342   -13108394.764 4 -10214327.680 4
        27.900          27.400
 09  1 11  2 13  0.0000000  0 10G22G32G19G11G14G 5G12G31G18G 9
  20778483.754    20778483.215    20778479.970   -23027774.193 6 -17943711.347 7
        40.700          43.800
  24544676.512    24544675.203    24544677.129    -2866520.739 1  -2233651.344 3
        11.000          18.600
  24458702.427    24458701.243    24458699.232    -3029483.618 2  -2360634.655 3
        17.800          23.800
  23159335.846    23159335.373    23159333.214    -9064395.226 3  -7063163.543 3
        23.800          23.400
  20523929.046    20523928.316    20523926.433   -24649311.357 6 -19207249.789 7
        38.200          45.500
  24626945.109    24626944.521    24626942.114    -2910711.659 1  -2268086.043 2
        11.000          15.100
  24751945.080    24751944.551    24751942.939    -2041993.012 1  -1591160.458 2
        11.000          17.000
  24375085.567    24375084.831    24375082.423    -3593697.133 3  -2800282.288 3
        19.900          22.100
  22953784.824    22953784.054    22953782.751   -12550431.250 3  -9779546.523 4
        22.600          24.200
  22372908.918    22372908.254    22372907.799   -13028722.000 4 -10152245.054 4
        28.100          27.900
 09  1 11  2 13 30.0000000  0 10G22G32G19G11G14G 5G12G31G18G 9
  20787458.893    20787458.250    20787455.073   -22980609.945 6 -17906959.984 7
        40.600          43.700
  24526640.086    24526638.669    24526640.652    -2961305.443 2  -2307509.536 3
        12.600          19.900
  24474385.445    24474384.187    24474382.998    -2947065.547 2  -2296412.790 3
        16.100          23.400
  23148508.993    23148508.528    23148506.516    -9121288.631 3  -7107496.073 3
        23.400          23.800
  20518693.146    20518692.356    20518691.481   -24676826.545 6 -19228690.189 7
        38.300          45.500
  24610377.725    24610376.422    24610376.405    -2997765.265 1  -2335920.092 2
         9.000          13.900
  24737764.145    24737763.324    24737760.328    -2116521.962 2  -1649234.916 2
        12.600          15.100
  24353212.400    24353211.775    24353209.498    -3708639.999 3  -2889848.125 3
        20.500          23.000
  22971093.963    22971093.377    22971091.748   -12459472.532 3  -9708669.623 3
        22.600          23.800
  22388173.505    22388172.667    22388171.999   -12948507.522 4 -10089740.313 4
        28.400          27.900
 09  1 11  2 14  0.0000000  0 10G22G32G19G11G14G 5G12G31G18G 9
  20796508.295    20796507.748    20796504.549   -22933054.619 6 -17869903.889 7
        40.600          43.700
  24508616.310    24508614.909    24508614.645    -3056028.242 2  -2381319.506 3
        13.900          20.500
  24490118.153    24490116.631    24490115.185    -2864388.689 2  -2231989.257 3
        13.900          21.600
  23137776.035    23137775.598    23137773.581    -9177690.343 3  -7151445.453 3
        23.400          23.800
  20513543.132    20513542.394    20513540.475   -24703889.759 6 -19249778.407 7
        38.200          45.400
  24593863.915    24593862.917    24593864.044    -3084543.887 1  -2403539.727 2
         6.500          15.100
  24723641.424    24723641.258    24723640.295    -2190724.728 1  -1707055.251 2
         9.000          13.900
  24331356.463    24331356.301    24331354.265    -3823492.091 3  -2979343.249 3
        21.600          23.800
  22988446.251    22988445.617    22988443.661   -12368287.293 3  -9637616.197 3
        23.000          23.000
  22403538.970    22403538.328    22403538.336   -12867758.702 4 -10026819.176 4
        27.400          27.900
