     2.11           OBSERVATION DATA    G (GPS)             RINEX VERSION / TYPE
teqc  2008Oct2      WCDA Operator       20090110 00:18:51UTCPGM / RUN BY / DATE
Solaris x86 5.10|AMD64|cc SC5.8 -xarch=amd64|=+|=+          COMMENT
teqc  2008Oct2      WCDA Operator       20090109 01:18:39UTCCOMMENT
flin  WCDA-ACP   965000   CFS Flin Flon SASK Canada         MARKER NAME
40135M001                                                   MARKER NUMBER
PGC-WCDA            GEOL. SURV. CANADA                      OBSERVER / AGENCY
1115                AOA BENCHMARK ACT   3.3.32.4            REC # / TYPE / VERS
231                 AOAD/M_T        SCIS                    ANT # / TYPE
  -766174.4630 -3611375.3160  5184056.2210                  APPROX POSITION XYZ
        0.1500        0.0000        0.0000                  ANTENNA: DELTA H/E/N
     1     1                                                WAVELENGTH FACT L1/2
     7    C1    P1    P2    L1    L2    S1    S2            # / TYPES OF OBSERV
STATION INFORMATION EFFECTIVE FROM: 2001/01/13 18:20:00     COMMENT
                                TO: CURRENT DATE (above)    COMMENT
BIT 2 OF LLI FLAGS (+4) DATA COLLECTED UNDER 'AS' CONDITION COMMENT
L1 PHASE CENTRE 0.110m ABOVE ARP                            COMMENT
L2 PHASE CENTRE 0.128m ABOVE ARP                            COMMENT
where ARP is the Antenna Reference Point for HI measurement COMMENT
CONTACT gps@pgc.nrcan.gc.ca FOR ADDITIONAL INFORMATION      COMMENT
    P1 =    P1  TurboRogue; =    Y1  Benchmark              COMMENT
    L1 = L1(CA)                                             COMMENT
    P2 =    P2  TurboRogue; =    Y2  Benchmark              COMMENT
    L2 = L2(P2) TurboRogue; = L2(Y2) Benchmark              COMMENT
 SNR is mapped to RINEX snr flag value [0-9]                COMMENT
  L1 & L2: min(max(int(snr_dBHz/6), 0), 9)                  COMMENT
  2009     1     9     0     0    0.0000000     GPS         TIME OF FIRST OBS
                                                            END OF HEADER
 09  1  9  0  0  0.0000000  0 11G21G 6G26G 9G15G14G 3G24G18G22G19
  20986874.574    20986873.692    20986871.994   -24020519.252 6 -18717280.445 6
        40.200          37.900
  22397173.864    22397173.269    22397173.615   -12098731.001 5  -9427579.618 5
        32.000          32.700
  23665671.057    23665670.783    23665669.869    -3553424.318 2  -2768893.334 3
        17.000          21.600
  23080209.150    23080208.846    23080208.737    -9356912.399 3  -7291096.386 4
        23.800          25.900
  22383212.419    22383211.944    22383210.523   -12949486.205 5 -10090498.092 6
        34.000          36.200
  24858514.582    24858514.463    24858513.558    -1962473.909 1  -1529199.349 2
         6.500          16.100
  22440452.965    22440452.150    22440452.236   -11094377.814 5  -8644966.282 5
        31.000          30.600
  24637873.303    24637872.178    24637874.295     -584005.470 1   -455067.195 2
         6.500          13.900
  20413267.055    20413266.251    20413265.073   -25903286.460 6 -20184369.674 7
        38.400          46.800
  21276704.455    21276703.978    21276701.140   -20447036.938 6 -15932747.252 6
        40.500          41.000
  23530225.727    23530224.513    23530223.298    -7914012.238 3  -6166760.813 4
        23.400          27.100
 09  1  9  0  0 30.0000000  0 11G21G 6G26G 9G15G14G 3G24G18G22G19
  20998408.426    20998407.553    20998405.778   -23959909.310 6 -18670051.926 6
        40.400          37.800
  22402770.162    22402769.392    22402769.393   -12069324.379 5  -9404665.368 5
        32.300          32.600
  23687771.878    23687771.199    23687770.504    -3437286.601 2  -2678396.427 3
        17.000          21.100
  23061695.735    23061694.983    23061695.353    -9454201.023 3  -7366905.660 4
        23.400          26.500
  22398148.778    22398148.731    22398147.277   -12870992.910 5 -10029334.483 5
        33.900          35.900
  24836657.478    24836656.003    24836655.374    -2077337.578 1  -1618703.436 2
         6.500          15.100
  22444555.977    22444555.175    22444555.081   -11072817.404 5  -8628165.960 5
        30.800          30.400
  24658146.357    24658145.180    24658146.568     -477469.502     -372052.127 2
         3.000          12.600
  20412510.613    20412509.781    20412507.263   -25907261.777 6 -20187467.321 7
        38.400          46.800
  21265056.367    21265055.837    21265053.087   -20508247.735 6 -15980443.960 6
        40.500          41.100
  23518957.978    23518956.659    23518954.672    -7973227.266 4  -6212902.367 4
        24.600          26.500
 09  1  9  0  1  0.0000000  0 11G21G 6G26G 9G15G14G 3G24G18G22G19
  21010030.393    21010029.538    21010027.690   -23898835.399 6 -18622461.870 6
        40.400          37.700
  22408470.690    22408469.930    22408470.040   -12039368.803 5  -9381323.359 5
        32.300          32.700
  23709916.554    23709916.150    23709915.431    -3320915.701 2  -2587717.812 3
        16.100          20.500
  23043253.996    23043253.231    23043253.224    -9551113.856 3  -7442422.099 4
        23.400          26.200
  22413157.253    22413156.911    22413155.621   -12792124.143 5  -9967878.294 5
        33.800          35.500
  24814816.023    24814814.725    24814813.888    -2192118.849 1  -1708143.299 2
         9.000          17.800
  22448773.132    22448772.372    22448772.142   -11050655.972 5  -8610897.318 5
        31.000          30.200
  24678437.816    24678436.357    24678439.237     -370836.959     -288961.820 2
                        12.600
  20411830.168    20411829.346    20411828.152   -25910837.323 6 -20190253.453 7
        38.400          46.800
  21253468.510    21253468.017    21253465.174   -20569142.139 6 -16027894.132 6
        40.500          41.100
  23507783.983    23507782.146    23507780.447    -8031946.975 4  -6258657.974 4
        24.600          26.200
 09  1  9  0  1 30.0000000  0 11G 6G26G 9G15G21G14G 3G24G18G22G19
  22414274.197    22414273.667    22414273.667   -12008869.614 5  -9357557.753 5
        32.300          32.400
  23732103.604    23732103.344    23732103.248    -3204318.713 2  -2496863.033 3
        15.100          19.900
  23024883.310    23024882.743    23024882.728    -9647651.032 3  -7517645.827 4
        23.800          25.300
  22428235.606    22428235.300    22428233.970   -12712886.273 5  -9906134.491 5
        33.400          35.100
  21021739.657    21021738.821    21021737.024   -23837302.562 6 -18574514.204 6
        40.200          37.700
  24792989.349    24792988.120    24792987.056    -2306819.990 1  -1797520.708 2
         6.500          17.800
  22453103.814    22453102.951    22453102.961   -11027898.214 5  -8593163.997 5
        31.100          30.600
  24698746.326    24698744.990    24698748.156     -264113.541     -205800.741 2
                        13.900
  20411225.054    20411224.227    20411221.821   -25914017.271 6 -20192731.332 7
        38.400          46.900
  21241940.404    21241939.848    21241937.028   -20629723.266 6 -16075100.192 6
        40.500          41.300
  23496703.988    23496702.128    23496700.626    -8090173.523 4  -6304029.304 4
        25.300          27.100
 09  1  9  0  2  0.0000000  0 11G 6G26G 9G15G21G14G 3G24G18G22G19
  22420180.620    22420179.878    22420179.704   -11977832.161 5  -9333372.717 5
        32.100          32.100
  23754332.254    23754331.999    23754332.485    -3087502.958 2  -2405837.789 3
        15.100          19.900
  23006584.039    23006583.419    23006583.625    -9743813.540 3  -7592577.618 4
        23.000          24.900
  22443382.869    22443382.737    22443381.344   -12633285.715 5  -9844108.080 5
        33.500          35.100
  21033535.339    21033534.471    21033532.698   -23775315.978 6 -18526212.978 6
        40.200          37.300
  24771174.602    24771174.418    24771174.587    -2421443.075 1  -1886837.331 2
        11.000          16.100
  22457546.905    22457546.098    22457546.197   -11004549.378 5  -8574970.094 5
        30.800          31.100
  24719071.959    24719071.272    24719074.226     -157304.776     -122573.154 2
                        13.900
  20410694.385    20410693.567    20410692.403   -25916805.795 6 -20194904.201 7
        38.400          46.800
  21230471.128    21230470.647    21230467.804   -20689994.520 6 -16122064.793 6
        40.600          41.400
  23485717.470    23485716.046    23485714.360    -8147908.929 4  -6349017.901 4
        25.300          27.400
 09  1  9  0  2 30.0000000  0 11G21G 6G26G 9G15G14G 3G24G18G22G19
  21045417.461    21045416.541    21045414.608   -23712875.317 6 -18477557.912 6
        40.100          37.100
  22426189.258    22426188.592    22426188.571   -11946256.453 5  -9308768.267 5
        32.100          32.400
  23776602.504    23776602.831    23776603.060    -2970469.986 2  -2314643.255 3
        15.100          19.900
  22988357.764    22988356.993    22988356.580    -9839596.019 3  -7667213.280 4
        23.400          25.300
  22458599.126    22458599.095    22458597.839   -12553323.283 5  -9781799.680 5
        33.600          35.300
  24749377.590    24749377.475    24749378.129    -2535984.593 1  -1976090.412 2
        11.000          17.000
  22462102.631    22462101.701    22462101.876   -10980609.078 5  -8556315.313 5
        31.000          31.100
  24739414.572    24739414.350    24739415.482      -50410.794      -39279.148 2
         3.000          13.900
  20410238.462    20410237.677    20410235.218   -25919201.320 6 -20196770.841 7
        38.400          46.700
  21219061.347    21219060.812    21219057.954   -20749953.530 6 -16168786.085 6
        40.600          41.400
  23474825.153    23474823.489    23474821.237    -8205149.933 4  -6393621.276 4
        26.500          26.200
 09  1  9  0  3  0.0000000  0 11G21G 6G26G 9G15G14G 3G24G18G22G19
  21057384.611    21057383.741    21057382.085   -23649986.852 6 -18428553.912 6
        39.900          37.200
  22432298.980    22432298.450    22432298.171   -11914148.785 5  -9283749.307 5
        31.800          32.100
  23798914.368    23798914.229    23798913.492    -2853227.983 2  -2223285.840 3
        16.100          19.900
  22970202.697    22970201.976    22970201.783    -9935000.259 4  -7741554.204 4
        24.200          25.300
  22473882.939    22473882.837    22473881.655   -12473006.750 5  -9719215.360 5
        33.400          35.300
  24727597.210    24727597.253    24727596.835    -2650447.920 1  -2065282.545 2
        11.000          17.000
  22466769.837    22466768.860    22466768.700   -10956083.745 5  -8537204.652 5
        31.100          30.600
  24759772.405    24759771.297    24759770.731       56561.972       44076.245 2
         3.000          12.600
  20409856.452    20409855.642    20409854.534   -25921209.236 6 -20198335.442 7
        38.500          46.900
  21207709.948    21207709.517    21207706.563   -20809604.759 6 -16215267.547 6
        40.600          41.400
  23464025.931    23464024.214    23464022.085    -8261899.993 4  -6437842.106 4
        27.100          26.200
 09  1  9  0  3 30.0000000  0 11G21G 6G26G 9G15G14G 3G24G18G22G19
  21069438.602    21069437.758    21069436.136   -23586642.287 6 -18379194.518 6
        39.800          37.200
  22438511.604    22438510.980    22438510.927   -11881501.221 5  -9258309.635 5
        31.500          32.000
  23821267.114    23821266.273    23821264.047    -2735770.506 2  -2131760.487 3
        15.100          19.300
  22952122.248    22952121.570    22952121.142   -10030013.426 4  -7815590.398 4
        24.200          25.300
  22489235.330    22489235.241    22489233.892   -12392329.242 5  -9656349.779 5
        33.000          35.200
  24705833.323    24705832.301    24705832.494    -2764821.657 1  -2154404.852 2
        11.000          16.100
  22471549.895    22471548.925    22471548.646   -10930965.209 5  -8517631.760 5
        31.300          30.400
  24780142.673    24780141.578    24780142.272      163621.338 1    127499.162 1
         6.500          11.000
  20409549.887    20409549.033    20409546.641   -25922819.933 6 -20199590.528 7
        38.500          46.900
  21196419.536    21196418.927    21196415.947   -20868937.922 6 -16261501.169 6
        40.700          41.600
  23453321.949    23453320.509    23453318.420    -8318147.791 4  -6481671.547 4
        27.400          26.500
 09  1  9  0  4  0.0000000  0 11G 6G26G 9G15G21G14G 3G24G18G22G19
  22444826.285    22444825.850    22444825.771   -11848316.496 5  -9232451.402 5
        31.500          32.100
  23843658.043    23843657.457    23843655.558    -2618102.105 2  -2040070.808 3
        13.900          19.300
  22934116.167    22934115.736    22934115.605   -10124633.191 3  -7889320.036 4
        23.400          25.300
  22504655.663    22504655.554    22504654.025   -12311294.495 5  -9593205.821 5
        32.700          34.700
  21081578.945    21081578.200    21081576.729   -23522844.222 6 -18329481.741 6
        39.800          37.300
  24684084.861    24684083.935    24684084.182    -2879104.903 1  -2243456.685 2
         9.000          13.900
  22476441.960    22476441.117    22476440.803   -10905256.170 5  -8497598.733 5
        30.800          30.200
  24800530.736    24800530.127    24800530.821      270764.461 1    210987.324 1
         6.500          11.000
  20409318.828    20409317.893    20409316.840   -25924034.889 6 -20200537.236 7
        38.600          47.100
  21185189.158    21185188.654    21185185.655   -20927953.274 6 -16307487.141 6
        40.700          41.800
  23442713.908    23442712.148    23442710.353    -8373892.687 4  -6525109.120 4
        27.400          26.200
 09  1  9  0  4 30.0000000  0 11G21G 6G26G 9G15G14G 3G24G18G22G19
  21093805.732    21093804.934    21093803.337   -23458592.211 6 -18279415.243 6
        39.700          37.100
  22451243.552    22451242.911    22451242.981   -11814594.301 5  -9206174.368 5
        31.100          32.300
  23866088.496    23866087.970    23866087.127    -2500224.235 1  -1948217.928 3
        11.000          19.300
  22916186.637    22916186.208    22916185.569   -10218854.734 3  -7962739.358 4
        23.800          25.600
  22520143.837    22520143.728    22520142.369   -12229903.344 5  -9529784.142 5
        32.600          34.600
  24662355.131    24662354.476    24662353.844    -2993294.472 1  -2332435.523 2
         6.500          12.600
  22481446.185    22481445.385    22481445.530   -10878956.414 5  -8477105.420 5
        30.100          30.100
  24820935.165    24820934.850    24820936.941      377991.453 1    294540.837 1
         9.000          11.000
  20409163.008    20409162.264    20409159.844   -25924852.662 6 -20201174.458 7
        38.600          47.000
  21174019.697    21174019.192    21174016.171   -20986649.071 6 -16353224.114 6
        40.900          41.800
  23432202.811    23432201.091    23432199.176    -8429131.228 4  -6568152.133 4
        27.600          26.500
 09  1  9  0  5  0.0000000  0 11G21G 6G26G 9G15G14G 3G24G18G22G19
  21106118.628    21106117.798    21106116.177   -23393887.646 6 -18228996.113 6
        39.500          36.900
  22457762.698    22457761.969    22457762.013   -11780336.304 5  -9179479.822 5
        31.300          32.400
  23888558.690    23888558.751    23888557.752    -2382140.053 1  -1856204.287 3
        11.000          19.300
  22898333.860    22898332.975    22898332.505   -10312674.311 4  -8035845.481 4
        24.600          25.900
  22535699.668    22535699.470    22535698.032   -12148158.298 5  -9466086.703 5
        32.700          34.600
  24640643.364    24640643.542    24640641.971    -3107388.353 1  -2421339.781 1
         6.500          11.000
  22486563.060    22486562.230    22486562.384   -10852067.317 5  -8456152.873 5
        30.100          30.200
  24841355.111    24841354.322    24841357.409      485300.354      378158.167 2
         3.000          12.600
  20409083.029    20409082.217    20409081.149   -25925273.111 6 -20201502.073 7
        38.600          47.000
  21162911.135    21162910.675    21162907.761   -21045024.291 6 -16398711.288 7
        40.900          42.000
  23421787.549    23421785.545    23421784.257    -8483861.721 4  -6610799.271 4
        25.900          26.500
 09  1  9  0  5 30.0000000  0 11G 6G26G 9G15G21G14G 3G24G18G22G19
  22464382.275    22464381.576    22464381.504   -11745550.350 5  -9152373.885 5
        31.100          32.000
  23911066.243    23911065.591    23911066.590    -2263858.955 1  -1764037.196 3
         9.000          19.300
  22880555.886    22880555.227    22880555.536   -10406094.945 4  -8108640.722 4
        24.900          27.100
  22551320.570    22551320.657    22551319.328   -12066068.346 5  -9402120.505 5
        32.700          34.600
  21118516.199    21118515.325    21118513.738   -23328737.974 6 -18178230.147 6
        39.500          36.800
  24618949.740    24618949.502    24618947.287    -3221390.998 1  -2510172.968 1
         9.000           9.000
  22491790.680    22491789.768    22491789.814   -10824596.939 5  -8434747.391 5
        30.100          30.200
  24861790.187    24861789.549    24861788.888      592683.517      461833.366 1
                        11.000
  20409077.417    20409076.575    20409074.208   -25925303.158 6 -20201525.482 7
        38.600          47.300
  21151862.457    21151861.992    21151859.338   -21103084.431 6 -16443952.939 7
        40.600          42.100
  23411468.256    23411466.632    23411465.004    -8538088.968 4  -6653054.261 4
        26.200          26.500
 09  1  9  0  6  0.0000000  0 11G 6G26G 9G15G21G14G 3G24G18G22G19
  22471102.411    22471101.685    22471101.549   -11710236.078 5  -9124856.271 5
        31.100          32.000
  23933610.924    23933611.017    23933612.148    -2145382.204 1  -1671717.646 3
         9.000          18.600
  22862855.372    22862854.901    22862854.891   -10499111.277 4  -8181120.935 4
        25.600          27.600
  22567007.343    22567007.283    22567005.926   -11983633.578 5  -9337885.621 5
        32.300          34.400
  21130998.629    21130997.749    21130996.090   -23263142.633 6 -18127116.905 6
        39.400          36.600
  24597273.473    24597272.909    24597272.283    -3335298.843 1  -2598932.292 1
         6.500           6.500
  22497128.718    22497127.777    22497127.762   -10796544.764 5  -8412888.549 4
        30.100          29.900
  24882236.802    24882236.405    24882237.982      700141.403      545566.753 1
                         9.000
  20409146.368    20409145.522    20409144.273   -25924940.898 6 -20201243.195 7
        38.700          47.100
  21140874.619    21140874.151    21140871.272   -21160826.808 6 -16488946.987 7
        40.900          42.100
  23401245.821    23401244.099    23401242.252    -8591809.317 4  -6694914.270 4
        27.100          26.800
 09  1  9  0  6 30.0000000  0 11G21G 6G26G 9G15G14G 3G24G18G22G19
  21143564.602    21143563.779    21143562.061   -23197108.247 6 -18075661.540 6
        39.400          36.500
  22477921.753    22477921.152    22477920.940   -11674400.368 5  -9096932.336 5
        31.300          32.300
  23956191.783    23956192.809    23956193.522    -2026718.088 2  -1579252.100 3
        12.600          19.300
  22845231.519    22845231.042    22845230.689   -10591725.202 4  -8253287.583 4
        25.600          27.400
  22582758.254    22582758.214    22582756.874   -11900862.332 5  -9273388.545 5
        32.300          34.400
  24575615.079    24575614.973    24575613.632    -3449115.125 1  -2687620.268 1
         6.500           6.500
  22502576.444    22502575.703    22502575.610   -10767917.342 5  -8390581.476 5
        30.600          30.100
  24902700.093    24902700.373    24902700.059      807667.216      629353.065 1
                         6.500
  20409288.896    20409288.108    20409285.707   -25924191.678 6 -20200659.385 7
        38.700          47.200
  21129946.325    21129945.747    21129942.864   -21218255.943 6 -16533696.957 7
        41.000          42.100
  23391118.802    23391117.244    23391115.786    -8645026.225 4  -6736381.983 4
        27.100          27.600
 09  1  9  0  7  0.0000000  0 11G 6G26G 9G15G21G14G 3G24G18G22G19
  22484843.461    22484842.684    22484842.578   -11638027.582 5  -9068589.911 5
        31.300          32.300
  23978812.463    23978812.693    23978813.034    -1907852.685 1  -1486629.699 3
        11.000          18.600
  22827688.211    22827687.602    22827687.578   -10683916.380 4  -8325124.823 4
        24.900          27.600
  22598576.325    22598576.098    22598574.504   -11817739.845 5  -9208617.770 5
        32.700          34.300
  21156216.992    21156216.184    21156214.680   -23130618.782 6 -18023851.578 6
        39.100          36.600
  24553977.652    24553976.546    24553975.803    -3562821.015 1  -2776222.222 1
        11.000           9.000
  22508136.838    22508135.793    22508135.656   -10738698.712 5  -8367813.705 5
        30.400          30.100
  24923179.291    24923177.632    24923178.878      915276.317      713204.327 1
         3.000           9.000
  20409508.391    20409507.549    20409506.308   -25923038.628 6 -20199760.892 7
        38.700          47.300
  21119080.795    21119080.260    21119077.333   -21275354.576 6 -16578189.387 7
        41.000          42.100
  23381091.672    23381090.082    23381088.111    -8697720.803 4  -6777442.680 4
        27.100          27.600
 09  1  9  0  7 30.0000000  0 11G21G 6G26G 9G15G14G 3G24G18G22G19
  21168953.822    21168952.900    21168951.286   -23063687.291 6 -17971697.181 6
        39.100          36.400
  22491864.426    22491863.858    22491863.468   -11601130.910 5  -9039839.254 5
        31.500          31.800
  24001468.587    24001467.805    24001467.854    -1788800.509 1  -1393861.783 2
        11.000          17.800
  22810223.777    22810223.148    22810222.679   -10775693.000 4  -8396639.030 4
        24.900          27.100
  22614458.456    22614458.047    22614456.418   -11734280.130 5  -9143584.219 5
        32.400          34.600
  24532359.847    24532359.878    24532358.394    -3676425.961 2  -2864745.511 1
        12.600          11.000
  22513806.585    22513805.617    22513805.889   -10708902.145 4  -8344595.613 5
        29.900          30.200
  24943669.802    24943668.951    24943666.896     1022955.435 1    797110.123 1
         6.500           9.000
  20409802.441    20409801.521    20409799.124   -25921493.333 6 -20198556.755 7
        38.800          47.300
  21108276.220    21108275.699    21108272.721   -21332132.997 6 -16622432.306 7
        41.100          42.200
  23371161.254    23371159.689    23371158.473    -8749903.132 4  -6818104.235 4
        27.400          28.100
 09  1  9  0  8  0.0000000  0 11G21G 6G26G 9G15G14G 3G24G18G22G19
  21181774.534    21181773.676    21181771.876   -22996314.296 6 -17919198.747 6
        39.300          36.200
  22498985.038    22498984.477    22498984.396   -11563710.838 5  -9010680.754 5
        31.100          31.600
  24024157.724    24024158.193    24024156.760    -1669563.514 1  -1300949.840 2
        11.000          16.100
  22792838.857    22792838.227    22792837.762   -10867050.505 4  -8467826.649 4
        26.200          26.500
  22630403.966    22630403.568    22630402.220   -11650484.906 5  -9078289.235 5
        32.100          34.700
  24510761.774    24510761.582    24510760.105    -3789927.062 2  -2953187.926 2
        13.900          13.900
  22519586.513    22519585.570    22519585.683   -10678528.343 5  -8320927.724 5
        30.100          30.100
  24964172.243    24964171.352    24964171.867     1130704.129      881070.155 1
         3.000           6.500
  20410171.278    20410170.444    20410169.272   -25919554.897 6 -20197046.275 7
        38.800          47.400
  21097532.849    21097532.376    21097529.543   -21388589.355 6 -16666424.263 7
        41.200          42.400
  23361329.924    23361328.460    23361326.133    -8801570.583 4  -6858364.595 4
        27.600          27.400
 09  1  9  0  8 30.0000000  0 11G21G 6G26G 9G15G14G 3G24G18G22G19
  21194678.941    21194678.080    21194676.354   -22928500.303 6 -17866356.682 6
        39.000          36.000
  22506205.294    22506204.789    22506204.574   -11525768.404 5  -8981115.214 5
        31.000          31.600
  24046883.151    24046882.737    24046881.596    -1550144.207 2  -1207895.839 2
        12.600          16.100
  22775535.164    22775534.298    22775533.533   -10957984.811 4  -8538684.524 4
        26.500          26.500
  22646413.318    22646413.037    22646411.661   -11566355.510 5  -9012733.862 5
        32.100          34.600
  24489183.228    24489182.738    24489181.674    -3903322.035 2  -3041547.612 2
        12.600          15.100
  22525476.357    22525475.496    22525475.447   -10647577.952 5  -8296810.535 5
        30.200          30.100
  24984688.833    24984687.275    24984690.196     1238521.759      965083.893 1
         3.000           9.000
  20410615.065    20410614.183    20410611.789   -25917222.948 6 -20195229.161 7
        38.800          47.400
  21086851.194    21086850.678    21086847.759   -21444722.422 6 -16710164.307 7
        41.300          42.500
  23351596.034    23351594.411    23351592.249    -8852720.699 4  -6898221.833 4
        26.800          26.800
 09  1  9  0  9  0.0000000  0 11G21G 6G26G 9G15G14G 3G24G18G22G19
  21207666.562    21207665.743    21207664.141   -22860249.666 6 -17813174.378 6
        38.900          36.000
  22513523.791    22513523.294    22513523.347   -11487308.434 5  -8951146.411 5
        30.800          31.800
  24069641.830    24069641.214    24069639.194    -1430548.796 2  -1114704.622 2
        13.900          16.100
  22758311.115    22758310.298    22758309.991   -11048495.795 4  -8609212.531 4
        25.900          27.100
  22662484.984    22662484.767    22662483.381   -11481897.676 5  -8946922.556 5
        32.100          34.400
  24467624.498    24467623.427    24467623.036    -4016611.746 2  -3129825.268 2
        13.900          17.000
  22531474.732    22531474.006    22531473.988   -10616055.783 5  -8272247.808 5
        30.400          30.200
  25005218.018    25005216.768    25005220.151     1346403.433     1049147.479 1
                        11.000
  20411133.024    20411132.165    20411131.017   -25914500.667 6 -20193107.894 7
        38.700          47.300
  21076230.348    21076229.808    21076226.911   -21500534.972 6 -16753654.594 7
        41.300          42.500
  23341959.949    23341959.027    23341957.224    -8903355.183 4  -6937677.271 4
        26.800          27.400
 09  1  9  0  9 30.0000000  0 11G21G 6G26G 9G15G14G 3G24G18G22G19
  21220737.853    21220736.935    21220735.374   -22791560.144 6 -17759650.082 6
        38.800          36.000
  22520941.481    22520940.915    22520940.967   -11448328.559 5  -8920772.483 5
        30.400          31.600
  24092433.695    24092432.714    24092431.044    -1310776.271 2  -1021375.372 2
        15.100          16.100
  22741169.249    22741168.735    22741168.352   -11138576.049 4  -8679404.897 4
        25.600          27.600
  22678619.560    22678619.368    22678617.683   -11397110.389 5  -8880854.528 5
        32.100          34.100
  24446087.377    24446086.818    24446086.423    -4129790.637 2  -3218016.560 3
        13.900          18.600
  22537582.592    22537581.819    22537581.532   -10583959.842 5  -8247237.986 4
        30.200          29.900
  25025761.073    25025759.405    25025761.732     1454351.553     1133262.874 1
         3.000          11.000
  20411725.926    20411725.084    20411722.767   -25911384.352 6 -20190679.590 7
        38.700          47.100
  21065671.384    21065670.864    21065667.890   -21556022.227 6 -16796891.405 7
        41.300          42.500
  23332424.186    23332422.831    23332421.403    -8953468.211 4  -6976726.374 4
        26.800          27.900
 09  1  9  0 10  0.0000000  0 11G21G 6G26G 9G15G14G 3G24G18G22G19
  21233892.123    21233891.257    21233889.533   -22722434.473 6 -17705785.928 5
        38.900          35.800
  22528457.510    22528456.891    22528456.840   -11408832.209 5  -8889996.107 5
        30.400          31.600
  24115258.156    24115258.307    24115256.312    -1190831.424 2   -927911.822 2
        13.900          17.000
  22724109.957    22724109.294    22724109.021   -11228223.867 4  -8749260.302 4
        25.300          28.100
  22694815.902    22694815.750    22694813.888   -11311997.561 5  -8814532.841 5
        31.800          33.800
  24424571.779    24424570.968    24424570.309    -4242858.474 2  -3306121.307 3
        13.900          18.600
  22543798.931    22543798.078    22543797.666   -10551292.826 5  -8221783.171 4
        30.100          29.500
  25046314.421    25046312.850    25046314.306     1562362.778 1   1217427.405 1
         6.500           9.000
  20412393.590    20412392.714    20412391.564   -25907876.135 6 -20187945.908 7
        38.600          47.300
  21055174.344    21055173.784    21055170.878   -21611185.160 6 -16839875.502 7
        41.400          42.700
  23322987.145    23322985.671    23322984.016    -9003059.963 4  -7015369.288 4
        26.500          27.600
 09  1  9  0 10 30.0000000  0 11G21G 6G26G 9G15G14G 3G24G18G22G19
  21247129.143    21247128.364    21247126.735   -22652871.978 6 -17651581.389 5
        38.500          35.600
  22536071.933    22536071.258    22536070.943   -11368818.830 5  -8858816.855 5
        30.600          31.300
  24138116.164    24138115.694    24138114.328    -1070714.844 2   -834314.513 2
        12.600          17.800
  22707133.632    22707132.755    22707132.876   -11317433.730 4  -8818774.443 4
        25.300          28.100
  22711073.970    22711074.018    22711072.224   -11226559.483 5  -8747957.713 5
        31.600          33.600
  24403076.587    24403076.579    24403076.261    -4355811.227 2  -3394136.403 3
        15.100          19.300
  22550123.816    22550123.048    22550122.650   -10518054.547 5  -8195883.210 4
        30.200          29.500
  25066880.584    25066880.171    25066879.274     1670437.934     1301641.800 1
         3.000           9.000
  20413136.229    20413135.399    20413133.085   -25903973.529 6 -20184904.914 7
        38.800          47.400
  21044739.491    21044738.917    21044736.055   -21666020.860 6 -16882604.606 7
        41.300          42.800
  23313650.230    23313648.593    23313646.772    -9052126.603 4  -7053603.020 4
        26.200          27.600
 09  1  9  0 11  0.0000000  0 11G21G 6G26G 9G15G14G 3G24G18G22G19
  21260450.157    21260449.371    21260447.902   -22582869.839 6 -17597034.274 5
        38.400          35.600
  22543785.002    22543784.265    22543784.160   -11328286.087 5  -8827232.904 5
        30.600          31.500
  24161006.796    24161005.985    24161004.820     -950425.531 2   -740582.643 3
        12.600          18.600
  22690242.235    22690241.645    22690241.639   -11406197.789 4  -8887941.201 4
        25.600          28.600
  22727394.505    22727394.567    22727393.002   -11140794.398 5  -8681127.774 5
        31.600          33.600
  24381605.063    24381605.057    24381605.129    -4468642.814 2  -3482057.095 3
        15.100          19.300
  22556558.271    22556557.498    22556557.087   -10484241.880 5  -8169535.667 4
        30.400          29.500
  25087458.454    25087458.217    25087459.676     1778579.389     1385907.850 1
                         6.500
  20413954.572    20413953.712    20413952.638   -25899672.866 6 -20181553.740 7
        38.700          47.300
  21034367.832    21034367.287    21034364.201   -21720524.383 6 -16925074.873 7
        41.500          42.700
  23304414.004    23304412.319    23304410.587    -9100662.725 4  -7091423.357 4
        27.100          27.900
 09  1  9  0 11 30.0000000  0 11G21G 6G26G 9G15G14G 3G24G18G22G19
  21273853.424    21273852.529    21273850.807   -22512436.772 6 -17542151.370 5
        38.600          35.500
  22551595.414    22551594.696    22551594.537   -11287242.630 5  -8795250.994 5
        30.600          31.800
  24183928.013    24183926.931    24183926.102     -829973.636 2   -646724.051 2
        12.600          17.000
  22673435.391    22673434.747    22673434.441   -11494519.927 4  -8956763.608 4
        26.200          28.800
  22743775.752    22743775.590    22743773.761   -11054712.244 5  -8614050.757 5
        31.600          33.100
  24360156.381    24360155.549    24360155.497    -4581358.065 2  -3569887.151 3
        15.100          19.300
  22563099.791    22563099.024    22563099.049   -10449864.168 4  -8142747.851 4
        29.700          29.700
  25108049.295    25108047.227    25108049.179     1886778.631     1470218.887 1
                         6.500
  20414847.469    20414846.555    20414844.328   -25894981.409 6 -20177898.058 7
        38.900          47.600
  21024057.997    21024057.533    21024054.574   -21774702.086 6 -16967291.257 7
        41.500          42.800
  23295278.198    23295276.489    23295274.661    -9148673.552 4  -7128834.393 4
        27.600          28.400
 09  1  9  0 12  0.0000000  0 11G21G 6G26G 9G15G14G 3G24G18G22G19
  21287338.529    21287337.670    21287336.102   -22441570.906 6 -17486931.218 5
        38.400          35.200
  22559502.814    22559502.271    22559502.395   -11245687.283 5  -8762870.207 5
        30.400          31.800
  24206879.395    24206878.794    24206878.280     -709358.796 1   -552738.467 2
        11.000          16.100
  22656712.880    22656712.277    22656712.389   -11582394.042 4  -9025236.908 4
        25.900          29.000
  22760217.142    22760216.807    22760215.071   -10968312.183 5  -8546726.027 5
        31.100          33.000
  24338730.482    24338729.360    24338729.215    -4693952.804 2  -3657623.272 3
        15.100          18.600
  22569749.744    22569748.854    22569749.013   -10414920.114 4  -8115518.718 4
        29.700          29.900
  25128650.439    25128646.454    25128651.427     1995036.994     1554575.957
                         3.000
  20415815.101    20415814.244    20415813.131   -25889896.139 6 -20173935.503 7
        38.900          47.500
  21013811.018    21013810.509    21013807.659   -21828550.072 6 -17009250.716 7
        41.500          42.900
  23286242.036    23286240.439    23286239.535    -9196154.473 4  -7165832.483 4
        26.500          29.200
 09  1  9  0 12 30.0000000  0 10G21G22G 6G26G 9G15G14G 3G18G19
  21300905.598    21300904.769    21300903.073   -22370276.284 6 -17431376.969 5
        38.400          35.100
  21003626.718    21003626.174    21003623.048   -21882070.293 6 -17050954.775 7
        41.700          43.000
  22567507.475    22567506.783    22567506.472   -11203624.219 5  -8730093.801 5
        30.400          31.300
  24229861.233    24229860.467    24229860.913     -588586.760 1   -458630.397 2
        11.000          16.100
  22640077.151    22640076.360    22640076.068   -11669819.166 4  -9093360.342 4
        26.500          28.800
  22776717.617    22776717.514    22776716.016   -10881599.200 5  -8479157.466 5
        30.800          33.200
  24317328.007    24317326.943    24317325.923    -4806427.027 2  -3745265.491 3
        16.100          19.300
  22576506.193    22576505.324    22576505.418   -10379413.277 4  -8087851.053 4
        29.200          29.700
  20416857.143    20416856.295    20416854.058   -25884419.768 6 -20169668.200 7
        38.900          47.500
  23277307.679    23277305.882    23277304.803    -9243106.847 4  -7202418.736 4
        27.900          29.700
 09  1  9  0 13  0.0000000  0 10G21G22G 6G26G 9G15G14G 3G18G19
  21314552.121    21314551.465    21314549.867   -22298561.548 6 -17375495.355 5
        38.100          34.900
  20993503.098    20993502.573    20993499.467   -21935269.867 6 -17092408.983 7
        41.600          43.000
  22575606.399    22575605.879    22575605.636   -11161062.626 5  -8696928.926 5
        30.200          31.300
  24252871.722    24252870.936    24252871.073     -467667.763 1   -364407.818 2
        11.000          16.100
  22623525.235    22623524.356    22623524.328   -11756799.519 4  -9161137.216 4
        27.100          29.200
  22793276.033    22793275.850    22793274.690   -10794583.278 5  -8411352.846 5
        30.600          33.200
  24295947.250    24295946.306    24295944.357    -4918786.695 2  -3832818.448 3
        16.100          18.600
  22583367.897    22583367.270    22583367.285   -10343353.266 4  -8059752.345 4
        29.000          29.700
  20417972.284    20417971.441    20417970.299   -25878559.988 6 -20165102.131 7
        38.900          47.600
  23268472.422    23268471.117    23268469.642    -9289536.264 4  -7238597.493 5
        28.400          30.100
 09  1  9  0 13 30.0000000  0 10G21G 6G26G 9G15G14G 3G18G22G19
  21328284.040    21328283.201    21328281.624   -22226401.058 6 -17319266.408 5
        38.100          34.800
  22583805.814    22583805.079    22583804.717   -11117977.145 5  -8663355.835 5
        30.800          31.500
  24275914.626    24275913.358    24275913.576     -346577.492 1   -270051.774 2
         9.000          17.000
  22607063.523    22607063.101    22607062.915   -11843304.350 4  -9228543.537 4
        27.100          29.700
  22809897.174    22809896.942    22809895.582   -10707239.658 5  -8343292.888 5
        30.800          33.100
  24274592.940    24274591.826    24274590.797    -5031002.446 2  -3920259.249 3
        16.100          19.300
  22590340.165    22590339.494    22590339.694   -10306714.567 4  -8031202.713 4
        29.000          29.700
  20419165.474    20419164.598    20419162.337   -25872289.598 6 -20160216.109 7
        38.900          47.600
  20983445.629    20983445.132    20983442.325   -21988120.463 6 -17133591.250 7
        41.300          43.100
  23259742.575    23259740.802    23259739.320    -9335413.957 4  -7274346.332 4
        27.900          29.900
 09  1  9  0 14  0.0000000  0 10G21G 6G26G 9G15G14G 3G18G22G19
  21342097.381    21342096.542    21342094.960   -22153811.799 6 -17262703.355 5
        38.000          34.700
  22592100.867    22592100.227    22592100.138   -11074384.914 5  -8629387.864 5
        30.600          31.500
  24298986.451    24298985.325    24298985.418     -225334.279 1   -175576.569 2
         9.000          17.800
  22590690.742    22590690.056    22590689.721   -11929345.515 4  -9295588.564 4
        27.100          29.200
  22826577.325    22826576.994    22826575.671   -10619586.300 5  -8274991.571 5
        30.800          33.100
  24253263.226    24253262.657    24253261.454    -5143087.557 2  -4007598.265 3
        15.100          18.600
  22597419.219    22597418.316    22597418.514   -10269514.311 4  -8002215.495 4
        28.600          29.700
  20420433.786    20420432.992    20420431.833   -25865624.356 6 -20155022.408 7
        39.100          47.600
  20973452.347    20973451.911    20973448.914   -22040636.262 6 -17174512.640 7
        41.600          43.200
  23251114.813    23251113.216    23251111.066    -9380754.121 4  -7309676.304 4
        28.400          29.500
 09  1  9  0 14 30.0000000  0 10G21G 6G26G 9G15G14G 3G18G22G19
  21355991.510    21355990.675    21355988.917   -22080797.761 6 -17205809.305 5
        37.900          34.400
  22600491.927    22600491.292    22600491.058   -11030290.262 5  -8595028.397 5
        30.600          31.500
  24322085.563    24322085.166    24322085.076     -103943.476 1    -80986.352 3
         6.500          19.300
  22574406.151    22574405.476    22574404.833   -12014922.479 4  -9362271.874 4
        27.400          28.800
  22843315.065    22843314.991    22843313.377   -10531628.211 5  -8206452.805 5
        30.800          32.600
  24231958.029    24231957.865    24231957.294    -5255042.988 2  -4094836.239 2
        15.100          17.800
  22604604.283    22604603.406    22604603.556   -10231756.945 4  -7972794.184 5
        28.800          30.100
  20421776.765    20421775.981    20421773.787   -25858566.985 6 -20149523.148 7
        39.100          47.800
  20963522.267    20963521.764    20963518.779   -22092819.626 6 -17215174.990 7
        41.500          43.200
  23242588.912    23242587.299    23242585.169    -9425557.705 4  -7344588.166 4
        29.200          29.700
 09  1  9  0 15  0.0000000  0 10G21G 6G26G 9G15G14G 3G18G22G19
  21369965.560    21369964.661    21369962.740   -22007364.551 6 -17148588.626 5
        37.900          34.100
  22608976.932    22608976.303    22608976.413   -10985699.411 4  -8560282.283 5
        29.900          31.300
  24345211.775    24345211.820    24345211.168       17587.638 1     13713.183 3
         6.500          19.900
  22558209.506    22558208.839    22558208.043   -12100036.199 4  -9428594.234 4
        27.900          28.600
  22860109.713    22860109.514    22860107.903   -10443371.937 5  -8137681.677 5
        30.200          32.100
  24210678.306    24210677.850    24210676.921    -5366871.318 2  -4181975.184 2
        15.100          17.800
  22611894.587    22611893.525    22611893.618   -10193448.495 4  -7942943.436 5
        28.800          30.200
  20423193.645    20423192.726    20423191.597   -25851121.954 6 -20143721.818 8
        39.100          48.000
  20953654.583    20953654.109    20953651.165   -22144674.187 6 -17255581.126 7
        41.500          43.300
  23234164.714    23234162.962    23234161.215    -9469827.121 4  -7379083.797 5
        28.600          30.400
 09  1  9  0 15 30.0000000  0 10G21G 6G26G 9G15G14G 3G18G22G19
  21384020.888    21384020.120    21384018.304   -21933501.769 6 -17091033.214 5
        37.800          34.000
  22617558.563    22617557.945    22617557.870   -10940602.436 4  -8525141.779 5
        29.900          31.100
  24368367.282    24368366.750    24368366.579      139267.958 1    108528.954 3
         9.000          19.900
  22542103.574    22542102.964    22542102.722   -12184671.525 4  -9494543.813 4
        27.400          29.000
  22876962.743    22876962.507    22876960.975   -10354807.968 4  -8068670.787 5
        29.500          31.800
  24189425.450    24189424.355    24189423.468    -5478558.516 2  -4269004.156 2
        15.100          17.800
  22619291.070    22619290.315    22619289.799   -10154579.082 4  -7912655.583 4
        29.200          29.700
  20424686.243    20424685.396    20424683.211   -25843277.437 6 -20137609.205 7
        39.100          47.700
  20943851.904    20943851.433    20943848.420   -22196187.761 6 -17295721.561 7
        41.600          43.400
  23225844.605    23225842.823    23225841.242    -9513549.775 4  -7413153.383 5
        28.400          30.600
 09  1  9  0 16  0.0000000  0 11G21G 6G26G 9G15G14G24G 3G18G22G19
  21398155.469    21398154.594    21398152.836   -21859224.665 6 -17033154.952 5
        37.400          33.900
  22626233.932    22626233.253    22626233.183   -10895014.541 4  -8489618.756 5
        29.700          31.100
  24391548.300    24391547.850    24391546.580      261081.212 2    203448.316 3
        13.900          19.900
  22526087.287    22526086.657    22526086.277   -12268838.553 4  -9560128.476 4
        27.600          29.500
  22893871.526    22893871.258    22893869.705   -10265952.416 4  -7999432.699 5
        29.200          31.800
  24168195.709    24168195.133    24168194.700    -5590116.214 2  -4355932.207 2
        16.100          16.100
  25293827.655    25293829.603                          -1.0661

  22626791.510    22626790.646    22626790.439   -10115163.491 4  -7881942.125 4
        29.200          29.200
  20426252.333    20426251.525    20426250.520   -25835047.185 6 -20131196.014 7
        39.100          47.700
  20934111.788    20934111.290    20934108.359   -22247372.206 6 -17335605.532 7
        41.500          43.600
  23217625.786    23217623.950    23217622.677    -9556737.360 4  -7446806.035 5
        28.400          30.200
 09  1  9  0 16 30.0000000  0 10G21G 6G26G 9G15G14G 3G18G22G19
  21412368.241    21412367.495    21412365.830   -21784534.743 6 -16974955.021 5
        37.300          33.800
  22635001.886    22635001.293    22635001.154   -10848937.960 4  -8453714.937 5
        29.500          30.800
  24414753.394    24414752.969    24414751.609      383024.256 2    298468.820 3
        13.900          19.300
  22510160.552    22510159.959    22510159.245   -12352534.297 4  -9625345.907 4
        28.100          29.500
  22910835.421    22910835.082    22910833.377   -10176808.356 4  -7929969.785 5
        29.500          32.100
  24146991.408    24146990.796    24146991.031    -5701543.075 2  -4442758.316 2
        15.100          16.100
  22634395.285    22634394.491    22634394.244   -10075203.964 4  -7850804.833 4
        28.800          29.000
  20427891.907    20427891.030    20427888.927   -25826431.678 6 -20124482.630 7
        39.100          47.900
  20924434.189    20924433.714    20924430.745   -22298227.786 6 -17375233.247 7
        41.400          43.600
  23209509.313    23209507.991    23209506.372    -9599388.999 4  -7480041.060 5
        28.400          30.400
 09  1  9  0 17  0.0000000  0 10G21G 6G26G 9G15G14G 3G18G22G19
  21426657.614    21426656.697    21426654.800   -21709445.668 6 -16916444.059 5
        37.500          33.500
  22643860.383    22643859.895    22643859.492   -10802386.615 4  -8417441.169 5
        29.900          30.800
  24437979.679    24437979.269    24437978.592      505082.132 2    393578.798 3
        12.600          19.300
  22494321.831    22494321.029    22494320.498   -12435767.453 4  -9690202.887 4
        28.100          29.700
  22927850.765    22927850.371    22927848.954   -10087390.156 4  -7860293.266 5
        28.600          32.300
  24125811.489    24125810.497    24125809.262    -5812848.786 2  -4529490.027 2
        16.100          15.100
  22642100.235    22642099.491    22642099.466   -10034714.534 4  -7819254.624 4
        28.800          29.000
  20429602.243    20429601.386    20429600.335   -25817443.380 6 -20117478.753 7
        39.200          47.700
  20914817.184    20914816.713    20914813.705   -22348765.809 6 -17414613.513 7
        41.400          43.700
  23201493.168    23201491.447    23201490.031    -9641515.183 4  -7512866.639 5
        28.100          30.200
 09  1  9  0 17 30.0000000  0 10G21G 6G26G 9G15G14G 3G18G22G19
  21441031.562    21441030.690    21441028.934   -21633909.436 6 -16857584.668 5
        37.300          33.400
  22652818.190    22652817.649    22652817.636   -10755312.866 4  -8380760.323 5
        29.500          31.100
  24461237.197    24461236.778    24461236.288      627301.788 1    488814.828 2
        11.000          17.800
  22478580.993    22478580.217    22478579.844   -12518485.455 4  -9754658.448 4
        28.600          29.900
  22944927.703    22944927.323    22944925.948    -9997650.631 4  -7790366.371 5
        28.800          32.300
  24104663.843    24104662.600    24104661.411    -5923982.030 2  -4616087.359 2
        17.000          15.100
  22649915.235    22649914.413    22649914.063    -9993647.641 4  -7787254.452 4
        28.800          29.200
  20431393.063    20431392.256    20431390.118   -25808032.742 6 -20110145.785 8
        39.300          48.000
  20905270.101    20905269.634    20905266.720   -22398935.675 6 -17453706.902 7
        41.300          43.800
  23193586.934    23193585.145    23193583.470    -9683064.955 4  -7545243.074 5
        28.400          30.400
 09  1  9  0 18  0.0000000  0 10G21G 6G26G 9G15G14G 3G18G22G19
  21455485.190    21455484.303    21455482.494   -21557955.235 6 -16798399.580 5
        37.200          33.400
  22661869.455    22661869.062    22661869.098   -10707746.075 4  -8343695.294 5
        29.000          31.100
  24484519.476    24484519.701    24484519.423      749652.776 1    584153.223 2
        11.000          16.100
  22462933.926    22462933.068    22462932.549   -12600712.345 4  -9818731.322 4
        28.400          29.500
  22962060.444    22962060.012    22962058.123    -9907619.643 4  -7720212.357 5
        28.800          31.600
  24083543.508    24083542.816    24083542.230    -6034968.395 2  -4702570.226 2
        17.000          15.100
  22657834.168    22657833.361    22657833.178    -9952032.568 4  -7754827.113 4
        28.600          29.000
  20433258.931    20433258.127    20433257.049   -25798227.497 6 -20102505.328 8
        39.300          48.000
  20895787.965    20895787.486    20895784.746   -22448764.289 6 -17492534.382 7
        41.300          44.000
  23185784.600    23185782.652    23185781.183    -9724064.454 4  -7577190.730 5
        28.100          30.200
 09  1  9  0 18 30.0000000  0 10G21G 6G26G 9G15G14G 3G18G22G19
  21470016.169    21470015.456    21470013.758   -21481593.308 6 -16738896.795 5
        37.000          33.400
  22671013.047    22671012.564    22671012.635   -10659697.231 4  -8306254.647 5
        28.800          30.800
  24507824.771    24507824.579    24507825.239      872123.258 1    679584.724 2
         6.500          13.900
  22447378.569    22447377.641    22447377.582   -12682453.925 4  -9882426.040 4
        27.600          29.500
  22979245.875    22979245.399    22979243.668    -9817308.443 4  -7649839.991 5
        28.800          31.300
  24062449.823    24062448.666    24062448.403    -6145815.012 2  -4788944.203 2
        17.000          16.100
  22665855.311    22665854.633    22665854.472    -9909880.228 4  -7721981.138 4
        28.600          29.000
  20435198.123    20435197.354    20435195.256   -25788036.787 6 -20094564.513 8
        39.300          48.000
  20886369.467    20886368.945    20886366.039   -22498259.839 6 -17531102.330 7
        41.500          44.100
  23178085.759    23178083.834    23178082.546    -9764521.381 4  -7608715.588 5
        28.100          30.200
 09  1  9  0 19  0.0000000  0 10G21G 6G26G 9G15G14G 3G18G22G19
  21484625.020    21484624.211    21484622.553   -21404823.496 6 -16679076.170 5
        36.900          33.200
  22680248.196    22680247.458    22680247.421   -10611166.534 4  -8268438.513 5
        28.600          30.400
  24531152.932    24531152.673    24531152.596      994712.261 1    775108.590 1
         6.500          11.000
  22431917.183    22431916.453    22431915.892   -12763705.496 4  -9945738.927 4
        28.100          29.500
  22996484.766    22996484.430    22996482.913    -9726717.879 4  -7579249.932 5
        29.700          31.300
  24041382.944    24041382.249    24041382.408    -6256518.362 2  -4875206.529 2
        15.100          17.000
  22673979.051    22673978.078    22673977.955    -9867190.990 4  -7688716.797 4
        28.600          29.000
  20437211.048    20437210.177    20437209.024   -25777459.396 6 -20086322.385 8
        39.400          48.100
  20877014.640    20877014.101    20877011.033   -22547419.995 6 -17569408.936 7
        41.500          44.100
  23170491.195    23170489.238    23170487.733    -9804432.708 4  -7639815.312 5
        28.600          30.100
 09  1  9  0 19 30.0000000  0 10G21G 6G26G 9G15G14G 3G18G22G19
  21499312.566    21499311.669    21499310.099   -21327639.950 6 -16618933.162 5
        36.400          33.000
  22689576.100    22689575.614    22689575.443   -10562148.591 4  -8230242.720 5
        28.800          30.600
  24554504.949    24554504.043    24554503.016     1117424.336 1    870728.375 1
         6.500           6.500
  22416550.791    22416550.148    22416549.608   -12844456.239 4 -10008661.555 4
        28.800          29.700
  23013777.742    23013777.361    23013775.716    -9635843.147 4  -7508438.437 5
        29.700          31.300
  24020345.905    24020345.951    24020345.840    -6367069.140 2  -4961349.967 2
        16.100          17.000
  22682206.056    22682205.130    22682204.957    -9823958.907 4  -7655029.462 4
        28.800          29.200
  20439298.799    20439297.943    20439295.900   -25766487.943 6 -20077773.195 8
        39.400          48.300
  20867724.956    20867724.453    20867721.547   -22596236.449 6 -17607447.725 7
        41.400          44.100
  23163002.004    23163000.182    23162998.229    -9843789.733 4  -7670483.108 4
        29.200          29.700
 09  1  9  0 20  0.0000000  0 10G21G 6G26G 9G15G14G 3G18G22G19
  21514078.963    21514078.082    21514076.138   -21250043.329 6 -16558468.269 5
        36.600          32.700
  22698996.611    22698995.900    22698995.927   -10512644.195 4  -8191667.867 5
        28.600          30.600
  24577880.617    24577879.098    24577878.534     1240257.796 1    966442.732 1
         6.500           6.500
  22401280.039    22401279.659    22401279.394   -12924701.822 4 -10071190.560 5
        28.800          30.100
  23031124.403    23031124.121    23031122.351    -9544685.529 4  -7437406.522 5
        28.800          31.300
  23999338.691    23999338.024    23999338.814    -6477464.391 2  -5047372.242 3
        16.100          18.600
  22690535.316    22690534.486    22690534.704    -9780185.468 4  -7620920.285 4
        28.400          29.500
  20441461.703    20441460.889    20441459.808   -25755121.459 6 -20068916.189 8
        39.500          48.100
  20858501.351    20858500.782    20858497.876   -22644707.678 6 -17645217.504 7
        41.600          44.400
  23155617.716    23155616.403    23155614.662    -9882590.308 4  -7700717.310 4
        29.200          29.000
 09  1  9  0 20 30.0000000  0 10G21G 6G26G 9G15G14G 3G18G22G19
  21528920.923    21528920.020    21528918.230   -21172047.706 6 -16497692.462 5
        36.400          32.700
  22708506.521    22708505.858    22708505.799   -10462667.916 4  -8152725.309 5
        28.400          30.400
  24601275.984    24601275.003    24601272.984     1363197.485 1   1062239.829 1
         6.500           9.000
  22386104.532    22386103.927    22386103.625   -13004451.324 4 -10133333.004 5
        29.000          30.400
  23048521.980    23048521.778    23048520.171    -9453260.009 4  -7366165.858 5
        28.400          31.500
  23978358.411    23978357.783    23978358.290    -6587714.614 2  -5133281.454 3
        17.000          19.300
  22698965.721    22698964.969    22698964.693    -9735884.832 4  -7586400.312 4
        28.400          29.200
  20443697.412    20443696.610    20443694.593   -25743372.698 6 -20059761.307 8
        39.500          48.200
  20849341.045    20849340.519    20849337.463   -22692845.474 6 -17682727.466 7
        41.600          44.400
  23148337.896    23148336.661    23148334.936    -9920845.185 4  -7730526.296 4
        28.800          29.000
 09  1  9  0 21  0.0000000  0 10G21G 6G26G 9G15G14G 3G18G22G19
  21543841.344    21543840.458    21543838.696   -21093640.445 6 -16436595.904 5
        36.300          32.700
  22718108.685    22718108.086    22718108.325   -10412207.632 4  -8113405.609 5
        28.600          30.400
  24624693.093    24624691.949    24624690.947     1486254.863 1   1158128.679 1
         6.500           6.500
  22371026.420    22371025.525    22371025.296   -13083687.512 4 -10195075.460 5
        28.800          30.400
  23065972.887    23065972.595    23065971.266    -9361554.748 4  -7294707.214 5
        27.900          31.500
  23957409.197    23957409.186    23957408.988    -6697803.650 2  -5219065.070 3
        17.800          19.900
  22707498.424    22707497.557    22707497.570    -9691044.734 4  -7551459.974 4
        27.900          29.500
  20446008.565    20446007.786    20446006.596   -25731227.710 6 -20050297.671 8
        39.500          48.400
  20840247.008    20840246.502    20840243.502   -22740634.535 6 -17719965.686 7
        41.600          44.500
  23141165.380    23141163.760    23141162.008    -9958539.220 4  -7759898.251 4
        28.800          29.000
 09  1  9  0 21 30.0000000  0 10G21G 6G26G 9G15G14G 3G18G22G19
  21558838.944    21558838.065    21558836.176   -21014827.636 6 -16375183.334 5
        36.200          32.400
  22727801.915    22727801.264    22727801.359   -10361269.990 4  -8073713.935 5
        28.600          30.400
  24648131.163    24648129.853    24648129.617     1609422.535 1   1254103.447 1
         9.000           6.500
  22356045.618    22356044.772    22356044.431   -13162411.793 4 -10256419.032 5
        28.400          30.200
  23083475.372    23083475.029    23083473.801    -9269576.886 4  -7223036.152 5
        27.600          30.800
  23936490.529    23936490.046    23936489.718    -6807734.472 2  -5304725.410 3
        17.800          20.500
  22716132.577    22716131.837    22716131.816    -9645671.873 4  -7516104.500 4
        27.900          29.500
  20448394.196    20448393.386    20448391.317   -25718691.322 6 -20040529.050 8
        39.500          48.400
  20831218.633    20831218.097    20831215.107   -22788079.341 6 -17756935.660 7
        41.700          44.700
  23134098.661    23134096.997    23134094.708    -9995675.671 4  -7788835.726 4
        29.000          28.600
 09  1  9  0 22  0.0000000  0 10G21G 6G26G 9G15G14G 3G18G22G19
  21573913.943    21573913.139    21573911.524   -20935606.742 6 -16313452.777 5
        36.000          32.400
  22737586.372    22737585.762    22737585.734   -10309852.767 4  -8033648.566 5
        28.600          30.400
  24671589.885    24671588.640    24671588.367     1732701.709 1   1350165.076 1
         9.000           9.000
  22341163.267    22341162.743    22341162.744   -13240616.952 4 -10317358.095 5
        28.400          30.400
  23101030.140    23101030.015    23101028.961    -9177324.342 4  -7151151.062 5
        27.600          30.800
  23915602.073    23915601.602    23915601.864    -6917500.792 2  -5390257.573 3
        17.000          20.500
  22724868.352    22724867.507    22724868.077    -9599764.510 4  -7480332.529 4
        27.900          29.500
  20450854.830    20450854.053    20450852.854   -25705759.995 6 -20030452.682 8
        39.600          48.400
  20822256.561    20822256.058    20822253.183   -22835174.843 6 -17793633.444 7
        41.700          44.800
  23127138.714    23127137.273    23127135.471   -10032249.267 4  -7817334.617 4
        29.200          29.000
 09  1  9  0 22 30.0000000  0 10G21G 6G26G 9G15G14G 3G18G22G19
  21589065.856    21589064.917    21589063.284   -20855983.620 5 -16251408.799 5
        35.900          32.100
  22747460.950    22747460.274    22747460.196   -10257962.343 4  -7993214.473 5
        28.800          30.600
  24695068.569    24695067.660    24695069.090     1856085.606 1   1446308.329 1
         6.500           9.000
  22326380.173    22326379.603    22326379.116   -13318304.170 4 -10377893.571 5
        29.200          30.400
  23118636.692    23118636.541    23118634.465    -9084803.906 4  -7079057.208 5
        28.100          30.200
  23894745.676    23894745.290    23894744.386    -7027105.059 2  -5475663.450 3
        17.000          20.500
  22733704.860    22733703.889    22733704.291    -9553328.498 4  -7444148.629 4
        27.900          29.200
  20453390.116    20453389.310    20453387.325   -25692437.614 6 -20020071.601 8
        39.700          48.700
  20813360.377    20813359.839    20813356.981   -22881924.547 6 -17830061.778 7
        41.600          44.900
  23120285.420    23120283.827    23120281.960   -10068263.070 4  -7845397.311 4
        28.800          29.000
 09  1  9  0 23  0.0000000  0 10G 6G26G 9G15G21G14G 3G18G22G19
  22757424.115    22757423.440    22757423.453   -10205605.276 4  -7952416.758 5
        28.400          30.600
  24718566.524    24718564.960    24718566.642     1979567.135 1   1542527.623 1
         6.500           9.000
  22311695.334    22311694.533    22311694.066   -13395474.624 4 -10438026.370 5
        29.500          30.400
  23136292.717    23136292.328    23136290.223    -8992022.557 4  -7006760.043 5
        28.400          30.200
  21604292.956    21604292.196    21604290.470   -20775964.345 5 -16189056.126 5
        35.700          32.300
  23873918.959    23873918.168    23873918.008    -7136549.653 2  -5560944.898 3
        17.000          21.600
  22742640.765    22742639.920    22742639.924    -9506370.652 4  -7407558.087 4
        28.600          29.000
  20455998.668    20455997.833    20455996.649   -25678729.322 6 -20009389.810 8
        39.700          48.700
  20804529.353    20804528.773    20804525.868   -22928332.206 6 -17866223.583 7
        41.700          45.000
  23113537.856    23113536.471    23113535.003   -10103720.359 4  -7873026.356 4
        28.800          29.500
 09  1  9  0 23 30.0000000  0 10G 6G26G 9G15G21G14G 3G18G22G19
  22767475.505    22767474.828    22767474.613   -10152785.869 4  -7911258.774 5
        29.000          30.800
  24742081.520    24742080.018    24742081.187     2103141.268     1638819.074 1
                        11.000
  22297108.658    22297108.031    22297107.672   -13472127.320 4 -10497755.727 5
        29.500          30.600
  23153996.762    23153996.335    23153994.419    -8898985.132 4  -6934263.339 4
        27.400          29.900
  21619594.686    21619593.935    21619592.465   -20695552.939 5 -16126397.895 5
        35.500          32.400
  23853123.184    23853122.338    23853121.992    -7245835.379 3  -5646102.548 3
        18.600          22.100
  22751674.889    22751674.074    22751673.976    -9458895.328 4  -7370564.329 4
        28.100          28.600
  20458680.353    20458679.472    20458677.522   -25664637.344 6 -19998409.044 8
        39.600          48.700
  20795763.077    20795762.520    20795759.609   -22974399.399 6 -17902120.087 7
        41.900          45.200
  23106896.557    23106895.177    23106893.601   -10138622.354 4  -7900222.705 4
        29.200          29.700
 09  1  9  0 24  0.0000000  0 10G 6G26G 9G15G21G14G 3G18G22G19
  22777615.697    22777614.981    22777615.101   -10099497.057 4  -7869735.016 5
        28.600          30.400
  24765615.571    24765614.410    24765615.439     2226814.638     1735187.846 1
         3.000          11.000
  22282622.954    22282622.266    22282621.706   -13548250.030 4 -10557072.099 5
        29.500          30.200
  23171750.704    23171750.869    23171749.126    -8805684.575 4  -6861561.602 4
        26.800          29.900
  21634972.634    21634971.771    21634970.103   -20614741.825 5 -16063428.205 5
        35.500          32.000
  23832359.305    23832358.266    23832357.762    -7354950.762 3  -5731127.463 3
        18.600          21.600
  22760809.363    22760808.335    22760808.281    -9410895.213 4  -7333161.653 4
        27.600          29.000
  20461436.621    20461435.806    20461434.387   -25650152.839 6 -19987122.409 8
        39.600          48.800
  20787063.454    20787062.893    20787059.917   -23020115.987 6 -17937743.397 7
        41.900          45.200
  23100362.882    23100361.249    23100359.122   -10172958.681 4  -7926978.277 4
        29.500          29.200
 09  1  9  0 24 30.0000000  0 10G 6G26G 9G15G21G14G 3G18G22G19
  22787845.031    22787844.216    22787844.375   -10045742.797 4  -7827848.579 5
        28.400          30.600
  24789167.458    24789167.351    24789167.134     2350582.594     1831630.370 2
         3.000          12.600
  22268238.643    22268237.774    22268237.064   -13623841.756 4 -10615974.725 5
        29.700          30.400
  23189554.566    23189554.635    23189553.478    -8712125.137 4  -6788658.149 5
        26.800          30.600
  21650425.893    21650424.989    21650423.319   -20533534.724 5 -16000149.951 5
        35.400          31.800
  23811627.424    23811626.635    23811625.992    -7463895.999 3  -5816019.805 3
        19.300          21.100
  22770042.391    22770041.380    22770041.527    -9362374.296 4  -7295353.147 4
        27.600          28.800
  20464267.113    20464266.260    20464264.445   -25635278.068 6 -19975531.675 8
        39.500          48.800
  20778430.475    20778429.951    20778426.849   -23065483.194 7 -17973094.459 7
        42.100          45.300
  23093936.215    23093934.542    23093932.991   -10206729.993 4  -7953293.585 4
        28.600          29.500
 09  1  9  0 25  0.0000000  0 10G 6G26G 9G15G21G14G 3G18G22G19
  22798162.398    22798161.896    22798161.941    -9991523.512 4  -7785599.780 5
        28.400          30.200
  24812736.817    24812735.778    24812737.343     2474444.249 1   1928145.904 2
         6.500          12.600
  22253955.615    22253954.923    22253954.486   -13698897.405 4 -10674459.623 5
        29.500          30.400
  23207407.661    23207407.470    23207406.237    -8618307.611 4  -6715553.583 5
        27.600          30.800
  21665954.492    21665953.646    21665951.945   -20451931.440 5 -15936562.990 5
        35.200          32.000
  23790929.172    23790928.498    23790927.663    -7572667.300 3  -5900776.616 3
        19.300          21.600
  22779374.767    22779374.077    22779373.725    -9313333.149 4  -7257139.272 4
        28.100          28.800
  20467172.259    20467171.432    20467170.139   -25620011.461 6 -19963635.611 8
        39.700          48.700
  20769864.258    20769863.716    20769860.664   -23110498.645 7 -18008171.424 7
        42.000          45.400
  23087618.206    23087616.413    23087614.328   -10239933.477 4  -7979166.421 4
        28.800          29.700
 09  1  9  0 25 30.0000000  0 10G 6G26G 9G15G21G14G 3G18G22G19
  22808567.106    22808566.621    22808566.454    -9936846.370 4  -7742994.218 5
        27.900          30.100
  24836322.026    24836322.778    24836324.520     2598391.828     2024728.327 2
         3.000          12.600
  22239774.547    22239773.938    22239773.521   -13773418.986 4 -10732528.362 5
        29.500          30.800
  23225308.666    23225308.544    23225306.789    -8524239.370 4  -6642253.654 5
        27.900          30.600
  21681557.357    21681556.515    21681554.823   -20369938.365 5 -15872672.303 5
        35.300          32.000
  23770262.594    23770262.052    23770261.767    -7681267.892 3  -5985400.416 3
        19.300          21.100
  22788804.407    22788803.633    22788803.549    -9263778.704 4  -7218525.417 4
        27.900          29.200
  20470151.024    20470150.208    20470148.345   -25604357.963 6 -19951438.079 8
        39.700          48.800
  20761364.061    20761363.544    20761360.527   -23155167.038 7 -18042977.955 7
        42.000          45.500
  23081406.450    23081404.942    23081403.096   -10272573.106 4  -8004599.890 4
        28.100          29.900
 09  1  9  0 26  0.0000000  0 10G 6G26G 9G15G21G14G 3G18G22G19
  22819061.824    22819061.209    22819061.455    -9881694.999 4  -7700019.132 4
        27.600          29.900
  24859928.583    24859928.695    24859930.061     2722441.458     2121390.260 2
         3.000          12.600
  22225699.420    22225698.766    22225698.523   -13847384.591 4 -10790163.875 5
        29.900          31.600
  23243260.180    23243260.127    23243258.231    -8429904.129 4  -6568745.673 5
        27.600          30.200
  21697237.438    21697236.543    21697234.828   -20287538.918 5 -15808464.954 5
        35.100          31.500
  23749633.221    23749632.309    23749632.243    -7789677.391 3  -6069875.314 3
        19.900          21.600
  22798335.603    22798334.586    22798334.300    -9213694.856 4  -7179499.050 4
        27.900          29.000
  20473206.815    20473205.989    20473204.631   -25588299.785 6 -19938925.206 8
        39.800          48.900
  20752933.661    20752933.150    20752930.103   -23199469.223 7 -18077499.133 7
        42.000          45.500
  23075306.434    23075304.727    23075302.939   -10304629.314 4  -8029578.744 4
        28.600          29.900
 09  1  9  0 26 30.0000000  0 10G 6G26G 9G15G21G14G 3G18G22G19
  22829641.234    22829640.849    22829640.652    -9826099.219 4  -7656697.744 4
        27.600          29.000
  24883549.194    24883548.536    24883549.639     2846562.599     2218107.918 2
                        12.600
  22211725.282    22211724.638    22211724.321   -13920819.359 4 -10847385.738 5
        29.900          32.000
  23261256.782    23261256.591    23261254.790    -8335332.072 4  -6495053.161 4
        27.100          29.900
  21712989.096    21712988.280    21712986.765   -20204762.463 5 -15743963.830 5
        34.600          31.600
  23729034.995    23729034.485    23729033.630    -7897921.527 3  -6154221.349 3
        19.300          21.100
  22807960.890    22807960.048    22807960.026    -9163111.214 4  -7140083.232 4
        27.400          29.000
  20476334.236    20476333.371    20476331.601   -25571864.820 6 -19926118.738 8
        39.700          48.900
  20744567.735    20744567.208    20744564.293   -23243432.370 7 -18111756.122 7
        42.100          45.700
  23069312.685    23069311.137    23069308.883   -10336128.796 5  -8054123.795 5
        30.100          30.100
 09  1  9  0 27  0.0000000  0 11G 6G26G 9G15G21G14G28G 3G18G22G19
  22840307.783    22840306.962    22840306.751    -9770049.204 4  -7613022.398 4
        27.600          29.000
  24907184.491    24907183.461    24907184.653     2970765.022     2314888.909 2
                        13.900
  22197855.310    22197854.451    22197853.883   -13993707.762 4 -10904181.874 5
        29.900          31.500
  23279300.018    23279299.838    23279298.478    -8240513.258 4  -6421168.373 5
        26.200          30.200
  21728814.609    21728813.944    21728812.431   -20121598.454 5 -15679160.719 5
        34.700          31.500
  23708470.840    23708470.046    23708469.171    -8005986.390 3  -6238427.701 3
        18.600          20.500
  25631678.004    25631676.965    25631675.181           -.3001           .3821

  22817683.684    22817682.859    22817682.826    -9112018.026 4  -7100270.369 4
        27.600          29.000
  20479535.706    20479534.866    20479533.536   -25555041.191 6 -19913009.413 8
        39.800          48.900
  20736268.942    20736268.369    20736265.416   -23287043.019 7 -18145738.439 7
        42.100          45.800
  23063426.807    23063425.098    23063423.429   -10367058.326 5  -8078224.718 5
        30.200          30.800
 09  1  9  0 27 30.0000000  0 10G 6G26G 9G15G21G14G 3G18G22G19
  22851057.652    22851057.162    22851056.815    -9713558.117 4  -7569003.366 4
        27.900          29.200
  24930832.293    24930833.173    24930832.854     3095034.931     2411722.508 1
                        11.000
  22184087.280    22184086.579    22184086.146   -14066058.131 5 -10960558.767 5
        30.200          31.600
  23297387.718    23297387.391    23297385.849    -8145461.577 4  -6347102.134 4
        25.300          29.500
  21744711.413    21744710.695    21744709.239   -20038059.889 5 -15614065.753 5
        34.400          31.300
  23687938.697    23687938.264    23687937.379    -8113881.335 3  -6322501.654 3
        18.600          21.100
  22827500.705    22827499.986    22827500.019    -9060428.842 4  -7060071.010 4
        27.600          29.000
  20482809.045    20482808.170    20482806.394   -25537840.007 6 -19899605.890 8
        39.800          49.100
  20728035.252    20728034.705    20728031.650   -23330311.571 7 -18179454.186 7
        42.200          45.800
  23057647.741    23057645.964    23057644.111   -10397428.017 5  -8101889.399 5
        30.100          30.800
 09  1  9  0 28  0.0000000  0 10G 6G26G 9G15G21G14G 3G18G22G19
  22861895.327    22861894.719    22861894.515    -9656605.666 4  -7524624.841 4
        27.600          29.500
  24954498.386    24954496.224    24954497.289     3219392.462     2508624.393 1
                        11.000
  22170426.552    22170425.881    22170425.235   -14137844.711 5 -11016496.346 5
        30.100          31.300
  23315523.461    23315523.235    23315522.048    -8050156.602 4  -6272838.528 4
        25.300          29.700
  21760683.913    21760682.952    21760681.413   -19954126.086 5 -15548662.800 5
        34.600          31.100
  23667444.424    23667443.732    23667442.856    -8221581.724 3  -6406424.004 3
        19.300          21.100
  22837416.255    22837415.210    22837415.139    -9008323.436 4  -7019469.405 4
        27.600          28.400
  20486158.319    20486157.510    20486155.961   -25520239.203 6 -19885890.973 8
        39.800          49.100
  20719870.765    20719870.332    20719867.321   -23373215.221 7 -18212885.594 7
        42.200          45.900
  23051979.481    23051977.802    23051975.998   -10427214.405 4  -8125099.564 5
        29.700          30.600
 09  1  9  0 28 30.0000000  0 11G 6G26G 9G15G21G14G28G 3G18G22G19
  22872819.179    22872818.520    22872818.490    -9599199.572 4  -7479892.820 4
        27.400          29.200
  24978179.717    24978177.839    24978176.328     3343829.362     2605588.141 1
                        11.000
  22156872.595    22156872.072    22156871.535   -14209070.005 5 -11071996.548 5
        30.100          31.100
  23333705.994    23333705.789    23333704.373    -7954606.321 4  -6198383.768 4
        24.900          29.500
  21776729.951    21776729.107    21776727.505   -19869803.785 5 -15482957.124 5
        34.600          31.100
  23646986.220    23646985.214    23646984.080    -8329091.151 3  -6490197.577 3
        19.300          21.100
  25614159.444    25614158.547    25614154.924           -.5461          -.37111
                         6.500
  22847428.468    22847427.466    22847427.677    -8955708.641 4  -6978470.860 4
        27.600          28.600
  20489582.643    20489581.756    20489580.037   -25502244.518 6 -19871869.134 8
        39.800          49.100
  20711775.052    20711774.524    20711771.563   -23415758.741 7 -18246036.382 7
        42.100          45.900
  23046421.200    23046419.598    23046418.102   -10456421.873 5  -8147858.630 5
        30.100          31.100
 09  1  9  0 29  0.0000000  0 10G 6G26G 9G15G21G14G 3G18G22G19
  22883825.806    22883825.088    22883825.085    -9541359.510 4  -7434822.641 4
        27.100          29.200
  25001872.946    25001871.720    25001867.337     3468325.948     2702598.376 1
                        11.000
  22143423.282    22143422.444    22143421.995   -14279748.667 5 -11127070.810 5
        30.400          31.100
  23351931.444    23351931.489    23351929.678    -7858830.339 4  -6123753.128 4
        25.300          29.200
  21792846.171    21792845.328    21792843.665   -19785112.422 5 -15416963.867 5
        34.100          30.800
  23626560.818    23626559.907    23626559.137    -8436425.278 3  -6573834.534 3
        18.600          21.600
  22857533.478    22857532.639    22857532.450    -8902604.890 4  -6937091.313 4
        27.100          27.900
  20493078.337    20493077.531    20493076.124   -25483873.477 6 -19857554.033 8
        39.800          49.000
  20703744.690    20703744.119    20703741.107   -23457958.890 7 -18278919.607 7
        42.100          46.000
  23040970.434    23040968.875    23040967.206   -10485067.130 5  -8170179.594 5
        30.600          31.100
 09  1  9  0 29 30.0000000  0 10G 6G26G 9G15G21G14G 3G18G22G19
  22894913.246    22894912.704    22894912.806    -9483093.377 4  -7389420.458 4
        26.500          29.200
  25025572.227    25025572.498    25025566.429     3592873.553     2799648.393 1
                        11.000
  22130077.084    22130076.393    22130075.594   -14349883.369 5 -11181721.205 5
        30.800          31.100
  23370198.775    23370198.122    23370196.656    -7762836.519 4  -6048952.759 4
        25.300          29.000
  21809031.152    21809030.235    21809028.616   -19700059.638 5 -15350688.986 5
        33.800          30.800
  23606168.495    23606167.390    23606167.283    -8543587.692 3  -6657337.675 3
        19.300          22.600
  22867730.522    22867729.716    22867729.602    -8849019.869 4  -6895336.762 4
        27.100          27.600
  20496644.773    20496643.940    20496642.151   -25465132.450 6 -19842950.630 8
        39.800          49.000
  20695778.713    20695778.173    20695775.081   -23499820.728 7 -18311539.215 7
        42.200          46.100
  23035625.679    23035624.079    23035621.855   -10513154.888 5  -8192066.163 5
        30.800          30.800
 09  1  9  0 30  0.0000000  0 10G 6G26G 9G15G21G14G 3G18G22G19
  22906086.265    22906085.508    22906085.637    -9424380.010 4  -7343669.792 4
        26.200          29.000
  25049282.437    25049281.993    25049281.276     3717493.438     2896754.742 1
                         9.000
  22116839.241    22116838.500    22116838.029   -14419447.419 5 -11235926.946 5
        30.400          31.600
  23388510.508    23388510.609    23388509.072    -7666604.057 4  -5973966.424 4
        24.900          28.100
  21825289.050    21825288.162    21825286.511   -19614623.293 5 -15284115.221 5
        33.800          30.400
  23585813.572    23585812.498    23585812.550    -8650553.283 3  -6740687.449 3
        20.500          22.600
  22878023.108    22878022.211    22878022.204    -8794932.646 4  -6853190.878 4
        27.600          27.900
  20500285.859    20500285.063    20500283.497   -25445998.013 6 -19828040.674 8
        40.000          49.000
  20687881.539    20687881.053    20687878.059   -23541319.715 7 -18343876.079 7
        42.100          46.200
  23030391.640    23030389.816    23030387.748   -10540660.886 5  -8213499.408 5
        30.600          31.100
 09  1  9  0 30 30.0000000  0 10G 6G26G 9G15G21G14G 3G18G22G19
  22917345.583    22917344.906    22917345.131    -9365211.346 4  -7297564.342 4
        26.200          29.000
  25073011.259    25073012.999    25073013.173     3842193.282     2993923.446 1
                         6.500
  22103712.831    22103712.205    22103711.715   -14488428.018 5 -11289678.033 5
        31.000          32.300
  23406869.305    23406869.985    23406868.329    -7570124.841 4  -5898787.812 4
        24.900          27.400
  21841621.665    21841620.948    21841619.340   -19528794.678 5 -15217235.791 5
        34.000          30.600
  23565498.322    23565497.608    23565497.028    -8757309.921 3  -6823874.417 3
        20.500          23.000
  22888412.766    22888411.782    22888411.503    -8740334.992 4  -6810647.244 4
        27.400          27.900
  20504003.813    20504002.976    20504001.323   -25426460.333 6 -19812816.503 8
        40.000          49.000
  20680055.747    20680055.217    20680052.218   -23582445.069 7 -18375921.801 7
        42.200          46.300
  23025270.047    23025268.352    23025266.723   -10567573.619 5  -8234470.359 5
        30.400          31.300
 09  1  9  0 31  0.0000000  0 10G 6G26G 9G15G21G14G 3G18G22G19
  22928689.626    22928689.141    22928689.287    -9305597.166 4  -7251111.737 4
        26.500          29.000
  25096755.056    25096755.272    25096754.275     3966963.194     3091146.831 1
                         6.500
  22090696.638    22090696.004    22090695.259   -14556829.580 5 -11342977.936 5
        31.100          32.100
  23425274.111    23425274.475    23425272.667    -7473408.745 4  -5823424.621 4
        24.600          27.100
  21858027.142    21858026.328    21858024.822   -19442583.615 5 -15150058.361 5
        33.600          30.400
  23545221.524    23545221.127    23545220.603    -8863863.419 3  -6906903.087 3
        20.500          23.000
  22898897.440    22898896.508    22898896.438    -8685236.932 4  -6767713.684 4
        26.500          27.900
  20507797.010    20507796.171    20507794.550   -25406526.840 6 -19797283.907 8
        39.900          48.900
  20672299.666    20672299.116    20672296.105   -23623203.688 7 -18407681.758 7
        42.200          46.300
  23020260.237    23020258.538    23020256.903   -10593899.939 5  -8254984.372 5
        30.400          31.100
 09  1  9  0 31 30.0000000  0 10G 6G 9G15G21G14G28G 3G18G22G19
  22940114.329    22940113.695    22940113.688    -9245561.248 4  -7204330.500 4
        27.100          28.600
  22077786.549    22077785.939    22077785.465   -14624670.617 5 -11395841.064 5
        30.800          32.300
  23443719.748    23443719.462    23443718.120    -7376479.648 4  -5747895.454 4
        24.600          27.900
  21874500.769    21874499.885    21874498.394   -19356013.349 5 -15082601.029 4
        33.200          29.900
  23524980.071    23524979.535    23524978.883    -8970232.772 3  -6989788.266 3
        20.500          22.100
  25581566.528    25581565.699    25581564.063            .01511          .25211
         6.500           6.500
  22909472.795    22909471.930    22909472.207    -8629662.065 4  -6724408.593 4
        26.500          27.900
  20511661.367    20511660.498    20511658.906   -25386219.523 6 -19781460.019 8
        39.900          48.900
  20664609.232    20664608.695    20664605.813   -23663616.300 7 -18439172.097 7
        42.100          46.400
  23015358.439    23015356.625    23015354.577   -10619660.168 5  -8275057.273 5
        30.600          30.800
 09  1  9  0 32  0.0000000  0 10G 6G 9G15G21G14G28G 3G18G22G19
  22951618.942    22951618.491    22951618.279    -9185104.610 4  -7157221.426 4
        27.600          28.100
  22064984.269    22064983.639    22064983.012   -14691947.196 5 -11448264.347 5
        31.100          32.300
  23462205.407    23462205.171    23462203.563    -7279338.444 4  -5672201.016 4
        24.900          27.900
  21891042.785    21891041.988    21891040.592   -19269084.422 5 -15014864.218 4
        33.200          29.700
  23504774.273    23504774.091    23504772.912    -9076415.238 3  -7072527.823 3
        21.100          22.100
  25576453.187    25576452.782    25576451.826      -26867.429 1    -20935.421 1
         6.500          11.000
  22920138.884    22920138.040    22920138.250    -8573611.647 4  -6680732.948 4
        26.500          27.900
  20515596.998    20515596.188    20515594.563   -25365537.512 6 -19765344.162 8
        40.000          48.900
  20656985.211    20656984.651    20656981.635   -23703681.192 7 -18470391.486 7
        42.100          46.400
  23010564.408    23010562.757    23010560.904   -10644852.753 5  -8294687.860 5
        31.000          31.100
 09  1  9  0 32 30.0000000  0 10G 6G 9G15G21G14G28G 3G18G22G19
  22963207.803    22963207.386    22963206.800    -9124203.619 4  -7109766.115 4
        27.100          27.400
  22052294.983    22052294.338    22052293.673   -14758630.229 5 -11500225.130 5
        31.600          32.100
  23480736.095    23480735.268    23480733.809    -7181961.487 4  -5596322.869 4
        24.600          28.100
  21907657.900    21907657.077    21907655.567   -19181772.031 5 -14946828.600 4
        33.000          29.900
  23484609.565    23484608.890    23484607.904    -9182383.023 3  -7155100.097 3
        21.100          21.100
  25571432.005    25571432.121    25571430.981      -53235.669      -41482.049
                         3.000
  22930899.816    22930898.977    22930899.005    -8517062.085 4  -6636668.335 4
        26.200          27.900
  20519608.802    20519608.028    20519606.405   -25344455.124 6 -19748916.322 8
        40.100          48.800
  20649432.414    20649431.882    20649428.777   -23743371.605 7 -18501319.074 7
        42.200          46.500
  23005883.556    23005881.888    23005879.934   -10669450.768 5  -8313855.150 5
        31.000          31.300
 09  1  9  0 33  0.0000000  0 10G 6G 9G15G21G14G28G 3G18G22G19
  22974879.392    22974878.576    22974878.210    -9062871.196 4  -7061974.606 4
        27.400          27.600
  22039717.170    22039716.451    22039715.688   -14824727.472 5 -11551729.468 5
        32.000          32.100
  23499307.753    23499307.826    23499306.851    -7084361.622 3  -5520271.030 4
        23.400          28.400
  21924343.344    21924342.624    21924341.151   -19094089.029 5 -14878504.195 4
        32.800          29.700
  23464483.889    23464482.885    23464482.140    -9288144.675 3  -7237511.743 3
        21.100          21.600
  25566511.446    25566510.648    25566509.678      -79113.810 1    -61646.844 1
         6.500           6.500
  22941753.716    22941752.919    22941752.562    -8460026.043 4  -6592224.678 4
        26.800          27.900
  20523694.830    20523693.970    20523692.393   -25322983.020 6 -19732184.808 8
        40.000          48.700
  20641948.965    20641948.402    20641945.386   -23782697.141 7 -18531962.342 7
        42.100          46.600
  23001313.889    23001312.176    23001310.524   -10693463.832 5  -8332566.626 5
        30.600          31.300
 09  1  9  0 33 30.0000000  0 10G 6G 9G15G21G14G28G 3G18G22G19
  22986630.927    22986630.097    22986629.596    -9001116.938 4  -7013854.403 4
        27.100          27.400
  22027250.096    22027249.310    22027248.571   -14890243.420 5 -11602780.842 5
        32.100          32.700
  23517920.658    23517920.742    23517919.929    -6986548.575 3  -5444053.082 4
        23.400          28.600
  21941097.892    21941097.012    21941095.351   -19006044.501 5 -14809898.081 4
        33.000          29.500
  23444396.306    23444395.358    23444394.159    -9393705.607 3  -7319766.987 3
        21.600          21.100
  25561677.411    25561677.891    25561676.709     -104508.754      -81435.116 1
                         9.000
  22952697.700    22952696.866    22952696.950    -8402513.695 4  -6547409.854 4
        26.200          27.900
  20527853.671    20527852.767    20527851.101   -25301128.761 6 -19715155.512 8
        40.100          48.600
  20634533.690    20634533.180    20634530.217   -23821664.582 7 -18562326.573 7
        42.100          46.700
  22996854.227    22996852.716    22996851.079   -10716898.593 5  -8350827.483 5
        30.600          31.300
 09  1  9  0 34  0.0000000  0 10G 6G 9G15G21G14G28G 3G18G22G19
  22998461.959    22998461.432    22998461.428    -8938941.534 4  -6965406.035 4
        26.500          27.600
  22014894.200    22014893.471    22014892.869   -14955173.660 5 -11653375.815 5
        32.300          33.000
  23536574.845    23536574.421    23536573.220    -6888523.149 3  -5367669.638 4
        23.400          27.900
  21957921.328    21957920.335    21957918.445   -18917638.145 5 -14741010.025 4
        33.100          29.500
  23424348.104    23424347.240    23424345.534    -9499062.416 3  -7401863.179 3
        21.600          21.100
  25556936.902    25556936.466    25556935.445     -129417.412     -100844.442 1
                         6.500
  22963732.714    22963731.848    22963732.086    -8344525.652 4  -6502224.364 4
        26.200          28.600
  20532085.278    20532084.454    20532082.733   -25278891.186 6 -19697827.525 8
        40.300          48.500
  20627187.001    20627186.490    20627183.570   -23860271.350 7 -18592409.763 7
        42.200          46.800
  22992505.516    22992503.827    22992502.125   -10739752.733 5  -8368635.905 5
        30.600          31.300
 09  1  9  0 34 30.0000000  0 10G 6G 9G15G21G14G28G 3G18G22G19
  23010373.368    23010372.666    23010372.526    -8876348.015 4  -6916631.870 4
        26.500          27.400
  22002650.020    22002649.378    22002648.994   -15019516.190 5 -11703512.835 5
        32.100          33.100
  23555268.769    23555268.464    23555266.748    -6790287.834 4  -5291122.639 4
        24.600          27.400
  21974812.729    21974811.822    21974809.804   -18828872.918 5 -14671842.331 4
        32.600          29.200
  23404338.238    23404337.324    23404336.166    -9604213.703 3  -7483799.227 3
        22.100          22.600
  25552292.689    25552291.327    25552290.948     -153839.436     -119874.567 1
                         9.000
  22974857.211    22974856.457    22974856.405    -8286064.448 4  -6456670.183 4
        25.900          28.100
  20536389.699    20536388.873    20536387.128   -25256271.604 6 -19680201.871 8
        40.300          48.500
  20619909.076    20619908.522    20619905.331   -23898518.202 7 -18622212.498 7
        42.200          46.800
  22988267.151    22988265.282    22988263.468   -10762025.975 5  -8385991.680 5
        30.600          31.000
 09  1  9  0 35  0.0000000  0 10G 6G 9G15G21G14G28G 3G18G22G19
  23022364.242    23022363.565    23022363.097    -8813336.556 4  -6867532.028 4
        25.900          27.400
  21990518.941    21990518.138    21990517.799   -15083265.642 5 -11753187.718 5
        32.100          33.200
  23574001.959    23574001.995    23573999.897    -6691842.932 4  -5214412.324 4
        24.900          26.800
  21991772.421    21991771.488    21991769.689   -18739748.498 5 -14602394.742 4
        32.400          29.000
  23384368.130    23384367.367    23384366.568    -9709155.862 3  -7565572.311 3
        22.600          22.600
  25547733.973    25547735.466    25547735.102     -177771.946     -138523.170 2
                        12.600
  22986072.150    22986071.102    22986071.156    -8227130.878 4  -6410747.919 4
        25.600          28.100
  20540767.158    20540766.360    20540764.667   -25233267.756 6 -19662276.792 8
        40.400          48.500
  20612699.850    20612699.312    20612696.303   -23936402.015 7 -18651732.347 7
        42.200          46.900
  22984139.646    22984137.966    22984135.823   -10783715.650 5  -8402892.724 5
        30.800          30.600
 09  1  9  0 35 30.0000000  0 10G 6G 9G15G21G14G28G 3G18G22G19
  23034433.597    23034432.850    23034432.744    -8749910.757 4  -6818109.335 4
        25.300          27.900
  21978500.985    21978500.210    21978499.647   -15146420.773 5 -11802399.486 5
        32.400          33.100
  23592775.063    23592774.954    23592773.082    -6593191.895 4  -5137541.391 4
        24.200          27.400
  22008799.822    22008799.075    22008797.211   -18650267.836 5 -14532669.567 4
        32.300          29.000
  23364438.333    23364437.582    23364436.542    -9813888.049 3  -7647181.780 3
        22.600          23.000
  25543277.405    25543275.666    25543273.746     -201214.867 1   -156790.377 2
         6.500          16.100
  22997375.775    22997374.825    22997375.188    -8167728.280 4  -6364460.182 4
        25.600          28.400
  20545217.506    20545216.638    20545215.012   -25209881.111 6 -19644053.427 8
        40.400          48.400
  20605559.676    20605559.179    20605556.307   -23973923.117 7 -18680969.562 7
        42.100          46.900
  22980123.116    22980121.329    22980119.506   -10804822.304 5  -8419339.469 5
        30.400          30.800
 09  1  9  0 36  0.0000000  0 10G 6G 9G15G21G14G28G 3G18G22G19
  23046582.102    23046581.234    23046581.443    -8686069.562 4  -6768362.961 4
        25.300          28.400
  21966597.054    21966596.228    21966595.581   -15208975.339 5 -11851143.294 5
        32.100          32.800
  23611587.484    23611587.059    23611585.493    -6494333.517 3  -5060508.890 4
        23.800          27.900
  22025895.836    22025895.013    22025892.930   -18560429.189 5 -14462665.442 4
        32.300          28.600
  23344548.934    23344548.452    23344547.805    -9918404.669 3  -7728623.275 3
        22.100          23.400
  25538907.417    25538906.159    25538907.259     -224164.182 1   -174673.022 2
         6.500          13.900
  23008769.197    23008768.464    23008768.800    -8107855.508 4  -6317806.079 4
        25.900          28.600
  20549741.230    20549740.346    20549738.754   -25186108.528 6 -19625529.332 8
        40.400          48.400
  20598489.551    20598489.050    20598486.038   -24011077.437 7 -18709920.975 7
        42.200          47.000
  22976218.593    22976216.802    22976214.854   -10825341.447 5  -8435328.406 5
        30.600          30.800
 09  1  9  0 36 30.0000000  0 10G 6G 9G15G21G14G28G 3G18G22G19
  23058809.198    23058808.515    23058808.187    -8621817.566 4  -6718296.474 4
        26.500          28.400
  21954807.542    21954807.004    21954806.455   -15270928.828 5 -11899418.721 5
        32.300          33.200
  23630437.660    23630437.699    23630435.941    -6395272.344 4  -4983318.370 4
        24.200          27.400
  22043058.916    22043058.100    22043056.204   -18470236.667 5 -14392385.559 4
        32.300          28.600
  23324701.381    23324700.289    23324699.822   -10022706.275 3  -7809897.225 3
        22.600          23.800
  25534634.285    25534633.696    25534632.831     -246620.890     -192171.743 2
                        12.600
  23020251.535    23020250.829    23020250.621    -8047517.438 4  -6270789.406 4
        26.200          27.900
  20554337.933    20554337.155    20554335.543   -25161952.409 6 -19606706.379 8
        40.500          48.300
  20591488.725    20591488.171    20591485.244   -24047866.895 7 -18738588.077 7
        42.200          47.100
  22972425.121    22972423.547    22972421.643   -10845275.133 5  -8450861.148 5
        30.200          31.100
 09  1  9  0 37  0.0000000  0 10G 6G 9G15G21G14G28G 3G18G22G19
  23071113.212    23071112.564    23071112.562    -8557158.224 4  -6667912.579 4
        25.900          28.100
  21943133.090    21943132.570    21943132.000   -15332279.492 5 -11947224.412 5
        32.600          33.600
  23649326.266    23649326.421    23649324.278    -6296011.585 3  -4905972.324 4
        23.800          26.500
  22060288.643    22060287.860    22060286.319   -18379692.973 5 -14321832.049 4
        31.600          29.000
  23304894.360    23304893.985    23304892.975   -10126791.884 3  -7891002.864 4
        23.400          24.600
  25530457.026    25530455.709    25530454.016     -268585.098 1   -209286.728 1
         9.000          11.000
  23031821.204    23031820.344    23031820.186    -7986717.568 4  -6223412.879 4
        26.200          27.400
  20559007.474    20559006.626    20559004.993   -25137414.352 6 -19587585.813 8
        40.500          48.200
  20584557.597    20584557.052    20584553.939   -24084291.254 7 -18766970.685 7
        42.400          47.200
  22968743.237    22968741.621    22968739.888   -10864623.416 5  -8465937.726 5
        30.400          31.300
 09  1  9  0 37 30.0000000  0 10G 6G 9G15G21G14G28G 3G18G22G19
  23083494.621    23083494.047    23083493.883    -8492092.933 4  -6617212.363 4
        25.600          27.900
  21931573.621    21931573.151    21931572.606   -15393023.629 5 -11994557.485 5
        32.700          33.400
  23668253.190    23668252.616    23668250.669    -6196552.747 3  -4828471.924 4
        23.400          27.100
  22077585.175    22077584.455    22077583.044   -18288799.050 5 -14251005.647 4
        31.500          29.500
  23285129.568    23285128.813    23285127.960   -10230658.984 3  -7971938.245 4
        23.400          24.900
  25526368.968    25526368.941    25526365.768     -290055.125 1   -226016.622 1
         6.500           6.500
  23043478.746    23043477.990    23043477.712    -7925457.764 4  -6175677.974 4
        26.200          27.600
  20563749.622    20563748.808    20563747.104   -25112493.901 6 -19568167.276 8
        40.600          48.100
  20577695.833    20577695.328    20577692.272   -24120349.251 7 -18795067.819 7
        42.300          47.200
  22965173.143    22965171.403    22965169.727   -10883384.915 5  -8480557.069 5
        30.600          31.300
 09  1  9  0 38  0.0000000  0 10G 6G 9G15G21G14G28G 3G18G22G19
  23095952.116    23095951.654    23095951.126    -8426628.956 4  -6566201.473 4
        25.900          27.400
  21920129.549    21920128.969    21920128.416   -15453163.418 5 -12041419.644 5
        32.800          33.600
  23687215.962    23687215.623    23687213.540    -6096902.489 3  -4750822.379 4
        23.000          27.400
  22094947.094    22094946.216    22094944.757   -18197561.885 5 -14179911.776 4
        31.100          29.200
  23265405.165    23265404.528    23265403.649   -10334310.231 3  -8052705.426 4
        23.400          24.900
  25522376.764    25522375.019    25522376.473     -311034.750     -242364.379 1
         3.000          11.000
  23055222.260    23055221.570    23055221.615    -7863745.101 4  -6127590.182 4
        26.200          28.400
  20568563.653    20568562.832    20568561.129   -25087195.874 6 -19548454.523 8
        40.500          48.000
  20570903.069    20570902.541    20570899.558   -24156045.092 7 -18822882.751 7
        42.300          47.200
  22961713.626    22961712.117    22961710.246   -10901563.848 5  -8494722.478 5
        31.000          31.100
 09  1  9  0 38 30.0000000  0 10G 6G 9G15G21G14G28G 3G18G22G19
  23108485.321    23108484.919    23108484.852    -8360763.978 4  -6514878.117 4
        24.900          27.100
  21908801.876    21908801.170    21908800.588   -15512691.424 5 -12087805.082 5
        32.700          33.600
  23706215.695    23706215.583    23706213.077    -5997058.280 3  -4673021.693 4
        22.600          27.100
  22112374.589    22112374.005    22112372.474   -18105978.620 5 -14108548.214 4
        31.100          28.600
  23245723.030    23245722.412    23245721.554   -10437739.332 3  -8133299.505 4
        23.000          24.200
  25518481.841    25518480.284    25518479.100     -331518.533 2   -258325.777 2
        12.600          12.600
  23067052.355    23067051.662    23067051.516    -7801577.154 4  -6079147.623 4
        25.900          27.900
  20573450.491    20573449.604    20573447.862   -25061515.962 6 -19528444.198 8
        40.600          48.000
  20564180.353    20564179.851    20564176.764   -24191373.454 7 -18850411.334 7
        42.400          47.300
  22958366.249    22958364.847    22958362.570   -10919155.160 5  -8508429.997 5
        31.300          30.800
 09  1  9  0 39  0.0000000  0 10G 6G 9G15G21G14G28G 3G18G22G19
  23121095.724    23121095.132    23121095.033    -8294496.600 4  -6463241.199 4
        24.900          26.500
  21897591.343    21897590.806    21897590.177   -15571601.527 5 -12133709.042 5
        33.000          33.500
  23725252.575    23725252.465    23725250.055    -5897018.742 3  -4595068.825 4
        21.600          26.200
  22129868.668    22129867.997    22129866.483   -18014047.096 5 -14036913.277 4
        31.300          28.400
  23226084.702    23226084.249    23226083.207   -10540940.520 3  -8213715.994 4
        23.800          24.900
  25514675.488    25514674.657    25514675.342     -351501.736 1   -273897.088 1
        11.000          11.000
  23078969.394    23078968.674    23078968.517    -7738952.554 4  -6030349.236 4
        26.500          27.600
  20578410.313    20578409.521    20578407.911   -25035450.767 6 -19508133.654 7
        40.600          47.900
  20557528.283    20557527.772    20557524.684   -24226330.019 7 -18877650.207 7
        42.400          47.300
  22955131.210    22955129.710    22955128.182   -10936154.234 5  -8521676.029 5
        30.800          31.100
 09  1  9  0 39 30.0000000  0 10G 6G 9G15G21G14G28G 3G18G22G19
  23133782.082    23133781.479    23133781.702    -8227830.412 4  -6411293.520 4
        24.600          27.100
  21886498.988    21886498.382    21886497.911   -15629892.007 5 -12179130.179 5
        32.600          33.800
  23744326.019    23744325.913    23744323.493    -5796787.169 3  -4516966.323 4
        21.600          25.300
  22147428.568    22147427.724    22147426.013   -17921770.327 5 -13965009.306 4
        31.100          28.100
  23206489.804    23206488.950    23206488.045   -10643912.792 4  -8293954.109 4
        24.200          25.300
  25510966.209    25510967.901    25510968.418     -370984.269 1   -289078.350 2
         6.500          12.600
  23090972.445    23090971.635    23090971.685    -7675875.198 4  -5981198.043 4
        25.600          27.100
  20583443.597    20583442.734    20583441.060   -25009001.554 6 -19487523.873 7
        40.600          47.800
  20550947.148    20550946.578    20550943.491   -24260914.515 7 -18904599.160 7
        42.300          47.400
  22952009.366    22952007.627    22952005.758   -10952561.492 5  -8534460.899 5
        30.400          31.000
 09  1  9  0 40  0.0000000  0 10G 6G 9G15G21G14G28G 3G18G22G19
  23146543.681    23146542.652    23146542.414    -8160770.007 3  -6359038.663 4
        23.800          26.800
  21875524.757    21875524.138    21875523.651   -15687562.398 5 -12224068.127 5
        33.000          33.500
  23763434.667    23763434.481    23763432.437    -5696367.951 3  -4438717.586 4
        21.100          24.600
  22165053.282    22165052.345    22165050.785   -17829152.205 5 -13892839.361 4
        30.600          28.100
  23186938.325    23186937.588    23186936.527   -10746656.568 3  -8374014.172 4
        23.800          25.300
  25507356.851    25507356.853    25507355.378     -389967.886 1   -303870.687 2
         9.000          12.600
  23103061.404    23103060.536    23103060.058    -7612349.482 4  -5931697.485 4
        25.900          26.500
  20588549.240    20588548.469    20588546.818   -24982170.899 6 -19466616.865 7
        40.600          47.800
  20544436.321    20544435.783    20544432.728   -24295129.044 7 -18931259.820 7
        42.400          47.500
  22948999.267    22948997.548    22948995.791   -10968378.860 5  -8546786.115 5
        31.300          31.300
 09  1  9  0 40 30.0000000  0 10G 6G 9G15G21G14G28G 3G18G22G19
  23159377.618    23159377.185    23159376.860    -8093324.182 4  -6306483.473 4
        24.200          27.400
  21864667.883    21864667.268    21864666.625   -15744616.268 5 -12268525.680 5
        33.100          33.600
  23782578.328    23782578.070    23782575.471    -5595769.620 3  -4360329.284 4
        21.600          24.200
  22182740.715    22182740.047    22182738.901   -17736201.260 5 -13820410.073 4
        30.200          28.400
  23167428.935    23167428.186    23167427.707   -10849176.514 3  -8453899.820 4
        23.400          25.300
  25503840.985    25503839.843    25503836.348     -408458.169 1   -318278.740 1
         9.000          11.000
  23115232.919    23115232.108    23115232.265    -7548384.431 4  -5881854.587 4
        25.600          26.800
  20593726.355    20593725.481    20593723.860   -24954965.284 6 -19445417.682 7
        40.700          47.700
  20537994.901    20537994.330    20537991.231   -24328978.980 7 -18957636.385 7
        42.400          47.600
  22946100.459    22946098.793    22946096.811   -10983612.162 5  -8558656.215 5
        31.600          31.000
 09  1  9  0 41  0.0000000  0 10G 6G 9G15G21G14G28G 3G18G22G19
  23172284.986    23172284.505    23172284.865    -8025494.661 3  -6253629.320 4
        23.800          27.600
  21853928.644    21853928.093    21853927.850   -15801050.427 5 -12312500.338 5
        33.000          34.300
  23801755.272    23801755.221    23801752.763    -5494993.482 3  -4281802.412 4
        22.100          24.900
  22200492.045    22200491.417    22200489.988   -17642918.249 5 -13747722.040 4
        30.400          27.900
  23147963.623    23147962.873    23147961.989   -10951469.986 4  -8533608.999 4
        24.200          25.600
  25500412.551    25500410.991    25500409.803     -426453.509     -332301.128 1
                         9.000
  23127488.870    23127488.170    23127487.678    -7483981.527 4  -5831670.520 4
        25.300          27.100
  20598974.757    20598973.913    20598972.199   -24927384.438 6 -19423926.112 7
        40.600          47.600
  20531623.042    20531622.487    20531619.510   -24362462.910 7 -18983727.752 7
        42.400          47.700
  22943313.072    22943311.536    22943309.589   -10998260.073 5  -8570070.161 5
        31.800          31.000
 09  1  9  0 41 30.0000000  0 10G 6G 9G15G21G14G28G 3G18G22G19
  23185266.197    23185265.393    23185265.314    -7957281.698 4  -6200476.366 4
        24.600          27.600
  21843308.484    21843307.848    21843307.368   -15856860.421 5 -12355988.627 5
        33.400          34.000
  23820965.933    23820965.873    23820963.762    -5394039.419 3  -4203136.921 4
        22.600          25.600
  22218306.542    22218305.796    22218304.461   -17549303.219 5 -13674775.278 4
        30.400          27.900
  23128541.339    23128540.662    23128539.596   -11053532.798 4  -8613138.438 4
        24.200          25.300
  25497084.891    25497083.327    25497082.505     -443951.095     -345935.517 2
                        12.600
  23139827.064    23139826.452    23139826.592    -7419141.637 4  -5781145.926 4
        24.900          27.400
  20604294.853    20604294.079    20604292.315   -24899426.891 6 -19402141.007 7
        40.700          47.400
  20525321.447    20525320.914    20525317.814   -24395578.290 7 -19009531.938 7
        42.600          47.800
  22940637.570    22940635.950    22940634.115   -11012319.894 5  -8581025.863 5
        31.600          31.100
 09  1  9  0 42  0.0000000  0 10G 6G 9G15G21G14G28G 3G18G22G19
  23198321.291    23198320.489    23198320.802    -7888675.140 4  -6147016.714 4
        24.600          28.100
  21832810.013    21832809.116    21832808.510   -15912030.951 5 -12398978.640 5
        33.100          33.500
  23840212.021    23840212.616    23840210.464    -5292897.154 3  -4124324.781 4
        22.600          25.600
  22236185.931    22236185.288    22236183.893   -17455345.078 5 -13601561.163 4
        30.100          27.400
  23109166.338    23109165.442    23109164.496   -11155350.536 4  -8692476.915 4
        24.600          25.600
  25493851.064    25493851.161    25493850.541     -460936.882 1   -359171.138 1
         6.500          11.000
  23152251.225    23152250.290    23152250.383    -7353854.456 4  -5730272.802 4
        24.900          27.400
  20609689.132    20609688.308    20609686.678   -24871079.819 6 -19380052.375 7
        40.600          47.400
  20519092.422    20519091.885    20519088.849   -24428311.564 7 -19035038.378 7
        42.500          47.900
  22938076.304    22938074.733    22938073.055   -11025778.767 5  -8591513.296 5
        31.800          31.100
 09  1  9  0 42 30.0000000  0 10G 6G 9G15G21G14G28G 3G18G22G19
  23211448.203    23211447.529    23211447.912    -7819690.532 4  -6093262.486 4
        24.200          27.600
  21822430.808    21822430.366    21822429.797   -15966572.339 5 -12441478.402 5
        33.400          34.100
  23859492.251    23859492.022    23859490.174    -5191581.725 3  -4045377.686 4
        22.100          25.900
  22254127.917    22254127.280    22254125.924   -17361059.021 4 -13528091.527 4
        29.700          27.100
  23089834.921    23089834.390    23089833.880   -11256934.268 4  -8771633.045 4
        24.900          25.600
  25490715.633    25490713.896    25490712.592     -477423.480     -372017.881 1
         3.000           6.500
  23164756.053    23164755.507    23164755.940    -7288135.802 4  -5679063.451 4
        24.200          26.800
  20615155.042    20615154.213    20615152.571   -24842356.454 6 -19357670.530 7
        40.700          47.400
  20512933.862    20512933.362    20512930.325   -24460675.280 7 -19060256.852 8
        42.600          48.000
  22935627.455    22935625.787    22935623.527   -11038649.309 5  -8601542.287 5
        31.800          30.600
 09  1  9  0 43  0.0000000  0 10G 6G 9G15G21G14G28G 3G18G22G19
  23224648.008    23224647.715    23224647.954    -7750324.335 3  -6039210.915 4
        23.800          27.600
  21812173.383    21812172.710    21812172.214   -16020476.385 5 -12483481.537 5
        33.500          34.300
  23878805.564    23878805.573    23878803.836    -5090089.361 3  -3966292.728 4
        21.100          25.600
  22272133.653    22272132.682    22272131.156   -17266440.925 4 -13454363.158 4
        29.200          27.100
  23070550.206    23070549.554    23070548.987   -11358276.418 4  -8850600.934 4
        24.600          25.600
  25487672.967    25487672.669    25487672.324     -493404.500     -384470.591 1
                         6.500
  23177344.824    23177344.270    23177344.752    -7221981.844 4  -5627514.929 4
        24.200          27.100
  20620693.607    20620692.754    20620691.107   -24813251.183 6 -19334991.093 7
        40.700          47.300
  20506846.822    20506846.301    20506843.266   -24492662.686 7 -19085182.099 8
        42.600          48.100
  22933291.027    22933289.623    22933287.629   -11050925.057 5  -8611107.807 5
        32.100          30.600
 09  1  9  0 43 30.0000000  0 10G 6G 9G15G21G14G28G 3G18G22G19
  23237918.914    23237918.366    23237918.174    -7680588.119 3  -5984871.018 4
        23.400          27.100
  21802035.834    21802035.089    21802034.467   -16073749.643 5 -12524993.153 5
        33.600          33.900
  23898150.276    23898149.585    23898148.528    -4988431.428 3  -3887078.762 4
        20.500          25.300
  22290199.917    22290198.945    22290197.664   -17171501.407 4 -13380384.337 4
        29.000          26.800
  23051309.797    23051309.179    23051308.712   -11459384.295 4  -8929386.271 4
        24.600          25.600
  25484727.651    25484726.298    25484727.664     -508888.313 1   -396535.996 1
         6.500           6.500
  23190013.821    23190013.336    23190013.993    -7155404.403 3  -5575636.405 4
        23.800          26.800
  20626302.938    20626302.142    20626300.398   -24783773.740 6 -19312021.653 7
        40.700          47.100
  20500829.680    20500829.228    20500826.202   -24524282.394 7 -19109820.828 8
        42.600          48.100
  22931066.829    22931065.147    22931063.150   -11062614.889 5  -8620216.757 5
        32.100          30.200
 09  1  9  0 44  0.0000000  0 10G 6G 9G15G21G14G28G 3G18G22G19
  23251260.824    23251260.164    23251260.581    -7610473.330 3  -5930236.124 4
        23.400          26.800
  21792020.905    21792020.241    21792019.619   -16126378.379 5 -12566002.546 5
        33.800          34.000
  23917529.007    23917528.287    23917526.723    -4886598.599 3  -3807728.492 4
        21.100          24.600
  22308328.999    22308328.214    22308326.778   -17076231.942 4 -13306148.419 4
        29.200          26.800
  23032117.096    23032116.234    23032115.524   -11560244.599 4  -9007978.691 4
        24.900          25.900
  25481877.404    25481876.361    25481875.989     -523862.280 1   -408204.022 1
         6.500           9.000
  23202765.980    23202765.249    23202765.498    -7088395.339 3  -5523421.549 4
        23.800          26.800
  20631985.145    20631984.350    20631982.566   -24753913.410 6 -19288753.859 7
        40.800          47.000
  20494885.024    20494884.469    20494881.420   -24555522.512 7 -19134163.769 8
        42.600          48.300
  22928956.243    22928954.342    22928952.011   -11073707.170 5  -8628860.085 5
        31.600          30.200
 09  1  9  0 44 30.0000000  0 10G 6G 9G15G21G14G28G 3G18G22G19
  23264675.087    23264674.132    23264674.012    -7539985.811 3  -5875310.789 4
        23.800          26.500
  21782128.528    21782127.844    21782127.285   -16178363.866 5 -12606510.704 5
        33.800          34.600
  23936939.059    23936938.889    23936936.961    -4784596.475 3  -3728246.312 4
        21.100          24.600
  22326519.910    22326519.244    22326517.675   -16980637.689 4 -13231659.402 4
        29.200          26.500
  23012970.868    23012969.975    23012969.166   -11660858.936 4  -9086379.441 4
        24.900          25.600
  25479123.324    25479123.350    25479124.329     -538329.765     -419477.391 2
         3.000          13.900
  23215598.449    23215597.885    23215597.796    -7020960.251 4  -5470874.721 4
        24.600          26.800
  20637739.634    20637738.813    20637737.093   -24723673.844 6 -19265190.560 7
        40.900          47.000
  20489011.958    20489011.420    20489008.366   -24586385.590 7 -19158212.916 8
        42.700          48.400
  22926958.356    22926956.476    22926954.703   -11084205.171 5  -8637040.345 5
        31.300          30.800
 09  1  9  0 45  0.0000000  0 10G 6G 9G15G21G14G28G 3G18G22G19
  23278157.166    23278156.772    23278156.747    -7469133.196 4  -5820100.954 4
        24.200          26.200
  21772357.835    21772357.169    21772356.526   -16229708.836 5 -12646519.760 5
        33.900          34.300
  23956379.615    23956379.817    23956378.179    -4682432.460 3  -3648637.983 4
        20.500          24.900
  22344771.743    22344771.001    22344769.562   -16884725.405 4 -13156922.579 4
        29.500          27.100
  22993870.262    22993869.755    22993868.983   -11761230.526 4  -9164591.045 4
        24.900          25.600
  25476467.233    25476465.625    25476465.708     -552295.887     -430360.072 1
                         9.000
  23228510.680    23228509.810    23228510.046    -6953106.898 4  -5418001.983 4
        24.200          26.500
  20643565.097    20643564.294    20643562.666   -24693060.403 6 -19241335.930 7
        40.900          47.000
  20483209.865    20483209.317    20483206.304   -24616875.833 7 -19181971.541 8
        42.700          48.500
  22925072.671    22925070.989    22925069.117   -11094113.542 5  -8644761.143 5
        31.300          30.400
 09  1  9  0 45 30.0000000  0 10G 6G 9G15G21G14G28G 3G18G22G19
  23291709.768    23291709.150    23291709.423    -7397914.679 4  -5764606.017 4
        24.200          26.200
  21762710.271    21762709.532    21762708.791   -16280407.442 5 -12686025.154 5
        33.900          34.100
  23975851.281    23975851.529    23975850.666    -4580105.170 3  -3568902.421 4
        18.600          24.900
  22363084.558    22363083.639    22363082.096   -16788493.268 4 -13081936.519 4
        29.200          27.100
  22974817.511    22974816.917    22974816.163   -11861354.399 4  -9242609.629 4
        25.300          25.600
  25473907.177    25473906.354    25473903.625     -565755.785 1   -440848.329
         6.500           3.000
  23241502.432    23241501.556    23241501.844    -6884835.031 4  -5364803.129 4
        24.900          26.200
  20649462.382    20649461.582    20649459.889   -24662070.007 6 -19217187.565 7
        40.900          46.800
  20477479.350    20477478.769    20477475.749   -24646990.200 7 -19205437.278 8
        42.800          48.500
  22923300.256    22923298.544    22923296.217   -11103428.739 5  -8652019.733 5
        31.300          30.200
 09  1  9  0 46  0.0000000  0 10G 6G 9G15G21G14G28G 3G18G22G19
  23305330.469    23305329.905    23305330.073    -7326337.166 4  -5708831.335 4
        24.600          26.200
  21753185.192    21753184.462    21753183.994   -16330461.436 5 -12725028.254 5
        34.000          34.400
  23995353.864    23995353.875    23995352.689    -4477620.945 3  -3489044.592 4
        19.300          25.300
  22381456.239    22381455.329    22381453.796   -16691948.106 4 -13006706.550 4
        28.800          26.800
  22955811.221    22955810.777    22955809.865   -11961232.799 4  -9320436.942 4
        25.900          25.900
  25471438.699    25471438.586    25471437.554     -578713.418     -450945.220
         3.000           3.000
  23254572.523    23254571.804    23254571.909    -6816151.043 4  -5311283.132 4
        24.900          25.900
  20655430.465    20655429.629    20655427.950   -24630707.651 6 -19192749.364 7
        40.900          46.700
  20471819.784    20471819.229    20471816.115   -24676731.362 7 -19228612.202 8
        42.900          48.600
  22921639.374    22921637.644    22921636.125   -11112154.781 5  -8658819.247 5
        30.800          30.800
 09  1  9  0 46 30.0000000  0 10G 6G 9G15G21G14G28G 3G18G22G19
  23319020.018    23319019.499    23319019.531    -7254399.616 3  -5652776.111 4
        23.800          26.800
  21743784.063    21743783.407    21743782.208   -16379865.264 5 -12763524.735 5
        34.300          33.600
  24014886.370    24014886.157    24014884.918    -4374978.221 3  -3409063.273 4
        18.600          25.300
  22399887.894    22399887.126    22399885.410   -16595088.464 4 -12931231.520 4
        28.600          26.200
  22936853.015    22936852.131    22936851.531   -12060860.376 4  -9398068.806 4
        25.600          25.900
  25469070.458    25469070.482    25469067.920     -591164.335     -460647.417
         3.000           3.000
  23267721.661    23267720.697    23267720.592    -6747053.844 4  -5257441.170 4
        24.200          25.600
  20661470.021    20661469.230    20661467.515   -24598969.582 6 -19168018.401 7
        41.000          46.600
  20466231.903    20466231.400    20466228.288   -24706095.471 7 -19251493.322 8
        43.000          48.700
  22920091.567    22920090.040    22920088.457   -11120287.848 5  -8665156.694 5
        30.800          30.800
 09  1  9  0 47  0.0000000  0 10G 6G 9G15G21G14G28G 3G18G22G19
  23332777.390    23332776.894    23332777.282    -7182101.514 3  -5596439.930 4
        23.400          26.200
  21734507.319    21734506.753    21734506.044   -16428613.147 5 -12801510.093 5
        34.000          34.000
  24034449.007    24034448.837    24034447.749    -4272176.445 2  -3328958.019 4
        17.000          24.900
  22418379.555    22418378.755    22418377.466   -16497913.083 4 -12855510.462 4
        28.400          25.900
  22917943.034    22917942.236    22917941.648   -12160232.450 4  -9475501.572 4
        25.900          25.900
  25466800.265    25466799.230    25466797.427     -603105.284     -469951.953 1
         3.000           9.000
  23280948.332    23280947.920    23280948.085    -6677543.332 3  -5203277.146 4
        23.800          24.900
  20667581.450    20667580.632    20667578.991   -24566853.494 6 -19142992.874 7
        40.900          46.500
  20460716.504    20460716.074    20460712.913   -24735078.752 7 -19274077.692 8
        43.100          48.800
  22918657.593    22918655.999    22918654.011   -11127824.865 5  -8671029.686 5
        31.000          30.400
 09  1  9  0 47 30.0000000  0 10G 9G 6G15G21G14G28G 3G18G22G19
  21725355.491    21725354.727    21725354.271   -16476707.064 5 -12838985.858 5
        34.100          34.300
  23346603.328    23346602.538    23346602.408    -7109449.516 3  -5539827.989 4
        23.000          26.200
  24054040.448    24054040.710    24054039.678    -4169221.420 2  -3248733.353 4
        17.800          24.600
  22436930.456    22436929.683    22436928.244   -16400427.777 4 -12779547.914 4
        28.600          25.900
  22899081.633    22899080.732    22899079.840   -12259351.165 4  -9552736.923 4
        26.500          26.200
  25464622.341    25464621.409    25464621.907     -614539.711     -478861.951 1
         3.000           9.000
  23294253.434    23294252.716    23294252.671    -6607626.283 3  -5148796.325 4
        23.800          24.200
  20673763.993    20673763.171    20673761.582   -24534363.872 6 -19117676.285 7
        40.900          46.400
  20455273.002    20455272.486    20455269.335   -24763685.224 7 -19296368.445 8
        43.100          48.900
  22917335.682    22917334.293    22917332.584   -11134769.475 5  -8676441.078 5
        31.000          30.200
 09  1  9  0 48  0.0000000  0 10G 9G 6G15G21G14G28G 3G18G22G19
  21716328.536    21716327.844    21716327.186   -16524144.094 5 -12875949.775 5
        34.400          34.300
  23360495.087    23360494.755    23360494.734    -7036445.631 3  -5482941.852 4
        22.600          26.500
  24073661.548    24073661.242    24073660.227    -4066114.859 2  -3168390.594 4
        17.000          24.200
  22455539.968    22455539.292    22455537.979   -16302633.955 4 -12703344.953 4
        28.600          25.900
  22880268.237    22880267.595    22880266.733   -12358214.039 4  -9629772.915 4
        25.600          26.500
  25462541.209    25462541.331    25462544.099     -625466.299     -487376.135 1
         3.000           9.000
  23307635.296    23307634.414    23307634.584    -6537304.776 3  -5094000.336 4
        23.400          24.200
  20680017.817    20680016.982    20680015.218   -24501500.301 6 -19092068.305 7
        41.000          46.300
  20449901.355    20449900.816    20449897.712   -24791913.410 7 -19318364.428 8
        43.200          49.000
  22916127.383    22916125.668    22916123.666   -11141121.142 5  -8681390.419 5
        31.000          30.100
 09  1  9  0 48 30.0000000  0 10G 9G 6G15G21G14G28G 3G18G22G19
  21707428.451    21707427.873    21707427.273   -16570914.076 5 -12912393.905 5
        34.400          34.600
  23374455.300    23374454.590    23374455.175    -6963084.166 3  -5425777.096 4
        22.100          26.500
  24093313.235    24093312.188    24093310.603    -3962850.497 2  -3087924.890 3
        17.800          23.800
  22474209.514    22474208.684    22474207.526   -16204525.386 4 -12626896.736 4
        27.900          26.200
  22861505.751    22861505.194    22861504.487   -12456811.167 4  -9706601.816 4
        25.900          26.800
  25460562.952    25460562.196    25460561.448     -635876.086 1   -495487.743
         9.000           3.000
  23321094.992    23321094.199    23321094.323    -6466573.260 3  -5038884.864 4
        23.400          24.900
  20686344.213    20686343.385    20686341.619   -24468254.906 6 -19066162.799 7
        41.000          46.100
  20444603.376    20444602.861    20444599.731   -24819754.248 7 -19340058.582 8
        43.200          49.100
  22915033.588    22915031.686    22915029.452   -11146871.703 5  -8685871.375 5
        31.300          30.200
 09  1  9  0 49  0.0000000  0 10G 9G 6G15G21G14G28G 3G18G22G19
  21698653.695    21698653.112    21698652.291   -16617025.955 5 -12948325.221 5
        34.500          34.500
  23388480.955    23388480.037    23388480.364    -6889378.804 3  -5368344.362 4
        22.100          25.300
  24112991.695    24112990.924    24112988.388    -3859441.618 3  -3007346.543 3
        18.600          23.400
  22492936.723    22492935.502    22492934.283   -16106115.352 4 -12550213.624 4
        27.600          26.200
  22842792.747    22842791.740    22842790.890   -12555151.890 4  -9783230.928 4
        26.800          27.400
  25458677.435    25458675.580    25458676.822     -645780.259     -503205.371
         3.000           3.000
  23334630.495    23334629.388    23334629.193    -6395445.456 3  -4983460.612 4
        23.000          24.600
  20692740.966    20692740.172    20692738.410   -24434639.337 6 -19039968.844 7
        41.000          46.000
  20439377.216    20439376.698    20439373.559   -24847218.103 7 -19361458.982 8
        43.300          49.200
  22914051.376    22914049.624    22914047.530   -11152031.868 5  -8689892.284 5
        31.600          30.600
 09  1  9  0 49 30.0000000  0 10G 9G 6G15G21G14G28G 3G18G22G19
  21690004.660    21690004.041    21690003.388   -16662476.334 5 -12983741.094 5
        34.400          34.800
  23402571.635    23402571.407    23402571.044    -6815330.759 3  -5310644.585 4
        22.600          24.600
  24132696.329    24132695.783    24132693.839    -3755888.600 3  -2926655.888 3
        18.600          23.400
  22511720.732    22511719.724    22511718.046   -16007404.447 4 -12473296.063 4
        27.900          25.300
  22824128.292    22824127.477    22824126.848   -12653232.877 4  -9859657.660 4
        26.800          27.600
  25456888.106    25456888.364    25456887.107     -655176.759 1   -510527.297
         6.500           3.000
  23348240.527    23348239.229    23348239.226    -6323922.980 3  -4927728.821 3
        22.100          23.800
  20699208.493    20699207.655    20699205.883   -24400652.690 6 -19013485.739 7
        41.000          45.900
  20434223.100    20434222.580    20434219.379   -24874303.366 7 -19382564.378 8
        43.400          49.300
  22913182.216    22913180.495    22913178.730   -11156600.154 5  -8693451.985 5
        32.100          31.300
 09  1  9  0 50  0.0000000  0 10G 9G 6G15G21G14G28G 3G18G22G19
  21681482.079    21681481.338    21681480.787   -16707264.141 5 -13018640.670 5
        34.700          35.200
  23416727.203    23416726.486    23416726.478    -6740944.040 3  -5252680.907 4
        22.600          24.200
  24152428.359    24152428.116    24152425.877    -3652194.924 3  -2845855.625 3
        19.900          23.400
  22530561.342    22530560.647    22530558.807   -15908395.843 4 -12396146.523 4
        27.900          24.900
  22805513.339    22805512.477    22805512.014   -12751053.796 4  -9935881.720 4
        26.500          27.400
  25455197.975    25455197.094    25455198.246     -664066.439 1   -517454.254 1
         9.000           9.000
  23361925.515    23361924.520    23361924.139    -6252009.331 3  -4871692.214 4
        23.000          24.200
  20705746.272    20705745.459    20705743.675   -24366296.151 6 -18986714.406 7
        41.100          45.700
  20429140.775    20429140.226    20429137.095   -24901010.907 7 -19403375.444 8
        43.400          49.400
  22912425.170    22912423.446    22912421.342   -11160577.743 5  -8696551.407 5
        32.000          30.800
 09  1  9  0 50 30.0000000  0 10G 9G 6G15G21G14G28G 3G18G22G19
  21673085.505    21673084.899    21673084.094   -16751387.175 5 -13053022.246 5
        34.600          34.700
  23430946.618    23430945.774    23430945.732    -6666221.417 3  -5194455.496 3
        22.600          23.800
  24172187.472    24172186.632    24172184.101    -3548362.962 3  -2764947.598 3
        19.300          22.600
  22549457.938    22549457.122    22549455.768   -15809091.672 4 -12318766.663 4
        27.400          24.900
  22786948.394    22786947.561    22786946.848   -12848613.234 4 -10011902.036 4
        26.800          27.100
  25453602.582    25453602.856    25453601.313     -672449.048 1   -523986.199 1
         6.500           9.000
  23375684.219    23375683.083    23375682.954    -6179707.873 3  -4815353.415 4
        23.000          24.900
  20712354.322    20712353.509    20712351.722   -24331570.866 6 -18959655.738 7
        41.100          45.600
  20424130.657    20424130.102    20424126.881   -24927339.571 7 -19423891.280 8
        43.400          49.400
  22911780.692    22911778.814    22911776.711   -11163965.093 5  -8699190.899 5
        31.600          30.200
 09  1  9  0 51  0.0000000  0 10G 9G 6G15G21G14G28G 3G18G22G19
  21664816.155    21664815.443    21664814.886   -16794843.657 5 -13086884.431 5
        34.700          35.100
  23445229.399    23445228.560    23445228.414    -6591165.472 3  -5135970.352 4
        22.100          24.200
  24191971.008    24191970.690    24191968.971    -3444394.382 2  -2683933.128 3
        17.800          22.600
  22568410.308    22568410.055    22568408.714   -15709493.968 4 -12241158.090 4
        27.400          24.900
  22768433.623    22768432.992    22768432.136   -12945908.865 4 -10087716.794 4
        27.400          27.600
  25452104.413    25452103.070    25452103.239     -680323.952     -530122.400 1
         3.000           6.500
  23389515.456    23389514.586    23389514.706    -6107021.198 3  -4758714.454 4
        22.100          24.600
  20719032.469    20719031.672    20719029.890   -24296476.751 6 -18932309.670 7
        41.000          45.600
  20419192.546    20419192.016    20419188.818   -24953289.213 7 -19444111.774 8
        43.600          49.500
  22911248.180    22911246.464    22911244.498   -11166761.960 5  -8701370.272 5
        31.500          30.600
 09  1  9  0 51 30.0000000  0 10G 9G 6G15G21G14G28G 3G18G22G19
  21656675.052    21656674.217    21656673.523   -16837626.045 5 -13120221.347 5
        34.700          35.100
  23459575.566    23459575.093    23459575.214    -6515773.019 3  -5077222.995 3
        22.600          23.400
  24211781.452    24211781.952    24211780.231    -3340285.775 2  -2602809.554 3
        17.800          22.600
  22587420.100    22587419.333    22587418.212   -15609598.874 4 -12163317.778 4
        27.100          24.900
  22749970.913    22749970.106    22749969.088   -13042933.282 4 -10163320.218 4
        27.600          27.600
  25450701.024    25450701.453    25450700.927     -687685.344     -535858.524
                         3.000
  23403421.109    23403420.545    23403420.510    -6033945.853 3  -4701772.631 4
        22.600          24.600
  20725781.726    20725780.987    20725779.259   -24261008.684 6 -18904672.211 7
        41.000          45.400
  20414327.668    20414327.192    20414324.094   -24978853.796 7 -19464032.223 8
        43.600          49.600
  22910829.442    22910827.808    22910825.689   -11168962.775 5  -8703085.186 5
        31.800          30.600
 09  1  9  0 52  0.0000000  0 10G 9G 6G15G21G14G28G 3G18G22G19
  21648662.954    21648662.277    21648661.661   -16879728.797 5 -13153028.675 5
        34.600          35.200
  23473986.478    23473986.082    23473985.938    -6440043.866 3  -5018213.254 3
        22.100          23.000
  24231619.682    24231619.564    24231617.670    -3236036.122 2  -2521576.081 3
        17.800          21.600
  22606486.512    22606485.818    22606484.388   -15509405.639 4 -12085245.154 4
        27.100          24.600
  22731559.989    22731559.523    22731558.375   -13139681.927 4 -10238708.748 4
        27.600          28.100
  25449399.431    25449399.992    25449399.319     -694529.692 1   -541191.789 1
         6.500           6.500
  23417400.807    23417399.947    23417400.382    -5960482.002 3  -4644528.077 4
        22.100          24.900
  20732602.855    20732601.951    20732600.198   -24225164.296 6 -18876741.516 7
        40.900          45.300
  20409536.983    20409536.481    20409533.269   -25004029.495 7 -19483649.647 8
        43.700          49.700
  22910524.800    22910522.812    22910521.089   -11170564.550 5  -8704333.316 5
        31.600          31.100
 09  1  9  0 52 30.0000000  0 10G 9G 6G15G21G14G28G 3G18G22G19
  21640779.192    21640778.429    21640777.969   -16921158.764 5 -13185311.755 5
        34.900          35.400
  23488459.672    23488459.259    23488458.492    -6363989.119 3  -4958949.820 3
        22.600          23.400
  24251482.212    24251482.225    24251480.509    -3131656.120 2  -2440240.998 3
        17.800          21.600
  22625607.284    22625606.529    22625605.210   -15408924.936 4 -12006948.526 4
        27.100          24.600
  22713200.506    22713199.630    22713198.941   -13236161.553 4 -10313887.651 4
        27.900          28.400
  25448193.320    25448194.292    25448191.630     -700865.201 1   -546128.569 1
         9.000          11.000
  23431452.456    23431451.117    23431451.715    -5886641.224 3  -4586989.798 4
        21.600          24.900
  20739493.696    20739492.889    20739491.082   -24188952.294 6 -18848524.370 7
        41.000          45.200
  20404818.785    20404818.268    20404815.082   -25028823.673 7 -19502969.780 8
        43.700          49.700
  22910332.088    22910330.546    22910328.736   -11171575.674 5  -8705121.199 5
        31.600          31.300
 09  1  9  0 53  0.0000000  0 10G 9G 6G15G21G14G28G 3G18G22G19
  21633024.006    21633023.300    21633022.809   -16961912.201 5 -13217067.675 5
        35.100          35.500
  23502993.795    23502993.473    23502992.861    -6287609.669 3  -4899433.364 3
        21.600          23.000
  24271369.618    24271369.884    24271368.213    -3027145.705 2  -2358804.318 3
        17.800          22.100
  22644783.310    22644782.465    22644780.975   -15308156.670 4 -11928427.812 4
        27.100          24.600
  22694893.035    22694892.169    22694891.517   -13332368.380 4 -10388853.978 4
        27.600          28.600
  25447087.471    25447086.964    25447086.504     -706689.873 2   -550667.334 2
        12.600          15.100
  23445575.417    23445574.691    23445574.977    -5812424.451 3  -4529158.574 4
        22.100          24.900
  20746454.852    20746454.029    20746452.170   -24152371.457 6 -18820019.816 7
        41.000          45.000
  20400173.553    20400173.024    20400169.939   -25053234.438 7 -19521991.152 8
        43.700          49.900
  22910252.672    22910250.779    22910248.993   -11171994.835 5  -8705447.818 5
        31.500          31.600
 09  1  9  0 53 30.0000000  0 10G 9G 6G15G21G14G28G 3G18G22G19
  21625398.010    21625397.232    21625396.488   -17001987.702 5 -13248295.328 5
        35.300          35.300
  23517590.195    23517589.295    23517588.822    -6210908.705 3  -4839666.390 4
        21.600          24.200
  24291282.071    24291282.002    24291280.561    -2922507.497 2  -2277268.056 3
        17.000          22.100
  22664013.133    22664012.254    22664010.838   -15207104.152 4 -11849685.610 4
        27.100          24.600
  22676637.400    22676636.525    22676635.861   -13428301.582 4 -10463607.098 4
        27.900          28.400
  25446074.470    25446074.996    25446074.738     -712004.024 1   -554808.191 1
         6.500           9.000
  23459769.121    23459768.530    23459768.289    -5737834.636 3  -4471036.636 4
        21.600          24.200
  20753485.854    20753485.033    20753483.359   -24115422.578 6 -18791228.481 7
        40.900          45.000
  20395601.214    20395600.704    20395597.640   -25077262.017 7 -19540713.936 8
        43.800          50.000
  22910285.177    22910283.503    22910281.809   -11171822.914 5  -8705313.849 5
        31.500          31.800
 09  1  9  0 54  0.0000000  0 10G 9G 6G15G21G14G28G 3G18G22G19
  21617902.415    21617901.753    21617901.174   -17041376.344 5 -13278987.768 5
        35.200          35.400
  23532247.619    23532246.828    23532246.625    -6133881.966 3  -4779645.563 4
        20.500          24.200
  24311219.091    24311219.860    24311217.906    -2817736.629 2  -2195628.443 3
        16.100          22.100
  22683297.582    22683296.898    22683295.863   -15105761.653 4 -11770717.454 4
        26.200          25.300
  22658435.572    22658434.631    22658434.066   -13523952.289 4 -10538140.091 4
        27.900          28.400
  25445163.318    25445162.873    25445162.046     -716800.138 1   -558545.439 1
         6.500           6.500
  23474035.111    23474034.077    23474034.380    -5662867.513 3  -4412620.710 3
        21.600          23.800
  20760588.260    20760587.459    20760585.665   -24078099.182 6 -18762145.314 7
        40.900          44.800
  20391103.421    20391102.856    20391099.750   -25100898.650 7 -19559132.091 8
        43.800          50.100
  22910431.966    22910430.266    22910428.348   -11171052.359 5  -8704713.414 5
        31.800          31.600
 09  1  9  0 54 30.0000000  0 10G 9G 6G15G21G14G28G 3G18G22G19
  21610537.166    21610536.642    21610535.926   -17080081.083 5 -13309147.299 5
        35.300          35.400
  23546965.517    23546965.183    23546965.240    -6056536.847 3  -4719376.673 4
        20.500          25.300
  24331180.904    24331180.953    24331179.479    -2712840.066 2  -2113890.885 3
        17.000          22.100
  22702636.253    22702635.552    22702634.297   -15004136.090 4 -11691528.732 4
        25.900          24.900
  22640286.766    22640286.134    22640285.343   -13619323.657 4 -10612455.414 4
        28.100          28.600
  25444349.465    25444348.182    25444347.561     -721082.863     -561882.781
         3.000           3.000
  23488370.852    23488370.029    23488370.273    -5587530.891 3  -4353916.835 3
        21.600          23.000
  20767760.939    20767760.158    20767758.359   -24040406.639 6 -18732774.500 7
        41.000          44.700
  20386679.149    20386678.582    20386675.413   -25124148.493 7 -19577248.846 8
        43.900          50.200
  22910691.316    22910689.515    22910687.449   -11169688.397 5  -8703650.576 5
        31.600          30.600
 09  1  9  0 55  0.0000000  0 10G 9G 6G15G21G14G28G 3G18G22G19
  21603303.321    21603302.687    21603302.112   -17118094.808 5 -13338768.381 5
        34.900          35.400
  23561745.316    23561744.350    23561744.974    -5978870.965 3  -4658857.809 4
        22.100          25.600
  24351167.053    24351166.811    24351165.786    -2607814.220 2  -2032052.591 3
        17.000          21.600
  22722030.033    22722029.079    22722027.450   -14902224.815 4 -11612117.371 4
        26.500          24.900
  22622192.893    22622192.155    22622191.272   -13714408.712 4 -10686547.640 4
        28.800          28.800
  25443631.917    25443630.192    25443632.304     -724846.834     -564815.900
         3.000           3.000
  23502777.452    23502776.805    23502777.612    -5511822.312 3  -4294923.140 3
        20.500          23.000
  20775004.973    20775004.043    20775002.240   -24002340.119 6 -18703112.275 7
        41.000          44.700
  20382329.559    20382329.025    20382325.803   -25147005.940 7 -19595059.841 8
        43.900          50.200
  22911064.890    22911063.070    22911060.993   -11167726.199 5  -8702121.587 5
        31.300          30.800
 09  1  9  0 55 30.0000000  0 10G 9G 6G15G21G14G28G 3G18G22G19
  21596198.928    21596198.321    21596197.759   -17155428.800 5 -13367859.794 5
        35.100          35.400
  23576582.104    23576581.703    23576582.120    -5900899.707 3  -4598100.999 4
        21.100          24.900
  24371174.070    24371174.074    24371173.104    -2502674.119 2  -1950125.260 3
        16.100          21.100
  22741474.416    22741473.522    22741472.077   -14800042.382 4 -11532494.724 4
        25.600          24.600
  22604151.429    22604150.720    22604149.377   -13809218.464 4 -10760425.350 4
        29.000          28.600
  25443010.655    25443009.575    25443009.434     -728104.625     -567354.406
                         3.000
  23517253.277    23517252.205    23517251.990    -5435757.494 3  -4235651.863 3
        21.100          23.000
  20782317.406    20782316.589    20782314.817   -23963912.608 6 -18673168.757 7
        41.100          44.700
  20378052.296    20378051.683    20378048.548   -25169483.125 7 -19612574.528 8
        43.800          50.300
  22911549.605    22911547.937    22911546.018   -11165178.783 5  -8700136.593 5
        31.800          31.300
 09  1  9  0 56  0.0000000  0 10G 9G 6G15G21G14G28G 3G18G22G19
  21589225.225    21589224.532    21589223.779   -17192076.599 5 -13396416.511 5
        35.400          35.400
  23591478.663    23591477.832    23591477.762    -5822621.246 3  -4537104.808 4
        21.100          24.600
  24391203.716    24391203.694    24391202.588    -2397417.224 2  -1868106.920 3
        16.100          20.500
  22760971.363    22760970.276    22760968.693   -14697586.187 4 -11452658.753 4
        25.300          24.200
  22586163.411    22586162.583    22586161.373   -13903746.714 4 -10834083.707 4
        28.800          29.000
  25442489.838    25442489.568    25442486.985     -730851.371     -569494.824
         3.000           3.000
  23531795.274    23531794.504    23531794.497    -5359334.732 3  -4176101.654 3
        21.100          22.600
  20789699.316    20789698.475    20789696.729   -23925120.053 6 -18642940.790 7
        41.000          44.500
  20373848.372    20373847.793    20373844.675   -25191574.628 7 -19629788.683 8
        43.800          50.400
  22912146.589    22912144.754    22912142.951   -11162041.760 5  -8697692.152 5
        31.800          31.600
 09  1  9  0 56 30.0000000  0 10G 9G 6G15G21G14G28G 3G18G22G19
  21582382.332    21582381.621    21582380.855   -17228036.247 5 -13424437.007 5
        35.300          35.500
  23606432.239    23606431.583    23606431.786    -5744038.495 3  -4475871.497 4
        21.100          24.200
  24411256.053    24411255.573    24411253.760    -2292045.444 2  -1785999.077 3
        17.000          19.300
  22780519.392    22780518.253    22780517.059   -14594858.660 4 -11372611.356 3
        24.600          23.400
  22568229.370    22568228.494    22568226.953   -13997991.808 4 -10907521.417 4
        29.500          29.000
  25442063.875    25442063.027    25442061.803     -733087.114 1   -571236.967 1
         9.000           6.500
  23546406.012    23546405.256    23546405.099    -5282557.281 3  -4116275.076 3
        22.100          23.000
  20797150.539    20797149.762    20797148.011   -23885963.311 6 -18612429.043 7
        41.000          44.400
  20369717.815    20369717.308    20369714.216   -25213280.297 7 -19646702.188 8
        43.900          50.500
  22912855.630    22912853.854    22912851.680   -11158315.619 5  -8694788.658 5
        31.800          31.300
 09  1  9  0 57  0.0000000  0 10G 9G 6G15G21G14G28G 3G18G22G19
  21575672.031    21575671.332    21575670.791   -17263297.741 5 -13451913.486 5
        35.100          35.300
  23621444.983    23621444.511    23621444.539    -5665145.502 3  -4414396.438 3
        21.100          23.400
  24431331.723    24431330.914    24431328.402    -2186552.198 2  -1703796.586 3
        17.800          19.300
  22800120.553    22800119.849    22800118.228   -14491853.214 4 -11292347.399 3
        24.900          22.600
  22550350.590    22550349.908    22550348.746   -14091943.477 4 -10980730.494 4
        29.700          29.200
  25441736.857    25441735.424    25441735.988     -734803.161 1   -572574.127 1
         9.000          11.000
  23561084.678    23561083.667    23561084.025    -5205419.317 3  -4056167.567 3
        21.600          23.000
  20804672.678    20804671.843    20804670.052   -23846434.428 6 -18581627.314 7
        41.000          44.200
  20365662.544    20365661.977    20365658.833   -25234591.465 7 -19663308.288 8
        44.000          50.600
  22913678.114    22913676.763    22913674.592   -11153992.202 5  -8691419.763 5
        31.800          31.300
 09  1  9  0 57 30.0000000  0 10G 9G 6G15G21G14G28G 3G18G22G19
  21569092.707    21569092.064    21569091.669   -17297872.451 5 -13478854.816 5
        35.200          35.600
  23636513.547    23636512.989    23636513.124    -5585958.465 3  -4352692.243 3
        19.300          22.100
  24451426.081    24451425.660    24451423.311    -2080952.920 2  -1621511.460 3
        17.800          18.600
  22819771.525    22819770.898    22819769.032   -14388585.198 4 -11211878.823 3
        25.300          22.600
  22532525.844    22532525.198    22532524.023   -14185613.392 4 -11053720.019 4
        29.500          29.500
  25441508.280    25441506.569    25441505.872     -736012.390 1   -573516.372 1
        11.000           6.500
  23575829.287    23575828.586    23575828.401    -5127936.465 3  -3995791.316 3
        22.600          23.000
  20812262.928    20812262.170    20812260.373   -23806546.771 6 -18550546.020 7
        41.100          44.100
  20361679.716    20361679.155    20361676.031   -25255521.310 7 -19679617.255 8
        44.000          50.600
  22914611.745    22914610.239    22914608.240   -11149084.863 5  -8687595.866 5
        31.500          31.000
 09  1  9  0 58  0.0000000  0 10G 9G 6G15G21G14G28G 3G18G22G19
  21562646.513    21562645.873    21562645.193   -17331747.825 5 -13505251.204 5
        35.500          35.500
  23651640.062    23651639.429    23651639.438    -5506468.660 3  -4290752.143 3
        18.600          21.600
  24471541.867    24471542.595    24471540.059    -1975238.272 2  -1539136.454 3
        17.000          19.300
  22839474.820    22839474.207    22839472.251   -14285045.731 4 -11131198.730 3
        25.300          23.000
  22514756.974    22514756.165    22514755.030   -14278988.700 4 -11126479.979 4
        29.500          29.000
  25441376.240    25441375.822    25441374.647     -736703.502 1   -574054.879
         9.000           3.000
  23590640.887    23590640.252    23590639.963    -5050100.497 3  -3935139.921 3
        22.600          23.800
  20819923.641    20819922.835    20819921.005   -23766289.882 6 -18519177.014 7
        41.100          44.000
  20357771.828    20357771.242    20357768.150   -25276057.143 7 -19695619.198 8
        43.900          50.700
  22915658.915    22915657.407    22915655.434   -11143582.727 5  -8683308.483 5
        31.300          31.000
 09  1  9  0 58 30.0000000  0 10G 9G 6G15G21G14G28G 3G18G22G19
  21556332.434    21556331.765    21556331.177   -17364927.735 5 -13531105.665 5
        35.300          35.200
  23666822.583    23666822.335    23666821.533    -5426684.715 3  -4228582.841 3
        19.900          21.600
  24491678.611    24491680.043    24491677.181    -1869416.117 2  -1456677.652 3
        15.100          19.900
  22859228.400    22859227.361    22859225.432   -14181242.590 4 -11050313.186 3
        24.200          23.400
  22497043.523    22497042.787    22497041.615   -14372073.350 4 -11199013.464 4
        29.700          29.000
  25441339.771    25441343.073    25441341.573     -736882.584     -574194.403 1
         3.000           6.500
  23605517.625    23605516.996    23605517.139    -4971920.590 3  -3874220.532 3
        22.100          23.400
  20827653.397    20827652.540    20827650.811   -23725669.852 6 -18487525.043 7
        41.100          43.900
  20353937.867    20353937.320    20353934.311   -25296204.270 7 -19711318.255 8
        43.900          50.700
  22916817.798    22916816.074    22916814.320   -11137492.105 5  -8678562.536 5
        31.000          30.200
 09  1  9  0 59  0.0000000  0 10G 9G 6G15G21G14G28G 3G18G22G19
  21550150.715    21550149.991    21550149.278   -17397413.663 5 -13556419.368 5
        35.300          35.300
  23682059.842    23682059.264    23682059.460    -5346612.028 3  -4166188.547 3
        19.900          22.100
  24511834.889    24511836.093    24511834.303    -1763490.904 2  -1374138.533 3
        15.100          19.900
  22879030.793    22879029.615    22879028.021   -14077180.651 4 -10969225.990 3
        24.200          23.400
  22479385.432    22479384.669    22479383.447   -14464868.290 5 -11271321.194 4
        30.100          29.500
  25441403.372    25441400.722    25441402.119     -736552.206     -573936.970
                         3.000
  23620459.480    23620458.873    23620458.961    -4893401.657 3  -3813036.950 3
        22.100          23.400
  20835451.691    20835450.897    20835449.012   -23684689.732 6 -18455592.479 7
        41.100          43.700
  20350177.593    20350177.079    20350173.892   -25315965.068 7 -19726716.275 8
        44.000          50.700
  22918088.402    22918086.742    22918084.498   -11130816.021 5  -8673360.381 5
        31.100          30.200
 09  1  9  0 59 30.0000000  0 10G 9G 6G15G21G14G28G 3G18G22G19
  21544102.203    21544101.548    21544100.937   -17429198.849 5 -13581187.042 5
        35.600          35.600
  23697352.813    23697352.491    23697352.028    -5266248.479 3  -4103567.609 3
        20.500          22.100
  24532012.453    24532013.109    24532011.713    -1657459.763 2  -1291516.882 3
        15.100          21.100
  22898882.493    22898881.589    22898880.189   -13972856.847 4 -10887934.741 3
        24.200          23.000
  22461783.268    22461782.502    22461781.492   -14557367.204 4 -11343398.251 4
        29.900          29.900
  25441563.865    25441563.069    25441563.203     -735707.064     -573280.307
                         3.000
  23635466.767    23635465.654    23635465.418    -4814541.845 3  -3751587.767 3
        21.600          23.800
  20843319.432    20843318.554    20843316.544   -23643345.190 6 -18423375.951 7
        41.000          43.600
  20346491.796    20346491.264    20346488.117   -25335334.005 7 -19741808.952 8
        44.000          50.800
  22919471.148    22919469.390    22919467.234   -11123549.826 5  -8667698.406 5
        31.300          30.400
                            4 15
RINEX FILE SPLICE                                           COMMENT
teqc  2008Oct2      WCDA Operator       20090109 02:18:14UTCCOMMENT
STATION INFORMATION EFFECTIVE FROM: 2001/01/13 18:20:00     COMMENT
                                TO: CURRENT DATE (above)    COMMENT
BIT 2 OF LLI FLAGS (+4) DATA COLLECTED UNDER 'AS' CONDITION COMMENT
L1 PHASE CENTRE 0.110m ABOVE ARP                            COMMENT
L2 PHASE CENTRE 0.128m ABOVE ARP                            COMMENT
where ARP is the Antenna Reference Point for HI measurement COMMENT
CONTACT gps@pgc.nrcan.gc.ca FOR ADDITIONAL INFORMATION      COMMENT
    P1 =    P1  TurboRogue; =    Y1  Benchmark              COMMENT
    L1 = L1(CA)                                             COMMENT
    P2 =    P2  TurboRogue; =    Y2  Benchmark              COMMENT
    L2 = L2(P2) TurboRogue; = L2(Y2) Benchmark              COMMENT
 SNR is mapped to RINEX snr flag value [0-9]                COMMENT
  L1 & L2: min(max(int(snr_dBHz/6), 0), 9)                  COMMENT
 09  1  9  1  0  0.0000000  0 10G 9G 6G15G21G14G28G 3G18G22G19
  21538187.096    21538186.451    21538185.922   -17460281.935 5 -13605407.616 5
        35.400          35.600
  23712699.849    23712699.855    23712698.977    -5185596.962 3  -4040722.279 3
        20.500          22.100
  24552209.995    24552210.560    24552208.867    -1551324.425 2  -1208814.076 3
        15.100          20.500
  22918783.835    22918783.136    22918782.126   -13868273.780 4 -10806441.464 3
        24.200          23.800
  22444237.594    22444236.971    22444236.184   -14649568.340 4 -11415243.275 5
        29.900          30.100
  25441824.705    25441824.225    25441823.374     -734347.579 1   -572220.965
         6.500           3.000
  23650537.483    23650536.628    23650536.152    -4735344.187 3  -3689875.310 3
        21.100          23.400
  20851256.112    20851255.266    20851253.476   -23601636.832 6 -18390875.928 7
        41.000          43.600
  20342880.670    20342880.142    20342877.018   -25354310.450 7 -19756595.788 8
        44.100          50.800
  22920966.123    22920964.157    22920962.428   -11115694.586 5  -8661577.440 5
        31.100          31.100
 09  1  9  1  0 30.0000000  0 10G 9G 6G15G21G14G28G 3G18G22G19
  21532407.029    21532406.379    21532405.333   -17490658.204 5 -13629077.429 5
        35.800          35.300
  23728102.917    23728102.370    23728101.584    -5104656.975 3  -3977652.168 3
        22.600          23.000
  24572426.919    24572426.804    24572425.696    -1445083.924 2  -1126029.329 3
        13.900          21.600
  22938734.940    22938734.058    22938733.324   -13763430.179 3 -10724745.185 3
        23.800          23.000
  22426749.946    22426749.334    22426748.444   -14741467.013 5 -11486852.611 5
        30.200          30.200
  25442182.797    25442181.990    25442181.438     -732470.491 1   -570758.390 1
         6.500           6.500
  23665671.696    23665671.060    23665671.871    -4655808.378 3  -3627899.369 3
        19.300          23.800
  20859262.668    20859261.815    20859260.010   -23559562.216 6 -18358090.510 7
        41.000          43.500
  20339345.004    20339344.441    20339341.177   -25372891.155 7 -19771074.256 8
        44.100          50.800
  22922573.254    22922571.669    22922569.850   -11107247.119 5  -8654994.985 5
        31.100          31.300
 09  1  9  1  1  0.0000000  0 10G 9G 6G15G21G14G28G 3G18G22G19
  21526761.173    21526760.466    21526759.764   -17520326.916 5 -13652195.903 5
        35.700          35.600
  23743558.753    23743558.457    23743558.285    -5023432.212 3  -3914360.147 3
        22.100          23.000
  24592662.476    24592663.628    24592662.744    -1338741.231 2  -1043164.958 3
        13.900          22.100
  22958735.079    22958734.236    22958733.257   -13658328.983 3 -10642848.173 3
        23.800          22.600
  22409320.125    22409319.464    22409318.314   -14833062.293 5 -11558225.546 5
        30.400          30.100
  25442634.893    25442632.376    25442636.607     -730076.603     -568893.028 1
                         6.500
  23680870.706    23680869.793    23680870.535    -4575938.067 3  -3565662.789 3
        20.500          23.400
  20867338.748    20867337.824    20867335.964   -23517122.495 6 -18325020.597 7
        41.000          43.300
  20335884.261    20335883.745    20335880.657   -25391076.547 7 -19785244.690 8
        44.100          50.800
  22924293.474    22924291.940    22924290.016   -11098208.759 5  -8647952.098 5
        31.600          31.600
 09  1  9  1  1 30.0000000  0 10G 9G 6G15G21G14G28G 3G18G22G19
  21521249.372    21521248.589    21521248.053   -17549291.690 5 -13674765.845 5
        35.600          35.600
  23759068.662    23759068.035    23759067.882    -4941930.465 3  -3850852.294 3
        21.100          23.800
  24612917.242    24612917.610    24612916.980    -1232303.017 2   -960226.131 3
        13.900          22.600
  22978783.105    22978781.860    22978780.859   -13552977.621 4 -10560756.221 3
        24.200          22.600
  22391946.909    22391946.275    22391945.364   -14924357.626 5 -11629364.758 5
        30.400          30.200
  25443190.020    25443189.235    25443189.354     -727170.989     -566628.859 1
         3.000           9.000
  23696132.190    23696131.316    23696131.334    -4495741.473 3  -3503171.929 3
        20.500          23.000
  20875483.065    20875482.228    20875480.532   -23474323.065 6 -18291670.387 7
        41.000          43.300
  20332498.098    20332497.591    20332494.466   -25408870.968 7 -19799110.467 8
        44.000          50.900
  22926124.991    22926123.126    22926121.174   -11088585.243 5  -8640453.261 5
        31.300          31.500
 09  1  9  1  2  0.0000000  0 10G 9G 6G15G21G14G28G 3G18G22G19
  21515871.850    21515871.168    21515870.586   -17577550.105 5 -13696785.386 5
        35.600          35.600
  23774630.601    23774629.829    23774629.786    -4860153.606 3  -3787130.076 3
        21.100          23.400
  24633189.764    24633191.024    24633189.060    -1125770.265 2   -877213.683 3
        13.900          22.600
  22998878.181    22998877.179    22998875.862   -13447377.253 3 -10478470.249 3
        23.400          21.600
  22374631.617    22374630.891    22374630.165   -15015350.515 5 -11700268.285 5
        30.200          30.600
  25443841.449    25443840.068    25443837.368     -723752.612 1   -563965.116 1
         9.000           9.000
  23711454.714    23711453.884    23711453.780    -4415220.401 3  -3440428.265 3
        20.500          22.100
  20883695.965    20883695.145    20883693.449   -23431163.930 6 -18258039.893 7
        41.000          43.200
  20329186.608    20329186.056    20329182.902   -25426273.125 7 -19812670.587 8
        44.100          50.900
  22928067.282    22928065.622    22928063.754   -11078376.112 5  -8632498.090 5
        31.000          31.500
 09  1  9  1  2 30.0000000  0 10G 9G 6G15G21G14G28G 3G18G22G19
  21510629.633    21510628.846    21510628.123   -17605098.729 5 -13718251.841 5
        35.700          35.500
  23790244.018    23790243.236    23790243.261    -4778101.990 3  -3723193.747 3
        18.600          22.600
  24653480.126    24653481.091    24653480.098    -1019142.569 2   -794127.215 3
        12.600          20.500
  23019020.444    23019019.334    23019018.096   -13341527.408 3 -10395989.874 3
        22.600          20.500
  22357374.657    22357373.943    22357372.998   -15106036.916 5 -11770933.007 5
        30.800          30.600
  25444588.043    25444586.838    25444587.460     -719819.534     -560900.453 1
         3.000          11.000
  23726838.782    23726838.241    23726837.928    -4334375.760 3  -3377432.435 3
        21.100          22.100
  20891977.826    20891976.988    20891975.168   -23387642.916 6 -18224127.414 7
        41.100          43.100
  20325950.284    20325949.752    20325946.610   -25443280.138 7 -19825922.801 8
        44.100          51.000
  22930121.879    22930120.231    22930118.587   -11067580.024 5  -8624085.562 5
        31.500          31.600
 09  1  9  1  3  0.0000000  0 10G 9G 6G15G21G14G28G 3G18G22G19
  21505522.733    21505522.084    21505521.219   -17631935.566 5 -13739163.654 5
        35.900          35.400
  23805909.562    23805908.857    23805908.512    -4695778.053 2  -3659045.271 3
        17.800          22.600
  24673789.463    24673789.398    24673787.523     -912421.347 2   -710967.868 3
        13.900          22.100
  23039209.981    23039209.036    23039207.880   -13235430.147 3 -10313316.708 3
        22.100          20.500
  22340176.160    22340175.500    22340174.665   -15196414.899 5 -11841357.392 5
        31.000          30.600
  25445435.613    25445433.685    25445434.472     -715371.281 1   -557434.175 1
         6.500           6.500
  23742284.613    23742283.548    23742283.286    -4253209.697 3  -3314186.164 3
        21.600          22.600
  20900328.339    20900327.527    20900325.743   -23343760.491 6 -18189933.312 7
        41.100          43.100
  20322789.244    20322788.705    20322785.617   -25459891.314 7 -19838866.572 8
        44.100          51.000
  22932288.055    22932286.643    22932284.481   -11056196.667 5  -8615215.409 5
        32.000          31.300
 09  1  9  1  3 30.0000000  0 10G 9G 6G15G21G14G28G 3G18G22G19
  21500550.698    21500549.960    21500549.305   -17658063.518 5 -13759523.095 5
        35.700          35.300
  23821625.763    23821625.411    23821625.655    -4613188.736 3  -3594689.965 3
        19.300          23.400
  24694115.156    24694114.415    24694113.242     -805612.612 2   -627740.344 3
        15.100          23.400
  23059445.171    23059444.657    23059443.440   -13129091.385 3 -10230455.356 3
        23.000          20.500
  22323035.975    22323035.339    22323034.550   -15286486.874 5 -11911543.335 5
        31.100          30.600
  25446378.521    25446378.836    25446377.590     -710412.080     -553569.694
         3.000
  23757788.643    23757787.961    23757788.855    -4171729.179 3  -3250694.837 3
        21.600          23.400
  20908746.931    20908746.048    20908744.254   -23299520.957 6 -18155460.948 7
        41.100          42.900
  20319703.003    20319702.446    20319699.243   -25476110.113 7 -19851504.594 8
        44.200          51.000
  22934565.380    22934563.591    22934561.359   -11044230.876 5  -8605891.415 5
        32.000          31.300
 09  1  9  1  4  0.0000000  0  9G 9G 6G15G21G14G 3G18G22G19
  21495711.916    21495711.165    21495710.448   -17683491.277 5 -13779336.929 5
        35.600          35.300
  23837389.646    23837388.941    23837390.130    -4530346.696 2  -3530137.741 3
        17.800          23.800
  24714455.345    24714454.577    24714452.433     -698728.407 2   -544454.048 4
        15.100          24.200
  23079724.523    23079723.787    23079722.832   -13022523.533 3 -10147415.489 3
        23.000          20.500
  22305952.374    22305951.722    22305951.109   -15376261.190 5 -11981497.326 5
        31.000          31.000
  23773352.033    23773351.274    23773351.218    -4089947.310 3  -3186968.711 3
        21.100          23.400
  20917231.343    20917230.534    20917228.656   -23254934.899 6 -18120718.564 7
        41.100          42.700
  20316689.405    20316688.907    20316685.801   -25491945.948 7 -19863844.204 8
        44.200          51.100
  22936951.482    22936949.706    22936947.540   -11031693.393 5  -8596121.948 5
        32.300          32.100
 09  1  9  1  4 30.0000000  0 10G 9G 6G28G15G21G14G 3G18G22G19
  21491010.332    21491009.624    21491008.705   -17708199.101 5 -13798589.773 5
        35.900          35.400
  23853204.833    23853204.594    23853205.067    -4447236.159 2  -3465376.300 3
        17.800          23.400
  25448555.159    25448554.480    25448554.571           -.3911           .41811
                        11.000
  24734811.899    24734812.028    24734809.648     -591751.750 2   -461095.682 3
        13.900          23.400
  23100050.030    23100049.598    23100048.892   -12915710.037 3 -10064184.214 3
        22.600          20.500
  22288929.800    22288929.056    22288928.067   -15465717.731 5 -12051203.700 5
        31.300          31.100
  23788975.607    23788974.450    23788973.728    -4007848.419 3  -3122995.569 3
        21.100          23.000
  20925785.308    20925784.444    20925782.419   -23209984.084 6 -18085691.950 7
        41.100          42.500
  20313752.526    20313752.000    20313748.891   -25507379.499 7 -19875870.345 8
        44.200          51.100
  22939449.125    22939447.319    22939445.424   -11018566.101 5  -8585892.894 5
        32.000          32.100
 09  1  9  1  5  0.0000000  0 10G 9G 6G28G15G21G14G 3G18G22G19
  21486445.303    21486444.714    21486444.174   -17732186.137 5 -13817280.972 5
        35.700          35.400
  23869071.999    23869070.984    23869071.330    -4363860.367 3  -3400408.152 3
        19.300          23.400
  25449791.076    25449790.923    25449791.308        6497.081        5063.415 1
                         9.000
  24755187.466    24755186.870    24755184.147     -484685.213 2   -377667.270 3
        13.900          23.000
  23120422.455    23120421.956    23120421.329   -12808653.588 3  -9980763.632 3
        22.100          21.100
  22271967.339    22271966.636    22271965.702   -15554855.283 5 -12120661.519 5
        31.500          31.100
  23804658.017    23804657.056    23804656.422    -3925436.027 3  -3058778.121 3
        21.100          23.000
  20934408.231    20934407.339    20934405.504   -23164669.630 6 -18050381.985 7
        41.000          42.500
  20310892.046    20310891.492    20310888.360   -25522411.498 7 -19887583.587 8
        44.200          51.100
  22942058.894    22942057.260    22942055.437   -11004849.990 5  -8575205.019 5
        31.600          32.000
 09  1  9  1  5 30.0000000  0 10G 9G 6G28G15G21G14G 3G18G22G19
  21482016.823    21482016.112    21482015.483   -17755459.020 6 -13835415.677 5
        36.000          35.400
  23884985.892    23884985.254    23884985.577    -4280230.200 3  -3335241.804 3
        19.300          23.400
  25451126.621    25451125.889    25451123.395       13505.079 1     10524.122
         9.000           3.000
  24775576.359    24775575.635    24775573.689     -377538.462 2   -294176.350 3
        12.600          23.000
  23140839.300    23140838.530    23140837.687   -12701364.445 3  -9897161.732 3
        22.100          21.100
  22255064.382    22255063.640    22255062.844   -15643680.337 5 -12189875.829 5
        31.600          31.300
  23820398.121    23820397.278    23820397.274    -3842720.735 3  -2994324.651 3
        19.300          23.800
  20943098.851    20943097.978    20943096.091   -23119000.082 6 -18014795.324 7
        41.000          42.300
  20308106.609    20308106.096    20308102.830   -25537049.303 7 -19898989.665 8
        44.400          51.100
  22944779.424    22944777.848    22944776.013   -10990554.376 5  -8564065.585 5
        31.600          32.400
 09  1  9  1  6  0.0000000  0 10G 9G 6G28G15G21G14G 3G18G22G19
  21477724.178    21477723.509    21477722.603   -17778017.559 6 -13852993.754 5
        36.200          35.100
  23900948.451    23900947.565    23900947.470    -4196349.178 3  -3269879.979 3
        19.300          23.400
  25452555.218    25452554.227    25452555.273       21022.500 1     16381.862 1
         6.500           9.000
  24795979.267    24795979.307    24795978.523     -270314.106 1   -210625.006 3
        11.000          21.600
  23161299.944    23161299.120    23161297.928   -12593845.513 3  -9813380.762 3
        23.000          22.100
  22238221.000    22238220.467    22238219.526   -15732192.017 5 -12258845.959 5
        32.000          31.300
  23836195.014    23836193.749    23836194.282    -3759706.427 3  -2929638.187 4
        18.600          24.200
  20951856.763    20951855.905    20951853.991   -23072976.899 6 -17978933.102 7
        41.100          42.200
  20305396.111    20305395.589    20305392.346   -25551293.035 7 -19910088.674 8
        44.400          51.100
  22947609.346    22947607.859    22947606.209   -10975680.334 5  -8552475.419 5
        31.500          32.000
 09  1  9  1  6 30.0000000  0 10G 9G 6G28G15G21G14G 3G18G22G19
  21473568.221    21473567.495    21473566.821   -17799857.124 6 -13870011.592 5
        36.100          35.400
  23916958.208    23916957.490    23916957.262    -4112216.672 3  -3204322.187 3
        19.900          23.400
  25454083.517    25454084.302    25454082.229       29052.246       22638.898 1
                         9.000
  24816396.941    24816398.110    24816396.061     -163010.547 1   -127011.916 2
         6.500          17.000
  23181804.581    23181803.549    23181802.028   -12486095.346 3  -9729419.624 3
        22.600          21.600
  22221438.549    22221437.816    22221436.968   -15820385.164 5 -12327567.875 5
        32.000          31.500
  23852049.022    23852048.046    23852048.461    -3676392.364 2  -2864718.161 3
        17.800          23.800
  20960682.695    20960681.834    20960679.841   -23026596.846 6 -17942792.796 7
        41.100          42.100
  20302761.330    20302760.791    20302757.624   -25565138.808 7 -19920877.587 8
        44.400          51.200
  22950550.942    22950549.167    22950547.234   -10960225.355 5  -8540432.592 5
        31.800          31.800
 09  1  9  1  7  0.0000000  0 10G 9G 6G28G15G21G14G 3G18G22G19
  21469550.243    21469549.546    21469548.806   -17820972.761 6 -13886465.331 5
        36.500          35.600
  23933015.323    23933014.960    23933014.826    -4027831.743 3  -3138567.713 3
        19.300          22.600
  25455710.456    25455710.041    25455708.873       37598.205       29297.978 1
         3.000           6.500
  24836830.648    24836832.659    24836831.410      -55625.919 1    -43335.682 2
         6.500          15.100
  23202352.950    23202351.950    23202350.449   -12378112.567 3  -9645277.234 3
        22.100          21.100
  22204717.745    22204716.971    22204715.980   -15908254.452 5 -12396037.427 5
        32.100          31.800
  23867960.778    23867959.424    23867959.850    -3592777.477 2  -2799563.701 3
        16.100          23.000
  20969576.894    20969576.027    20969574.170   -22979856.845 6 -17906372.016 7
        41.000          42.000
  20300203.103    20300202.527    20300199.359   -25578582.394 7 -19931353.106 8
        44.400          51.200
  22953602.920    22953601.308    22953599.571   -10944186.206 5  -8527934.551 5
        31.600          31.800
 09  1  9  1  7 30.0000000  0  9G 9G 6G28G21G14G 3G18G22G19
  21465668.709    21465667.983    21465667.295   -17841369.535 6 -13902358.920 5
        36.400          35.500
  23949120.467    23949119.444    23949118.937    -3943203.361 2  -3072623.539 3
        17.800          22.600
  25457431.655    25457431.723    25457432.567       46653.826       36354.232 1
                         6.500
  23222943.816    23222942.866    23222941.662   -12269905.479 3  -9560960.038 3
        21.100          19.900
  22188057.696    22188056.849    22188055.649   -15995805.041 5 -12464258.653 5
        32.600          32.000
  23883926.669    23883926.187    23883926.124    -3508871.661 2  -2734182.571 3
        16.100          21.600
  20978538.321    20978537.525    20978535.749   -22932763.915 6 -17869676.224 7
        41.000          42.000
  20297720.452    20297719.862    20297716.644   -25591629.279 7 -19941519.509 8
        44.500          51.200
  22956764.732    22956762.950    22956760.928   -10927569.816 5  -8514986.715 5
        30.800          31.100
 09  1  9  1  8  0.0000000  0  9G 6G28G 9G21G14G 3G18G22G19
  23965268.364    23965267.386    23965268.396    -3858341.333 2  -3006497.319 3
        17.000          22.100
  25459252.883    25459252.517    25459250.433       56211.926       43802.227 1
         3.000           6.500
  21461922.987    21461922.304    21461921.573   -17861053.361 6 -13917696.962 5
        36.500          35.400
  23243575.800    23243575.233    23243573.694   -12161483.400 3  -9476475.331 3
        21.600          19.900
  22171456.645    22171455.963    22171455.030   -16083041.705 5 -12532235.256 5
        32.300          32.000
  23899947.132    23899946.451    23899946.498    -3424684.662 2  -2668582.338 3
        16.100          20.500
  20987565.682    20987564.849    20987562.980   -22885325.445 6 -17832711.184 6
        41.100          41.900
  20295311.791    20295311.268    20295308.055   -25604286.559 7 -19951382.321 8
        44.500          51.300
  22960035.455    22960033.518    22960031.382   -10910384.120 5  -8501595.270 5
        30.400          30.800
 09  1  9  1  8 30.0000000  0  9G 6G28G 9G21G14G 3G18G22G19
  23981463.582    23981462.618    23981462.943    -3773238.502 2  -2940183.446 3
        17.000          21.100
  25461168.586    25461169.092    25461167.267       66281.914 1     51648.942 1
         9.000           9.000
  21458314.833    21458314.121    21458313.502   -17880013.977 6 -13932471.462 5
        36.300          35.600
  23264250.170    23264249.143    23264247.594   -12052838.485 3  -9391816.985 3
        21.100          19.300
  22154917.954    22154917.369    22154916.127   -16169953.433 5 -12599958.666 5
        32.700          32.300
  23916021.714    23916020.965    23916021.402    -3340209.536 2  -2602757.584 3
        15.100          19.300
  20996660.354    20996659.568    20996657.766   -22837532.068 6 -17795469.589 6
        41.100          41.800
  20292979.262    20292978.732    20292975.531   -25616543.808 7 -19960933.425 8
        44.500          51.300
  22963415.765    22963414.025    22963411.958   -10892620.402 5  -8487753.409 5
        31.100          31.000
 09  1  9  1  9  0.0000000  0 10G 6G28G 9G15G21G14G 3G18G22G19
  23997705.585    23997704.946    23997704.716    -3687884.970 3  -2873674.206 3
        18.600          19.900
  25463183.273    25463182.751    25463184.218       76876.155       59904.120 1
         3.000          11.000
  21454846.941    21454846.323    21454845.789   -17898236.906 6 -13946671.142 5
        36.200          35.500
  24918708.063    24918707.792    24918706.195           -.97111         -.91212
         6.500          15.100
  23284968.643    23284968.104    23284966.614   -11943959.686 3  -9306976.388 3
        21.100          19.300
  22138443.985    22138443.138    22138442.241   -16256525.504 5 -12667417.412 5
        32.600          32.400
  23932154.428    23932153.839    23932153.374    -3255436.613 2  -2536700.754 3
        17.800          18.600
  21005825.091    21005824.214    21005822.391   -22789371.457 6 -17757941.834 6
        41.000          41.700
  20290725.466    20290724.926    20290721.775   -25628387.534 7 -19970162.300 8
        44.500          51.300
  22966908.201    22966906.536    22966904.556   -10874266.467 5  -8473451.647 5
        30.600          30.800
 09  1  9  1  9 30.0000000  0 10G 6G28G 9G15G21G14G 3G18G22G19
  24013989.884    24013989.229    24013989.309    -3602307.452 2  -2806990.445 3
        17.000          19.300
  25465292.551    25465291.388    25465295.109       87970.747       68549.207 1
                         6.500
  21451515.653    21451514.888    21451513.976   -17915745.112 6 -13960313.893 5
        36.600          35.400
  24939209.243    24939209.793    24939207.602      107734.893 1     83949.092 2
         9.000          13.900
  23305727.897    23305726.762    23305725.130   -11834873.721 3  -9221974.360 3
        21.600          19.900
  22122030.198    22122029.403    22122028.518   -16342780.490 5 -12734629.072 5
        32.700          32.600
  23948337.487    23948336.596    23948336.690    -3170392.042 2  -2470432.251 2
        17.000          17.800
  21015055.018    21015054.114    21015052.353   -22740868.037 6 -17720146.962 6
        40.800          41.600
  20288545.970    20288545.439    20288542.164   -25639841.328 7 -19979087.333 8
        44.600          51.400
  22970508.374    22970506.631    22970504.542   -10855346.940 5  -8458709.160 5
        30.600          30.600
 09  1  9  1 10  0.0000000  0 10G 6G28G 9G15G21G14G 3G18G22G19
  24030320.316    24030319.480    24030318.716    -3516497.234 2  -2740125.349 2
        17.800          17.800
  25467503.984    25467503.913    25467501.472       99576.580       77592.749
         3.000           3.000
  21448322.165    21448321.381    21448320.737   -17932526.306 6 -13973390.148 5
        36.500          35.400
  24959722.599    24959723.846    24959722.658      215538.436 1    167951.827 2
         9.000          12.600
  23326527.352    23326526.259    23326524.703   -11725571.089 3  -9136803.500 3
        19.900          19.900
  22105679.269    22105678.586    22105677.350   -16428705.200 5 -12801583.377 5
        33.100          32.600
  23964574.619    23964573.693    23964573.086    -3085067.884 2  -2403945.907 2
        17.800          17.800
  21024352.132    21024351.262    21024349.600   -22692011.272 6 -17682076.757 6
        40.800          41.700
  20286442.795    20286442.226    20286439.032   -25650893.361 7 -19987699.305 8
        44.600          51.400
  22974218.295    22974216.816    22974214.639   -10835851.435 5  -8443517.853 5
        31.000          31.000
 09  1  9  1 10 30.0000000  0 10G 6G28G 9G15G21G14G 3G18G22G19
  24046691.261    24046690.829    24046690.316    -3430463.597 3  -2673086.146 2
        19.900          17.000
  25469808.330    25469808.242    25469807.934      111686.912       87029.331 1
         3.000           6.500
  21445266.131    21445265.312    21445264.486   -17948586.163 6 -13985904.318 5
        36.200          35.300
  24980248.643    24980249.852    24980248.520      323401.355 1    252000.866 1
        11.000          11.000
  23347366.553    23347365.332    23347364.606   -11616060.240 3  -9051470.406 3
        19.900          21.600
  22089390.178    22089389.326    22089388.391   -16514304.577 5 -12868284.172 5
        33.000          33.000
  23980862.369    23980861.749    23980862.097    -2999473.119 3  -2337248.688 3
        18.600          19.300
  21033715.359    21033714.454    21033712.685   -22642807.704 6 -17643736.313 6
        40.700          41.500
  20284414.953    20284414.449    20284411.288   -25661549.525 7 -19996002.807 8
        44.600          51.500
  22978036.489    22978035.001    22978032.850   -10815787.338 5  -8427883.507 5
        31.300          31.300
 09  1  9  1 11  0.0000000  0 10G 6G28G 9G15G21G14G 3G18G22G19
  24063106.303    24063105.860    24063105.555    -3344200.292 3  -2605867.993 2
        19.300          17.000
  25472210.896    25472209.336    25472208.376      124310.224 1     96865.695 1
         6.500           6.500
  21442349.120    21442348.364    21442347.515   -17963914.989 6 -13997848.851 5
        36.500          35.400
  25000787.394    25000787.881    25000787.156      431330.723 1    336101.655 2
        11.000          13.900
  23368245.865    23368245.350    23368244.712   -11506334.636 3  -8965969.973 3
        19.900          21.600
  22073165.255    22073164.411    22073163.289   -16599568.188 5 -12934723.331 5
        33.400          33.000
  23997203.042    23997202.772    23997202.293    -2913601.976 2  -2270336.119 3
        17.800          18.600
  21043145.899    21043145.050    21043143.243   -22593248.985 6 -17605119.126 6
        40.700          41.300
  20282464.127    20282463.607    20282460.544   -25671800.733 7 -20003990.759 8
        44.600          51.500
  22981964.082    22981962.680    22981960.710   -10795146.382 5  -8411799.646 5
        31.000          31.100
 09  1  9  1 11 30.0000000  0 10G 6G28G 9G15G21G14G 3G18G22G19
  24079564.346    24079564.231    24079564.136    -3257710.361 3  -2538473.249 2
        19.300          17.000
  25474712.514    25474711.605    25474710.581      137446.226 2    107101.553 1
        12.600           6.500
  21439571.253    21439570.621    21439570.074   -17978511.672 6 -14009222.889 5
        36.400          35.700
  25021337.802    25021338.626    25021337.114      539324.530 1    420252.581 2
         9.000          13.900
  23389166.932    23389165.507    23389165.439   -11396396.537 2  -8880303.962 3
        17.000          21.100
  22057004.440    22057003.595    22057002.173   -16684494.474 5 -13000899.646 5
        33.800          33.000
  24013596.253    24013595.578    24013595.234    -2827457.385 2  -2203210.452 3
        17.800          19.300
  21052644.176    21052643.301    21052641.509   -22543335.810 6 -17566225.744 6
        40.700          41.200
  20280590.686    20280590.118    20280586.906   -25681646.427 7 -20011662.727 8
        44.600          51.500
  22986002.025    22986000.121    22985998.152   -10773929.743 5  -8395267.203 5
        30.800          31.000
 09  1  9  1 12  0.0000000  0 10G 6G28G 9G15G21G14G 3G18G22G19
  24096064.449    24096064.169    24096064.359    -3171003.596 3  -2470909.523 3
        18.600          18.600
  25477308.639    25477305.758    25477304.792      151087.442      117730.987 1
                        11.000
  21436931.746    21436931.128    21436930.470   -17992382.326 6 -14020031.193 5
        36.400          35.400
  25041897.861    25041898.739    25041898.293      647374.220 1    504447.088 2
         9.000          13.900
  23410126.587    23410125.064    23410124.198   -11286254.826 2  -8794479.295 3
        17.000          19.900
  22040906.365    22040905.690    22040904.407   -16769089.099 5 -13066817.517 5
        33.800          33.200
  24030038.343    24030037.370    24030038.230    -2741049.487 2  -2135879.623 3
        17.000          19.300
  21062208.295    21062207.405    21062205.484   -22493075.813 6 -17527062.110 6
        40.600          41.000
  20278792.908    20278792.376    20278789.177   -25691093.298 7 -20019023.924 8
        44.600          51.500
  22990146.994    22990145.314    22990143.450   -10752145.208 5  -8378292.244 5
        30.800          31.000
 09  1  9  1 12 30.0000000  0 10G 6G28G 9G15G21G14G 3G18G22G19
  24112604.798    24112604.324    24112604.373    -3084083.979 2  -2403179.961 3
        16.100          19.900
  25480000.723    25479998.343    25479998.197      165231.590      128752.433 1
         3.000          11.000
  21434430.411    21434429.781    21434428.972   -18005527.678 6 -14030274.319 5
        36.500          35.400
  25062470.013    25062470.532    25062470.151      755476.862      588682.847 2
                        13.900
  23431123.659    23431122.795    23431121.857   -11175913.204 3  -8708498.857 3
        18.600          19.900
  22024871.582    22024870.810    22024869.684   -16853351.825 5 -13132476.766 5
        33.600          33.200
  24046530.712    24046529.883    24046530.448    -2654382.480 2  -2068346.914 3
        16.100          19.300
  21071838.042    21071837.189    21071835.242   -22442471.045 6 -17487629.820 6
        40.500          40.700
  20277071.036    20277070.472    20277067.263   -25700142.173 7 -20026074.990 8
        44.600          51.500
  22994400.457    22994398.658    22994396.564   -10729795.444 5  -8360876.841 5
        31.500          31.300
 09  1  9  1 13  0.0000000  0 10G 6G28G 9G15G21G14G 3G18G22G19
  24129187.201    24129185.845    24129185.678    -2996948.078 2  -2335281.880 3
        15.100          19.900
  25482788.590    25482785.483    25482785.694      179885.148      140170.752 1
         3.000           6.500
  21432067.914    21432067.346    21432066.687   -18017941.188 6 -14039947.180 5
        36.300          35.400
  25083052.121    25083054.022    25083052.112      863636.958      672963.371 2
                        12.600
  23452160.070    23452159.161    23452158.178   -11065367.754 3  -8622359.571 3
        19.900          19.300
  22008901.642    22008900.795    22008899.692   -16937274.732 5 -13197871.216 5
        33.600          33.400
  24063072.536    24063072.499    24063072.611    -2567452.845 2  -2000609.537 3
        17.000          19.300
  21081534.585    21081533.720    21081531.784   -22391515.546 6 -17447924.235 6
        40.500          40.600
  20275426.104    20275425.547    20275422.341   -25708786.370 7 -20032810.728 8
        44.700          51.500
  22998761.524    22998759.953    22998758.222   -10706875.025 5  -8343016.767 5
        31.300          31.300
 09  1  9  1 13 30.0000000  0 10G 6G28G 9G15G21G14G 3G18G22G19
  24145807.200    24145806.868    24145806.736    -2909605.813 2  -2267222.999 3
        16.100          21.100
  25485672.780    25485669.909    25485670.184      195040.216      151979.823
         3.000
  21429844.166    21429843.438    21429842.617   -18029628.760 6 -14049054.378 5
        36.500          35.200
  25103644.695    25103646.211    25103643.227      971846.164      757282.201 2
                        13.900
  23473233.813    23473232.844    23473231.201   -10954627.286 3  -8536068.321 2
        20.500          17.800
  21992995.419    21992994.562    21992993.357   -17020863.268 5 -13263005.125 5
        33.900          33.400
  24079663.438    24079662.313    24079662.454    -2480270.798 2  -1932675.498 3
        17.800          19.900
  21091296.396    21091295.543    21091293.651   -22340216.806 6 -17407951.189 6
        40.500          40.600
  20273856.900    20273856.383    20273853.155   -25717032.282 7 -20039236.110 8
        44.600          51.500
  23003230.710    23003228.913    23003226.921   -10683392.146 5  -8324718.427 5
        31.100          31.300
 09  1  9  1 14  0.0000000  0  9G 6G 9G15G21G14G 3G18G22G19
  24162466.987    24162466.908    24162466.509    -2822057.524 2  -2199003.575 3
        17.000          20.500
  21427758.794    21427758.097    21427757.335   -18040587.211 6 -14057593.427 5
        36.500          35.300
  25124244.121    25124246.101    25124243.939     1080104.874      841639.614 1
                        11.000
  23494343.412    23494342.679    23494341.533   -10843692.098 3  -8449625.349 2
        20.500          17.800
  21977153.323    21977152.502    21977151.355   -17104113.546 5 -13327875.454 5
        34.000          33.500
  24096303.193    24096301.910    24096300.793    -2392836.775 3  -1864545.118 3
        18.600          19.300
  21101123.727    21101122.915    21101121.199   -22288573.236 6 -17367709.445 6
        40.300          40.500
  20272363.999    20272363.471    20272360.339   -25724877.383 7 -20045349.174 8
        44.600          51.600
  23007806.454    23007804.581    23007802.741   -10659345.372 5  -8305980.694 5
        30.400          31.500
 09  1  9  1 14 30.0000000  0 10G 6G28G 9G15G21G14G 3G18G22G19
  24179165.230    24179164.701    24179164.241    -2734306.807 2  -2130626.430 3
        16.100          20.500
  25491728.580    25491726.952    25491726.019           -.86912         -.03711
        12.600           6.500
  21425812.121    21425811.463    21425810.704   -18050816.793 6 -14065564.531 5
        36.500          35.400
  25144851.483    25144855.777    25144860.195     1188410.501      926032.658 1
                         9.000
  23515490.579    23515489.733    23515488.271   -10732565.099 3  -8363032.899 2
        19.900          17.800
  21961375.662    21961374.833    21961373.698   -17187025.206 5 -13392481.926 5
        34.300          33.500
  24112987.601    24112986.546    24112985.608    -2305154.862 3  -1796221.560 3
        18.600          18.600
  21111016.582    21111015.772    21111013.971   -22236586.160 6 -17327200.036 6
        40.200          40.300
  20270947.310    20270946.772    20270943.636   -25732322.230 7 -20051150.351 8
        44.600          51.600
  23012488.949    23012487.552    23012485.679   -10634736.744 5  -8286805.144 5
        30.100          31.800
 09  1  9  1 15  0.0000000  0 10G 6G28G 9G15G21G14G 3G18G22G19
  24195903.824    24195902.306    24195902.274    -2646348.900 2  -2062087.814 3
        15.100          20.500
  25494896.999    25494896.186    25494895.261       16668.893 1     12989.182 1
         6.500          11.000
  21424005.850    21424005.077    21424004.393   -18060309.147 6 -14072961.165 5
        36.500          35.200
  25165473.485    25165472.081    25165470.080     1296769.451     1010468.104 1
                        11.000
  23536674.634    23536673.944    23536673.304   -10621240.347 3  -8276286.373 3
        19.300          19.300
  21945664.150    21945663.407    21945662.394   -17269588.752 5 -13456817.141 5
        34.300          33.600
  24129720.215    24129719.594    24129719.389    -2217219.978 2  -1727700.884 3
        17.000          19.900
  21120976.106    21120975.223    21120973.446   -22184248.192 6 -17286417.201 6
        40.100          40.200
  20269608.434    20269607.898    20269604.641   -25739358.440 7 -20056633.110 8
        44.700          51.600
  23017280.056    23017278.362    23017276.882   -10609559.385 4  -8267186.438 5
        29.500          31.600
 09  1  9  1 15 30.0000000  0 10G 6G28G 9G15G21G14G 3G18G22G19
  24212679.452    24212679.093    24212678.557    -2558189.112 2  -1993391.882 3
        16.100          19.900
  25498165.742    25498164.679    25498165.149       33844.891 1     26373.071 1
         6.500          11.000
  21422339.396    21422338.743    21422337.816   -18069066.413 6 -14079785.010 5
        36.600          35.200
  25186105.556    25186103.821    25186104.232     1405177.026     1094941.504 2
                        13.900
  23557896.355    23557895.457    23557894.073   -10509723.019 3  -8189389.795 3
        19.300          18.600
  21930019.012    21930018.265    21930017.164   -17351805.178 5 -13520881.872 5
        34.600          33.900
  24146499.874    24146499.962    24146500.376    -2129037.596 2  -1658987.353 3
        17.800          20.500
  21131001.671    21131000.949    21130999.145   -22131562.892 6 -17245363.721 6
        40.200          40.000
  20268346.697    20268346.195    20268343.049   -25745988.283 7 -20061799.217 8
        44.700          51.700
  23022178.860    23022177.246    23022175.195   -10583817.033 4  -8247127.470 5
        29.900          31.100
 09  1  9  1 16  0.0000000  0 10G 6G28G 9G15G21G14G 3G18G22G19
  24229493.711    24229492.741    24229492.117    -2469833.902 2  -1924543.705 3
        16.100          20.500
  25501529.242    25501528.762    25501531.016       51522.868       40148.209 1
         3.000          11.000
  21420812.170    21420811.425    21420810.634   -18077091.695 6 -14086038.471 5
        36.500          35.100
  25206743.017    25206743.381    25206742.058     1513628.101     1179448.828 2
         3.000          15.100
  23579152.998    23579151.849    23579150.194   -10398018.898 2  -8102347.658 3
        17.800          18.600
  21914439.270    21914438.558    21914437.532   -17433677.073 5 -13584678.135 5
        34.700          34.000
  24163327.661    24163326.557    24163326.677    -2040614.580 3  -1590086.308 3
        18.600          19.900
  21141092.879    21141092.073    21141090.116   -22078534.548 6 -17204042.932 6
        40.200          39.900
  20267161.782    20267161.256    20267158.101   -25752215.157 7 -20066651.324 8
        44.700          51.700
  23027183.905    23027182.246    23027180.626   -10557514.656 5  -8226632.131 5
        30.200          31.100
 09  1  9  1 16 30.0000000  0 10G 6G28G 9G15G21G14G 3G18G22G19
  24246342.899    24246342.254    24246343.367    -2381284.865 2  -1855544.481 3
        16.100          21.100
  25504990.702    25504990.530    25504989.752       69703.247       54314.632 1
                         9.000
  21419424.922    21419424.235    21419423.209   -18084382.921 6 -14091719.948 5
        36.700          35.200
  25227388.625    25227388.782    25227387.982     1622122.320 1   1263989.715 2
         9.000          15.100
  23600444.912    23600443.946    23600442.401   -10286128.583 2  -8015160.447 3
        17.800          19.300
  21898925.682    21898924.946    21898923.845   -17515201.653 5 -13648203.761 5
        34.800          34.000
  24180199.710    24180198.746    24180198.112    -1951952.317 3  -1520998.827 3
        18.600          19.300
  21151249.121    21151248.285    21151246.452   -22025162.382 6 -17162454.231 6
        39.900          39.700
  20266053.989    20266053.392    20266050.187   -25758037.251 7 -20071188.019 8
        44.600          51.700
  23032296.102    23032294.440    23032292.417   -10530652.139 5  -8205700.294 5
        30.800          31.000
 09  1  9  1 17  0.0000000  0 10G 6G28G 9G15G21G14G 3G18G22G19
  24263229.451    24263228.749    24263229.448    -2292548.787 2  -1786399.509 3
        17.000          21.100
  25508543.336    25508542.476    25508542.389       88381.700       68869.144
                         3.000
  21418176.267    21418175.581    21418174.937   -18090943.810 6 -14096832.321 5
        36.500          35.400
  25248042.138    25248042.062    25248039.558     1730654.039 1   1348559.895 2
         9.000          16.100
  23621770.838    23621769.632    23621769.002   -10174058.847 2  -7927833.409 3
        17.000          19.300
  21883477.926    21883477.162    21883475.767   -17596381.040 5 -13711460.411 5
        35.100          33.900
  24197115.521    24197114.856    24197113.796    -1863057.750 3  -1451730.335 2
        19.300          17.800
  21161470.198    21161469.323    21161467.531   -21971450.943 6 -17120601.164 6
        40.000          39.700
  20265022.315    20265021.806    20265018.643   -25763458.211 7 -20075412.140 8
        44.600          51.700
  23037513.516    23037511.524    23037509.753   -10503234.740 5  -8184336.094 5
        30.600          30.800
 09  1  9  1 17 30.0000000  0 10G 6G28G 9G15G21G14G 3G18G22G19
  24280152.947    24280152.144    24280152.585    -2203615.305 2  -1717100.706 3
        16.100          19.900
  25512197.451    25512196.560    25512194.675      107570.526       83821.397 1
         3.000           6.500
  21417069.479    21417068.685    21417067.755   -18096760.897 6 -14101365.111 5
        36.500          35.300
  25268704.570    25268703.842    25268702.928     1839234.561 1   1433168.046 2
         9.000          15.100
  23643132.948    23643132.294    23643131.495   -10061798.342 2  -7840357.737 3
        15.100          18.600
  21868098.244    21868097.529    21868096.463   -17677200.855 5 -13774436.873 5
        35.200          34.500
  24214078.114    24214076.961    24214076.203    -1773920.848 3  -1382273.030 2
        18.600          17.800
  21171758.082    21171757.181    21171755.281   -21917387.713 6 -17078473.973 6
        40.000          39.500
  20264069.574    20264069.061    20264065.963   -25768464.703 7 -20079313.300 8
        44.600          51.700
  23042838.593    23042836.851    23042835.137   -10475250.474 5  -8162530.172 5
        31.300          30.800
 09  1  9  1 18  0.0000000  0 10G 6G28G 9G15G21G14G 3G18G22G19
  24297109.396    24297108.926    24297108.820    -2114508.086 2  -1647666.537 3
        16.100          18.600
  25515941.229    25515939.977    25515939.416      127248.418 1     99154.943 1
         6.500          11.000
  21416100.023    21416099.359    21416098.429   -18101854.608 6 -14105334.235 5
        36.600          35.200
  25289372.180    25289371.389    25289370.081     1947841.583 1   1517796.848 2
         6.500          15.100
  23664526.516    23664526.094    23664525.914    -9949370.351 2  -7752751.557 2
        16.100          17.000
  21852783.256    21852782.409    21852781.597   -17757680.642 5 -13837148.373 5
        35.100          34.600
  24231081.500    24231080.238    24231080.540    -1684565.496 2  -1312645.485 3
        16.100          18.600
  21182108.949    21182108.105    21182106.007   -21862993.854 6 -17036089.143 6
        40.000          39.200
  20263191.971    20263191.367    20263188.207   -25773077.224 7 -20082907.472 8
        44.700          51.800
  23048267.410    23048265.914    23048263.936   -10446721.490 5  -8140299.787 5
        31.300          31.000
 09  1  9  1 18 30.0000000  0 10G 6G28G 9G15G21G14G 3G18G22G19
  24314100.757    24314100.343    24314099.580    -2025218.806 2  -1578090.502 2
        17.000          17.000
  25519780.998    25519779.320    25519779.936      147425.938 1    114877.681 1
         6.500           9.000
  21415270.746    21415270.021    21415269.040   -18106213.237 6 -14108730.565 5
        36.800          35.200
  25310044.473    25310044.014    25310044.189     2056484.671     1602453.803 2
         3.000          13.900
  23685953.743    23685954.318    23685953.927    -9836765.954 2  -7665007.899 2
        15.100          17.000
  21837535.427    21837534.727    21837533.794   -17837807.549 5 -13899584.903 5
        34.900          34.500
  24248127.478    24248126.450    24248128.008    -1594983.487 2  -1242841.332 3
        13.900          19.300
  21192524.496    21192523.687    21192521.845   -21808258.783 6 -16993438.438 6
        40.000          39.300
  20262391.284    20262390.798    20262387.689   -25777284.040 7 -20086185.509 8
        44.700          51.800
  23053802.029    23053800.207    23053798.179   -10417637.635 5  -8117637.052 5
        30.800          30.800
 09  1  9  1 19  0.0000000  0 10G 6G28G 9G15G21G14G 3G18G22G19
  24331127.906    24331127.132    24331126.305    -1935742.813 2  -1508368.956 2
        16.100          17.000
  25523715.961    25523713.310    25523715.800      168109.539      130994.808 1
                         6.500
  21414582.578    21414581.868    21414580.845   -18109828.994 6 -14111548.036 5
        36.600          35.100
  25330726.045    25330723.454    25330726.034     2165169.866     1687143.593 2
         3.000          12.600
  23707416.779    23707416.571    23707416.373    -9723979.918 2  -7577122.705 2
        15.100          17.000
  21822356.583    21822355.887    21822355.067   -17917572.821 5 -13961739.642 5
        35.200          34.700
  24265218.724    24265218.330    24265218.283    -1505170.608 2  -1172857.245 3
        12.600          18.600
  21203006.362    21203005.547    21203003.733   -21753176.142 6 -16950516.901 6
        40.000          39.200
  20261669.525    20261668.955    20261665.755   -25781077.477 7 -20089141.433 8
        44.700          51.700
  23059443.235    23059441.320    23059439.787   -10387992.768 5  -8094537.152 5
        30.600          31.000
 09  1  9  1 19 30.0000000  0 10G 6G28G 9G15G21G14G 3G18G22G19
  24348186.675    24348185.898    24348186.826    -1846091.872 2  -1438511.086 2
        12.600          17.000
  25527747.667    25527744.951    25527744.345      189289.335      147498.580 1
                         6.500
  21414034.132    21414033.534    21414032.416   -18112710.675 6 -14113793.501 5
        36.600          35.100
  25351414.055    25351414.596    25351412.994     2273886.658     1771858.059 2
                        12.600
  23728912.690    23728911.509    23728911.577    -9611022.985 2  -7489104.373 2
        16.100          17.000
  21807245.459    21807244.708    21807243.598   -17996984.055 5 -14023618.504 5
        35.700          34.900
  24282350.595    24282350.657    24282350.475    -1415138.258 2  -1102702.196 3
        13.900          18.600
  21213552.545    21213551.815    21213549.955   -21697755.267 6 -16907331.801 6
        39.900          39.100
  20261024.567    20261024.062    20261020.888   -25784466.242 7 -20091782.027 8
        44.700          51.700
  23065188.941    23065187.345    23065185.530   -10357797.448 4  -8071008.332 5
        29.900          31.100
 09  1  9  1 20  0.0000000  0 10G 6G28G 9G15G21G14G 3G18G22G19
  24365278.194    24365277.490    24365278.280    -1756273.708 2  -1368522.939 2
        12.600          16.100
  25531871.590    25531869.378    25531868.442      210960.040      164384.873 1
         3.000           9.000
  21413624.542    21413623.865    21413623.130   -18114863.110 6 -14115470.724 5
        36.500          35.500
  25372107.357    25372109.133    25372106.686     2382627.809     1856591.543 2
                        12.600
  23750439.147    23750438.131    23750437.241    -9497902.776 2  -7400958.792 2
        16.100          16.100
  21792200.820    21792199.990    21792198.682   -18076044.740 5 -14085224.221 5
        35.900          34.900
  24299525.385    24299524.518    24299523.426    -1324894.483 2  -1032382.382 3
        15.100          19.300
  21224162.196    21224161.340    21224159.545   -21642001.937 6 -16863887.647 6
        39.900          39.100
  20260455.973    20260455.391    20260452.165   -25787454.756 7 -20094110.737 8
        44.600          51.700
  23071038.883    23071036.984    23071034.944   -10327057.730 4  -8047055.311 5
        29.900          31.000
 09  1  9  1 20 30.0000000  0 10G 6G28G 9G15G21G14G 3G18G22G19
  24382403.873    24382403.601    24382402.144    -1666282.559 2  -1298399.963 2
        15.100          15.100
  25536089.959    25536088.557    25536087.908      233129.239 1    181659.545 1
         9.000          11.000
  21413355.422    21413354.715    21413354.100   -18116277.128 6 -14116572.555 5
        36.500          35.500
  25392808.621    25392809.199    25392805.850     2491400.860     1941349.739 1
                        11.000
  23771997.236    23771995.892    23771995.049    -9384612.691 2  -7312680.851 2
        15.100          15.100
  21777224.548    21777223.834    21777222.510   -18154744.806 6 -14146548.932 5
        36.000          35.200
  24316738.300    24316737.273    24316738.316    -1234433.620 2   -961893.412 3
        15.100          19.900
  21234836.477    21234835.678    21234833.900   -21585907.763 6 -16820177.903 6
        39.900          38.900
  20259965.032    20259964.525    20259961.352   -25790034.092 7 -20096120.607 8
        44.700          51.700
  23076993.351    23076991.726    23076989.446   -10295766.623 5  -8022672.635 5
        30.600          30.800
 09  1  9  1 21  0.0000000  0  9G 6G28G 9G21G14G 3G18G22G19
  24399559.826    24399559.139    24399558.112    -1576131.128 2  -1228152.110 2
        13.900          13.900
  25540399.687    25540399.432    25540400.028      255786.234      199314.330 1
         3.000          11.000
  21413225.035    21413224.388    21413223.532   -18116962.625 6 -14117106.701 5
        36.800          35.400
  23793585.795    23793584.762    23793583.653    -9271164.978 2  -7224280.088 2
        15.100          15.100
  21762315.245    21762314.512    21762313.388   -18233092.948 5 -14207599.414 5
        35.900          35.400
  24333992.240    24333991.239    24333991.701    -1143768.547 2   -891245.318 3
        16.100          20.500
  21245573.611    21245572.822    21245571.251   -21529483.318 6 -16776210.803 6
        39.700          38.900
  20259550.185    20259549.655    20259546.501   -25792214.036 7 -20097819.260 8
        44.700          51.700
  23083050.363    23083048.632    23083046.779   -10263935.046 5  -7997868.802 5
        30.100          30.800
 09  1  9  1 21 30.0000000  0  9G 6G28G 9G21G14G 3G18G22G19
  24416744.912    24416744.408    24416745.088    -1485815.221 2  -1157776.107 2
        12.600          15.100
  25544804.869    25544803.539    25544804.638      278938.016      217354.814 1
                         6.500
  21413234.695    21413233.815    21413233.145   -18116912.138 6 -14117067.363 5
        36.500          35.400
  23815205.272    23815204.060    23815202.194    -9157554.351 2  -7135752.371 2
        15.100          13.900
  21747474.804    21747474.127    21747472.907   -18311080.452 6 -14268368.881 5
        36.200          35.500
  24351284.018    24351283.313    24351282.829    -1052895.584 2   -820435.227 3
        16.100          19.300
  21256374.873    21256374.046    21256372.371   -21472722.565 6 -16731981.646 6
        39.700          38.700
  20259212.963    20259212.403    20259209.160   -25793986.822 7 -20099200.650 8
        44.700          51.600
  23089211.730    23089210.216    23089208.665   -10231557.050 5  -7972639.204 5
        30.100          31.100
 09  1  9  1 22  0.0000000  0  9G 6G28G 9G21G14G 3G18G22G19
  24433964.805    24433964.677    24433964.903    -1395323.257 1  -1087262.920 2
        11.000          15.100
  25549306.177    25549307.849    25549306.710      302597.277      235790.496 2
         3.000          12.600
  21413387.016    21413386.306    21413385.633   -18116111.233 6 -14116443.277 5
        36.600          35.400
  23836856.565    23836856.531    23836855.225    -9043769.319 2  -7047088.730 2
        13.900          12.600
  21732706.153    21732705.268    21732704.147   -18388691.472 6 -14328844.990 5
        36.300          35.800
  24368618.018    24368617.369    24368617.737     -961802.860 2   -749453.922 3
        15.100          19.300
  21267242.849    21267242.061    21267240.301   -21415611.389 6 -16687479.430 6
        39.800          38.700
  20258955.738    20258955.235    20258952.036   -25795338.135 7 -20100253.621 8
        44.700          51.600
  23095479.541    23095477.688    23095475.942   -10198620.246 5  -7946974.162 5
        30.100          31.000
 09  1  9  1 22 30.0000000  0  9G 6G28G 9G21G14G 3G18G22G19
  24451214.503    24451214.394    24451214.095    -1304679.562 2  -1016631.463 2
        12.600          13.900
  25553901.518    25553902.642    25553902.324      326742.101      254604.612 2
                        15.100
  21413678.087    21413677.382    21413676.661   -18114581.436 6 -14115251.232 5
        36.500          35.300
  23858537.665    23858537.402    23858536.875    -8929833.241 2  -6958307.403 2
        13.900          13.900
  21718004.939    21718004.125    21718002.876   -18465946.273 6 -14389043.522 5
        36.500          35.600
  24385989.779    24385988.930    24385989.501     -870514.960 2   -678320.524 3
        16.100          19.300
  21278173.207    21278172.421    21278170.555   -21358172.163 6 -16642721.593 6
        39.600          38.400
  20258774.863    20258774.291    20258771.072   -25796289.093 7 -20100994.623 8
        44.700          51.600
  23101849.244    23101847.474    23101845.505   -10165147.403 5  -7920891.435 5
        30.100          30.400
 09  1  9  1 23  0.0000000  0  9G 6G28G 9G21G14G 3G18G22G19
  24468494.119    24468493.667    24468492.365    -1213881.292 2   -945879.559 2
        13.900          15.100
  25558587.903    25558587.297    25558588.884      351377.156      273800.698 1
                        11.000
  21414109.149    21414108.584    21414107.528   -18112316.910 6 -14113486.660 5
        36.800          35.400
  23880249.234    23880249.105    23880247.023    -8815742.490 2  -6869405.569 2
        13.900          13.900
  21703372.868    21703372.180    21703370.874   -18542837.845 6 -14448959.022 5
        36.500          35.700
  24403399.833    24403399.001    24403397.975     -779029.194 2   -607032.927 3
        13.900          18.600
  21289166.880    21289166.103    21289164.262   -21300399.577 6 -16597703.994 6
        39.500          38.400
  20258671.274    20258670.701    20258667.478   -25796833.326 7 -20101418.698 8
        44.700          51.600
  23108321.697    23108320.054    23108317.797   -10131134.331 5  -7894387.753 5
        30.200          30.100
 09  1  9  1 23 30.0000000  0  9G 6G28G 9G21G14G 3G18G22G19
  24485801.047    24485800.008    24485800.395    -1122926.576 2   -875005.757 2
        12.600          17.000
  25563371.288    25563370.682    25563369.012      376506.237      293380.803 1
                         6.500
  21414680.750    21414679.996    21414679.268   -18109313.024 6 -14111145.970 5
        36.600          35.500
  23901991.007    23901989.809    23901987.762    -8701494.702 2  -6780381.362 2
        16.100          15.100
  21688811.192    21688810.373    21688809.130   -18619360.365 6 -14508586.949 6
        36.500          36.000
  24420846.138    24420845.575    24420845.466     -687343.458 2   -535589.499 3
        15.100          18.600
  21300224.775    21300223.965    21300222.303   -21242289.884 6 -16552423.716 6
        39.500          38.500
  20258646.037    20258645.431    20258642.176   -25796966.548 7 -20101522.504 8
        44.800          51.600
  23114897.676    23114896.160    23114893.838   -10096577.694 5  -7867460.498 4
        30.200          29.700
 09  1  9  1 24  0.0000000  0  8G 6G 9G21G14G 3G18G22G19
  24503136.960    24503136.072    24503136.547    -1031826.063 2   -804018.410 2
        12.600          17.800
  21415391.404    21415390.800    21415389.834   -18105577.832 6 -14108235.431 5
        36.700          35.200
  23923759.556    23923758.390    23923756.794    -8587100.364 2  -6691242.956 2
        16.100          15.100
  21674318.284    21674317.508    21674316.164   -18695520.249 6 -14567932.296 5
        36.400          35.700
  24438329.194    24438328.787    24438329.082     -595468.756 2   -463998.838 3
        15.100          19.300
  21311345.251    21311344.406    21311342.715   -21183851.481 6 -16506887.299 6
        39.400          38.200
  20258697.406    20258696.888    20258693.650   -25796695.764 7 -20101311.499 8
        44.800          51.600
  23121575.302    23121573.568    23121571.335   -10061486.988 5  -7840117.102 4
        30.400          29.700
 09  1  9  1 24 30.0000000  0  8G 6G 9G21G14G 3G18G22G19
  24520499.407    24520498.516    24520498.747     -940587.791 2   -732923.666 2
        12.600          17.800
  21416240.433    21416239.792    21416238.948   -18101116.357 6 -14104758.952 5
        36.800          35.300
  23945554.435    23945553.415    23945551.945    -8472566.669 2  -6601995.952 2
        15.100          13.900
  21659893.792    21659893.044    21659891.839   -18771321.397 6 -14626998.114 6
        36.500          36.200
  24455847.176    24455846.323    24455846.255     -503413.819 2   -392267.738 2
        16.100          17.800
  21322527.281    21322526.430    21322524.535   -21125090.266 6 -16461099.336 6
        39.400          38.100
  20258824.854    20258824.294    20258821.070   -25796026.174 7 -20100789.742 8
        44.800          51.500
  23128353.017    23128351.428    23128349.424   -10025868.900 5  -7812362.748 5
        30.600          30.100
 09  1  9  1 25  0.0000000  0  8G 6G 9G21G14G 3G18G22G19
  24537893.885    24537892.920    24537893.586     -849178.067 1   -661695.321 2
         9.000          17.800
  21417234.675    21417233.911    21417233.016   -18095892.056 6 -14100688.072 5
        36.600          35.200
  23967383.131    23967382.243    23967379.907    -8357859.307 2  -6512613.641 2
        16.100          13.900
  21645544.629    21645544.044    21645542.811   -18846725.754 6 -14685754.747 6
        36.600          36.300
  24473404.515    24473403.584    24473404.543     -411145.038 2   -320369.966 2
        13.900          16.100
  21333777.313    21333776.465    21333774.720   -21065970.640 6 -16415032.093 6
        39.300          38.100
  20259035.208    20259034.658    20259031.292   -25794921.106 7 -20099928.645 8
        44.800          51.500
  23135238.009    23135236.327    23135234.407    -9989688.438 5  -7784170.179 5
        30.200          30.100
 09  1  9  1 25 30.0000000  0  9G 6G11G 9G21G14G 3G18G22G19
  24555313.344    24555311.939    24555313.097     -757633.922 1   -590362.212 2
         6.500          15.100
  24856680.306    24856681.416    24856677.644            .0651          -.02911
                         6.500
  21418367.347    21418366.698    21418365.874   -18089939.293 6 -14096049.556 5
        36.600          35.200
  23989237.366    23989235.721    23989234.621    -8243014.847 2  -6423124.479 2
        17.000          15.100
  21631265.157    21631264.314    21631263.152   -18921766.657 6 -14744228.167 6
        36.500          36.500
  24490996.790    24490996.086    24490996.778     -318699.108 2   -248334.200 2
        13.900          16.100
  21345089.030    21345088.159    21345086.438   -21006527.102 6 -16368712.457 6
        39.100          37.900
  20259321.811    20259321.309    20259318.016   -25793414.386 7 -20098754.578 8
        44.800          51.500
  23142223.029    23142221.427    23142219.554    -9952981.162 4  -7755567.106 4
        29.500          29.900
 09  1  9  1 26  0.0000000  0  9G 9G 6G11G21G14G 3G18G22G19
  21419639.237    21419638.499    21419637.733   -18083255.620 6 -14090841.502 5
        36.500          35.400
  24572759.423    24572759.383    24572758.776     -665955.694 1   -518924.645 2
         9.000          15.100
  24838047.613    24838045.967    24838046.752      -97908.942      -76292.746 1
                         9.000
  24011117.586    24011116.963    24011114.784    -8128033.132 2  -6333528.384 2
        17.000          15.100
  21617055.119    21617054.337    21617053.418   -18996439.663 6 -14802414.908 6
        36.600          36.600
  24508622.888    24508622.161    24508621.614     -226076.313 2   -176160.599 2
        13.900          13.900
  21356462.831    21356462.007    21356460.144   -20946757.863 6 -16322139.026 6
        39.200          37.700
  20259685.644    20259685.086    20259681.850   -25791502.807 7 -20097265.032 8
        44.700          51.500
  23149308.651    23149307.116    23149305.142    -9915746.461 5  -7726553.064 4
        30.100          29.900
 09  1  9  1 26 30.0000000  0  9G 9G 6G11G21G14G 3G18G22G19
  21421050.270    21421049.702    21421049.015   -18075839.474 6 -14085062.686 5
        36.500          35.300
  24590232.326    24590231.396    24590230.197     -574144.276 2   -447383.338 2
        12.600          17.000
  24819460.860    24819460.863    24819460.810     -195584.200     -152403.276 1
                        11.000
  24033023.754    24033022.811    24033021.209    -8012914.026 2  -6243825.228 2
        15.100          13.900
  21602915.829    21602915.057    21602914.143   -19070741.980 6 -14860312.807 6
        36.700          36.800
  24526281.261    24526280.749    24526280.290     -133277.923 2   -103850.191 2
        12.600          15.100
  21367898.711    21367897.828    21367895.916   -20886661.790 6 -16275310.915 6
        39.000          37.600
  20260126.693    20260126.174    20260122.962   -25789184.747 7 -20095458.751 8
        44.700          51.500
  23156494.262    23156492.625    23156490.924    -9877984.157 4  -7697127.889 4
        29.700          29.700
 09  1  9  1 27  0.0000000  0  9G 9G 6G11G21G14G 3G18G22G19
  21422600.784    21422600.161    21422599.239   -18067692.134 6 -14078714.105 5
        36.600          34.900
  24607726.181    24607725.977    24607726.503     -482203.504 2   -375741.214 3
        12.600          19.300
  24800917.935    24800919.159    24800919.541     -293024.142     -228330.484 1
         3.000          11.000
  24054954.851    24054953.473    24054953.438    -7897661.287 2  -6154017.945 1
        13.900          11.000
  21588847.164    21588846.420    21588845.472   -19144673.188 6 -14917921.529 6
        36.800          37.100
  24543973.065    24543971.803    24543971.674      -40308.239 1    -31406.292 2
        11.000          13.900
  21379396.364    21379395.500    21379393.659   -20826240.509 6 -16228229.399 6
        38.900          37.400
  20260645.023    20260644.444    20260641.280   -25786461.171 7 -20093336.483 8
        44.700          51.500
  23163780.085    23163778.598    23163776.871    -9839696.548 4  -7667293.381 4
        29.000          29.500
 09  1  9  1 27 30.0000000  0  9G 9G 6G11G21G14G 3G18G22G19
  21424290.427    21424289.765    21424288.666   -18058813.770 6 -14071795.899 5
        36.500          34.800
  24625245.747    24625245.083    24625247.195     -390136.282 1   -304000.512 3
        11.000          19.900
  24782422.091    24782421.748    24782421.959     -390226.448 1   -304072.541 1
         6.500          11.000
  24076911.539    24076911.339    24076910.468    -7782276.908 2  -6064108.089 1
        13.900          11.000
  21574849.336    21574848.632    21574847.585   -19218232.170 6 -14975240.202 6
        37.000          37.000
  24561696.378    24561695.782    24561696.132       52829.798 1     41168.782 2
         9.000          13.900
  21390955.894    21390955.050    21390953.213   -20765494.966 6 -16180895.211 6
        38.900          37.400
  20261240.561    20261240.034    20261236.805   -25783331.460 7 -20090897.745 8
        44.700          51.500
  23171165.963    23171164.214    23171161.894    -9800885.343 4  -7637050.887 4
        29.200          28.600
 09  1  9  1 28  0.0000000  0  9G 9G 6G11G21G14G 3G18G22G19
  21426120.859    21426120.203    21426119.423   -18049192.945 6 -14064299.153 5
        36.300          34.900
  24642793.199    24642792.761    24642792.173     -297933.617 2   -232154.262 2
        16.100          17.800
  24763974.689    24763972.960    24763974.157     -487176.645 1   -379618.138 1
         6.500          11.000
  24098896.170    24098894.860    24098894.263    -7666751.585 2  -5974088.373 1
        15.100           9.000
  21560924.980    21560924.163    21560923.123   -19291405.864 6 -15032258.657 6
        37.200          37.200
  24579455.146    24579454.210    24579453.431      146145.023 1    113881.921 2
        11.000          15.100
  21402579.038    21402578.288    21402576.522   -20704414.002 6 -16133299.656 6
        38.700          37.200
  20261915.692    20261915.159    20261911.853   -25779783.914 7 -20088133.422 8
        44.700          51.400
  23178652.554    23178650.977    23178649.092    -9761540.537 4  -7606392.603 4
        29.000          28.600
 09  1  9  1 28 30.0000000  0  9G 9G 6G11G21G14G 3G18G22G19
  21428092.981    21428092.123    21428091.277   -18038832.520 6 -14056226.096 5
        36.700          35.300
  24660363.366    24660362.563    24660361.444     -205600.953 2   -160206.760 2
        15.100          16.100
  24745574.047    24745573.456    24745571.981     -583874.761     -454967.317 1
         3.000          11.000
  24120904.476    24120903.896    24120903.955    -7551089.958 2  -5883962.481 1
        16.100          11.000
  21547073.563    21547072.877    21547071.620   -19364195.650 6 -15088977.961 6
        37.400          37.200
  24597244.780    24597243.596    24597243.194      239631.780 2    186728.775 2
        12.600          15.100
  21414265.783    21414264.956    21414263.031   -20643000.990 6 -16085445.364 6
        38.700          37.200
  20262669.831    20262669.241    20262665.996   -25775820.902 7 -20085045.359 8
        44.600          51.400
  23186240.695    23186238.968    23186237.057    -9721666.583 4  -7575321.985 4
        28.800          29.200
 09  1  9  1 29  0.0000000  0  9G 9G 6G11G21G14G 3G18G22G19
  21430202.471    21430201.786    21430200.983   -18027745.655 6 -14047586.975 5
        36.500          35.300
  24677953.875    24677953.635    24677952.980     -113154.369 2    -88170.488 2
        12.600          15.100
  24727218.475    24727218.610    24727215.491     -680331.728     -530128.563 1
                         9.000
  24142937.116    24142936.768    24142936.632    -7435307.670 2  -5793742.577 1
        15.100           9.000
  21533292.938    21533292.169    21533290.973   -19436613.432 6 -15145407.393 6
        37.700          37.400
  24615063.162    24615062.347    24615062.894      333274.041 2    259696.806 2
        13.900          15.100
  21426012.886    21426012.002    21426010.109   -20581269.744 6 -16037343.095 6
        38.500          37.000
  20263500.433    20263499.951    20263496.841   -25771454.978 7 -20081643.338 8
        44.500          51.400
  23193926.594    23193924.582    23193922.794    -9681278.250 4  -7543850.554 4
        28.600          29.900
 09  1  9  1 29 30.0000000  0  9G 9G 6G11G21G14G 3G18G22G19
  21432450.132    21432449.547    21432448.825   -18015932.852 6 -14038382.198 5
        36.000          35.300
  24695568.435    24695568.243    24695566.686      -20596.266 2    -16047.285 2
        12.600          16.100
  24708910.404    24708910.024    24708904.892     -776544.585     -605099.581 1
                         9.000
  24164993.211    24164992.239    24164991.827    -7319406.528 2  -5703430.052 1
        16.100           9.000
  21519583.397    21519582.710    21519581.413   -19508657.455 6 -15201545.580 6
        37.700          37.500
  24632912.107    24632911.384    24632911.539      427069.045 2    332783.793 2
        15.100          15.100
  21437820.480    21437819.570    21437817.724   -20519220.377 6 -15988992.947 6
        38.400          36.900
  20264408.083    20264407.508    20264404.323   -25766686.088 7 -20077927.319 8
        44.500          51.400
  23201709.676    23201707.966    23201706.108    -9640376.735 4  -7511979.257 4
        29.000          29.900
 09  1  9  1 30  0.0000000  0  9G 9G 6G11G21G14G 3G18G22G19
  21434838.578    21434838.013    21434837.293   -18003381.936 6 -14028602.261 5
        36.200          35.400
  24713204.390    24713204.087    24713204.621       72083.203 1     56170.463 2
        11.000          17.800
  24690651.361    24690650.755    24690645.551     -872498.176     -679868.586 1
                         9.000
  24187073.549    24187072.747    24187071.239    -7203376.132 3  -5613016.789 1
        18.600          11.000
  21505947.707    21505946.924    21505945.479   -19580314.210 6 -15257382.003 6
        37.800          37.500
  24650792.024    24650790.743    24650790.771      521026.555 2    405997.409 2
        13.900          12.600
  21449690.764    21449690.057    21449688.102   -20456841.009 6 -15940385.647 6
        38.500          36.600
  20265394.694    20265394.165    20265390.970   -25761501.177 7 -20073887.125 8
        44.500          51.400
  23209592.536    23209590.845    23209589.244    -9598951.391 4  -7479699.779 5
        28.800          30.100
 09  1  9  1 30 30.0000000  0  9G 9G 6G11G21G14G 3G18G22G19
  21437366.298    21437365.503    21437364.487   -17990101.126 6 -14018253.578 5
        36.600          35.200
  24730861.911    24730860.955    24730861.792      164873.084 1    128474.240 2
         9.000          17.800
  24672437.813    24672437.084    24672434.968     -968198.021     -754439.839 1
                         9.000
  24209175.981    24209175.461    24209174.822    -7087226.756 3  -5522510.829 1
        18.600           6.500
  21492384.143    21492383.333    21492382.089   -19651590.597 6 -15312922.037 6
        37.700          37.600
  24668700.621    24668699.647    24668698.556      615135.857 2    479329.311 2
        12.600          13.900
  21461622.054    21461621.278    21461619.596   -20394141.156 6 -15891528.620 6
        38.200          36.700
  20266459.021    20266458.483    20266455.230   -25755908.127 7 -20069528.904 8
        44.500          51.300
  23217573.837    23217572.129    23217570.114    -9557011.874 4  -7447019.641 5
        28.800          30.100
 09  1  9  1 31  0.0000000  0  9G 9G 6G11G21G14G 3G18G22G19
  21440033.040    21440032.305    21440031.545   -17976085.712 6 -14007332.473 5
        36.300          35.200
  24748541.536    24748540.839    24748539.959      257776.070      200866.172 2
         3.000          17.000
  24654277.299    24654275.577    24654275.324    -1063636.306     -828807.320 1
         3.000          11.000
  24231302.284    24231301.525    24231300.423    -6970955.267 3  -5431909.697 1
        18.600           6.500
  21478894.144    21478893.410    21478892.455   -19722479.630 6 -15368160.232 6
        37.700          37.800
  24686637.111    24686636.137    24686637.170      709398.895 1    552781.035 2
        11.000          17.000
  21473615.554    21473614.748    21473612.884   -20331115.518 6 -15842417.734 6
        38.300          36.500
  20267602.088    20267601.539    20267598.387   -25749901.215 7 -20064848.192 8
        44.500          51.300
  23225652.894    23225651.334    23225649.099    -9514554.707 4  -7413936.143 4
        28.800          29.700
 09  1  9  1 31 30.0000000  0  9G 9G14G 6G11G21G 3G18G22G19
  21442840.625    21442839.832    21442839.083   -17961331.689 6 -13995835.839 5
        36.300          35.100
  21465479.179    21465478.500    21465477.429   -19792975.743 6 -15423092.260 6
        37.900          37.800
  24766238.954    24766238.629    24766240.620      350793.865      273347.602 1
                        11.000
  24636168.777    24636168.105    24636165.248    -1158805.861 1   -902965.383 2
        11.000          12.600
  24253452.460    24253450.947    24253449.479    -6854559.460 3  -5341211.688 1
        18.600           9.000
  24704604.945    24704603.776    24704604.930      803817.814 2    626354.195 3
        12.600          19.300
  21485671.705    21485670.886    21485669.041   -20267760.275 6 -15793050.015 6
        38.100          36.500
  20268824.829    20268824.313    20268821.093   -25743475.855 7 -20059841.417 8
        44.400          51.300
  23233831.325    23233829.572    23233827.751    -9471576.979 4  -7380447.010 4
        28.600          29.700
 09  1  9  1 32  0.0000000  0  9G 9G 6G11G21G14G 3G18G22G19
  21445786.343    21445785.617    21445785.000   -17945851.077 6 -13983773.019 5
        36.100          35.100
  24783964.093    24783963.766    24783960.496      443912.382      345906.330 1
                        11.000
  24618108.935    24618108.241    24618104.873    -1253715.557 2   -976920.973 2
        13.900          13.900
  24275622.016    24275621.174    24275619.838    -6738052.867 2  -5250427.370 2
        17.800          12.600
  21452137.161    21452136.439    21452135.355   -19863088.933 6 -15477725.906 6
        37.900          38.000
  24722599.500    24722598.662    24722598.080      898378.067 2    700037.508 2
        12.600          17.800
  21497788.092    21497787.323    21497785.542   -20204087.833 6 -15743435.130 6
        38.000          36.300
  20270124.991    20270124.434    20270121.244   -25736643.366 7 -20054517.398 8
        44.400          51.200
  23242106.406    23242104.653    23242102.498    -9428091.926 4  -7346562.561 4
        28.600          29.200
 09  1  9  1 32 30.0000000  0  9G 9G14G 6G11G21G 3G18G22G19
  21448869.697    21448869.027    21448868.264   -17929648.816 6 -13971147.882 5
        36.300          34.900
  21438867.165    21438866.485    21438865.340   -19932823.020 6 -15532064.147 6
        38.100          38.200
  24801697.522    24801697.416    24801699.773      537124.050      418538.742 1
                         9.000
  24600096.458    24600095.601    24600093.648    -1348367.685 2  -1050675.862 2
        13.900          12.600
  24297811.870    24297811.142    24297810.028    -6621442.313 3  -5159562.075 2
        18.600          13.900
  24740619.493    24740618.201    24740617.431      993071.717 2    773824.728 2
        13.900          16.100
  21509963.980    21509963.153    21509961.199   -20140103.113 6 -15693576.909 5
        37.900          35.900
  20271501.864    20271501.316    20271498.057   -25729407.995 7 -20048879.446 8
        44.400          51.200
  23250476.343    23250474.777    23250472.924    -9384105.860 4  -7312287.699 4
        28.400          28.800
 09  1  9  1 33  0.0000000  0  9G 9G14G 6G11G21G 3G18G22G19
  21452091.543    21452090.998    21452090.424   -17912716.547 6 -13957953.902 5
        36.300          35.100
  21425671.442    21425670.764    21425669.578   -20002167.612 6 -15586098.884 6
        38.100          38.200
  24819455.921    24819454.571    24819454.792      630434.790      491250.435 1
                        11.000
  24582136.863    24582135.328    24582132.911    -1442750.424 1  -1124220.814 2
        11.000          12.600
  24320023.411    24320022.432    24320021.092    -6504721.760 3  -5068611.049 2
        19.900          13.900
  24758664.499    24758664.375    24758664.156     1087904.824 1    847720.639 2
        11.000          16.100
  21522201.002    21522200.166    21522198.099   -20075797.969 6 -15643469.008 5
        38.100          35.900
  20272957.153    20272956.598    20272953.239   -25721760.466 7 -20042920.329 8
        44.400          51.100
  23258943.612    23258941.941    23258939.747    -9339611.864 4  -7277617.060 4
        28.800          29.000
 09  1  9  1 33 30.0000000  0  9G 9G14G 6G11G21G 3G18G22G19
  21455452.266    21455451.635    21455451.075   -17895056.180 6 -13944192.582 5
        36.200          35.100
  21412549.625    21412548.859    21412547.738   -20071122.812 6 -15639830.200 6
        38.100          38.400
  24837231.515    24837231.278    24837230.457      723841.249      564034.650 1
         3.000          11.000
  24564227.474    24564226.768    24564224.716    -1536862.658 1  -1197555.011 1
         9.000           9.000
  24342255.436    24342253.837    24342253.133    -6387893.768 2  -4977576.306 2
        17.800          16.100
  24776736.337    24776736.316    24776735.890     1182873.467 1    921722.155 2
        11.000          16.100
  21534498.082    21534497.391    21534495.632   -20011174.508 6 -15593113.061 5
        38.000          35.900
  20274490.616    20274490.059    20274486.824   -25713701.978 7 -20036640.986 8
        44.400          51.200
  23267506.480    23267504.765    23267502.783    -9294613.077 4  -7242553.071 4
        28.400          29.000
 09  1  9  1 34  0.0000000  0  9G 9G14G18G 6G11G21G 3G22G19
  21458951.752    21458951.037    21458950.233   -17876667.021 6 -13929863.366 5
        36.200          34.800
  21399502.687    21399501.888    21399500.619   -20139685.704 6 -15693255.819 6
        38.200          38.500
  21546856.471    21546855.658    21546853.678   -19946232.095 6 -15542508.591 5
        37.900          35.600
  24855023.754    24855023.626    24855021.652      817341.622      636892.105 1
                        11.000
  24546368.077    24546368.260    24546365.322    -1630700.247 1  -1270675.183 1
         6.500           9.000
  24364507.136    24364505.859    24364504.820    -6270959.331 2  -4886458.640 2
        13.900          16.100
  24794834.131    24794833.497    24794834.012     1277976.568 1    995828.446 2
         9.000          16.100
  20276102.597    20276102.057    20276098.841   -25705230.812 7 -20030040.079 8
        44.300          51.100
  23276165.122    23276163.350    23276161.692    -9249109.662 4  -7207095.867 4
        27.900          29.000
 09  1  9  1 34 30.0000000  0  9G 9G14G18G 6G11G21G 3G22G19
  21462589.588    21462588.969    21462588.223   -17857548.642 6 -13914965.932 5
        36.100          34.600
  21386530.464    21386529.697    21386528.522   -20207854.474 6 -15746374.333 6
        38.300          38.600
  21559275.378    21559274.493    21559272.557   -19880970.385 6 -15491655.309 5
        37.700          35.300
  24872830.366    24872829.043    24872833.051      910934.169      709821.363 1
                        11.000
  24528562.942    24528565.859    24528561.405    -1724260.025    -1343578.914 1
         3.000           6.500
  24386778.271    24386776.746    24386776.990    -6153919.903 1  -4795259.157 2
        11.000          13.900
  24812957.896    24812957.019    24812955.884     1373212.001 1   1070037.831 2
         9.000          16.100
  20277793.350    20277792.779    20277789.504   -25696346.070 7 -20023116.902 8
        44.300          51.100
  23284919.958    23284918.201    23284916.586    -9203102.846 4  -7171246.408 4
        27.600          29.200
 09  1  9  1 35  0.0000000  0  9G 9G14G18G 6G11G21G 3G22G19
  21466366.569    21466365.790    21466364.920   -17837702.643 6 -13899501.515 5
        36.500          34.600
  21373633.405    21373632.647    21373631.540   -20275628.932 6 -15799185.590 6
        38.200          38.900
  21571754.768    21571753.939    21571752.097   -19815390.919 6 -15440554.432 5
        37.800          35.500
  24890660.343    24890659.482    24890659.482     1004615.361 1    782819.711 1
         6.500          11.000
  24510813.976    24510812.886    24510812.181    -1817540.117    -1416264.695 1
                         9.000
  24409068.635    24409067.958    24409067.851    -6036778.241 1  -4703980.026 2
         6.500          12.600
  24831104.256    24831103.360    24831103.794     1468575.455 1   1144346.976 2
         6.500          17.000
  20279562.583    20279562.014    20279558.879   -25687048.357 7 -20015871.928 8
        44.200          51.100
  23293770.506    23293768.705    23293766.895    -9156595.071 4  -7135006.578 4
        28.100          29.700
 09  1  9  1 35 30.0000000  0  9G 9G14G18G 6G11G21G 3G22G19
  21470280.568    21470279.985    21470279.189   -17817133.782 6 -13883473.830 5
        36.400          34.700
  21360810.903    21360810.121    21360809.055   -20343011.749 6 -15851691.673 6
        38.300          39.000
  21584293.975    21584293.153    21584290.879   -19749498.375 6 -15389209.593 5
        37.800          35.200
  24908502.134    24908501.501    24908501.279     1098378.386 2    855881.785 1
        12.600          11.000
  24493116.315    24493114.822    24493114.496    -1910541.989    -1488733.654 1
                         9.000
  24431379.181    24431378.605    24431377.432    -5919540.805 1  -4612626.225 1
         9.000          11.000
  24849274.531    24849274.021    24849273.826     1564060.289 1   1218750.699 2
        11.000          16.100
  20281409.655    20281409.153    20281405.963   -25677341.744 7 -20008308.333 8
        44.200          51.000
  23302714.371    23302713.005    23302711.260    -9109592.360 4  -7098381.092 4
        27.600          29.900
 09  1  9  1 36  0.0000000  0  9G 9G14G18G 6G11G21G 3G22G19
  21474331.360    21474330.606    21474329.817   -17795846.997 6 -13866886.725 5
        36.100          34.700
  21348062.275    21348061.481    21348060.536   -20410005.622 6 -15903894.679 6
        38.200          39.100
  21596891.387    21596890.469    21596888.329   -19683297.504 6 -15337624.505 5
        37.500          35.100
  24926358.016    24926357.427    24926357.866     1192216.495 2    929002.396 1
        13.900           6.500
  24475471.829    24475471.536    24475468.997    -2003266.894    -1560986.836 1
                         9.000
  24453707.342    24453706.273    24453704.663    -5802213.851 1  -4521202.674 2
         6.500          13.900
  24867466.778    24867466.202    24867466.165     1659659.840 2   1293243.827 2
        12.600          13.900
  20283333.947    20283333.391    20283330.203   -25667229.629 7 -20000428.762 8
        44.100          51.000
  23311751.666    23311749.985    23311748.495    -9062100.987 4  -7061374.832 4
        27.400          29.900
 09  1  9  1 36 30.0000000  0  9G 9G14G18G 6G11G21G 3G22G19
  21478521.037    21478520.410    21478519.638   -17773829.314 6 -13849730.092 5
        36.000          34.700
  21335390.658    21335389.885    21335388.795   -20476595.936 6 -15955783.228 6
        38.400          39.200
  21609549.894    21609549.208    21609547.232   -19616775.554 6 -15285789.218 5
        37.600          35.100
  24944231.593    24944231.129    24944230.343     1286140.547 2   1002189.953
        16.100           3.000
  24457884.102    24457881.834    24457880.977    -2095698.906    -1633011.748 1
                        11.000
  24476053.425    24476052.863    24476050.082    -5684785.958 1  -4429700.500 2
         6.500          12.600
  24885682.500    24885682.067    24885681.878     1755384.695 2   1367834.611 2
        12.600          12.600
  20285338.019    20285337.486    20285334.200   -25656698.520 7 -19992222.702 8
        44.100          50.900
  23320884.267    23320882.877    23320881.432    -9014108.929 4  -7023978.440 5
        27.400          30.100
 09  1  9  1 37  0.0000000  0  9G 9G14G18G19G 6G11G21G 3G22
  21482848.710    21482847.992    21482847.416   -17751087.475 5 -13832009.177 5
        35.800          34.900
  21322794.718    21322794.049    21322792.915   -20542787.209 6 -16007360.832 6
        38.400          39.300
  21622268.399    21622267.641    21622265.959   -19549939.147 6 -15233708.909 5
        37.400          35.200
  23330111.306    23330109.172    23330107.336    -8965623.891 4  -6986197.894 4
        27.400          29.500
  24962119.474    24962118.733    24962119.383     1380142.101 2   1075437.956
        15.100           3.000
  24440349.164    24440347.767    24440346.259    -2187841.140    -1704810.914 1
                        11.000
  24498415.681    24498415.219    24498413.796    -5567265.237 1  -4338125.988 2
         9.000          12.600
  24903919.742    24903919.427    24903920.113     1851226.123 2   1442516.214 1
        12.600          11.000
  20287420.703    20287420.155    20287416.926   -25645753.786 7 -19983694.337 8
        44.100          50.900
 09  1  9  1 37 30.0000000  0  9G 9G14G18G 6G11G21G 3G22G19
  21487313.110    21487312.418    21487311.784   -17727626.920 5 -13813728.222 5
        35.800          34.900
  21310274.300    21310273.523    21310272.251   -20608583.777 6 -16058630.874 6
        38.500          39.400
  21635045.845    21635045.115    21635043.290   -19482793.518 6 -15181387.645 5
        37.400          35.100
  24980021.657    24980020.490    24980022.251     1474213.468 2   1148740.338 1
        13.900           6.500
  24422872.031    24422871.138    24422866.109    -2279695.972    -1776386.121 1
                        11.000
  24520795.921    24520794.943    24520792.709    -5449658.629 1  -4246484.574 1
         9.000          11.000
  24922176.867    24922177.041    24922178.743     1947176.214 1   1517282.569 1
        11.000          11.000
  20289581.012    20289580.556    20289577.430   -25634400.491 7 -19974847.615 8
        44.000          50.900
  23339429.572    23339428.181    23339426.276    -8916652.802 4  -6948038.607 4
        27.900          29.500
 09  1  9  1 38  0.0000000  0  9G 9G14G18G 6G11G21G 3G22G19
  21491915.160    21491914.452    21491913.608   -17703443.453 5 -13794883.967 5
        35.700          34.600
  21297829.933    21297829.167    21297828.001   -20673978.595 6 -16109587.865 6
        38.500          39.400
  21647882.898    21647882.092    21647880.207   -19415334.492 6 -15128822.174 5
        37.200          34.700
  24997936.300    24997936.336    24997936.181     1568357.092 2   1222098.993 1
        13.900           6.500
  24405450.321    24405450.588    24405444.119    -2371255.756    -1847731.359 1
                         9.000
  24543192.268    24543191.646    24543190.647    -5331963.054 1  -4154773.835 1
         9.000           6.500
  24940458.010    24940457.600    24940458.248     2043237.424 1   1592135.449 1
        11.000           9.000
  20291820.535    20291819.896    20291816.620   -25622633.092 7 -19965678.212 8
        44.000          50.800
  23348841.332    23348839.909    23348838.368    -8867192.453 4  -6909498.097 4
        27.400          29.000
 09  1  9  1 38 30.0000000  0  9G 9G14G18G 6G11G21G 3G22G19
  21496652.949    21496652.351    21496651.528   -17678546.193 6 -13775483.509 5
        36.000          34.700
  21285460.729    21285459.975    21285458.809   -20738979.037 6 -16160237.552 6
        38.600          39.500
  21660778.098    21660777.205    21660775.303   -19347570.863 6 -15076019.348 5
        37.200          34.600
  25015862.772    25015862.107    25015861.589     1662562.080 1   1295505.444 1
         9.000           6.500
  24388077.659    24388077.295    24388072.400    -2462525.913    -1918850.847 1
                         6.500
  24565603.214    24565602.872    24565602.447    -5214189.248 2  -4063002.102
        12.600           3.000
  24958757.998    24958756.896    24958757.598     2139398.589 2   1667066.223 2
        12.600          12.600
  20294136.952    20294136.400    20294133.137   -25610459.717 7 -19956192.464 8
        44.000          50.700
  23358344.753    23358343.345    23358341.338    -8817252.902 4  -6870584.163 4
        27.400          28.400
 09  1  9  1 39  0.0000000  0  9G 9G14G18G 6G11G21G 3G22G19
  21501527.216    21501526.529    21501525.635   -17652932.058 5 -13755524.436 5
        35.800          34.500
  21273167.529    21273166.840    21273165.539   -20803580.170 6 -16210576.091 6
        38.700          39.600
  21673731.531    21673730.722    21673728.945   -19279499.241 6 -15022976.529 5
        37.000          34.700
  25033800.176    25033798.812    25033800.977     1756829.610 1   1368960.571 1
         6.500           6.500
  24370767.230    24370765.478    24370762.486    -2553500.430    -1989740.079 1
                         6.500
  24588032.286    24588030.903    24588030.785    -5096335.132 2  -3971167.705
        17.000
  24977078.379    24977077.094    24977076.154     2235661.028 2   1742075.876 2
        15.100          12.600
  20296531.407    20296530.911    20296527.688   -25597876.218 7 -19946387.138 8
        44.000          50.700
  23367939.929    23367938.038    23367936.069    -8766832.243 4  -6831295.339 4
        27.900          28.400
 09  1  9  1 39 30.0000000  0  8G 9G14G18G 6G11G 3G22G19
  21506538.283    21506537.628    21506536.844   -17626597.772 5 -13735004.217 5
        35.600          34.500
  21260951.427    21260950.705    21260949.453   -20867776.276 6 -16260599.021 6
        38.600          39.700
  21686744.318    21686743.438    21686741.729   -19211116.250 6 -14969691.085 5
        36.500          34.500
  25051752.068    25051751.567    25051751.231     1851161.443     1442465.839 1
                         9.000
  24353512.479    24353512.613    24353509.163    -2644171.876    -2060393.129 1
         3.000           9.000
  24995411.690    24995411.359    24995412.714     2332026.366 1   1817165.759 1
        11.000          11.000
  20299004.948    20299004.393    20299001.158   -25584878.118 7 -19936258.748 8
        43.900          50.600
  23377626.359    23377624.601    23377622.774    -8715928.542 4  -6791630.109 4
        27.400          28.400
 09  1  9  1 40  0.0000000  0  9G 9G14G18G 6G11G21G 3G22G19
  21511687.268    21511686.621    21511685.978   -17599539.478 5 -13713919.831 5
        35.500          34.500
  21248813.528    21248812.763    21248811.538   -20931561.657 6 -16310301.909 6
        38.700          39.900
  21699817.238    21699816.433    21699814.574   -19142417.837 6 -14916159.858 5
        36.800          34.500
  25069715.684    25069715.182    25069714.298     1945559.838     1516023.057 1
                        11.000
  24336317.554    24336316.803    24336315.327    -2734532.892 1  -2130804.335 1
         9.000           9.000
  24632934.334    24632933.302    24632932.566           -.90513         -.11411
        19.300           6.500
  25013768.987    25013768.309    25013769.685     2428496.167 1   1892337.017 1
         6.500          11.000
  20301558.272    20301557.699    20301554.406   -25571460.508 7 -19925803.467 8
        43.900          50.500
  23387405.344    23387403.930    23387402.096    -8664538.536 4  -6751585.961 4
        27.600          28.400
 09  1  9  1 40 30.0000000  0  9G 9G14G18G 6G11G21G 3G22G19
  21516972.174    21516971.596    21516970.638   -17571767.866 5 -13692279.617 5
        35.500          34.400
  21236752.024    21236751.277    21236750.073   -20994944.830 6 -16359691.383 6
        38.800          40.000
  21712948.260    21712947.428    21712945.636   -19073414.532 6 -14862391.053 5
        36.700          34.700
  25087691.282    25087689.268    25087688.342     2040012.278     1589622.325 1
                        11.000
  24319180.622    24319179.898    24319177.217    -2824590.832 1  -2200979.334 1
         6.500          11.000
  24655407.360    24655406.067    24655404.078      118093.955 2     92021.843 1
        16.100           9.000
  25032146.017    25032145.390    25032146.405     2525058.283 1   1967580.236 2
        11.000          12.600
  20304189.640    20304189.073    20304185.687   -25557632.809 7 -19915028.635 8
        43.900          50.400
  23397275.471    23397273.607    23397271.389    -8612673.950 4  -6711172.011 4
        28.100          28.100
 09  1  9  1 41  0.0000000  0  9G 9G14G18G 6G11G21G 3G22G19
  21522392.410    21522391.605    21522390.386   -17543285.626 5 -13670085.666 5
        35.500          33.900
  21224767.108    21224766.402    21224765.088   -21057926.265 6 -16408767.815 6
        39.000          40.100
  21726136.571    21726135.744    21726134.068   -19004108.488 6 -14808386.351 5
        36.500          34.400
  25105671.988    25105670.214    25105669.346     2134514.329     1663260.192 1
                         6.500
  24302098.400    24302098.803    24302097.187    -2914344.817    -2270917.470 1
         3.000          11.000
  24677893.208    24677892.284    24677889.677      236258.179 1    184097.792 2
        11.000          12.600
  25050538.770    25050538.337    25050539.522     2621708.228 1   2042891.870 2
         9.000          12.600
  20306898.607    20306898.103    20306894.818   -25543396.517 7 -19903935.420 8
        43.900          50.400
  23407234.191    23407232.567    23407230.613    -8560338.914 4  -6670391.473 4
        27.600          28.100
 09  1  9  1 41 30.0000000  0  9G 9G14G18G 6G11G21G 3G22G19
  21527947.010    21527946.192    21527945.239   -17514094.829 5 -13647339.587 5
        35.200          33.900
  21212858.661    21212857.840    21212856.643   -21120505.852 6 -16457531.121 6
        39.100          40.200
  21739382.625    21739381.742    21739379.711   -18934501.458 6 -14754147.109 5
        36.500          34.000
  25123666.455    25123664.463    25123665.558     2229062.442     1736932.080 1
                         9.000
  24285075.599    24285074.587    24285074.908    -3003792.919    -2340617.257 1
                         9.000
  24700391.248    24700389.296    24700388.239      354488.744      276225.431 2
         3.000          13.900
  25068943.638    25068942.656    25068945.565     2718441.540     2118268.536 1
                        11.000
  20309685.252    20309684.727    20309681.504   -25528752.544 7 -19892524.530 8
        43.800          50.400
  23417282.215    23417280.201    23417278.693    -8507536.053 4  -6629246.400 4
        26.800          28.600
 09  1  9  1 42  0.0000000  0  9G 9G14G18G 6G11G21G 3G22G19
  21533637.505    21533636.860    21533635.888   -17484191.264 5 -13624038.113 5
        35.400          34.400
  21201027.851    21201027.047    21201025.749   -21182677.381 6 -16505976.461 6
        39.200          40.300
  21752686.440    21752685.656    21752683.636   -18864588.965 6 -14699669.844 5
        36.500          34.000
  25141665.435    25141665.636    25141665.567     2323658.904     1810643.585 1
                         9.000
  24268114.403    24268116.190    24268112.330    -3092927.642    -2410072.887 1
                         9.000
  24722902.073    24722900.849    24722900.064      472788.673      368407.074 2
         3.000          15.100
  25087371.269    25087370.919    25087368.319     2815261.350     2193712.536 1
                         9.000
  20312550.567    20312550.021    20312546.733   -25513695.578 7 -19880791.830 8
        43.800          50.300
  23427419.517    23427418.150    23427416.617    -8454262.473 4  -6587734.537 4
        26.800          28.800
 09  1  9  1 42 30.0000000  0  9G 9G14G18G 6G11G21G 3G22G19
  21539463.651    21539463.029    21539462.039   -17453574.850 5 -13600181.167 5
        35.600          34.300
  21189275.070    21189274.331    21189273.019   -21244438.398 6 -16554101.920 6
        39.200          40.500
  21766048.736    21766047.848    21766045.873   -18794370.245 6 -14644953.965 5
        36.200          34.000
  25159677.764    25159676.605    25159675.543     2418302.940     1884392.119 2
                        12.600
  24251213.919    24251212.658    24251210.176    -3181744.825    -2479281.124 1
         3.000          11.000
  24745426.661    24745426.820    24745424.786      591156.885      460641.937 2
         3.000          17.000
  25105812.419    25105810.642    25105810.550     2912166.372 1   2269222.786 1
         6.500           9.000
  20315494.580    20315494.096    20315490.858   -25498224.241 7 -19868736.239 8
        43.700          50.200
  23437647.190    23437645.486    23437643.360    -8400518.612 4  -6545856.208 4
        27.400          28.400
 09  1  9  1 43  0.0000000  0  9G 9G14G18G 6G11G21G 3G22G19
  21545424.627    21545423.817    21545422.949   -17422249.790 5 -13575772.024 5
        35.300          34.100
  21177600.009    21177599.252    21177597.995   -21305790.832 6 -16601909.002 6
        39.300          40.600
  21779468.395    21779467.613    21779465.550   -18723848.998 6 -14590002.352 5
        36.200          33.900
  25177692.139    25177693.980    25177691.986     2512988.626     1958173.104 2
         3.000          13.900
  24234372.849    24234373.171    24234370.563    -3270245.038    -2548242.295 2
         3.000          12.600
  24767962.077    24767962.845    24767961.111      709588.352 1    552926.116 2
         6.500          16.100
  25124267.971    25124267.450    25124266.692     3009150.032 1   2344794.491 1
         6.500          11.000
  20318517.112    20318516.567    20318513.262   -25482341.127 7 -19856359.787 8
        43.600          50.100
  23447963.111    23447961.246    23447958.860    -8346309.702 4  -6503615.503 4
        27.600          28.100
 09  1  9  1 43 30.0000000  0  9G 9G14G18G 6G11G21G 3G22G19
  21551519.514    21551518.641    21551517.717   -17390221.331 5 -13550814.793 5
        35.100          34.000
  21166002.259    21166001.485    21166000.236   -21366737.629 6 -16649400.006 6
        39.300          40.700
  21792944.842    21792944.012    21792941.957   -18653030.111 6 -14534818.808 5
        36.200          33.800
  25195718.647    25195716.931    25195719.463     2607709.233     2031981.380 2
                        13.900
  24217592.037    24217592.017    24217590.215    -3358429.728 1  -2616957.606 2
         6.500          15.100
  24790509.692    24790510.449    24790509.206      828076.891 1    645254.799 2
         9.000          16.100
  25142737.458    25142735.784    25142736.348     3106205.816     2420422.427 1
         3.000          11.000
  20321617.045    20321616.562    20321613.276   -25466050.438 7 -19843665.741 8
        43.600          50.100
  23458365.962    23458363.937    23458362.129    -8291641.872 4  -6461017.203 4
        26.800          28.100
 09  1  9  1 44  0.0000000  0  9G 9G14G18G 6G11G21G 3G22G19
  21557748.928    21557748.288    21557747.422   -17357483.931 5 -13525305.132 5
        35.200          34.000
  21154483.130    21154482.350    21154481.125   -21427271.175 6 -16696568.995 6
        39.500          40.800
  21806478.916    21806478.072    21806476.352   -18581907.725 6 -14479398.769 5
        36.000          34.000
  25213748.284    25213746.086    25213747.972     2702468.842     2105819.998 1
                         9.000
  24200873.385    24200872.858    24200871.057    -3446289.765 2  -2685419.981 2
        12.600          15.100
  24813070.397    24813069.441    24813068.956      946627.021 1    737631.467 2
         9.000          13.900
  25161221.327    25161219.551    25161218.519     3203337.480     2496109.436 1
                         9.000
  20324795.912    20324795.412    20324792.178   -25449345.493 7 -19830648.900 8
        43.600          50.100
  23468856.622    23468855.009    23468853.269    -8236511.006 4  -6418058.090 4
        26.500          28.100
 09  1  9  1 44 30.0000000  0  9G 9G14G18G 6G11G21G 3G22G19
  21564113.849    21564113.305    21564112.445   -17324036.151 5 -13499241.920 5
        35.100          34.000
  21143043.286    21143042.536    21143041.306   -21487388.081 6 -16743413.328 6
        39.500          41.000
  21820070.883    21820070.148    21820068.469   -18510480.267 5 -14423741.019 5
        35.800          33.800
  25231791.239    25231791.266    25231788.876     2797267.128     2179688.774 1
                         9.000
  24184218.602    24184217.933    24184215.314    -3533819.957 2  -2753625.336 2
        13.900          17.000
  24835642.226    24835640.975    24835639.369     1065239.161 1    830056.460 1
         9.000          11.000
  25179714.566    25179716.648    25179718.187     3300544.731     2571856.210 1
                         6.500
  20328054.095    20328053.524    20328050.271   -25432223.766 7 -19817307.295 8
        43.500          50.000
  23479436.079    23479434.300    23479432.395    -8180916.532 4  -6374737.731 4
        26.500          28.100
 09  1  9  1 45  0.0000000  0  7G 9G14G18G11G19G 3G22
  21570609.531    21570608.855    21570607.895   -17289901.881 5 -13472643.789 5
        34.800          33.800
  21131678.534    21131677.842    21131676.553   -21547109.799 6 -16789949.727 6
        39.500          41.000
  21833716.908    21833715.993    21833714.325   -18438771.066 5 -14367863.722 5
        35.700          33.600
  24167620.255    24167619.927    24167618.415    -3621040.663 2  -2821589.531 3
        16.100          18.600
  23490098.742    23490096.771    23490095.029    -8124883.035 4  -6331075.286 4
        26.200          27.600
  25198227.971    25198225.139    25198225.059     3397802.534     2647641.557 2
                        13.900
  20331387.244    20331386.751    20331383.487   -25414707.609 7 -19803658.344 8
        43.400          49.900
 09  1  9  1 45 30.0000000  0  7G 9G14G18G11G19G 3G22
  21577235.698    21577235.060    21577234.356   -17255080.001 5 -13445509.857 5
        34.900          33.600
  21120389.757    21120389.010    21120387.744   -21606432.699 6 -16836175.354 6
        39.500          41.100
  21847416.591    21847415.701    21847414.015   -18366777.983 5 -14311765.225 5
        35.300          33.500
  24151081.741    24151081.452    24151081.075    -3707946.503 2  -2889308.358 3
        17.800          19.900
  23500844.869    23500843.361    23500841.631    -8068410.235 4  -6287070.509 4
        26.800          27.600
  25216743.139    25216741.393    25216740.641     3495110.682     2723465.956 2
         3.000          15.100
  20334796.112    20334795.585    20334792.283   -25396794.147 7 -19789699.798 8
        43.400          49.800
 09  1  9  1 46  0.0000000  0  7G 9G14G18G11G19G 3G22
  21584001.860    21584001.126    21584000.011   -17219525.070 5 -13417804.707 5
        34.900          33.500
  21109186.021    21109185.217    21109184.004   -21665308.839 6 -16882052.859 6
        39.500          41.100
  21861179.271    21861178.373    21861176.731   -18294454.660 5 -14255409.399 5
        35.100          33.100
  24134613.623    24134613.712    24134612.042    -3794487.789 2  -2956743.114 3
        17.800          19.300
  23511683.580    23511681.626    23511680.121    -8011453.189 4  -6242688.409 4
        25.900          27.600
  25235276.777    25235275.954    25235275.721     3592513.249     2799364.069 2
         3.000          16.100
  20338289.481    20338288.955    20338285.705   -25378436.302 7 -19775394.984 8
        43.400          49.800
 09  1  9  1 46 30.0000000  0  7G 9G14G18G11G19G 3G22
  21590902.392    21590901.673    21590900.805   -17183262.610 5 -13389548.248 5
        34.800          34.000
  21098062.791    21098062.099    21098060.802   -21723761.423 6 -16927600.320 6
        39.600          41.200
  21875000.063    21874999.256    21874997.360   -18221826.438 5 -14198815.983 5
        35.400          33.100
  24118211.379    24118210.814    24118207.896    -3880686.435 2  -3023910.872 3
        17.000          18.600
  23522609.641    23522607.549    23522605.806    -7954038.418 4  -6197949.634 4
        26.200          27.100
  25253826.462    25253826.237    25253824.537     3689983.473 1   2875314.884 2
         6.500          17.000
  20341862.802    20341862.260    20341859.091   -25359658.524 7 -19760762.948 8
        43.300          49.800
 09  1  9  1 47  0.0000000  0  7G 9G14G18G11G19G 3G22
  21597933.967    21597933.292    21597932.507   -17146310.612 5 -13360754.487 5
        34.700          34.000
  21087017.159    21087016.477    21087015.174   -21781806.352 6 -16972830.129 6
        39.600          41.300
  21888875.394    21888874.536    21888872.838   -18148910.931 5 -14141998.710 5
        35.300          33.000
  24101869.975    24101869.810    24101867.367    -3966556.616 2  -3090822.682 3
        17.000          18.600
  23533619.011    23533617.223    23533614.826    -7896184.956 4  -6152869.010 4
        27.100          26.800
  25272381.660    25272379.848    25272380.299     3787501.312     2951302.772 2
                        12.600
  20345512.867    20345512.341    20345509.047   -25340477.433 7 -19745816.642 8
        43.300          49.700
 09  1  9  1 47 30.0000000  0  7G 9G14G18G11G19G 3G22
  21605098.187    21605097.331    21605096.194   -17108664.640 5 -13331419.963 5
        35.100          33.800
  21076050.600    21076049.787    21076048.559   -21839436.495 6 -17017736.727 6
        39.500          41.400
  21902806.456    21902805.593    21902803.868   -18075702.984 5 -14084953.565 5
        35.100          32.800
  24085592.509    24085592.607    24085591.171    -4052089.940 2  -3157472.038 3
        16.100          18.600
  23544711.886    23544710.167    23544708.314    -7837889.190 4  -6107443.732 4
        25.600          26.500
  25290948.168    25290946.459    25290945.408     3885070.018     3027330.337 1
                        11.000
  20349240.835    20349240.259    20349236.944   -25320887.066 7 -19730551.422 8
        43.200          49.600
 09  1  9  1 48  0.0000000  0  7G 9G14G18G11G19G 3G22
  21612393.345    21612392.658    21612391.841   -17070325.803 5 -13301545.543 5
        34.800          33.600
  21065163.059    21065162.331    21065161.173   -21896650.480 6 -17062319.044 6
        39.500          41.500
  21916793.253    21916792.391    21916790.443   -18002202.686 5 -14027680.615 5
        35.100          32.700
  24069381.757    24069381.011    24069379.701    -4137283.152 2  -3223856.351 3
        15.100          18.600
  23555889.127    23555887.517    23555885.133    -7779152.704 4  -6061675.062 4
        24.900          26.200
  25309524.546    25309523.869    25309525.649     3982687.548     3103395.869 2
                        12.600
  20353046.696    20353046.159    20353042.862   -25300886.810 7 -19714966.803 8
        43.200          49.500
 09  1  9  1 48 30.0000000  0  7G 9G14G18G11G19G 3G22
  21619820.286    21619819.546    21619819.116   -17031296.655 5 -13271133.220 5
        34.400          33.800
  21054354.718    21054353.936    21054352.749   -21953448.749 6 -17106577.427 6
        39.500          41.600
  21930835.145    21930834.273    21930832.305   -17928412.208 5 -13970181.547 5
        35.100          32.600
  24053235.297    24053234.260    24053232.925    -4222135.110 2  -3289974.750 3
        16.100          18.600
  23567149.452    23567147.655    23567146.151    -7719979.102 4  -6015565.772 4
        24.600          27.600
  25328109.128    25328108.549    25328109.691     4080350.043     3179496.466 2
                        12.600
  20356930.378    20356929.857    20356926.611   -25280477.734 7 -19699063.627 8
        43.100          49.500
 09  1  9  1 49  0.0000000  0  7G 9G14G18G11G19G 3G22
  21627379.360    21627378.640    21627377.529   -16991575.406 5 -13240181.597 5
        34.700          33.500
  21043626.372    21043625.555    21043624.317   -22009826.904 6 -17150508.452 6
        39.400          41.700
  21944932.805    21944931.898    21944929.957   -17854328.731 5 -13912454.173 5
        34.800          32.300
  24037154.296    24037153.731    24037151.764    -4306639.902 2  -3355822.625 3
        17.000          18.600
  23578493.112    23578491.428    23578489.788    -7660367.559 4  -5969115.222 4
        25.300          27.600
  25346704.389    25346702.266    25346701.808     4178057.576     3255632.135 1
                        11.000
  20360892.453    20360891.947    20360888.758   -25259656.634 7 -19682839.395 8
        43.000          49.500
 09  1  9  1 49 30.0000000  0  6G 9G14G18G11G19G22
  21635068.169    21635067.597    21635066.859   -16951168.500 5 -13208695.694 5
        34.600          33.500
  21032977.014    21032976.218    21032975.090   -22065789.164 6 -17194115.400 6
        39.300          41.900
  21959084.866    21959084.027    21959082.101   -17779958.016 5 -13854502.971 5
        34.600          32.000
  24021139.041    24021138.227    24021136.808    -4390799.887 2  -3421401.824 3
        17.000          18.600
  23589918.498    23589916.672    23589915.337    -7600324.768 4  -5922328.643 4
        24.200          27.400
  20364932.135    20364931.594    20364928.270   -25238428.451 7 -19666297.951 8
        43.000          49.300
 09  1  9  1 50  0.0000000  0  6G 9G14G18G11G19G22
  21642887.229    21642886.435    21642885.868   -16910080.239 5 -13176678.873 5
        34.300          33.600
  21022406.587    21022405.854    21022404.645   -22121336.968 6 -17237399.397 6
        39.300          41.900
  21973291.283    21973290.365    21973288.310   -17705303.847 5 -13796330.898 5
        34.600          31.800
  24005190.886    24005189.498    24005187.639    -4474615.483 2  -3486712.673 3
        17.800          19.300
  23601425.614    23601423.935    23601422.436    -7539856.145 4  -5875210.240 4
        24.200          27.100
  20369048.688    20369048.111    20369044.838   -25216796.022 7 -19649441.512 8
        42.900          49.300
 09  1  9  1 50 30.0000000  0  6G 9G14G18G11G19G22
  21650839.256    21650838.554    21650837.852   -16868290.691 5 -13144115.582 5
        34.000          33.200
  21011919.236    21011918.493    21011917.307   -22176448.465 6 -17280343.413 7
        39.300          42.100
  21987555.463    21987554.562    21987552.368   -17630345.522 5 -13737921.821 5
        34.400          31.500
  23989310.641    23989309.785    23989307.841    -4558062.699 2  -3551736.479 3
        17.800          19.900
  23613017.048    23613015.226    23613014.039    -7478942.594 3  -5827745.129 4
        23.800          27.100
  20373246.088    20373245.589    20373242.440   -25194737.924 7 -19632253.381 8
        42.900          49.300
 09  1  9  1 51  0.0000000  0  6G 9G14G18G11G19G22
  21658921.385    21658920.757    21658920.062   -16825819.220 5 -13111020.933 5
        34.000          33.200
  21001511.942    21001511.192    21001509.871   -22231139.874 6 -17322960.089 7
        39.400          42.200
  22001873.822    22001872.913    22001870.909   -17555101.373 5 -13679290.028 5
        34.100          31.800
  23973498.216    23973497.612    23973495.362    -4641156.708 2  -3616485.028 3
        17.800          19.300
  23624689.380    23624687.476    23624685.709    -7417604.222 4  -5779949.000 4
        24.200          26.800
  20377521.365    20377520.762    20377517.611   -25172271.749 7 -19614747.270 8
        42.800          49.200
 09  1  9  1 51 30.0000000  0  6G 9G14G18G11G19G22
  21667133.638    21667132.938    21667132.079   -16782663.801 5 -13077393.333 5
        34.000          33.100
  20991185.192    20991184.428    20991183.054   -22285407.208 6 -17365246.316 7
        39.300          42.300
  22016246.936    22016246.261    22016244.318   -17479568.901 5 -13620433.568 5
        34.100          31.500
  23957753.327    23957752.889    23957751.666    -4723891.397 2  -3680953.621 3
        17.800          19.300
  23636443.001    23636441.345    23636439.624    -7355839.757 4  -5731820.862 4
        24.200          27.100
  20381874.694    20381874.182    20381871.087   -25149393.799 7 -19596920.296 8
        42.700          49.200
 09  1  9  1 52  0.0000000  0  6G 9G18G11G19G14G22
  21675475.046    21675474.548    21675473.784   -16738828.427 5 -13043235.900 5
        34.100          33.100
  22030674.525    22030673.835    22030671.894   -17403751.025 5 -13561354.709 5
        33.900          31.300
  23942078.179    23942077.910    23942076.100    -4806266.544 2  -3745142.041 3
        17.000          19.300
  23648275.850    23648274.174    23648273.013    -7293654.058 4  -5683364.484 4
        24.600          26.500
  20980938.744    20980937.943    20980936.736   -22339252.113 6 -17407203.378 7
        39.100          42.500
  20386306.269    20386305.729    20386302.498   -25126106.779 7 -19578774.566 8
        42.700          49.200
 09  1  9  1 52 30.0000000  0  6G 9G18G11G19G14G22
  21683946.481    21683945.705    21683944.962   -16694312.443 5 -13008548.116 5
        33.900          33.400
  22045156.847    22045155.931    22045154.233   -17327645.915 5 -13502052.035 5
        33.400          31.100
  23926472.676    23926471.866    23926470.288    -4888277.289 2  -3809046.499 3
        16.100          20.500
  23660190.098    23660188.848    23660186.447    -7231046.370 4  -5634579.264 4
        24.900          25.600
  20970773.458    20970772.745    20970771.528   -22392670.646 6 -17448828.200 7
        39.300          42.500
  20390815.896    20390815.404    20390812.265   -25102407.802 7 -19560307.828 8
        42.600          49.100
 09  1  9  1 53  0.0000000  0  6G 9G18G11G19G14G22
  21692545.583    21692544.853    21692544.424   -16649122.814 5 -12973335.430 5
        33.600          33.500
  22059692.675    22059691.908    22059690.130   -17251259.650 5 -13442530.281 5
        33.400          31.300
  23910933.743    23910934.165    23910932.826    -4969926.240 2  -3872669.047 3
        13.900          21.600
  23672182.675    23672181.302    23672179.084    -7168024.286 4  -5585471.160 4
        24.600          24.900
  20960688.664    20960687.859    20960686.564   -22445667.327 6 -17490124.308 7
        39.300          42.600
  20395403.127    20395402.578    20395399.474   -25078302.063 7 -19541524.138 8
        42.600          49.100
 09  1  9  1 53 30.0000000  0  6G 9G18G11G19G14G22
  21701273.425    21701272.808    21701272.115   -16603257.411 5 -12937596.147 5
        33.800          33.200
  22074282.647    22074281.835    22074280.056   -17174589.722 5 -13382787.486 5
        33.200          31.300
  23895467.155    23895466.350    23895465.525    -5051207.135 2  -3936004.811 3
        12.600          21.100
  23684255.345    23684253.301    23684251.289    -7104586.965 4  -5536039.466 4
        24.900          25.300
  20950684.806    20950684.031    20950682.679   -22498237.981 6 -17531088.447 7
        39.400          42.700
  20400068.267    20400067.710    20400064.693   -25053786.052 7 -19522420.752 8
        42.500          49.000
 09  1  9  1 54  0.0000000  0  6G 9G18G11G19G14G22
  21710129.894    21710129.154    21710128.245   -16556717.814 5 -12901331.532 5
        33.800          33.100
  22088926.528    22088925.537    22088923.672   -17097636.433 5 -13322823.891 5
        33.100          31.100
  23880070.539    23880070.116    23880068.890    -5132117.409 2  -3999051.770 3
        12.600          21.100
  23696405.201    23696403.311    23696401.299    -7040736.236 4  -5486285.633 4
        24.600          25.300
  20940762.174    20940761.518    20940760.237   -22550381.044 6 -17571719.404 7
        39.400          42.800
  20404811.760    20404811.193    20404808.086   -25028859.376 7 -19502997.368 8
        42.400          49.000
 09  1  9  1 54 30.0000000  0  6G 9G18G11G19G14G22
  21719113.448    21719112.609    21719111.713   -16509509.995 5 -12864546.223 5
        33.800          33.200
  22103623.434    22103622.533    22103620.560   -17020404.588 5 -13262643.249 5
        33.200          31.500
  23864744.651    23864743.895    23864742.291    -5212658.241 2  -4061810.841 3
        12.600          19.900
  23708632.948    23708631.634    23708629.547    -6976478.692 4  -5436214.817 4
        24.600          25.900
  20930920.539    20930919.762    20930918.423   -22602099.812 6 -17612019.739 7
        39.500          42.800
  20409632.504    20409631.986    20409628.849   -25003526.160 7 -19483257.203 8
        42.400          48.900
 09  1  9  1 55  0.0000000  0  6G 9G18G11G19G14G22
  21728224.107    21728223.251    21728222.515   -16461633.055 5 -12827239.519 5
        33.600          33.200
  22118373.481    22118372.576    22118370.508   -16942892.509 5 -13202244.234 5
        33.100          31.100
  23849488.991    23849488.516    23849486.826    -5292824.953 2  -4124278.390 3
        12.600          19.900
  23720938.357    23720936.592    23720934.716    -6911814.212 3  -5385826.915 4
        23.800          25.900
  20921160.050    20921159.355    20921158.059   -22653390.771 6 -17651986.714 7
        39.500          43.000
  20414531.169    20414530.584    20414527.389   -24977783.949 7 -19463198.335 8
        42.400          48.800
 09  1  9  1 55 30.0000000  0  6G 9G18G11G19G14G22
  21737462.127    21737461.302    21737460.756   -16413085.419 5 -12789410.192 5
        33.100          33.100
  22133177.358    22133176.429    22133174.511   -16865097.073 5 -13141624.429 5
        33.000          30.800
  23834306.644    23834306.471    23834304.012    -5372611.342 2  -4186449.576 3
        16.100          19.300
  23733320.964    23733319.201    23733317.428    -6846741.924 3  -5335121.229 4
        22.600          25.900
  20911481.930    20911481.194    20911479.785   -22704249.828 6 -17691617.143 7
        39.600          43.000
  20419508.161    20419507.663    20419504.508   -24951629.101 7 -19442817.934 8
        42.400          48.700
 09  1  9  1 56  0.0000000  0  6G 9G18G11G19G14G22
  21746826.839    21746826.227    21746825.350   -16363872.884 5 -12751062.768 5
        33.200          32.600
  22148034.273    22148033.390    22148031.480   -16787023.407 5 -13080787.811 5
        32.800          30.800
  23819197.456    23819196.667    23819193.607    -5452018.752 2  -4248325.467 3
        17.000          19.300
  23745780.009    23745778.220    23745776.896    -6781267.496 3  -5284102.203 4
        22.600          26.800
  20901885.484    20901884.721    20901883.403   -22754679.980 6 -17730913.363 7
        39.700          43.200
  20424563.003    20424562.473    20424559.332   -24925065.732 7 -19422119.206 8
        42.400          48.700
 09  1  9  1 56 30.0000000  0  6G 9G18G11G19G14G22
  21756318.355    21756317.647    21756316.576   -16313995.851 5 -12712197.549 5
        33.200          32.100
  22162944.093    22162943.313    22162941.463   -16708671.288 5 -13019734.218 5
        33.000          30.600
  23804158.156    23804157.827    23804155.230    -5531043.954 2  -4309903.524 2
        16.100          17.800
  23758315.770    23758313.892    23758312.490    -6715392.939 3  -5232771.382 4
        22.600          26.500
  20892370.962    20892370.194    20892368.801   -22804679.526 6 -17769874.043 7
        39.800          43.300
  20429695.773    20429695.236    20429692.092   -24898093.106 7 -19401101.575 8
        42.300          48.600
 09  1  9  1 57  0.0000000  0  6G 9G18G11G19G14G22
  21765935.155    21765934.435    21765933.491   -16263458.822 5 -12672818.050 5
        33.100          32.000
  22177906.328    22177905.351    22177903.806   -16630043.795 5 -12958466.041 5
        32.000          30.400
  23789192.184    23789192.040    23789190.262    -5609686.797 2  -4371183.637 2
        16.100          17.800
  23770926.811    23770924.858    23770922.987    -6649122.772 3  -5181132.290 4
        22.600          26.500
  20882938.105    20882937.266    20882935.833   -22854249.811 6 -17808500.236 7
        39.700          43.400
  20434905.977    20434905.425    20434902.229   -24870713.346 7 -19379766.697 8
        42.300          48.500
 09  1  9  1 57 30.0000000  0  6G 9G18G11G19G14G22
  21775676.927    21775676.294    21775675.402   -16212265.145 5 -12632926.872 5
        33.000          32.000
  22192920.570    22192919.760    22192918.049   -16551143.107 5 -12896984.997 5
        32.300          30.200
  23774300.534    23774299.889    23774297.898    -5687945.943 2  -4432164.765 2
        17.800          17.800
  23783612.507    23783610.741    23783608.662    -6582460.351 3  -5129187.555 4
        23.000          27.100
  20873586.714    20873585.887    20873584.603   -22903391.204 6 -17846792.224 7
        39.700          43.600
  20440193.284    20440192.819    20440189.640   -24842927.797 7 -19358115.618 8
        42.300          48.400
 09  1  9  1 58  0.0000000  0  6G 9G18G11G19G14G22
  21785543.752    21785542.936    21785542.359   -16160414.514 5 -12592523.786 5
        32.700          32.300
  22207987.387    22207986.461    22207984.832   -16471967.772 5 -12835289.934 5
        32.300          30.800
  23759482.229    23759481.514    23759479.085    -5765816.521 3  -4492843.165 2
        18.600          17.000
  23796372.324    23796370.265    23796368.091    -6515406.115 3  -5076937.527 4
        23.400          26.200
  20864317.521    20864316.775    20864315.502   -22952100.871 6 -17884747.804 7
        39.700          43.800
  20445558.436    20445557.930    20445554.829   -24814733.817 7 -19336146.284 8
        42.200          48.400
 09  1  9  1 58 30.0000000  0  6G 9G18G11G19G14G22
  21795536.089    21795535.372    21795534.566   -16107905.049 5 -12551607.312 5
        33.100          32.400
  22223106.872    22223105.912    22223104.184   -16392514.947 5 -12773378.658 5
        32.000          30.800
  23744738.531    23744738.123    23744736.019    -5843292.552 2  -4553214.109 2
        17.800          17.800
  23809206.619    23809205.300    23809203.748    -6447959.097 3  -5024381.423 4
        23.800          26.200
  20855131.363    20855130.671    20855129.281   -23000374.393 6 -17922363.530 7
        39.700          43.800
  20451001.981    20451001.461    20450998.219   -24786128.433 7 -19313856.373 8
        42.200          48.300
 09  1  9  1 59  0.0000000  0  6G 9G18G11G19G14G22
  21805653.329    21805652.721    21805651.980   -16054737.868 5 -12510178.345 5
        32.800          32.400
  22238278.887    22238277.950    22238276.114   -16312784.303 5 -12711250.894 5
        31.800          30.100
  23730070.950    23730070.690    23730069.179    -5920370.981 2  -4613275.224 3
        17.000          18.600
  23822116.464    23822114.583    23822112.659    -6380121.215 3  -4971520.743 4
        23.400          25.600
  20846028.569    20846027.801    20846026.442   -23048210.331 6 -17959638.282 7
        39.700          44.000
  20456523.860    20456523.262    20456520.095   -24757110.896 7 -19291245.304 8
        42.200          48.200
 09  1  9  1 59 30.0000000  0  6G 9G18G11G19G14G22
  21815894.408    21815893.692    21815892.861   -16000921.270 5 -12468243.337 5
        32.800          32.100
  22253502.387    22253501.674    22253499.963   -16232783.028 5 -12648912.246 4
        31.600          29.900
  23715478.183    23715477.743    23715476.565    -5997055.153 3  -4673029.129 3
        18.600          19.300
  23835097.382    23835095.600    23835094.598    -6311900.501 3  -4918361.726 4
        22.600          25.300
  20837008.032    20837007.287    20837005.857   -23095613.564 6 -17996575.864 7
        39.800          44.000
  20462123.010    20462122.497    20462119.338   -24727687.006 7 -19268317.596 8
        42.300          48.200
                            4 15
RINEX FILE SPLICE                                           COMMENT
teqc  2008Oct2      WCDA Operator       20090109 03:18:30UTCCOMMENT
STATION INFORMATION EFFECTIVE FROM: 2001/01/13 18:20:00     COMMENT
                                TO: CURRENT DATE (above)    COMMENT
BIT 2 OF LLI FLAGS (+4) DATA COLLECTED UNDER 'AS' CONDITION COMMENT
L1 PHASE CENTRE 0.110m ABOVE ARP                            COMMENT
L2 PHASE CENTRE 0.128m ABOVE ARP                            COMMENT
where ARP is the Antenna Reference Point for HI measurement COMMENT
CONTACT gps@pgc.nrcan.gc.ca FOR ADDITIONAL INFORMATION      COMMENT
    P1 =    P1  TurboRogue; =    Y1  Benchmark              COMMENT
    L1 = L1(CA)                                             COMMENT
    P2 =    P2  TurboRogue; =    Y2  Benchmark              COMMENT
    L2 = L2(P2) TurboRogue; = L2(Y2) Benchmark              COMMENT
 SNR is mapped to RINEX snr flag value [0-9]                COMMENT
  L1 & L2: min(max(int(snr_dBHz/6), 0), 9)                  COMMENT
 09  1  9  2  0  0.0000000  0  6G 9G18G11G19G14G22
  21826258.456    21826257.641    21826256.874   -15946458.064 5 -12425804.476 5
        32.600          32.100
  22268777.467    22268776.710    22268774.728   -16152512.834 5 -12586364.053 4
        31.600          29.900
  23700961.261    23700960.771    23700959.603    -6073343.758 3  -4732474.793 3
        19.300          19.900
  23848152.945    23848151.105    23848148.565    -6243300.581 4  -4864907.261 4
        24.200          24.900
  20828069.726    20828068.912    20828067.535   -23142584.699 6 -18033176.746 7
        39.700          44.100
  20467799.346    20467798.837    20467795.631   -24697857.949 7 -19245074.175 8
        42.200          48.100
 09  1  9  2  0 30.0000000  0  6G 9G18G11G19G14G22
  21836745.163    21836744.431    21836743.509   -15891351.050 5 -12382863.946 5
        32.700          32.300
  22284103.551    22284102.788    22284100.713   -16071974.925 5 -12523607.256 4
        31.600          29.500
  23686519.642    23686519.575    23686518.058    -6149234.792 3  -4791610.652 3
        19.300          19.900
  23861277.171    23861275.320    23861274.239    -6174324.555 3  -4811159.713 4
        23.000          24.600
  20819213.617    20819212.896    20819211.544   -23189123.196 6 -18069440.503 7
        39.700          44.300
  20473552.520    20473551.976    20473548.775   -24667624.575 7 -19221515.701 8
        42.200          48.000
 09  1  9  2  1  0.0000000  0  6G 9G18G11G19G14G22
  21847354.114    21847353.335    21847352.772   -15835599.833 5 -12339421.443 5
        32.400          32.400
  22299480.543    22299479.733    22299477.598   -15991168.570 5 -12460641.276 4
        31.600          29.500
  23672155.017    23672154.699    23672152.616    -6224723.607 3  -4850433.111 3
        19.900          20.500
  23874474.898    23874473.704    23874471.609    -6104972.648 3  -4757119.261 4
        23.000          24.600
  20810440.471    20810439.721    20810438.454   -23235226.253 6 -18105364.962 7
        39.600          44.400
  20479383.209    20479382.674    20479379.421   -24636984.230 7 -19197640.110 7
        42.100          47.800
 09  1  9  2  1 30.0000000  0  6G 9G18G11G19G14G22
  21858085.487    21858084.874    21858084.225   -15779203.672 5 -12295476.392 5
        31.800          31.800
  22314909.254    22314908.338    22314906.090   -15910091.156 5 -12397464.084 4
        31.500          29.500
  23657868.317    23657867.524    23657864.971    -6299805.082 3  -4908938.143 3
        20.500          21.100
  23887743.824    23887742.102    23887740.239    -6035244.797 3  -4702785.890 4
        22.600          24.600
  20801750.800    20801750.078    20801748.843   -23280890.610 6 -18140947.573 7
        39.400          44.600
  20485291.643    20485291.166    20485287.887   -24605934.566 7 -19173445.562 7
        42.100          47.700
 09  1  9  2  2  0.0000000  0  6G 9G18G11G19G14G22
  21868938.715    21868938.265    21868937.555   -15722169.452 5 -12251034.137 5
        31.800          31.500
  22330388.327    22330387.297    22330385.346   -15828748.151 5 -12334079.940 4
        31.000          29.700
  23643657.187    23643656.675    23643654.439    -6374481.433 3  -4967127.510 3
        19.900          21.600
  23901082.878    23901080.901    23901079.188    -5965147.924 3  -4648164.965 4
        23.000          25.300
  20793143.938    20793143.196    20793141.895   -23326120.159 6 -18176191.373 7
        39.400          44.600
  20491277.274    20491276.736    20491273.511   -24574480.334 7 -19148935.769 7
        42.000          47.700
 09  1  9  2  2 30.0000000  0  6G 9G18G11G19G14G22
  21879914.096    21879913.361    21879912.640   -15664495.298 5 -12206093.239 5
        31.800          31.500
  22345918.196    22345917.399    22345915.553   -15747136.282 5 -12270486.290 4
        30.600          29.700
  23629524.200    23629524.144    23629523.056    -6448746.234 3  -5024996.158 3
        19.300          22.600
  23914492.275    23914490.320    23914489.105    -5894680.424 3  -4593255.220 4
        22.100          26.500
  20784620.826    20784619.996    20784618.698   -23370909.940 6 -18211092.496 7
        39.300          44.700
  20497340.602    20497340.013    20497336.795   -24542617.479 7 -19124107.570 7
        42.000          47.500
 09  1  9  2  3  0.0000000  0  6G 9G18G11G19G14G22
  21891012.875    21891012.187    21891011.466   -15606170.929 5 -12160645.682 5
        31.600          31.600
  22361501.762    22361500.835    22361499.226   -15665244.439 5 -12206674.480 4
        30.200          29.700
  23615473.916    23615473.659    23615471.696    -6522584.761 3  -5082532.674 3
        19.900          21.600
  23927973.301    23927972.330    23927970.897    -5823832.645 3  -4538049.161 4
        21.100          26.500
  20776183.638    20776182.890    20776181.665   -23415246.962 6 -18245640.821 7
        39.300          44.900
  20503483.875    20503483.352    20503480.139   -24510334.074 6 -19098951.669 7
        41.900          47.500
 09  1  9  2  3 30.0000000  0  7G 9G18G11G19G 5G14G22
  21902233.033    21902232.489    21902231.673   -15547206.931 5 -12114699.716 5
        31.500          31.100
  22377136.654    22377135.688    22377134.171   -15583081.646 5 -12142651.532 4
        30.100          29.000
  23601502.957    23601502.615    23601500.499    -6596002.639 3  -5139741.406 3
        19.300          21.100
  23941526.109    23941524.138    23941523.068    -5752615.450 3  -4482555.232 4
        20.500          26.500
  25238944.298    25238943.280    25238937.901           -.1031          -.45211
                         6.500
  20767831.393    20767830.601    20767829.378   -23459138.731 6 -18279842.194 7
        39.200          45.000
  20509705.602    20509705.092    20509701.952   -24477638.213 6 -19073474.377 7
        41.900          47.300
 09  1  9  2  4  0.0000000  0  8G 9G18G11G19G 5G12G14G22
  21913569.732    21913568.872    21913567.752   -15487635.566 5 -12068280.468 5
        32.000          31.100
  22392817.380    22392816.594    22392814.812   -15500678.993 5 -12078441.676 4
        30.100          28.600
  23587607.347    23587606.244    23587604.223    -6669027.885 3  -5196644.184 3
        19.900          21.100
  23955143.553    23955141.183    23955139.798    -5681061.549 3  -4426798.956 4
        20.500          27.600
  25220933.378    25220934.251    25220934.467      -94645.863      -73750.408 1
                         9.000
  25270619.708    25270618.814    25270615.374           -.56411         -.03211
        11.000          11.000
  20759558.097    20759557.364    20759556.102   -23502614.998 6 -18313719.801 7
        39.200          45.100
  20516000.185    20515999.683    20515996.397   -24444560.321 6 -19047699.393 7
        41.900          47.100
 09  1  9  2  4 30.0000000  0  8G 9G18G11G 5G12G14G22G19
  21925021.233    21925020.509    21925019.895   -15427454.145 5 -12021385.857 5
        31.500          31.300
  22408544.212    22408543.258    22408541.837   -15418032.210 4 -12014041.593 4
        29.200          28.400
  23573786.478    23573785.821    23573783.819    -6741653.119 3  -5253235.275 3
        19.300          21.100
  25202952.125    25202951.292    25202950.352     -189150.650     -147390.456 2
                        13.900
  25254664.814    25254662.713    25254662.185      -83826.966      -65319.314 2
         3.000          12.600
  20751364.972    20751364.200    20751362.944   -23545670.070 6 -18347269.203 7
        39.200          45.100
  20522368.342    20522367.790    20522364.628   -24411095.587 6 -19021622.977 7
        41.900          47.100
  23968822.966    23968821.070    23968819.366    -5609168.522 3  -4370778.420 4
        19.300          26.200
 09  1  9  2  5  0.0000000  0  8G 9G18G11G 5G12G14G22G19
  21936594.278    21936593.723    21936592.926   -15366637.868 5 -11973996.559 5
        31.600          31.000
  22424323.121    22424322.104    22424320.672   -15335115.212 4 -11949430.961 4
        29.200          28.800
  23560048.238    23560047.518    23560045.592    -6813848.956 3  -5309491.753 3
        19.300          21.600
  25184999.310    25184998.833    25184999.053     -283484.438     -220897.228 2
                        12.600
  25238758.577    25238758.202    25238759.069     -167422.082     -130458.339 2
                        13.900
  20743257.197    20743256.417    20743255.211   -23588276.311 6 -18380468.866 7
        39.100          45.200
  20528815.079    20528814.545    20528811.415   -24377217.422 6 -18995224.405 7
        41.700          47.000
  23982573.030    23982572.025    23982570.134    -5536912.058 3  -4314474.694 4
        19.900          24.900
 09  1  9  2  5 30.0000000  0  9G 9G18G11G 5G12G14G31G22G19
  21948289.000    21948288.219    21948287.114   -15305184.243 5 -11926110.617 5
        31.800          31.100
  22440153.981    22440152.979    22440151.501   -15251923.951 4 -11884606.619 4
        29.000          28.600
  23546392.777    23546392.378    23546390.267    -6885608.246 3  -5365408.070 3
        19.900          22.100
  25167080.823    25167080.879    25167081.080     -377638.883     -294264.258 1
                         9.000
  25222895.700    25222895.279    25222895.564     -250778.069     -195411.021 1
         3.000           6.500
  20735236.033    20735235.256    20735233.941   -23630428.002 6 -18413314.334 7
        39.100          45.300
  25071278.895    25071277.499    25071273.169           -.60411         -.47613
         9.000          19.900
  20535341.609    20535340.998    20535337.808   -24342920.775 6 -18968499.746 7
        41.600          47.000
  23996393.234    23996391.779    23996389.682    -5464289.773 3  -4257885.930 4
        20.500          25.900
 09  1  9  2  6  0.0000000  0 10G 9G18G11G 5G32G12G14G31G22G19
  21960100.040    21960099.426    21960098.949   -15243113.600 5 -11877743.881 5
        31.100          31.500
  22456033.320    22456032.238    22456030.752   -15168477.639 4 -11819583.534 4
        29.000          28.600
  23532817.968    23532817.231    23532814.871    -6956946.857 3  -5420996.596 3
        20.500          21.600
  25149196.084    25149194.464    25149193.533     -471629.071     -367503.242
                         3.000
  25097196.481    25097194.665    25097192.614            .09811         -.27311
         9.000          11.000
  25207079.380    25207077.887    25207077.638     -333909.636     -260188.669

  20727297.998    20727297.152    20727295.924   -23672142.931 6 -18445819.470 7
        39.100          45.400
  25049112.684    25049112.109    25049110.267     -116471.333 1    -90756.842 3
         9.000          20.500
  20541944.114    20541943.553    20541940.372   -24308224.272 6 -18941463.509 7
        41.600          46.900
  24010278.184    24010276.142    24010274.868    -5391322.484 3  -4201028.324 4
        19.900          25.600
 09  1  9  2  6 30.0000000  0  9G 9G11G 5G32G14G31G18G22G19
  21972027.964    21972027.363    21972026.678   -15180433.038 5 -11828901.901 5
        31.300          31.600
  23519321.960    23519321.517    23519319.881    -7027867.107 3  -5476259.114 3
        21.100          22.600
  25131342.416    25131341.390    25131341.488     -565455.898     -440614.992

  25078902.610    25078901.770    25078901.635      -96126.261 1    -74903.901 1
         6.500          11.000
  20719442.209    20719441.446    20719440.184   -23713425.206 6 -18477987.469 7
        39.100          45.500
  25026948.310    25026948.547    25026947.279     -232940.423 2   -181511.925 3
        13.900          19.300
  22471959.996    22471959.168    22471957.456   -15084781.951 4 -11754366.129 4
        28.800          27.900
  20548621.865    20548621.357    20548618.182   -24273132.167 6 -18914119.012 7
        41.500          46.800
  24024227.663    24024225.882    24024225.138    -5318017.489 3  -4143907.543 4
        19.900          25.600
 09  1  9  2  7  0.0000000  0  8G 9G11G18G32G14G31G22G19
  21984070.659    21984069.882    21984069.232   -15117149.553 5 -11779590.090 5
        31.600          31.600
  23505905.714    23505904.954    23505902.819    -7098371.210 3  -5531197.376 3
        21.100          22.100
  22487933.718    22487932.635    22487930.708   -15000842.037 4 -11688958.413 4
        28.800          27.600
  25060611.677    25060612.069    25060614.310     -192235.243     -149793.977 2
         3.000          12.600
  20711668.020    20711667.222    20711665.959   -23754278.807 6 -18509821.439 7
        39.000          45.600
  25004784.953    25004785.688    25004784.677     -349410.005 3   -272267.415 3
        18.600          18.600
  20555373.883    20555373.339    20555370.107   -24237650.127 6 -18886470.669 7
        41.400          46.600
  24038240.258    24038238.286    24038236.415    -5244382.016 3  -4086529.278 3
        20.500          23.400
 09  1  9  2  7 30.0000000  0  8G 9G11G32G14G31G18G22G19
  21996234.339    21996233.639    21996232.861   -15053228.619 5 -11729781.575 5
        31.300          31.500
  23492575.123    23492574.588    23492573.272    -7168420.345 3  -5585781.111 3
        21.600          22.600
  25042333.224    25042332.991    25042334.437     -288288.683     -224640.897 1
         3.000          11.000
  20703982.554    20703981.821    20703980.511   -23794666.417 6 -18541292.298 7
        39.100          45.700
  24982630.140    24982630.446    24982629.158     -465840.211 3   -362992.232 2
        21.600          17.800
  22503959.768    22503958.911    22503957.474   -14916622.045 4 -11623332.462 4
        28.600          27.900
  20562207.000    20562206.538    20562203.456   -24201741.086 6 -18858489.596 7
        41.300          46.600
  24052321.296    24052319.752    24052318.276    -5170381.840 3  -4028866.800 3
        21.100          21.600
 09  1  9  2  8  0.0000000  0  9G 9G11G 5G32G14G31G18G22G19
  22008512.917    22008512.310    22008511.641   -14988702.747 5 -11679501.681 5
        30.800          31.100
  23479325.922    23479325.745    23479324.902    -7238041.698 3  -5640031.514 3
        21.100          22.600
  25077979.624    25077976.874    25077979.173           -.7901          -.11111
         3.000           9.000
  25024062.235    25024061.788    25024061.514     -384315.858 1   -299467.311 1
         6.500           9.000
  20696380.122    20696379.336    20696378.043   -23834617.465 6 -18572422.979 7
        38.900          45.700
  24960477.204    24960476.859    24960475.607     -582258.541 3   -453707.797 2
        21.600          16.100
  22520033.917    22520033.034    22520031.163   -14832152.773 4 -11557512.273 4
        28.100          27.400
  20569116.003    20569115.416    20569112.309   -24165434.829 6 -18830199.010 7
        41.200          46.500
  24066467.371    24066465.825    24066462.773    -5096049.789 3  -3970945.719 3
        22.600          19.900
 09  1  9  2  8 30.0000000  0  9G 9G11G 5G32G14G31G18G22G19
  22020908.544    22020907.767    22020907.196   -14923564.458 5 -11628744.574 5
        30.600          31.300
  23466162.090    23466161.531    23466159.410    -7307223.594 3  -5693939.484 3
        22.100          22.100
  25060263.780    25060262.406    25060262.447      -93099.630      -72544.627 1
         3.000           9.000
  25005796.595    25005795.235    25005795.864     -480306.097 1   -374264.888 1
        11.000          11.000
  20688862.647    20688861.832    20688860.643   -23874121.575 6 -18603205.401 7
        38.900          45.800
  24938327.385    24938327.663    24938325.489     -698652.969 3   -544404.739 2
        19.900          13.900
  22536157.115    22536156.210    22536154.176   -14747425.711 4 -11491491.204 4
        28.400          27.100
  20576102.178    20576101.618    20576098.347   -24128722.653 6 -18801592.119 7
        41.300          46.400
  24080676.549    24080674.681    24080672.332    -5021378.860 3  -3912760.583 3
        22.100          19.900
 09  1  9  2  9  0.0000000  0 10G 9G11G 5G32G12G14G31G18G22G19
  22033419.768    22033419.150    22033418.129   -14857817.910 5 -11577513.502 5
        31.000          31.100
  23453081.089    23453080.424    23453078.372    -7375965.529 3  -5747504.621 3
        22.600          21.600
  25042584.888    25042583.437    25042582.544     -186008.286     -144940.976 1
         3.000           9.000
  24987535.198    24987535.036    24987535.226     -576259.841 1   -449034.036 1
         9.000          11.000
  25113101.927    25113100.966    25113096.924            .05411         -.10012
        11.000          12.600
  20681430.177    20681429.383    20681428.098   -23913180.011 6 -18633640.540 7
        39.000          45.900
  24916181.755    24916182.602    24916181.006     -815022.396 2   -635082.181 2
        17.000          12.600
  22552328.362    22552327.572    22552325.882   -14662443.617 4 -11425271.399 4
        27.600          27.100
  20583165.220    20583164.683    20583161.486   -24091605.844 6 -18772669.930 7
        41.200          46.300
  24094949.514    24094948.020    24094945.535    -4946373.343 3  -3854314.714 3
        20.500          19.300
 09  1  9  2  9 30.0000000  0 10G 9G 5G11G32G12G14G31G18G22G19
  22046044.922    22046044.022    22046043.204   -14791473.686 5 -11525816.714 5
        30.800          31.300
  25024937.379    25024936.862    25024937.654     -278731.403     -217192.724 1
                         6.500
  23440082.491    23440081.644    23440080.070    -7444273.209 3  -5800731.388 3
        23.000          22.100
  24969282.878    24969281.453    24969283.268     -672183.958 1   -523780.117 1
         9.000          11.000
  25097601.545    25097600.437    25097599.996      -81450.239 1    -63467.745 2
         6.500          16.100
  20674081.075    20674080.243    20674078.918   -23951800.339 6 -18663734.296 7
        39.000          46.000
  24894042.236    24894042.193    24894039.595     -931372.370 2   -725744.482 2
        17.000          13.900
  22568546.649    22568545.718    22568544.444   -14577214.864 4 -11358859.409 4
        27.400          26.500
  20590303.605    20590303.092    20590299.883   -24054093.084 6 -18743439.211 7
        41.200          46.200
  24109284.204    24109283.027    24109280.256    -4871043.785 3  -3795616.365 3
        20.500          19.300
 09  1  9  2 10  0.0000000  0 10G 9G 5G11G32G12G14G31G18G22G19
  22058782.760    22058782.068    22058781.556   -14724533.870 5 -11473655.821 5
        30.600          31.000
  25007330.273    25007327.150    25007328.980     -371265.228     -289296.948 1
                        11.000
  23427167.061    23427166.546    23427164.692    -7512144.012 3  -5853617.719 3
        23.000          21.600
  24951034.376    24951033.763    24951033.696     -768077.164 1   -598502.023 1
        11.000          11.000
  25082147.075    25082146.618    25082146.632     -162653.197     -126742.691 2
         3.000          15.100
  20666815.356    20666814.586    20666813.223   -23989981.577 6 -18693485.905 7
        39.100          46.100
  24871906.586    24871906.058    24871903.955    -1047699.788 2   -816389.186 2
        16.100          16.100
  22584812.197    22584811.206    22584809.583   -14491740.383 4 -11292255.933 4
        27.900          26.800
  20597517.387    20597516.818    20597513.599   -24016184.427 6 -18713899.998 7
        41.200          46.000
  24123679.137    24123677.016    24123676.170    -4795392.719 3  -3736667.476 3
        19.300          19.300
 09  1  9  2 10 30.0000000  0 10G11G 5G 9G32G12G14G31G18G22G19
  23414336.414    23414336.251    23414333.215    -7579569.466 3  -5906157.037 3
        23.000          21.100
  24989760.507    24989758.548    24989760.122     -463600.124     -361246.166 2
                        13.900
  22071635.238    22071634.539    22071633.676   -14656994.611 5 -11421027.830 5
        30.600          30.600
  24932794.555    24932793.212    24932792.734     -863932.012 2   -673194.075 1
        13.900          11.000
  25066746.705    25066745.602    25066743.308     -243598.919     -189817.261 2
                        13.900
  20659634.539    20659633.796    20659632.408   -24027716.785 6 -18722889.959 7
        39.100          46.100
  24849775.362    24849774.742    24849774.070    -1163995.793 2   -907009.433 2
        15.100          16.100
  22601125.440    22601124.563    22601122.870   -14406014.752 4 -11225456.747 4
        27.900          27.100
  20604807.646    20604807.139    20604803.991   -23977873.476 6 -18684047.309 7
        41.100          45.900
  24138137.484    24138136.175    24138134.029    -4719416.231 3  -3677465.025 3
        19.300          19.300
 09  1  9  2 11  0.0000000  0 10G11G 5G 9G32G12G14G31G18G22G19
  23401590.559    23401590.140    23401587.667    -7646548.210 3  -5958348.255 3
        21.100          21.600
  24972224.943    24972222.716    24972227.115     -555733.324     -433038.250 2
                        12.600
  22084600.968    22084600.362    22084599.387   -14588858.936 5 -11367935.098 5
        30.400          30.100
  24914561.613    24914560.914    24914560.490     -959748.166 2   -747855.946 2
        13.900          13.900
  25051391.986    25051391.128    25051387.485     -324284.983 1   -252689.512 1
         6.500           9.000
  20652538.480    20652537.744    20652536.417   -24065006.438 6 -18751946.826 7
        39.100          46.100
  24827650.601    24827650.299    24827650.350    -1280258.537 2   -997603.773 2
        13.900          17.000
  22617485.358    22617484.549    22617483.478   -14320039.548 4 -11158463.104 4
        26.500          26.800
  20612174.494    20612173.915    20612170.605   -23939161.340 6 -18653882.010 7
        41.200          45.800
  24152657.399    24152655.275    24152653.444    -4643117.901 3  -3618011.779 3
        18.600          19.900
 09  1  9  2 11 30.0000000  0 10G11G 5G 9G32G12G14G31G18G22G19
  23388930.558    23388930.226    23388928.069    -7713075.331 3  -6010187.563 3
        21.100          22.100
  24954731.372    24954730.338    24954732.921     -647659.125     -504668.575 2
                        12.600
  22097680.334    22097679.518    22097678.715   -14520126.882 5 -11314377.657 5
        30.400          30.100
  24896337.365    24896335.544    24896336.596    -1055521.955 2   -822484.871 2
        12.600          16.100
  25036087.364    25036086.274    25036084.475     -404705.565     -315354.969 2
         3.000          13.900
  20645527.877    20645527.143    20645525.754   -24101847.597 6 -18780654.220 7
        39.000          46.200
  24805535.901    24805535.073    24805533.309    -1396482.868 2  -1088168.141 3
        13.900          19.900
  22633894.223    22633893.298    22633891.567   -14233813.033 4 -11091273.636 4
        26.500          26.800
  20619617.917    20619617.350    20619614.057   -23900045.773 6 -18623402.346 7
        41.200          45.700
  24167236.428    24167235.332    24167233.455    -4566497.898 2  -3558307.894 3
        17.000          19.900
 09  1  9  2 12  0.0000000  0 10G11G 5G 9G32G12G14G31G18G22G19
  23376356.014    23376355.886    23376354.636    -7779153.062 3  -6061676.691 3
        21.100          22.600
  24937281.855    24937279.892    24937279.814     -739378.596 1   -576138.245 2
         6.500          13.900
  22110871.695    22110870.817    22110870.161   -14450805.805 5 -11260361.230 4
        30.200          29.900
  24878118.945    24878117.636    24878118.335    -1151257.043 1   -897083.623 2
        11.000          16.100
  25020832.123    25020831.989    25020831.342     -484862.696     -377814.986 2
                        16.100
  20638601.885    20638601.086    20638599.706   -24138244.322 6 -18809015.301 7
        39.100          46.200
  24783425.959    24783424.553    24783423.960    -1512670.754 1  -1178704.137 3
         9.000          21.100
  22650349.626    22650348.617    22650346.760   -14147340.927 4 -11023892.802 4
        27.400          27.100
  20627137.055    20627136.565    20627133.393   -23860531.589 6 -18592612.073 7
        41.100          45.600
  24181877.299    24181875.691    24181873.459    -4489563.614 2  -3498359.115 3
        17.000          21.100
 09  1  9  2 12 30.0000000  0 10G11G 5G 9G32G12G14G31G18G22G19
  23363868.191    23363867.628    23363865.739    -7844781.712 3  -6112815.898 3
        21.600          22.100
  24919867.045    24919866.611    24919866.461     -830890.673 1   -647446.366 2
         9.000          15.100
  22124174.090    22124173.319    22124172.656   -14380900.357 4 -11205889.457 5
        29.900          30.100
  24859906.429    24859905.320    24859906.704    -1246954.440 1   -971652.998 2
         6.500          15.100
  25005630.215    25005629.650    25005629.154     -564755.039 1   -440068.667 2
         6.500          17.000
  20631759.996    20631759.223    20631757.858   -24174198.361 6 -18837031.430 7
        39.100          46.200
  24761322.102    24761320.734    24761320.028    -1628821.850 1  -1269211.394 3
         6.500          19.900
  22666850.516    22666849.658    22666847.944   -14060626.546 4 -10956323.176 4
        27.100          26.500
  20634731.816    20634731.315    20634728.141   -23820621.056 6 -18561512.956 7
        41.100          45.500
  24196576.081    24196574.344    24196572.627    -4412319.905 2  -3438169.232 3
        17.000          22.100
 09  1  9  2 13  0.0000000  0 10G11G 5G 9G32G12G14G31G18G22G19
  23351466.208    23351465.666    23351463.643    -7909955.036 3  -6163600.290 3
        21.600          22.100
  24902493.873    24902493.052    24902493.580     -922188.041 1   -718587.137 2
        11.000          16.100
  22137587.912    22137587.293    22137586.500   -14310409.243 4 -11150961.318 4
        29.700          29.700
  24841702.704    24841700.871    24841703.459    -1342609.298    -1046189.223 2
         3.000          13.900
  24990479.024    24990479.009    24990477.084     -644375.571 1   -502110.584 2
        11.000          17.000
  20625003.353    20625002.561    20625001.072   -24209705.116 6 -18864699.029 7
        39.000          46.200
  24739226.894    24739226.424    24739226.707    -1744929.500 2  -1359684.825 3
        15.100          23.400
  22683398.773    22683397.853    22683395.808   -13973666.751 4 -10888562.320 4
        27.100          26.200
  20642402.493    20642401.961    20642398.839   -23780311.537 6 -18530102.941 7
        41.100          45.500
  24211333.714    24211332.399    24211330.641    -4334765.617 3  -3377737.331 3
        19.900          22.600
 09  1  9  2 13 30.0000000  0 10G11G 5G 9G32G12G14G31G18G22G19
  23339150.919    23339150.387    23339148.393    -7974670.268 3  -6214027.742 3
        21.100          21.600
  24885159.696    24885159.697    24885161.519    -1013266.606 1   -789557.416 2
         6.500          16.100
  22151112.958    22151112.485    22151111.870   -14239334.197 4 -11095578.168 4
        29.700          29.700
  24823509.667    24823509.224    24823509.881    -1438219.559 1  -1120690.696 2
         9.000          12.600
  24975381.405    24975380.797    24975378.316     -723720.704 2   -563937.928 2
        13.900          17.800
  20618331.994    20618331.234    20618329.726   -24244763.606 6 -18892017.329 7
        39.000          46.300
  24717141.729    24717141.045    24717140.576    -1860990.398 3  -1450121.845 4
        20.500          28.400
  22699993.445    22699992.475    22699990.440   -13886461.658 4 -10820610.309 4
        27.100          25.600
  20650149.339    20650148.836    20650145.645   -23739601.565 6 -18498380.887 7
        41.000          45.400
  24226151.116    24226149.182    24226147.673    -4256903.259 3  -3317065.380 3
        20.500          22.600
