     2.11           OBSERVATION DATA    G (GPS)             RINEX VERSION / TYPE
teqc  2008Oct2      WCDA Operator       20090102 00:18:57UTCPGM / RUN BY / DATE
Solaris x86 5.10|AMD64|cc SC5.8 -xarch=amd64|=+|=+          COMMENT
teqc  2008Oct2      WCDA Operator       20090101 01:18:37UTCCOMMENT
flin  WCDA-ACP   965000   CFS Flin Flon SASK Canada         MARKER NAME
40135M001                                                   MARKER NUMBER
PGC-WCDA            GEOL. SURV. CANADA                      OBSERVER / AGENCY
1115                AOA BENCHMARK ACT   3.3.32.4            REC # / TYPE / VERS
231                 AOAD/M_T        SCIS                    ANT # / TYPE
  -766174.4630 -3611375.3160  5184056.2210                  APPROX POSITION XYZ
        0.1500        0.0000        0.0000                  ANTENNA: DELTA H/E/N
     1     1                                                WAVELENGTH FACT L1/2
     7    C1    P1    P2    L1    L2    S1    S2            # / TYPES OF OBSERV
STATION INFORMATION EFFECTIVE FROM: 2001/01/13 18:20:00     COMMENT
                                TO: CURRENT DATE (above)    COMMENT
BIT 2 OF LLI FLAGS (+4) DATA COLLECTED UNDER 'AS' CONDITION COMMENT
L1 PHASE CENTRE 0.110m ABOVE ARP                            COMMENT
L2 PHASE CENTRE 0.128m ABOVE ARP                            COMMENT
where ARP is the Antenna Reference Point for HI measurement COMMENT
CONTACT gps@pgc.nrcan.gc.ca FOR ADDITIONAL INFORMATION      COMMENT
    P1 =    P1  TurboRogue; =    Y1  Benchmark              COMMENT
    L1 = L1(CA)                                             COMMENT
    P2 =    P2  TurboRogue; =    Y2  Benchmark              COMMENT
    L2 = L2(P2) TurboRogue; = L2(Y2) Benchmark              COMMENT
 SNR is mapped to RINEX snr flag value [0-9]                COMMENT
  L1 & L2: min(max(int(snr_dBHz/6), 0), 9)                  COMMENT
  2009     1     1     0     0    0.0000000     GPS         TIME OF FIRST OBS
                                                            END OF HEADER
 09  1  1  0  0  0.0000000  0 12G21G26G 9G15G 6G27G18G 3G 8G22G19G24
  20426197.426    20426196.625    20426194.959   -27054403.838 6 -21081344.167 7
        40.000          45.600
  22336794.642    22336794.332    22336793.706   -10378636.846 4  -8087239.753 4
        28.100          29.200
  24414530.071    24414529.355    24414530.554    -2181146.710    -1699594.164 2
         3.000          13.900
  21595620.117    21595620.090    21595618.579   -17037643.317 6 -13276074.212 6
        39.000          40.600
  22257505.969    22257505.275    22257505.040   -12624359.897 5  -9837160.194 5
        33.600          32.800
  25787131.524    25787130.343    25787128.297     2419118.518     1885028.391 1
                         6.500
  20618192.462    20618191.692    20618190.257   -24638812.324 6 -19199063.872 8
        38.600          48.000
  22420890.477    22420889.674    22420889.851   -11183768.251 5  -8714621.157 5
        31.000          30.800
  25170101.695    25170102.365    25170103.615     1446066.574     1126804.979 1
                        11.000
  22161033.095    22161032.601    22161030.161   -15750814.497 5 -12273353.536 5
        34.600          34.800
  24424958.331    24424955.796    24424956.099    -3208920.551 1  -2500458.193 2
         6.500          17.000
  23359207.213    23359206.508    23359207.642    -7371951.666 3  -5744371.705 4
        21.100          24.200
 09  1  1  0  0 30.0000000  0 12G21G26G 9G15G 6G27G18G 3G 8G22G19G24
  20431686.479    20431685.621    20431683.992   -27025558.856 6 -21058867.555 7
        40.000          45.600
  22354717.508    22354717.212    22354716.292   -10284451.516 4  -8013848.582 4
        27.600          29.000
  24392896.528    24392896.576    24392897.235    -2294829.482 1  -1788178.096 2
         6.500          15.100
  21605123.007    21605122.919    21605121.593   -16987704.898 6 -13237161.150 6
        38.900          40.600
  22256057.251    22256056.501    22256056.359   -12631974.296 5  -9843093.478 5
        33.800          33.400
  25799489.141    25799490.454    25799487.460     2484058.421     1935630.856 1
                         6.500
  20612684.738    20612683.975    20612682.575   -24667756.005 6 -19221617.386 8
        38.700          48.000
  22417395.611    22417394.887    22417394.693   -11202133.836 5  -8728931.988 5
        30.600          30.800
  25181952.252    25181953.136    25181953.391     1508346.364     1175334.605 1
                         9.000
  22145887.530    22145887.254    22145884.639   -15830404.206 5 -12335371.471 5
        34.600          34.900
  24408575.389    24408573.543    24408572.535    -3295019.523 1  -2567548.243 3
        11.000          19.300
  23377758.534    23377757.935    23377759.332    -7274462.283 3  -5668405.978 3
        20.500          23.800
 09  1  1  0  1  0.0000000  0 12G21G26G 9G15G 6G27G18G 3G 8G22G19G24
  20437270.753    20437269.951    20437268.333   -26996213.167 6 -21036000.783 7
        40.000          45.500
  22372724.348    22372724.283    22372723.229   -10189823.638 4  -7940112.562 4
        27.400          28.800
  24371292.220    24371291.143    24371291.293    -2408373.247 2  -1876653.709 3
        13.900          18.600
  21614724.291    21614724.153    21614722.756   -16937250.769 6 -13197846.243 6
        38.800          40.600
  22254718.471    22254717.862    22254717.670   -12639007.564 5  -9848573.933 5
        33.500          33.100
  25811914.485    25811914.749    25811915.525     2549350.208     1986508.714 1
                        11.000
  20607250.655    20607249.810    20607248.280   -24696312.776 6 -19243869.431 8
        38.700          48.100
  22414018.435    22414017.693    22414017.592   -11219880.631 5  -8742760.639 5
        30.600          30.600
  25193894.851    25193890.915    25193893.902     1571103.887     1224236.574
                         3.000
  22130790.713    22130790.216    22130787.493   -15909739.526 5 -12397191.183 5
        34.400          34.800
  24392257.598    24392256.139    24392253.407    -3380772.952 1  -2634369.084 3
        11.000          19.300
  23396346.481    23396345.792    23396345.933    -7176787.149 3  -5592295.513 3
        21.600          23.000
 09  1  1  0  1 30.0000000  0 10G21G26G 9G15G 6G18G 3G22G19G24
  20442944.873    20442944.054    20442942.289   -26966395.866 6 -21012766.517 7
        40.200          45.300
  22390809.989    22390809.671    22390808.667   -10094785.064 4  -7866056.521 4
        27.600          29.000
  24349707.306    24349706.222    24349706.964    -2521802.918 2  -1965040.429 3
        17.800          19.900
  21624417.507    21624417.510    21624416.065   -16886311.708 6 -13158153.463 6
        38.700          40.500
  22253485.438    22253484.787    22253484.507   -12645488.294 5  -9853623.863 5
        33.600          33.200
  20601884.604    20601883.835    20601882.579   -24724511.121 6 -19265842.149 8
        38.700          48.000
  22410753.771    22410753.034    22410752.701   -11237036.651 5  -8756128.971 5
        31.000          30.200
  22115736.907    22115736.373    22115733.747   -15988848.279 5 -12458834.345 5
        34.500          35.300
  24375997.239    24375996.823    24375995.468    -3466206.992 1  -2700941.031 3
         9.000          19.300
  23414962.951    23414962.348    23414962.672    -7078956.267 3  -5516063.673 3
        21.100          22.600
 09  1  1  0  2  0.0000000  0 10G21G26G 9G15G 6G18G 3G22G19G24
  20448709.759    20448708.910    20448707.254   -26936101.138 6 -20989160.232 7
        40.200          45.400
  22408974.169    22408973.557    22408972.375    -9999333.446 4  -7791678.634 4
        27.600          28.800
  24328145.981    24328145.301    24328144.875    -2635109.709 2  -2053331.370 3
        15.100          20.500
  21634204.006    21634203.811    21634202.420   -16834884.078 6 -13118079.974 6
        38.600          40.500
  22252358.390    22252357.735    22252357.568   -12651410.697 5  -9858238.699 5
        33.600          33.200
  20596588.004    20596587.243    20596585.653   -24752345.198 6 -19287531.026 8
        38.700          48.100
  22407602.698    22407601.858    22407601.508   -11253596.206 5  -8769032.524 5
        30.800          30.200
  22100727.245    22100726.812    22100723.968   -16067723.806 5 -12520295.767 5
        34.700          35.300
  24359803.237    24359801.664    24359800.389    -3551313.602 2  -2767257.865 3
        13.900          19.900
  23433609.816    23433608.921    23433609.638    -6980965.627 3  -5439707.330 3
        19.900          23.000
 09  1  1  0  2 30.0000000  0 10G21G26G 9G15G 6G18G 3G22G19G24
  20454575.425    20454574.564    20454572.890   -26905276.996 6 -20965141.420 7
        40.200          45.300
  22427225.428    22427225.095    22427224.110    -9903420.120 4  -7716940.970 4
        26.800          28.400
  24306615.760    24306616.389    24306617.312    -2748238.406 2  -2141483.513 3
        12.600          19.300
  21644093.007    21644092.828    21644091.301   -16782917.680 6 -13077586.673 6
        38.800          40.300
  22251347.515    22251346.816    22251346.661   -12656722.674 5  -9862377.895 5
        33.400          32.800
  20591370.668    20591369.888    20591368.931   -24779762.118 6 -19308894.859 7
        38.600          47.600
  22404574.833    22404573.937    22404573.803   -11269506.494 5  -8781430.140 5
        30.400          30.100
  22085772.419    22085771.832    22085768.944   -16146313.299 5 -12581534.306 5
        35.100          35.400
  24343680.365    24343679.270    24343677.820    -3636038.239 2  -2833277.014 3
        15.100          20.500
  23452296.688    23452296.171    23452297.262    -6882764.407 3  -5363186.919 3
        19.900          23.000
 09  1  1  0  3  0.0000000  0 10G21G26G 9G15G 6G18G 3G22G19G24
  20460537.978    20460537.071    20460535.433   -26873943.722 6 -20940725.879 7
        40.300          45.200
  22445560.545    22445559.941    22445559.295    -9807068.168 4  -7641861.521 4
        26.500          28.100
  24285121.563    24285120.213    24285119.807    -2861204.963 1  -2229509.335 3
         6.500          18.600
  21654080.162    21654080.048    21654078.451   -16730434.472 6 -13036690.661 6
        38.900          40.200
  22250449.133    22250448.530    22250448.204   -12661443.931 5  -9866056.784 5
        33.800          33.000
  20586229.083    20586228.265    20586226.537   -24806782.127 6 -19329949.412 7
        38.600          47.800
  22401666.868    22401666.098    22401666.027   -11284787.094 5  -8793337.074 4
        30.200          29.900
  22070867.987    22070867.546    22070864.628   -16224635.744 5 -12642564.756 5
        35.300          35.400
  24327627.955    24327626.032    24327624.438    -3720398.485 2  -2899012.249 3
        16.100          20.500
  23471019.705    23471019.226    23471020.024    -6784374.137 3  -5286519.202 3
        19.300          23.000
 09  1  1  0  3 30.0000000  0 10G21G26G 9G15G 6G18G 3G22G19G24
  20466594.009    20466593.145    20466591.515   -26842118.984 6 -20915927.382 7
        40.300          45.100
  22463974.712    22463974.623    22463973.754    -9710298.690 4  -7566456.731 4
        26.500          27.600
  24263651.375    24263649.790    24263650.669    -2974023.721 1  -2317419.985 3
         6.500          18.600
  21664161.901    21664161.790    21664160.337   -16677454.115 6 -12995407.263 6
        38.600          40.300
  22249659.616    22249659.128    22249658.790   -12665592.026 5  -9869289.066 5
        34.000          33.100
  20581159.533    20581158.758    20581157.667   -24833422.370 6 -19350708.038 7
        38.600          47.700
  22398875.912    22398875.053    22398874.761   -11299455.341 5  -8804766.864 5
        30.600          30.100
  22056011.176    22056010.695    22056008.153   -16302707.613 5 -12703399.955 5
        34.900          35.600
  24311641.721    24311640.536    24311637.780    -3804409.292 3  -2964475.173 3
        18.600          21.600
  23489775.192    23489774.050    23489775.531    -6685813.586 3  -5209718.788 3
        18.600          22.600
 09  1  1  0  4  0.0000000  0 10G21G26G 9G15G 6G18G 3G22G19G24
  20472743.289    20472742.486    20472740.760   -26809804.061 6 -20890746.913 7
        40.300          45.000
  22482468.104    22482467.966    22482467.025    -9613115.914 4  -7490729.884 4
        26.200          27.100
  24242210.713    24242210.860    24242211.780    -3086691.953    -2405213.381 2
         3.000          16.100
  21674337.786    21674337.710    21674336.412   -16623979.477 6 -12953738.707 6
        38.400          40.300
  22248979.279    22248978.665    22248978.477   -12669167.895 5  -9872075.463 5
        33.800          33.200
  20576162.238    20576161.466    20576159.659   -24859683.166 6 -19371170.989 7
        38.600          47.500
  22396200.874    22396200.009    22396199.980   -11313512.060 5  -8815720.128 5
        30.400          30.400
  22041202.492    22041201.987    22041199.376   -16380528.944 5 -12764039.929 5
        35.400          35.800
  24295722.693    24295721.009    24295718.053    -3888069.148 3  -3029664.634 3
        18.600          21.600
  23508562.634    23508561.783    23508562.993    -6587085.085 3  -5132787.512 3
        20.500          23.000
 09  1  1  0  4 30.0000000  0 10G21G26G 9G15G 6G18G 3G22G19G24
  20478986.269    20478985.408    20478983.826   -26776997.075 6 -20865183.024 7
        40.400          44.900
  22501040.008    22501039.757    22501038.570    -9515520.911 4  -7414681.826 4
        26.200          26.500
  24220801.039    24220799.940    24220802.504    -3199204.184 1  -2492885.138 2
         6.500          17.800
  21684607.574    21684607.583    21684606.209   -16570010.395 6 -12911684.873 6
        38.400          40.300
  22248408.227    22248407.570    22248407.257   -12672169.250 5  -9874414.189 5
        33.800          33.000
  20571237.620    20571236.822    20571235.759   -24885562.501 6 -19391336.701 7
        38.600          47.500
  22393642.588    22393641.875    22393641.986   -11326954.660 5  -8826194.865 5
        30.200          30.200
  22026441.619    22026441.162    22026438.614   -16458096.544 5 -12824482.197 5
        35.500          35.700
  24279869.293    24279866.984    24279865.027    -3971373.508 2  -3094577.094 3
        17.000          21.600
  23527382.505    23527381.632    23527382.797    -6488187.746 3  -5055724.669 3
        21.100          23.000
 09  1  1  0  5  0.0000000  0 10G21G26G 9G15G 6G18G 3G22G19G24
  20485324.003    20485323.141    20485321.370   -26743692.704 6 -20839231.563 7
        40.500          44.800
  22519690.837    22519690.169    22519689.248    -9417511.690 4  -7338310.988 4
        26.200          27.400
  24199423.337    24199422.641    24199422.139    -3311551.334 1  -2580428.306 3
         9.000          19.900
  21694972.263    21694972.250    21694970.883   -16515543.746 6 -12869243.324 6
        38.500          40.100
  22247947.542    22247946.913    22247946.391   -12674590.793 5  -9876301.112 5
        34.000          32.800
  20566386.508    20566385.745    20566383.957   -24911054.566 6 -19411200.653 7
        38.400          47.200
  22391202.504    22391201.884    22391201.780   -11339777.164 5  -8836186.403 5
        30.200          30.400
  22011730.205    22011729.898    22011727.380   -16535404.371 5 -12884722.044 5
        35.400          35.800
  24264083.990    24264083.450    24264082.345    -4054314.105 2  -3159206.109 3
        17.000          22.100
  23546234.837    23546234.104    23546235.390    -6389117.516 3  -4978527.109 3
        21.100          23.000
 09  1  1  0  5 30.0000000  0 10G21G26G 9G15G 6G18G 3G22G19G24
  20491755.909    20491755.030    20491753.364   -26709892.509 6 -20812893.745 7
        40.500          44.800
  22538419.583    22538419.039    22538418.017    -9319092.548 4  -7261620.747 4
        26.200          27.600
  24178075.716    24178075.982    24178074.408    -3423731.314 1  -2667841.206 3
         9.000          19.300
  21705431.200    21705431.079    21705429.755   -16460582.277 6 -12826416.197 6
        38.400          40.000
  22247596.625    22247596.001    22247595.773   -12676433.598 5  -9877737.082 5
        33.500          32.800
  20561609.129    20561608.278    20561607.435   -24936160.157 6 -19430763.453 7
        38.400          47.100
  22388880.700    22388879.744    22388879.719   -11351980.184 5  -8845695.230 5
        30.400          30.600
  21997068.855    21997068.303    21997065.419   -16612452.400 5 -12944759.449 5
        35.700          35.800
  24248369.904    24248370.068    24248368.321    -4136890.017 2  -3223550.970 3
        16.100          20.500
  23565120.200    23565119.195    23565119.997    -6289876.976 3  -4901196.836 3
        20.500          23.400
 09  1  1  0  6  0.0000000  0 10G21G26G 9G15G 6G18G 3G22G19G24
  20498281.456    20498280.540    20498278.807   -26675600.727 6 -20786172.875 7
        40.500          44.600
  22557224.379    22557223.853    22557223.290    -9220271.002 4  -7184616.939 4
        25.600          27.600
  24156758.314    24156758.474    24156759.237    -3535744.709 1  -2755124.277 2
         6.500          16.100
  21715983.230    21715982.980    21715981.475   -16405132.412 6 -12783208.506 6
        38.400          40.000
  22247355.294    22247354.751    22247354.623   -12677701.788 5  -9878725.292 5
        33.600          33.100
  20556904.544    20556903.732    20556901.841   -24960883.220 6 -19450028.169 7
        38.400          47.300
  22386675.193    22386674.508    22386674.555   -11363568.031 5  -8854724.706 5
        30.200          30.600
  21982455.774    21982455.360    21982452.601   -16689244.003 5 -13004597.047 6
        35.700          36.100
  24232726.278    24232725.401    24232724.221    -4219103.011 3  -3287613.016 3
        18.600          23.000
  23584035.937    23584035.437    23584036.369    -6190471.253 3  -4823737.861 3
        19.900          23.800
 09  1  1  0  6 30.0000000  0 10G21G26G 9G15G 6G18G 3G22G19G24
  20504900.924    20504900.119    20504898.391   -26640814.352 6 -20759066.607 7
        40.500          44.400
  22576105.615    22576105.570    22576104.784    -9121046.788 4  -7107299.368 4
        25.600          27.100
  24135476.636    24135476.212    24135477.032    -3647584.303 2  -2842271.935 2
        12.600          17.800
  21726627.886    21726627.786    21726626.496   -16349192.734 6 -12739619.146 6
        38.200          40.000
  22247224.063    22247223.422    22247223.253   -12678392.002 5  -9879263.130 5
        33.600          33.000
  20552273.483    20552272.678    20552271.658   -24985219.879 6 -19468991.791 7
        38.400          47.300
  22384588.122    22384587.292    22384587.162   -11374537.209 5  -8863272.108 5
        30.400          30.400
  21967892.644    21967892.122    21967889.247   -16765774.462 5 -13064231.156 6
        35.700          36.100
  24217152.575    24217150.994    24217149.010    -4300946.943 3  -3351387.480 3
        19.900          23.800
  23602984.500    23602983.565    23602984.526    -6090898.769 3  -4746148.946 3
        19.900          23.800
 09  1  1  0  7  0.0000000  0 10G21G26G 9G15G 6G18G 3G22G19G24
  20511616.097    20511615.270    20511613.620   -26605525.621 6 -20731568.892 7
        40.400          44.300
  22595065.565    22595065.178    22595063.679    -9021415.456 4  -7029664.550 4
        26.200          26.500
  24114230.298    24114229.589    24114230.476    -3759238.945 2  -2929275.507 2
        13.900          16.100
  21737367.107    21737367.124    21737365.730   -16292757.483 6 -12695643.614 6
        38.100          39.900
  22247203.868    22247203.439    22247203.224   -12678496.459 5  -9879344.539 5
        33.400          32.800
  20547717.281    20547716.500    20547714.585   -25009162.468 6 -19487648.350 7
        38.400          47.100
  22382620.184    22382619.260    22382619.030   -11384879.183 5  -8871330.780 5
        31.000          30.400
  21953380.553    21953380.067    21953377.220   -16842035.307 5 -13123655.178 6
        35.800          36.200
  24201650.840    24201649.676    24201647.505    -4382411.558 3  -3414866.370 4
        20.500          24.600
  23621966.290    23621965.061    23621965.546    -5991152.912 3  -4668424.935 3
        19.300          23.000
 09  1  1  0  7 30.0000000  0 10G21G26G 9G15G 6G18G 3G22G19G24
  20518424.166    20518423.270    20518421.506   -26569749.856 6 -20703691.667 7
        40.600          44.200
  22614099.013    22614098.535    22614096.935    -8921395.011 4  -6951726.534 4
        26.200          26.500
  24093016.267    24093015.892    24093015.530    -3870719.729 1  -3016143.592 2
        11.000          13.900
  21748197.786    21748197.557    21748196.057   -16235843.501 6 -12651295.050 6
        38.100          39.700
  22247292.932    22247292.283    22247292.156   -12678029.933 5  -9878981.018 5
        33.500          33.200
  20543233.571    20543232.739    20543231.752   -25032724.960 6 -19506008.732 7
        38.400          47.100
  22380768.884    22380768.079    22380767.851   -11394608.198 5  -8878911.808 5
        31.100          30.600
  21938917.246    21938916.726    21938914.165   -16918040.181 5 -13182879.740 6
        35.700          36.600
  24186217.241    24186215.975    24186215.122    -4463509.090 3  -3478059.219 4
        20.500          25.300
  23640976.590    23640975.649    23640976.154    -5891249.761 3  -4590578.349 3
        18.600          22.600
 09  1  1  0  8  0.0000000  0 10G21G26G 9G15G 6G18G 3G22G19G24
  20525324.333    20525323.482    20525321.764   -26533488.658 6 -20675436.186 7
        40.600          44.000
  22633204.792    22633204.389    22633203.304    -8820990.008 4  -6873488.862 4
        25.300          26.800
  24071833.912    24071833.265    24071833.387    -3982024.726 1  -3102874.711 2
        11.000          12.600
  21759118.460    21759118.257    21759116.925   -16178454.251 6 -12606576.144 6
        37.900          39.800
  22247490.083    22247489.565    22247489.227   -12676993.838 5  -9878173.679 5
        33.500          33.000
  20538821.722    20538820.963    20538819.040   -25055908.633 6 -19524073.923 7
        38.300          47.000
  22379033.425    22379032.523    22379032.574   -11403726.132 5  -8886016.673 5
        30.600          30.800
  21924502.709    21924502.112    21924499.401   -16993789.598 5 -13241905.244 6
        35.900          36.500
  24170855.230    24170853.902    24170852.898    -4544238.637 3  -3540965.331 4
        19.900          24.900
  23660016.070    23660015.322    23660016.823    -5791192.169 2  -4512611.425 3
        17.000          22.600
 09  1  1  0  8 30.0000000  0 10G21G26G 9G15G 6G18G 3G22G19G24
  20532319.120    20532318.359    20532316.749   -26496730.471 6 -20646793.439 7
        40.600          44.100
  22652385.944    22652385.414    22652384.917    -8720192.276 4  -6794945.168 4
        24.600          27.400
  24050690.186    24050690.062    24050689.689    -4093138.463 2  -3189456.787 2
        13.900          15.100
  21770131.220    21770131.273    21770129.916   -16120580.155 6 -12561479.444 6
        37.800          39.800
  22247797.655    22247796.989    22247796.964   -12675376.692 5  -9876913.556 5
        33.100          33.000
  20534484.648    20534483.737    20534482.752   -25078701.481 6 -19541834.570 7
        38.300          47.200
  22377417.210    22377416.285    22377416.240   -11412221.113 5  -8892636.125 5
        31.000          31.000
  21910138.841    21910138.357    21910135.770   -17069271.189 6 -13300722.051 6
        36.000          36.500
  24155566.151    24155564.906    24155563.538    -4624586.062 3  -3603573.691 4
        21.100          24.600
  23679087.867    23679087.166    23679088.480    -5690969.551 2  -4434515.919 3
        17.000          22.100
 09  1  1  0  9  0.0000000  0 10G21G26G 9G15G 6G18G 3G22G19G24
  20539408.472    20539407.653    20539405.904   -26459476.308 6 -20617764.221 7
        40.700          43.900
  22671641.263    22671640.679    22671640.254    -8619005.515 4  -6716098.344 4
        24.200          27.100
  24029583.617    24029582.401    24029582.964    -4204058.073 2  -3275887.610 2
        16.100          17.000
  21781236.209    21781236.055    21781234.783   -16062223.711 6 -12516006.882 6
        37.600          39.700
  22248215.719    22248215.288    22248215.303   -12673179.277 5  -9875201.270 5
        33.100          33.400
  20530221.352    20530220.501    20530218.510   -25101104.300 6 -19559291.305 7
        38.300          46.900
  22375919.124    22375918.183    22375918.137   -11420093.085 5  -8898770.106 5
        31.000          30.800
  21895826.281    21895825.836    21895823.148   -17144484.098 6 -13359329.493 6
        36.200          36.500
  24140350.391    24140348.475    24140346.463    -4704549.469 3  -3665882.813 3
        20.500          23.800
  23698190.537    23698189.974    23698191.469    -5590583.853 2  -4356293.330 3
        17.800          22.100
 09  1  1  0  9 30.0000000  0 10G21G26G 9G15G 6G18G 3G22G19G24
  20546590.280    20546589.435    20546587.671   -26421735.979 6 -20588356.168 7
        40.700          43.800
  22690968.592    22690967.993    22690967.071    -8517442.205 4  -6636958.103 4
        24.600          27.100
  24008511.700    24008511.439    24008511.877    -4314789.042 3  -3362171.443 3
        18.600          18.600
  21792430.793    21792430.647    21792429.382   -16003396.405 6 -12470167.419 6
        37.600          39.800
  22248742.683    22248742.099    22248742.109   -12670410.888 5  -9873044.074 5
        33.200          33.400
  20526030.845    20526029.978    20526029.041   -25123125.710 6 -19576450.840 7
        38.200          46.900
  22374537.798    22374537.085    22374536.696   -11427351.977 5  -8904426.375 5
        31.500          30.400
  21881563.215    21881562.747    21881560.177   -17219436.904 6 -13417734.250 6
        36.500          36.900
  24125205.417    24125203.570    24125201.421    -4784135.321 3  -3727897.722 3
        21.100          23.400
  23717323.091    23717321.829    23717322.899    -5490045.532 2  -4277951.809 3
        17.800          21.100
 09  1  1  0 10  0.0000000  0 10G21G26G 9G15G 6G18G 3G22G19G24
  20553866.609    20553865.721    20553863.846   -26383498.803 6 -20558560.960 7
        40.700          43.600
  22710368.262    22710367.725    22710366.951    -8415495.021 4  -6557518.738 4
        24.600          26.800
  23987480.001    23987478.878    23987478.972    -4425317.226 3  -3448297.278 3
        18.600          19.300
  21803716.431    21803716.329    21803715.112   -15944089.580 6 -12423954.304 6
        37.500          39.700
  22249379.964    22249379.496    22249379.379   -12667060.986 5  -9870433.735 5
        33.200          33.200
  20521914.936    20521914.132    20521912.041   -25144754.772 6 -19593304.646 7
        38.100          46.900
  22373275.304    22373274.537    22373274.434   -11433986.295 5  -8909595.960 5
        31.500          30.800
  21867351.964    21867351.470    21867348.863   -17294117.492 6 -13475926.886 6
        36.300          36.800
  24110133.333    24110132.269    24110130.986    -4863330.724 3  -3789608.415 3
        20.500          23.800
  23736486.460    23736485.214    23736485.324    -5389345.440 3  -4199484.245 3
        18.600          20.500
 09  1  1  0 10 30.0000000  0 10G21G26G 9G15G 6G18G 3G22G19G24
  20561237.051    20561236.215    20561234.408   -26344766.333 6 -20528379.811 7
        40.700          43.600
  22729840.027    22729839.870    22729839.159    -8313168.318 4  -6477783.627 4
        24.200          27.400
  23966484.590    23966484.040    23966484.739    -4535640.189 2  -3534263.181 3
        16.100          20.500
  21815092.645    21815092.585    21815091.275   -15884306.352 6 -12377369.962 6
        37.200          39.400
  22250128.193    22250127.472    22250127.132   -12663131.125 5  -9867371.509 5
        33.600          33.200
  20517873.525    20517872.703    20517871.814   -25165992.304 6 -19609853.349 7
        38.200          46.800
  22372131.501    22372130.633    22372130.456   -11439996.984 5  -8914279.586 5
        31.600          31.000
  21853192.305    21853191.885    21853189.249   -17368526.324 6 -13533907.764 6
        36.300          36.800
  24095138.498    24095136.218    24095135.660    -4942134.443 3  -3851013.891 4
        19.900          24.600
  23755679.214    23755678.276    23755678.048    -5288486.087 3  -4120892.555 3
        19.900          19.300
 09  1  1  0 11  0.0000000  0 10G21G26G 9G15G 6G18G 3G22G19G24
  20568701.011    20568700.140    20568698.403   -26305542.958 6 -20497816.142 7
        40.700          43.500
  22749383.343    22749382.902    22749381.936    -8210469.283 4  -6397758.407 4
        24.200          27.600
  23945529.913    23945529.508    23945529.998    -4645758.463 2  -3620069.570 3
        16.100          21.600
  21826558.581    21826558.506    21826557.295   -15824052.554 6 -12330418.947 6
        37.200          39.500
  22250985.518    22250984.937    22250984.378   -12658625.136 5  -9863860.351 5
        33.600          33.000
  20513905.924    20513905.142    20513902.977   -25186842.098 6 -19626099.936 7
        38.100          46.800
  22371105.766    22371104.835    22371104.620   -11445388.231 5  -8918480.548 5
        32.000          31.100
  21839084.242    21839083.651    21839080.897   -17442666.194 6 -13591679.062 6
        36.700          36.900
  24080218.665    24080216.494    24080214.134    -5020547.950 3  -3912115.313 4
        21.100          24.200
  23774900.264    23774899.776    23774900.493    -5187472.763 3  -4042180.874 3
        19.300          19.300
 09  1  1  0 11 30.0000000  0 10G21G26G 9G15G 6G18G 3G22G19G24
  20576258.596    20576257.728    20576255.826   -26265827.802 6 -20466869.265 7
        40.700          43.100
  22768997.157    22768996.652    22768995.641    -8107399.795 4  -6317444.529 4
        24.600          27.400
  23924616.450    23924615.168    23924615.064    -4755666.988 2  -3705712.512 3
        16.100          23.000
  21838113.922    21838113.734    21838112.489   -15763329.469 6 -12283102.257 6
        37.100          39.400
  22251952.864    22251952.246    22251952.094   -12653542.034 5  -9859899.494 5
        33.800          33.400
  20510012.539    20510011.696    20510010.664   -25207302.600 6 -19642043.187 7
        38.100          46.700
  22370197.881    22370197.093    22370196.811   -11450158.749 5  -8922197.836 5
        32.000          31.100
  21825027.314    21825026.797    21825024.190   -17516535.125 6 -13649239.239 6
        36.900          37.000
  24065370.705    24065369.311    24065367.157    -5098567.521 3  -3972909.768 4
        21.600          24.200
  23794151.780    23794150.993    23794151.849    -5086305.559 2  -3963349.307 3
        17.800          19.900
 09  1  1  0 12  0.0000000  0 10G21G26G 9G15G 6G18G 3G22G19G24
  20583909.377    20583908.570    20583906.831   -26225621.800 6 -20435539.907 7
        40.600          43.100
  22788680.175    22788679.583    22788678.694    -8003963.886 4  -6236845.111 4
        24.600          26.200
  23903740.027    23903740.216    23903740.957    -4865362.893 2  -3791189.768 3
        13.900          23.000
  21849757.927    21849757.790    21849756.406   -15702139.892 6 -12235422.060 6
        37.200          39.200
  22253029.880    22253029.142    22253029.056   -12647882.796 5  -9855489.706 5
        33.600          33.400
  20506193.055    20506192.218    20506190.019   -25227373.936 6 -19657683.189 7
        38.100          46.800
  22369408.282    22369407.408    22369406.993   -11454309.167 5  -8925431.931 5
        32.000          31.300
  21811022.173    21811021.726    21811018.877   -17590132.717 6 -13706587.987 6
        37.200          37.100
  24050598.608    24050597.152    24050595.070    -5176191.323 3  -4033395.844 3
        21.100          23.400
  23813432.622    23813431.515    23813432.545    -4984986.386 2  -3884399.324 3
        17.000          20.500
 09  1  1  0 12 30.0000000  0 10G21G26G 9G15G 6G18G 3G22G19G24
  20591653.978    20591653.227    20591651.397   -26184923.564 6 -20403826.991 7
        40.700          43.000
  22808432.126    22808432.003    22808431.450    -7900162.771 3  -6155961.108 4
        23.400          25.900
  23882907.980    23882907.562    23882907.499    -4974840.325 2  -3876496.805 3
        13.900          22.600
  21861490.770    21861490.684    21861489.187   -15640483.622 6 -12187378.207 6
        37.400          39.100
  22254216.683    22254215.980    22254215.724   -12641645.567 5  -9850629.537 5
        33.400          33.100
  20502447.902    20502447.103    20502446.175   -25247054.098 6 -19673018.364 7
        38.100          46.600
  22368736.453    22368735.690    22368735.540   -11457837.521 5  -8928181.291 5
        31.500          31.300
  21797069.510    21797068.871    21797065.782   -17663455.981 6 -13763722.970 6
        37.200          37.100
  24035903.704    24035902.329    24035899.952    -5253415.207 3  -4093570.263 3
        19.300          23.000
  23832742.500    23832741.511    23832742.070    -4883514.505 2  -3805330.359 3
        17.000          21.100
 09  1  1  0 13  0.0000000  0 10G21G26G 9G15G 6G18G 3G22G19G24
  20599491.959    20599491.204    20599489.453   -26143734.957 6 -20371731.972 7
        40.800          43.000
  22828253.429    22828253.142    22828252.403    -7796001.271 3  -6074796.293 4
        22.600          25.600
  23862118.288    23862117.215    23862116.415    -5084097.710 2  -3961632.374 3
        16.100          23.800
  21873311.507    21873311.491    21873310.100   -15578364.691 6 -12138973.838 6
        37.300          39.100
  22255513.070    22255512.557    22255512.257   -12634832.508 5  -9845320.649 5
        33.400          33.200
  20498777.115    20498776.300    20498774.053   -25266344.708 6 -19688050.003 7
        38.100          46.700
  22368183.337    22368182.552    22368182.266   -11460745.632 5  -8930447.337 5
        31.600          31.300
  21783168.350    21783167.783    21783165.072   -17736505.867 6 -13820644.927 6
        37.200          37.400
  24021285.386    24021283.671    24021281.483    -5330237.834 3  -4153432.023 3
        19.900          23.000
  23852080.037    23852079.033    23852080.121    -4781893.147 2  -3726144.926 3
        16.100          21.600
 09  1  1  0 13 30.0000000  0 10G21G26G 9G15G 6G18G 3G22G19G24
  20607423.355    20607422.539    20607420.670   -26102056.134 6 -20339254.965 7
        40.900          42.900
  22848142.995    22848142.616    22848141.776    -7691482.278 3  -5993352.929 4
        23.000          25.900
  23841368.973    23841367.992    23841368.645    -5193130.961 2  -4046593.310 3
        17.000          23.800
  21885220.277    21885220.060    21885218.691   -15515784.547 6 -12090210.088 6
        37.200          39.100
  22256919.219    22256918.651    22256918.308   -12627443.342 5  -9839562.853 5
        33.500          33.200
  20495180.400    20495179.623    20495178.631   -25285244.684 6 -19702777.250 7
        38.000          46.200
  22367747.673    22367746.884    22367746.672   -11463033.003 5  -8932229.663 5
        31.500          31.100
  21769319.500    21769319.106    21769316.423   -17809280.583 6 -13877352.467 6
        37.400          37.400
  24006742.969    24006741.311    24006739.703    -5406656.692 3  -4212979.160 4
        22.100          24.200
  23871445.963    23871445.518    23871446.517    -4680122.961 2  -3646843.521 3
        16.100          21.600
 09  1  1  0 14  0.0000000  0 10G21G26G 9G15G 6G18G 3G22G19G24
  20615447.488    20615446.634    20615444.836   -26059888.892 6 -20306397.377 7
        40.900          42.800
  22868099.814    22868099.232    22868098.380    -7586610.442 3  -5911634.619 4
        23.000          26.200
  23820664.174    23820663.307    23820663.273    -5301937.637 2  -4131377.681 3
        15.100          22.100
  21897215.965    21897215.770    21897214.317   -15452747.050 6 -12041089.957 6
        37.100          39.000
  22258434.665    22258434.113    22258433.987   -12619479.926 5  -9833357.592 5
        33.400          33.200
  20491658.082    20491657.282    20491654.936   -25303755.384 6 -19717201.162 7
        38.000          46.600
  22367430.345    22367429.479    22367429.420   -11464701.310 5  -8933529.624 5
        31.500          31.100
  21755523.229    21755522.750    21755519.839   -17881781.049 6 -13933846.308 6
        37.600          37.300
  23992278.291    23992276.559    23992275.103    -5482670.820 3  -4272210.923 4
        22.100          24.600
  23890840.625    23890839.675    23890840.481    -4578207.036 2  -3567428.539 3
        16.100          21.600
 09  1  1  0 14 30.0000000  0 10G21G26G 9G15G 6G18G 3G22G19G24
  20623564.608    20623563.749    20623562.163   -26017232.614 6 -20273158.721 7
        40.800          42.800
  22888123.133    22888122.741    22888121.639    -7481388.106 3  -5829643.187 4
        23.800          26.200
  23800001.329    23800000.491    23800001.626    -5410513.077 1  -4215981.884 3
        11.000          21.100
  21909298.311    21909298.269    21909296.820   -15389253.285 6 -11991614.297 6
        37.100          38.900
  22260059.454    22260058.932    22260058.475   -12610941.602 5  -9826704.350 5
        33.200          33.100
  20488209.874    20488209.057    20488207.973   -25321875.677 6 -19731320.848 7
        38.000          46.400
  22367230.916    22367230.139    22367229.932   -11465749.476 5  -8934346.381 5
        31.500          31.000
  21741779.567    21741778.962    21741776.138   -17954004.938 6 -13990124.641 6
        37.600          37.600
  23977890.397    23977889.039    23977887.494    -5558276.742 3  -4331124.614 4
        22.100          24.200
  23910262.689    23910261.907    23910262.225    -4476145.600 2  -3487900.185 3
        15.100          21.100
 09  1  1  0 15  0.0000000  0 10G21G26G 9G15G 6G18G 3G22G19G24
  20631774.305    20631773.461    20631771.683   -25974090.864 6 -20239541.772 7
        40.800          42.500
  22908211.588    22908210.948    22908210.519    -7375821.224 3  -5747383.280 4
        23.400          26.200
  23779385.504    23779384.226    23779384.634    -5518856.985 2  -4300405.653 3
        13.900          21.600
  21921466.649    21921466.570    21921464.965   -15325308.310 6 -11941787.041 6
        37.200          38.600
  22261792.831    22261792.227    22261792.007   -12601831.606 5  -9819605.651 5
        33.100          33.000
  20484835.522    20484834.667    20484832.375   -25339608.131 6 -19745138.337 7
        38.000          46.400
  22367149.027    22367148.227    22367147.958   -11466180.516 5  -8934682.253 5
        31.300          31.300
  21728087.800    21728087.362    21728084.584   -18025954.117 6 -14046188.907 6
        37.500          37.700
  23963581.465    23963579.784    23963577.512    -5633475.136 3  -4389720.755 4
        23.000          24.600
  23929710.391    23929710.387    23929710.747    -4373942.601 2  -3408261.522 3
        15.100          20.500
 09  1  1  0 15 30.0000000  0 10G21G26G 9G15G 6G18G 3G22G19G24
  20640077.047    20640076.189    20640074.493   -25930459.123 6 -20205543.012 7
        40.700          42.500
  22928365.549    22928365.173    22928364.851    -7269908.261 3  -5664853.689 4
        22.100          25.900
  23758813.548    23758813.007    23758813.702    -5626960.293 2  -4384641.954 3
        16.100          22.600
  21933721.293    21933721.210    21933719.517   -15260909.388 6 -11891606.056 6
        36.900          38.300
  22263636.355    22263635.700    22263635.289   -12592145.475 5  -9812058.016 5
        33.500          33.000
  20481535.891    20481535.075    20481534.034   -25356947.689 6 -19758649.672 7
        38.000          46.500
  22367184.787    22367184.065    22367184.343   -11465989.807 5  -8934533.651 5
        30.800          31.500
  21714449.872    21714449.245    21714446.492   -18097622.944 6 -14102034.729 6
        37.400          37.800
  23949349.640    23949348.301    23949346.929    -5708258.510 3  -4447993.505 4
        22.100          24.200
  23949187.061    23949185.953    23949186.683    -4271594.788 2  -3328510.012 3
        16.100          19.300
 09  1  1  0 16  0.0000000  0 10G21G26G 9G15G 6G18G 3G22G19G24
  20648472.837    20648472.026    20648470.302   -25886338.675 6 -20171163.449 7
        40.700          42.300
  22948585.495    22948584.821    22948584.614    -7163652.844 3  -5582057.259 4
        21.100          26.200
  23738288.781    23738287.800    23738288.451    -5734820.164 3  -4468688.559 3
        19.300          22.100
  21946061.938    21946061.776    21946060.107   -15196059.271 6 -11841073.491 6
        36.900          38.300
  22265588.797    22265588.232    22265587.923   -12581884.068 5  -9804062.117 5
        33.500          32.800
  20478311.012    20478310.143    20478307.809   -25373894.759 6 -19771855.173 7
        38.000          46.500
  22367339.535    22367338.725    22367338.560   -11465178.405 5  -8933901.393 5
        31.000          31.300
  21700865.329    21700864.670    21700861.765   -18169011.149 6 -14157661.873 6
        37.700          37.800
  23935197.902    23935196.684    23935195.398    -5782624.970 3  -4505941.372 3
        22.100          23.800
  23968689.952    23968689.407    23968689.848    -4169104.051 3  -3248647.104 3
        18.600          19.300
 09  1  1  0 16 30.0000000  0 10G21G26G 9G15G 6G18G 3G22G19G24
  20656961.017    20656960.167    20656958.494   -25841733.086 6 -20136405.852 7
        40.700          42.200
  22968869.116    22968868.711    22968868.247    -7057061.453 3  -5498999.047 4
        21.600          25.600
  23717809.796    23717809.561    23717809.109    -5842436.055 3  -4552545.067 3
        19.300          19.900
  21958487.275    21958487.153    21958485.718   -15130763.407 6 -11790193.593 6
        36.900          38.300
  22267650.648    22267649.766    22267649.414   -12571051.074 5  -9795620.812 5
        33.400          33.000
  20475160.207    20475159.367    20475158.283   -25390452.224 6 -19784757.077 7
        38.000          46.400
  22367611.399    22367610.570    22367610.588   -11463749.010 5  -8932787.577 5
        31.000          31.300
  21687333.656    21687333.026    21687330.145   -18240120.694 6 -14213071.885 6
        38.100          38.100
  23921126.824    23921124.877    23921122.537    -5856575.519 3  -4563565.148 3
        23.400          23.400
  23988220.339    23988219.300    23988219.889    -4066475.055 3  -3168676.458 3
        18.600          19.300
 09  1  1  0 17  0.0000000  0 10G21G26G 9G15G 6G18G 3G22G19G24
  20665540.314    20665539.423    20665537.775   -25796648.597 6 -20101275.077 7
        40.700          42.100
  22989215.031    22989214.483    22989214.063    -6950142.938 3  -5415685.912 4
        22.100          24.900
  23697377.656    23697376.835    23697376.058    -5949810.241 3  -4636213.244 3
        19.300          19.300
  21970995.951    21970995.913    21970994.285   -15065029.388 6 -11738972.267 6
        36.800          38.100
  22269819.219    22269818.629    22269818.690   -12559652.785 5  -9786739.028 5
        33.000          33.200
  20472082.352    20472081.541    20472079.143   -25406625.666 6 -19797359.744 7
        37.900          46.200
  22367999.890    22367998.937    22367999.209   -11461707.775 5  -8931197.009 5
        30.600          31.500
  21673853.940    21673853.401    21673850.470   -18310956.128 6 -14268268.312 6
        38.100          37.900
  23907131.925    23907130.680    23907128.646    -5930113.364 3  -4620867.378 3
        22.600          22.600
  24007775.290    24007774.105    24007774.684    -3963714.565 2  -3088603.359 3
        17.800          19.900
 09  1  1  0 17 30.0000000  0 10G21G26G 9G15G 6G18G 3G22G19G24
  20674214.031    20674213.221    20674211.453   -25751068.086 6 -20065757.790 7
        40.900          42.000
  23009626.422    23009625.816    23009624.881    -6842882.931 3  -5332106.683 4
        21.600          24.200
  23676995.289    23676994.191    23676993.605    -6056921.483 2  -4719676.521 3
        17.000          18.600
  21983591.114    21983591.048    21983589.442   -14998841.835 6 -11687397.549 6
        36.600          38.300
  22272099.042    22272098.398    22272098.330   -12547671.850 5  -9777403.233 5
        32.800          33.100
  20469081.207    20469080.367    20469079.276   -25422397.314 6 -19809649.332 7
        37.900          46.200
  22368507.748    22368507.050    22368507.221   -11459037.523 5  -8929116.303 5
        30.800          31.500
  21660430.118    21660429.650    21660426.614   -18381499.245 6 -14323236.958 6
        38.400          38.200
  23893220.512    23893218.864    23893217.520    -6003218.655 3  -4677832.535 3
        20.500          22.600
  24027357.743    24027356.328    24027357.771    -3860806.628 2  -3008415.391 3
        16.100          21.100
 09  1  1  0 18  0.0000000  0 10G21G26G 9G15G 6G18G 3G22G19G24
  20682979.807    20682978.944    20682977.113   -25705004.467 6 -20029864.067 6
        40.900          41.900
  23030098.836    23030098.529    23030097.504    -6735297.048 3  -5248273.532 3
        21.600          23.400
  23656659.920    23656659.118    23656659.582    -6163778.415 2  -4802941.610 3
        17.000          19.300
  21996269.607    21996269.444    21996267.988   -14932215.690 6 -11635481.070 6
        36.300          38.100
  22274487.530    22274486.986    22274486.786   -12535121.289 5  -9767623.566 5
        33.000          33.100
  20466154.133    20466153.317    20466150.848   -25437778.940 6 -19821635.015 7
        37.800          46.200
  22369133.843    22369133.027    22369132.539   -11455750.999 5  -8926555.385 5
        31.300          31.300
  21647059.491    21647059.022    21647056.179   -18451761.345 6 -14377986.627 6
        38.200          38.400
  23879389.677    23879387.886    23879386.496    -6075901.396 3  -4734468.392 3
        21.100          23.000
  24046965.921    24046964.751    24046966.224    -3757764.668 2  -2928122.979 3
        16.100          21.600
 09  1  1  0 18 30.0000000  0 10G21G26G 9G15G 6G18G 3G22G19G24
  20691837.093    20691836.304    20691834.523   -25658458.207 6 -19993594.256 6
        40.900          41.700
  23050633.631    23050633.130    23050632.088    -6627388.425 3  -5164188.870 3
        22.100          23.400
  23636375.450    23636375.045    23636374.506    -6270377.119 2  -4886005.492 3
        17.800          20.500
  22009031.266    22009031.188    22009029.637   -14865152.897 6 -11583224.343 6
        36.300          38.000
  22276984.221    22276983.561    22276983.238   -12522001.671 5  -9757400.480 5
        33.000          33.100
  20463301.251    20463300.417    20463299.364   -25452770.770 6 -19833316.950 7
        37.800          46.100
  22369876.214    22369875.335    22369875.341   -11451848.250 5  -8923514.270 5
        31.000          31.300
  21633742.737    21633742.203    21633739.389   -18521741.417 6 -14432516.530 6
        38.100          38.500
  23865639.463    23865638.261    23865636.438    -6148159.186 3  -4790773.156 3
        23.000          23.000
  24066598.696    24066597.972    24066599.427    -3654590.294 2  -2847727.386 3
        13.900          21.100
 09  1  1  0 19  0.0000000  0 10G21G26G 9G15G 6G18G 3G22G19G24
  20700786.080    20700785.245    20700783.458   -25611431.815 6 -19956950.324 6
        40.900          41.700
  23071228.545    23071228.140    23071227.038    -6519162.131 3  -5079856.668 4
        22.600          24.200
  23616139.512    23616138.857    23616139.047    -6376715.835 2  -4968866.795 3
        16.100          22.100
  22021875.346    22021875.210    22021873.602   -14797657.464 6 -11530630.493 6
        36.200          38.000
  22279588.369    22279587.837    22279587.792   -12508315.191 5  -9746735.685 5
        33.000          33.000
  20460522.343    20460521.521    20460519.010   -25467373.980 6 -19844696.076 7
        37.700          46.100
  22370735.695    22370734.829    22370734.759   -11447331.232 5  -8919994.513 5
        30.800          31.100
  21620479.383    21620478.900    21620476.110   -18591440.493 6 -14486827.478 6
        38.200          38.600
  23851970.672    23851968.997    23851967.133    -6219991.396 3  -4846746.301 4
        23.000          24.200
  24086256.960    24086256.210    24086257.517    -3551286.523 2  -2767230.974 3
        12.600          21.600
 09  1  1  0 19 30.0000000  0 10G21G26G 9G15G 6G18G 3G22G19G24
  20709827.927    20709827.028    20709825.241   -25563916.986 6 -19919925.792 6
        41.000          41.600
  23091884.140    23091883.998    23091882.963    -6410612.535 3  -4995272.559 4
        22.100          24.200
  23595955.532    23595954.374    23595955.650    -6482782.403 2  -5051515.987 3
        15.100          23.400
  22034802.650    22034802.595    22034801.133   -14729722.782 6 -11477694.371 6
        36.000          37.900
  22282302.233    22282301.588    22282301.543   -12494053.799 5  -9735622.906 5
        32.800          33.100
  20457819.182    20457818.341    20457817.248   -25481579.750 6 -19855765.503 7
        37.800          46.200
  22371713.594    22371712.736    22371712.896   -11442192.181 5  -8915990.067 5
        31.000          31.500
  21607271.454    21607270.891    21607268.156   -18660848.701 6 -14540911.772 6
        38.100          38.600
  23838384.910    23838383.201    23838380.953    -6291387.047 3  -4902379.248 4
        23.400          24.900
  24105940.292    24105939.664    24105941.137    -3447845.878 2  -2686627.922 3
        12.600          21.600
 09  1  1  0 20  0.0000000  0 10G21G26G 9G15G 6G18G 3G22G19G24
  20718960.950    20718960.084    20718958.350   -25515921.925 6 -19882527.046 6
        40.900          41.500
  23112599.927    23112599.890    23112599.177    -6301750.232 3  -4910444.782 4
        22.100          24.200
  23575822.811    23575822.565    23575822.496    -6588580.646 2  -5133956.109 3
        17.000          23.000
  22047811.796    22047811.885    22047810.370   -14661358.575 5 -11424423.561 6
        35.900          37.800
  22285124.059    22285123.430    22285123.236   -12479225.520 5  -9724068.408 5
        32.800          33.100
  20455189.939    20455189.204    20455186.683   -25495395.770 6 -19866531.233 7
        37.700          46.100
  22372808.267    22372807.497    22372807.869   -11436438.674 5  -8911506.830 5
        30.600          31.500
  21594117.803    21594117.290    21594114.181   -18729972.322 6 -14594774.311 6
        38.400          38.600
  23824879.663    23824878.654    23824876.830    -6362351.308 3  -4957676.073 4
        23.400          24.600
  24125648.925    24125648.469    24125650.173    -3344277.428 1  -2605925.278 3
        11.000          21.600
 09  1  1  0 20 30.0000000  0 10G21G26G 9G15G 6G18G 3G22G19G24
  20728186.094    20728185.325    20728183.572   -25467443.358 6 -19844751.546 6
        41.000          41.500
  23133375.598    23133375.072    23133374.237    -6192574.495 3  -4825372.783 3
        21.100          23.800
  23555743.042    23555742.595    23555741.722    -6694102.606 3  -5216180.989 3
        18.600          23.000
  22060903.285    22060903.132    22060901.666   -14592563.114 5 -11370816.703 6
        35.800          37.700
  22288054.378    22288053.878    22288053.511   -12463826.929 5  -9712069.516 5
        33.100          33.000
  20452635.901    20452635.125    20452633.911   -25508817.584 6 -19876989.786 7
        37.700          46.000
  22374020.841    22374020.003    22374020.177   -11430066.703 5  -8906541.661 5
        30.400          31.100
  21581018.831    21581018.362    21581015.442   -18798806.754 6 -14648411.519 6
        38.400          38.700
  23811458.752    23811457.872    23811456.073    -6432877.801 3  -5012631.763 4
        22.600          24.900
  24145383.295    24145382.733    24145383.011    -3240578.231 2  -2525120.753 3
        12.600          20.500
 09  1  1  0 21  0.0000000  0 10G21G26G 9G15G 6G18G 3G22G19G24
  20737502.716    20737501.846    20737500.076   -25418484.462 6 -19806601.766 6
        40.800          41.200
  23154210.043    23154209.672    23154207.741    -6083091.264 3  -4740061.179 3
        21.600          23.400
  23535715.257    23535714.411    23535714.624    -6799347.408 3  -5298189.893 3
        18.600          23.000
  22074075.650    22074075.558    22074074.264   -14523341.454 5 -11316877.747 6
        35.600          37.700
  22291092.731    22291092.125    22291091.793   -12447861.292 5  -9699628.767 5
        33.100          33.100
  20450156.438    20450155.617    20450153.000   -25521847.371 6 -19887142.861 7
        37.700          46.100
  22375350.523    22375349.818    22375349.679   -11423079.794 5  -8901097.315 5
        31.000          31.000
  21567974.851    21567974.342    21567971.321   -18867353.640 6 -14701824.655 6
        38.400          38.900
  23798121.963    23798120.180    23798118.832    -6502967.008 3  -5067246.716 4
        22.600          25.300
  24165140.052    24165139.384    24165140.492    -3136752.208 2  -2444217.376 3
        12.600          19.900
 09  1  1  0 21 30.0000000  0 10G21G26G 9G15G 6G18G 3G22G19G24
  20746910.324    20746909.427    20746907.552   -25369047.897 6 -19768079.771 6
        41.000          41.200
  23175101.805    23175100.810    23175099.441    -5973305.476 3  -4654513.799 3
        21.100          23.400
  23515740.876    23515740.236    23515740.210    -6904313.560 3  -5379981.666 3
        19.300          23.000
  22087328.670    22087328.461    22087327.016   -14453697.632 5 -11262609.832 6
        35.700          37.600
  22294238.001    22294237.307    22294237.345   -12431331.231 5  -9686748.209 5
        32.600          33.100
  20447751.009    20447750.177    20447749.017   -25534487.515 6 -19896992.319 7
        37.600          45.800
  22376796.554    22376795.806    22376795.899   -11415480.406 5  -8895175.722 5
        31.300          31.000
  21554985.350    21554984.822    21554981.759   -18935613.911 6 -14755014.452 6
        38.600          38.800
  23784867.407    23784865.580    23784864.443    -6572618.601 3  -5121520.679 4
        21.600          25.300
  24184922.634    24184921.243    24184921.401    -3032802.846 2  -2363217.915 3
        13.900          19.900
 09  1  1  0 22  0.0000000  0 10G21G26G 9G15G 6G18G 3G22G19G24
  20756408.857    20756408.016    20756406.316   -25319131.746 6 -19729184.074 6
        40.900          41.100
  23196050.269    23196049.660    23196048.539    -5863218.007 3  -4568731.352 3
        20.500          23.000
  23495820.589    23495820.138    23495820.034    -7008995.048 3  -5461551.622 3
        20.500          23.800
  22100661.725    22100661.618    22100660.041   -14383631.522 5 -11208012.859 6
        35.600          37.200
  22297491.280    22297490.702    22297490.493   -12414235.186 5  -9673426.629 5
        32.600          33.000
  20445420.474    20445419.647    20445416.965   -25546735.105 6 -19906535.892 7
        37.700          46.000
  22378359.873    22378359.081    22378358.941   -11407266.362 5  -8888775.172 5
        31.500          30.800
  21542050.818    21542050.412    21542047.404   -19003584.282 6 -14807978.364 6
        38.900          38.700
  23771697.227    23771695.649    23771693.678    -6641827.805 3  -5175449.914 4
        21.600          24.600
  24204726.753    24204725.669    24204725.872    -2928729.239 2  -2282121.648 3
        15.100          19.300
 09  1  1  0 22 30.0000000  0 10G21G26G 9G15G 6G18G 3G22G19G24
  20765998.712    20765997.939    20765996.143   -25268736.140 6 -19689914.769 6
        40.700          40.900
  23217055.772    23217055.607    23217054.491    -5752831.284 3  -4482715.724 3
        19.900          23.400
  23475956.225    23475955.072    23475955.091    -7113387.229 3  -5542896.122 4
        19.900          24.200
  22114074.639    22114074.601    22114073.109   -14313144.780 5 -11153088.118 6
        35.300          37.200
  22300852.298    22300851.842    22300851.556   -12396573.027 5  -9659663.911 5
        32.600          32.800
  20443164.576    20443163.774    20443162.664   -25558589.467 6 -19915773.050 7
        37.600          45.800
  22380039.767    22380038.963    22380038.829   -11398437.510 5  -8881895.540 5
        31.100          30.400
  21529172.204    21529171.653    21529168.616   -19071263.233 6 -14860715.188 6
        38.900          38.900
  23758612.625    23758610.539    23758608.416    -6710591.618 3  -5229032.078 4
        22.600          24.900
  24224554.111    24224553.098    24224553.900    -2824531.858 2  -2200928.912 2
        16.100          17.800
 09  1  1  0 23  0.0000000  0 10G21G26G 9G15G 6G18G 3G22G19G24
  20775679.417    20775678.634    20775676.842   -25217864.344 6 -19650274.407 6
        40.800          40.900
  23238117.294    23238117.281    23238116.635    -5642151.096 3  -4396471.416 3
        20.500          23.400
  23456145.581    23456145.236    23456145.445    -7217488.897 3  -5624014.274 3
        21.100          23.800
  22127567.190    22127567.110    22127565.612   -14242242.313 5 -11097839.442 6
        35.600          37.300
  22304320.416    22304319.782    22304319.473   -12378348.060 5  -9645462.635 5
        32.300          32.800
  20440983.134    20440982.371    20440979.736   -25570053.060 6 -19924705.715 7
        37.600          45.900
  22381836.264    22381835.560    22381835.350   -11388997.304 5  -8874539.545 5
        31.600          30.600
  21516348.596    21516348.007    21516344.856   -19138652.257 6 -14913226.097 6
        38.900          39.100
  23745611.478    23745609.753    23745607.895    -6778910.486 3  -5282267.549 4
        22.100          24.900
  24244404.603    24244403.599    24244404.744    -2720214.749 2  -2119642.861 2
        16.100          17.000
 09  1  1  0 23 30.0000000  0 10G21G26G 9G15G 6G18G 3G22G19G24
  20785451.032    20785450.180    20785448.499   -25166514.023 6 -19610261.172 6
        40.700          40.800
  23259235.458    23259235.272    23259234.324    -5531177.489 3  -4309998.461 3
        19.900          23.400
  23436392.332    23436391.378    23436391.369    -7321293.532 3  -5704900.974 3
        20.500          22.100
  22141138.630    22141138.645    22141137.216   -14170923.246 5 -11042266.144 6
        35.600          37.200
  22307896.068    22307895.482    22307895.390   -12359558.072 5  -9630821.100 5
        32.300          33.100
  20438876.690    20438875.860    20438874.718   -25581122.495 6 -19933331.246 7
        37.600          45.800
  22383749.606    22383748.817    22383748.432   -11378942.845 5  -8866704.913 5
        31.800          30.200
  21503580.579    21503580.079    21503577.231   -19205747.173 6 -14965507.822 6
        38.900          39.300
  23732696.182    23732694.732    23732693.353    -6846779.050 3  -5335152.141 4
        22.600          25.900
  24264278.867    24264277.995    24264279.155    -2615776.263 2  -2038262.240 2
        15.100          15.100
 09  1  1  0 24  0.0000000  0 11G21G26G 9G15G 6G14G18G 3G22G19G24
  20795316.954    20795316.006    20795314.280   -25114669.056 6 -19569862.493 6
        40.700          40.700
  23280411.820    23280411.352    23280410.049    -5419896.666 3  -4223286.140 3
        19.900          22.600
  23416698.815    23416698.118    23416698.339    -7424780.346 3  -5785540.028 3
        19.300          21.100
  22154792.489    22154792.429    22154790.778   -14099172.617 5 -10986356.558 6
        35.600          37.000
  22311582.337    22311581.747    22311581.471   -12340186.731 5  -9615726.546 5
        32.300          32.800
  25279323.559    25279323.357    25279319.864           -.6781          -.28911
                        11.000
  20436848.623    20436847.778    20436845.158   -25591780.284 6 -19941636.017 7
        37.600          46.000
  22385783.128    22385782.246    22385781.903   -11368257.660 5  -8858378.807 5
        31.500          30.600
  21490872.076    21490871.559    21490868.790   -19272530.413 6 -15017546.692 6
        38.900          39.400
  23719871.217    23719869.656    23719867.714    -6914177.950 3  -5387670.747 4
        23.800          25.300
  24284179.037    24284177.935    24284179.079    -2511201.005 2  -1956775.033 2
        12.600          15.100
 09  1  1  0 24 30.0000000  0 11G21G26G 9G15G 6G14G18G 3G22G19G24
  20805270.168    20805269.332    20805267.578   -25062363.992 6 -19529105.303 6
        40.600          40.500
  23301639.294    23301638.871    23301637.344    -5308345.784 3  -4136363.368 3
        19.300          22.100
  23397061.113    23397060.489    23397060.023    -7527979.881 3  -5865955.225 3
        19.900          22.100
  22168521.142    22168521.159    22168519.626   -14027027.018 5 -10930139.204 6
        35.400          36.900
  22315372.445    22315371.835    22315371.673   -12320268.939 5  -9600206.199 5
        32.300          32.800
  25257264.700    25257264.941    25257262.935     -115912.359 1    -90321.040 2
         6.500          13.900
  20434892.363    20434891.572    20434890.297   -25602060.350 6 -19949646.454 7
        37.700          45.900
  22387929.556    22387928.811    22387928.605   -11356976.795 5  -8849588.524 5
        31.300          30.600
  21478216.880    21478216.303    21478213.317   -19339034.973 6 -15069368.409 6
        39.100          39.400
  23707128.949    23707127.121    23707125.307    -6981139.125 3  -5439848.266 4
        23.800          25.900
  24304097.888    24304097.018    24304097.638    -2406524.162 1  -1875208.669 2
        11.000          13.900
 09  1  1  0 25  0.0000000  0 11G22G21G26G 9G15G 6G14G18G 3G19G24
  21465616.630    21465616.129    21465613.287   -19405248.678 6 -15120963.490 6
        39.300          39.500
  20815312.821    20815312.043    20815310.364   -25009588.601 6 -19487981.623 6
        40.500          40.400
  23322919.260    23322918.848    23322917.861    -5196516.714 3  -4049223.826 3
        19.300          22.100
  23377479.911    23377479.685    23377479.425    -7630877.361 3  -5946135.055 3
        18.600          23.000
  22182326.957    22182326.738    22182325.293   -13954477.521 5 -10873607.125 6
        35.200          36.700
  22319268.978    22319268.254    22319268.057   -12299794.131 5  -9584251.802 5
        32.400          33.000
  25235211.868    25235212.004    25235212.190     -231789.422 1   -180614.806 2
         6.500          15.100
  20433010.048    20433009.185    20433006.560   -25611951.942 6 -19957354.175 7
        37.700          45.900
  22390191.603    22390190.832    22390190.788   -11345089.719 5  -8840325.879 5
        31.100          30.800
  23694472.652    23694470.791    23694468.487    -7047649.096 4  -5491674.186 4
        24.600          25.900
  24324037.850    24324037.002    24324038.362    -2301735.868 1  -1793555.487 2
        11.000          13.900
 09  1  1  0 25 30.0000000  0 11G22G21G26G 9G15G 6G14G18G 3G19G24
  21453072.651    21453072.133    21453069.138   -19471168.069 6 -15172329.229 6
        39.300          39.600
  20825445.692    20825444.752    20825443.137   -24956341.103 6 -19446490.070 6
        40.400          40.300
  23344252.060    23344251.827    23344250.974    -5084410.205 3  -3961868.104 3
        19.300          22.100
  23357958.079    23357957.429    23357958.187    -7733466.708 3  -6026074.749 4
        20.500          24.600
  22196209.566    22196209.522    22196207.884   -13881523.710 5 -10816760.003 6
        35.100          36.500
  22323271.360    22323270.727    22323270.326   -12278760.891 5  -9567862.265 5
        32.700          32.400
  25213165.879    25213166.736    25213169.334     -347627.572     -270878.279 2
         3.000          15.100
  20431202.194    20431201.400    20431200.100   -25621452.388 6 -19964757.102 7
        37.600          45.800
  22392569.463    22392568.577    22392568.537   -11332594.317 5  -8830589.204 5
        31.100          30.600
  23681903.116    23681901.428    23681898.578    -7113703.335 3  -5543144.989 4
        23.800          25.300
  24344001.500    24343999.601    24344000.267    -2196835.127 1  -1711814.717 2
        11.000          13.900
 09  1  1  0 26  0.0000000  0 11G22G21G26G 9G15G 6G14G18G 3G19G24
  21440585.552    21440585.061    21440582.003   -19536788.068 6 -15223461.678 6
        39.300          39.600
  20835668.653    20835667.847    20835666.227   -24902618.050 6 -19404627.957 6
        40.400          40.200
  23365638.111    23365637.534    23365637.084    -4972025.286 3  -3874295.412 3
        18.600          21.600
  23338496.253    23338495.622    23338495.943    -7835740.141 3  -6105768.290 4
        21.600          24.600
  22210169.286    22210169.321    22210167.727   -13808164.040 5 -10759596.621 6
        34.900          36.500
  22327380.730    22327380.185    22327379.955   -12257165.878 5  -9551034.977 5
        32.600          32.700
  25191129.794    25191131.244    25191132.474     -463420.781     -361106.705 1
                        11.000
  20429469.521    20429468.676    20429465.903   -25630557.601 6 -19971852.071 7
        37.600          46.000
  22395063.823    22395062.928    22395062.681   -11319487.384 5  -8820376.024 5
        31.100          30.800
  23669420.851    23669419.048    23669416.835    -7179295.538 3  -5594255.778 4
        23.400          25.300
  24363985.300    24363983.808    24363983.815    -2091819.022 1  -1629984.006 2
        11.000          12.600
 09  1  1  0 26 30.0000000  0 11G22G21G26G 9G15G 6G14G18G 3G19G24
  21428157.030    21428156.525    21428153.381   -19602101.099 6 -15274354.928 6
        39.700          39.700
  20845983.570    20845982.706    20845981.077   -24848413.501 6 -19362390.642 6
        40.300          40.200
  23387078.164    23387077.770    23387077.035    -4859358.262 2  -3786502.926 3
        17.800          21.600
  23319095.948    23319095.342    23319095.443    -7937687.054 3  -6185207.402 4
        20.500          24.200
  22224207.648    22224207.453    22224205.709   -13734393.711 5 -10702113.246 6
        35.100          36.300
  22331598.087    22331597.467    22331597.256   -12235003.230 5  -9533765.382 5
        32.400          32.700
  25169108.563    25169107.235    25169109.151     -579160.219     -451293.245 1
         3.000          11.000
  20427813.346    20427812.528    20427811.371   -25639260.286 6 -19978633.375 7
        37.600          45.800
  22397675.535    22397674.608    22397674.550   -11305762.565 5  -8809681.372 5
        31.000          31.100
  23657028.072    23657026.612    23657025.157    -7244416.522 3  -5644999.383 4
        23.400          25.900
  24383992.681    24383991.765    24383991.217    -1986682.482 1  -1548059.452 2
        11.000          13.900
 09  1  1  0 27  0.0000000  0 11G22G21G26G 9G15G 6G14G18G 3G19G24
  21415784.423    21415783.919    21415780.997   -19667118.135 6 -15325017.535 6
        39.500          39.700
  20856387.459    20856386.583    20856384.929   -24793740.415 6 -19319788.235 6
        40.200          40.000
  23408568.753    23408568.565    23408567.877    -4746424.009 2  -3698502.201 3
        17.000          22.100
  23299757.019    23299756.356    23299756.350    -8039315.438 3  -6264398.314 3
        20.500          23.800
  22238321.159    22238320.938    22238319.309   -13660227.301 5 -10644321.233 6
        35.100          36.500
  22335920.981    22335920.366    22335920.192   -12212285.758 5  -9516063.455 5
        32.600          32.600
  25147092.034    25147090.844    25147090.858     -694855.643     -541445.535 1
         3.000           9.000
  20426231.640    20426230.822    20426228.102   -25647572.336 6 -19985110.296 7
        37.500          45.900
  22400401.989    22400401.426    22400401.442   -11291432.783 5  -8798515.311 5
        31.100          31.300
  23644724.262    23644722.661    23644721.038    -7309076.034 4  -5695383.399 4
        24.200          26.800
  24404019.329    24404018.742    24404018.565    -1881438.548 1  -1466051.218 2
         9.000          15.100
 09  1  1  0 27 30.0000000  0 11G22G21G26G 9G15G 6G14G18G 3G19G24
  21403468.416    21403467.907    21403464.974   -19731839.587 6 -15375449.815 6
        39.600          39.900
  20866880.332    20866879.419    20866877.573   -24738600.987 6 -19276822.448 6
        40.300          39.700
  23430110.417    23430109.619    23430108.204    -4633227.192 2  -3610296.906 3
        17.800          21.100
  23280478.380    23280477.375    23280478.191    -8140623.358 3  -6343339.515 4
        20.500          25.300
  22252509.292    22252509.132    22252507.329   -13585668.240 5 -10586223.260 6
        34.900          36.200
  22340349.268    22340348.557    22340348.344   -12189015.826 5  -9497931.037 5
        32.400          32.600
  25125086.314    25125085.358    25125083.995     -810506.509 1   -631563.090 1
         6.500          11.000
  20424723.918    20424723.119    20424721.774   -25655494.913 6 -19991283.725 7
        37.600          45.600
  22403244.033    22403243.301    22403243.004   -11276500.202 5  -8786879.540 5
        31.100          31.000
  23632508.180    23632506.876    23632504.379    -7373273.514 4  -5745407.393 4
        24.900          26.200
  24424066.201    24424065.245    24424066.100    -1776089.981 1  -1383961.457 2
         9.000          15.100
 09  1  1  0 28  0.0000000  0 11G22G21G26G 9G15G 6G14G18G 3G19G24
  21391210.611    21391210.019    21391207.048   -19796255.227 6 -15425643.803 6
        39.700          39.900
  20877463.211    20877462.441    20877460.674   -24682986.553 6 -19233486.524 6
        40.200          39.600
  23451701.167    23451700.927    23451699.823    -4519761.791 2  -3521882.290 3
        17.800          21.100
  23261263.831    23261263.208    23261263.316    -8241597.818 3  -6422020.850 4
        21.600          26.200
  22266773.461    22266773.336    22266771.580   -13510709.509 5 -10527813.854 6
        34.700          36.300
  22344884.044    22344883.454    22344883.051   -12165184.998 5  -9479361.561 5
        32.400          32.600
  25103089.699    25103088.968    25103087.760     -926101.454 1   -721637.063 1
         9.000           9.000
  20423292.326    20423291.503    20423288.809   -25663018.901 6 -19997146.574 7
        37.600          45.900
  22406201.925    22406201.062    22406200.828   -11260956.246 5  -8774767.380 5
        31.000          30.800
  23620381.202    23620379.939    23620378.133    -7436997.585 4  -5795062.492 4
        25.300          26.500
  24444134.146    24444132.566    24444134.829    -1670628.792 1  -1301783.943 2
         6.500          15.100
 09  1  1  0 28 30.0000000  0 11G22G21G26G 9G15G 6G14G18G 3G19G24
  21379010.795    21379010.273    21379007.134   -19860365.440 6 -15475599.798 6
        39.800          39.900
  20888136.167    20888135.407    20888133.743   -24626899.191 6 -19189782.092 6
        40.200          39.500
  23473343.293    23473343.044    23473341.908    -4406031.865 3  -3433261.583 3
        18.600          22.100
  23242113.089    23242112.614    23242112.023    -8342236.595 3  -6500440.608 4
        21.600          25.900
  22281112.749    22281112.641    22281111.143   -13435354.871 5 -10469095.956 6
        34.500          36.400
  22349525.155    22349524.616    22349524.375   -12140795.436 5  -9460356.710 5
        32.600          32.600
  25081102.725    25081102.831    25081102.660    -1041639.810 1   -811666.935 1
         9.000           9.000
  20421936.223    20421935.324    20421934.119   -25670145.350 6 -20002699.649 7
        37.500          45.800
  22409275.474    22409274.694    22409274.605   -11244802.943 5  -8762180.399 5
        30.600          30.800
  23608345.269    23608343.764    23608341.695    -7500247.262 4  -5844347.932 4
        24.600          26.200
  24464224.076    24464222.686    24464223.006    -1565057.830    -1219520.919 2
         3.000          16.100
 09  1  1  0 29  0.0000000  0 11G22G21G26G 9G15G 6G14G18G 3G19G24
  21366867.425    21366866.946    21366863.929   -19924179.080 6 -15525324.691 6
        39.800          40.100
  20898897.333    20898896.542    20898894.756   -24570349.587 6 -19145717.471 6
        40.300          39.300
  23495033.140    23495033.163    23495032.404    -4292050.265 2  -3344444.751 3
        17.800          22.600
  23223023.654    23223023.392    23223023.727    -8442545.907 3  -6578603.663 4
        21.100          25.300
  22295525.231    22295525.055    22295523.433   -13359616.305 5 -10410078.888 5
        34.300          35.800
  22354270.563    22354270.042    22354269.942   -12115857.986 5  -9440924.922 5
        32.300          33.000
  25059126.866    25059125.908    25059127.389    -1157129.126 1   -901658.633 1
         6.500           9.000
  20420653.880    20420653.065    20420650.315   -25676883.844 6 -20007950.423 7
        37.600          45.900
  22412463.445    22412462.612    22412462.819   -11228050.464 5  -8749126.538 5
        30.600          31.100
  23596397.877    23596396.305    23596394.519    -7563029.758 4  -5893269.340 4
        24.200          26.500
  24484332.948    24484333.477    24484333.014    -1459388.299    -1137181.054 2
                        16.100
 09  1  1  0 29 30.0000000  0 11G22G21G26G 9G15G 6G14G18G 3G19G24
  21354781.545    21354780.950    21354777.969   -19987691.232 6 -15574814.661 6
        39.800          40.300
  20909746.934    20909746.147    20909744.309   -24513334.553 6 -19101290.173 6
        40.300          39.100
  23516771.775    23516771.177    23516770.263    -4177816.198 2  -3255431.226 3
        17.000          23.000
  23204000.498    23203999.913    23203999.947    -8542517.785 3  -6656503.788 4
        21.600          25.300
  22310010.644    22310010.858    22310009.256   -13283492.301 5 -10350761.477 5
        34.100          35.700
  22359120.820    22359120.286    22359120.219   -12090369.588 5  -9421063.830 5
        32.000          33.100
  25037159.968    25037159.796    25037159.077    -1272563.490     -991607.537 1
                         9.000
  20419446.165    20419445.335    20419444.099   -25683230.271 6 -20012895.685 7
        37.600          45.800
  22415766.008    22415765.243    22415765.109   -11210696.312 5  -8735603.828 5
        31.000          31.300
  23584541.270    23584539.664    23584537.348    -7625339.431 4  -5941822.322 4
        24.200          26.200
  24504457.135    24504458.323    24504456.936    -1353617.379    -1054762.192 2
                        13.900
 09  1  1  0 30  0.0000000  0 11G22G21G26G 9G15G 6G14G18G 3G19G24
  21342754.147    21342753.672    21342750.638   -20050894.819 6 -15624064.196 6
        40.000          40.300
  20920686.097    20920685.263    20920683.514   -24455848.798 6 -19056496.076 6
        40.200          38.900
  23538558.762    23538558.412    23538556.778    -4063326.364 2  -3166218.383 3
        17.800          21.600
  23185042.820    23185041.876    23185041.992    -8642142.312 3  -6734133.256 4
        22.100          25.600
  22324571.159    22324571.224    22324569.508   -13206978.707 5 -10291140.494 5
        34.400          35.900
  22364077.293    22364076.570    22364076.355   -12064325.062 5  -9400769.393 5
        32.100          33.100
  25015203.947    25015202.989    25015203.785    -1387934.753    -1081507.210 1
                         6.500
  20418314.214    20418313.374    20418310.545   -25689178.369 6 -20017530.564 7
        37.600          45.800
  22419183.993    22419183.179    22419183.114   -11192734.551 5  -8721607.632 5
        31.000          31.300
  23572775.556    23572773.857    23572772.161    -7687167.954 4  -5990000.384 4
        24.600          26.800
  24524605.329    24524605.605    24524603.776    -1247740.122     -972260.521 2
                        12.600
 09  1  1  0 30 30.0000000  0 11G22G21G26G 9G15G 6G14G18G 3G19G24
  21330784.834    21330784.338    21330781.323   -20113794.168 6 -15673076.663 6
        40.000          40.600
  20931713.730    20931712.921    20931711.177   -24397898.518 6 -19011340.019 6
        40.300          38.900
  23560393.117    23560392.450    23560390.501    -3948588.989 2  -3076812.633 3
        17.800          21.100
  23166150.458    23166149.710    23166149.632    -8741421.057 3  -6811493.293 4
        23.000          25.900
  22339204.243    22339204.023    22339202.410   -13130082.970 5 -10231221.732 5
        34.400          35.800
  22369137.793    22369137.204    22369137.135   -12037730.582 5  -9380046.422 5
        32.000          33.000
  24993263.469    24993262.077    24993259.552    -1503245.741    -1171359.922 1
                         6.500
  20417257.373    20417256.551    20417255.187   -25694732.962 6 -20021858.810 7
        37.700          46.000
  22422716.157    22422715.509    22422715.427   -11174171.652 5  -8707143.042 5
        30.800          31.000
  23561101.291    23561099.533    23561097.792    -7748518.357 4  -6037805.876 4
        25.300          27.400
  24544774.765    24544773.837    24544775.156    -1141763.472     -889681.369 2
                        15.100
 09  1  1  0 31  0.0000000  0 11G22G21G26G 9G15G 6G14G18G 3G19G24
  21318873.356    21318872.844    21318870.084   -20176388.717 6 -15721851.620 6
        39.900          40.700
  20942829.551    20942828.667    20942826.836   -24339484.748 6 -18965822.803 6
        40.100          38.600
  23582272.810    23582272.018    23582270.827    -3833607.494 2  -2987216.668 3
        16.100          21.600
  23147324.284    23147324.137    23147323.975    -8840350.739 3  -6888581.335 4
        22.600          26.500
  22353909.046    22353908.917    22353907.392   -13052807.756 5 -10171007.273 5
        34.100          35.800
  22374303.265    22374302.567    22374302.294   -12010587.410 5  -9358895.899 5
        32.000          33.000
  24971331.344    24971330.492    24971328.025    -1618494.886    -1261164.439 1
                         6.500
  20416275.152    20416274.359    20416271.662   -25699894.327 6 -20025880.645 7
        37.700          46.100
  22426362.725    22426361.920    22426361.976   -11155008.713 5  -8692210.889 5
        30.400          30.800
  23549518.558    23549516.378    23549514.445    -7809388.826 4  -6085237.399 4
        24.200          27.100
  24564960.181    24564959.307    24564960.728    -1035688.891     -807025.895 2
         3.000          17.000
 09  1  1  0 31 30.0000000  0 11G22G21G26G 9G15G 6G14G18G 3G19G24
  21307020.498    21307020.001    21307016.944   -20238676.345 6 -15770387.422 6
        40.100          40.500
  20954033.355    20954032.513    20954030.698   -24280607.976 6 -18919944.798 6
        40.100          38.500
  23604198.599    23604198.274    23604196.839    -3718384.294 2  -2897432.358 3
        17.000          21.100
  23128566.377    23128565.578    23128566.023    -8938927.064 3  -6965394.006 4
        22.100          26.800
  22368686.116    22368685.918    22368684.325   -12975155.033 5 -10110498.656 6
        33.900          36.000
  22379572.576    22379571.987    22379571.685   -11982896.116 5  -9337318.267 5
        32.300          32.800
  24949413.298    24949410.824    24949409.309    -1733679.311    -1350918.540 1
                        11.000
  20415367.860    20415367.052    20415365.785   -25704661.776 6 -20029595.535 7
        37.700          45.800
  22430123.895    22430123.102    22430122.722   -11135245.857 5  -8676811.275 5
        31.100          30.600
  23538026.003    23538024.322    23538022.977    -7869776.589 3  -6132292.775 4
        23.400          27.100
  24585163.956    24585163.484    24585165.257     -929516.892 1   -724294.468 2
         6.500          17.800
 09  1  1  0 32  0.0000000  0 11G22G21G26G 9G15G 6G14G18G 3G19G24
  21295225.560    21295224.928    21295221.818   -20300659.754 6 -15818686.171 6
        40.000          40.600
  20965324.523    20965323.692    20965322.110   -24221272.151 6 -18873709.089 6
        40.100          38.600
  23626169.393    23626168.937    23626168.029    -3602925.804 2  -2807464.721 3
        16.100          21.600
  23109875.255    23109874.660    23109874.575    -9037149.478 3  -7041930.927 4
        23.400          25.900
  22383533.739    22383533.458    22383531.960   -12897129.930 5 -10049699.877 6
        33.500          36.000
  22384945.418    22384944.888    22384944.777   -11954661.083 5  -9315316.941 5
        32.100          32.800
  24927504.695    24927504.167    24927504.499    -1848800.527    -1440623.379 2
                        12.600
  20414535.026    20414534.185    20414531.484   -25709038.743 6 -20033006.152 7
        37.800          46.100
  22433997.865    22433997.126    22433996.944   -11114887.341 5  -8660947.508 5
        31.100          30.600
  23526626.069    23526624.854    23526623.396    -7929682.628 4  -6178972.774 4
        24.200          27.400
  24605386.189    24605385.336    24605385.735     -823252.446 1   -641491.039 2
        11.000          15.100
 09  1  1  0 32 30.0000000  0 11G22G21G26G 9G15G 6G14G18G 3G19G24
  21283489.251    21283488.826    21283485.878   -20362333.191 6 -15866743.381 6
        40.000          40.800
  20976704.040    20976703.140    20976701.308   -24161473.487 6 -18827112.727 6
        40.100          38.300
  23648186.209    23648185.509    23648184.085    -3487230.111 2  -2717312.261 3
        16.100          21.600
  23091252.969    23091252.499    23091252.076    -9135009.923 3  -7118185.803 4
        23.400          25.600
  22398452.631    22398452.415    22398450.919   -12818730.203 5  -9988609.179 5
        33.500          35.600
  22390422.270    22390421.643    22390421.784   -11925878.567 5  -9292889.001 5
        31.500          32.700
  24905611.999    24905610.821    24905610.771    -1963851.612    -1530273.551 2
                        13.900
  20413777.276    20413776.478    20413775.069   -25713020.476 6 -20036108.794 7
        37.800          46.000
  22437986.006    22437985.157    22437985.066   -11093929.582 5  -8644616.780 5
        31.000          30.400
  23515319.803    23515318.317    23515316.107    -7989100.457 4  -6225272.359 4
        25.300          26.500
  24625624.270    24625624.680    24625625.444     -716892.139 1   -558612.929 2
         9.000          15.100
 09  1  1  0 33  0.0000000  0 11G21G26G 9G15G 6G14G18G 3G22G19G24
  20988171.267    20988170.389    20988168.566   -24101212.368 6 -18780156.013 6
        40.000          38.100
  23670246.808    23670246.462    23670244.936    -3371299.590 2  -2626976.809 3
        17.000          21.100
  23072700.366    23072699.760    23072699.808    -9232503.715 3  -7194154.969 4
        23.000          26.200
  22413442.525    22413442.427    22413440.868   -12739957.389 5  -9927227.763 5
        33.400          35.300
  22396003.723    22396003.208    22396003.073   -11896549.067 5  -9270034.847 5
        32.000          32.800
  24883732.153    24883732.349    24883731.979    -2078829.933 1  -1619867.074 2
         6.500          16.100
  20413094.983    20413094.154    20413091.373   -25716605.971 6 -20038902.681 7
        37.800          46.100
  22442087.906    22442087.259    22442086.954   -11072372.679 5  -8627819.186 5
        30.600          30.200
  21271812.539    21271812.007    21271809.115   -20423695.129 6 -15914557.868 6
        40.000          41.000
  23504106.361    23504104.694    23504102.451    -8048027.256 4  -6271189.340 4
        25.300          26.200
  24645882.858    24645881.687    24645883.050     -610436.630 1   -475660.582 2
         6.500          13.900
 09  1  1  0 33 30.0000000  0 11G21G26G 9G15G 6G14G18G 3G22G19G24
  20999725.565    20999724.779    20999722.991   -24040494.250 6 -18732843.198 6
        40.100          38.100
  23692351.556    23692350.623    23692349.621    -3255141.464 2  -2536464.015 3
        17.000          21.600
  23054217.477    23054216.673    23054216.946    -9329631.683 3  -7269839.064 4
        22.600          26.200
  22428502.138    22428501.842    22428500.534   -12660818.156 5  -9865560.829 5
        33.100          34.800
  22401688.205    22401687.497    22401687.510   -11866678.090 5  -9246758.758 5
        32.000          33.000
  24861867.895    24861866.459    24861866.221    -2193737.647    -1709405.545 2
         3.000          16.100
  20412487.314    20412486.454    20412485.225   -25719799.484 6 -20041391.125 7
        37.800          46.100
  22446303.063    22446302.192    22446302.203   -11050222.064 5  -8610558.970 5
        30.600          30.400
  21260194.340    21260193.860    21260190.854   -20484748.857 6 -15962132.194 6
        40.000          41.000
  23492985.855    23492984.338    23492982.627    -8106465.444 4  -6316725.571 4
        25.900          27.400
  24666157.019    24666156.426    24666157.432     -503891.759     -392638.614 2
         3.000          13.900
 09  1  1  0 34  0.0000000  0 11G21G26G 9G15G 6G14G18G 3G22G19G24
  21011367.689    21011366.826    21011364.854   -23979315.384 6 -18685171.369 6
        40.100          37.900
  23714498.983    23714498.157    23714497.209    -3138754.705 2  -2445773.050 3
        17.000          20.500
  23035806.220    23035805.311    23035805.120    -9426385.998 3  -7345231.995 4
        23.000          25.600
  22443631.808    22443631.651    22443630.279   -12581310.717 5  -9803606.979 5
        33.200          34.800
  22407475.850    22407475.235    22407475.194   -11836262.748 5  -9223058.490 5
        32.000          32.400
  24840014.588    24840013.522    24840013.994    -2308568.621    -1798884.200 2
         3.000          17.000
  20411954.893    20411954.113    20411951.426   -25722596.816 6 -20043570.863 7
        37.800          46.100
  22450631.636    22450630.962    22450630.989   -11027475.166 5  -8592834.117 5
        30.800          31.000
  21248635.873    21248635.322    21248632.277   -20545489.428 6 -16009462.498 6
        40.000          41.100
  23481959.922    23481958.121    23481956.531    -8164408.845 4  -6361876.234 4
        26.200          27.400
  24686449.622    24686449.614    24686451.568     -397254.741     -309544.866 2
                        13.900
 09  1  1  0 34 30.0000000  0 11G21G26G 9G15G 6G14G18G 3G22G19G24
  21023097.313    21023096.436    21023094.568   -23917675.467 6 -18637140.269 6
        39.900          37.700
  23736688.786    23736689.021    23736688.312    -3022140.586 2  -2354904.918 3
        16.100          20.500
  23017465.887    23017465.314    23017465.355    -9522761.573 3  -7420329.829 4
        23.000          24.900
  22458831.506    22458831.422    22458830.049   -12501435.697 5  -9741366.694 5
        33.200          35.100
  22413367.578    22413366.939    22413366.474   -11805302.509 5  -9198933.627 5
        31.800          32.300
  24818175.655    24818176.630    24818176.460    -2423318.892 1  -1888299.987 2
         6.500          15.100
  20411498.262    20411497.466    20411496.114   -25724996.192 6 -20045440.502 7
        37.800          45.900
  22455074.319    22455073.355    22455073.298   -11004131.088 5  -8574643.924 5
        30.800          31.100
  21237137.279    21237136.877    21237133.911   -20605914.046 6 -16056546.603 6
        40.200          41.300
  23471028.790    23471027.126    23471024.627    -8221853.699 4  -6406638.451 4
        27.100          26.200
  24706760.955    24706759.231    24706761.269     -290525.009     -226378.914 2
                        12.600
 09  1  1  0 35  0.0000000  0 11G21G26G 9G15G 6G14G18G 3G22G19G24
  21034913.250    21034912.406    21034910.542   -23855581.905 6 -18588755.683 6
        39.900          37.600
  23758920.825    23758920.823    23758920.837    -2905308.106 2  -2263866.630 3
        15.100          19.900
  22999198.037    22999197.346    22999197.096    -9618760.646 3  -7495134.277 4
        22.600          24.900
  22474099.432    22474099.483    22474098.102   -12421201.730 5  -9678846.723 5
        32.800          34.900
  22419361.357    22419360.748    22419360.600   -11773804.490 5  -9174389.720 5
        32.000          32.600
  24796356.163    24796354.984    24796355.757    -2537992.739 1  -1977656.192 2
         6.500          16.100
  20411116.344    20411115.540    20411112.924   -25727003.674 6 -20047004.771 7
        37.900          46.100
  22459628.520    22459627.604    22459627.729   -10980196.959 5  -8555993.946 5
        30.400          31.000
  21225698.074    21225697.545    21225694.645   -20666028.068 6 -16103388.691 6
        40.300          41.400
  23460191.108    23460189.867    23460187.371    -8278803.887 4  -6451015.215 4
        27.900          26.500
  24727086.615    24727085.439    24727088.275     -183710.040     -143146.524 2
                        13.900
 09  1  1  0 35 30.0000000  0 11G21G26G 9G15G 6G14G18G 3G22G19G24
  21046816.371    21046815.451    21046813.495   -23793031.080 6 -18540014.778 6
        39.800          37.300
  23781194.827    23781195.385    23781195.471    -2788256.093 2  -2172657.265 3
        15.100          19.900
  22981003.495    22981002.724    22981002.377    -9714375.260 3  -7569639.152 4
        23.800          25.300
  22489436.246    22489436.207    22489434.703   -12340606.649 5  -9616045.370 5
        32.600          34.800
  22425457.944    22425457.349    22425457.156   -11741765.843 5  -9149424.550 5
        31.500          32.100
  24774550.445    24774550.137    24774549.729    -2652583.657 2  -2066947.793 2
        12.600          15.100
  20410809.714    20410808.924    20410807.527   -25728614.664 6 -20048260.087 7
        37.900          46.000
  22464296.116    22464295.205    22464294.998   -10955669.380 5  -8536881.534 5
        30.800          30.800
  21214318.641    21214318.218    21214315.251   -20725826.564 6 -16149984.911 6
        40.200          41.400
  23449448.893    23449447.338    23449445.216    -8335253.416 4  -6495001.857 4
        27.600          26.200
  24747432.061    24747430.355    24747430.021      -76807.024      -59845.510 2
         3.000          13.900
 09  1  1  0 36  0.0000000  0 11G21G26G 9G15G 6G14G18G 3G22G19G24
  21058806.636    21058805.874    21058804.122   -23730020.698 6 -18490915.786 6
        39.600          37.600
  23803512.195    23803512.174    23803511.108    -2670983.942 2  -2081276.388 3
        15.100          19.900
  22962882.907    22962882.477    22962881.885    -9809598.318 4  -7643838.910 4
        24.200          25.300
  22504841.702    22504841.679    22504840.138   -12259649.397 5  -9552961.793 5
        32.300          34.500
  22431658.061    22431657.434    22431657.242   -11709184.205 5  -9124036.256 5
        31.300          32.100
  24752761.924    24752760.819    24752760.590    -2767086.179 2  -2156170.545 2
        13.900          16.100
  20410579.334    20410578.475    20410575.760   -25729825.966 6 -20049203.957 7
        37.900          46.200
  22469076.960    22469076.051    22469075.866   -10930546.381 5  -8517305.165 5
        31.000          30.800
  21203000.546    21202999.968    21202996.913   -20785304.749 6 -16196331.542 6
        40.200          41.500
  23438803.113    23438801.570    23438799.498    -8391197.016 4  -6538594.253 4
        27.900          26.500
  24767790.605    24767790.230    24767790.166       30186.082       23525.695 2
         3.000          12.600
 09  1  1  0 36 30.0000000  0 11G21G26G 9G15G 6G14G18G 3G22G19G24
  21070883.300    21070882.553    21070880.814   -23666557.226 6 -18441463.737 6
        39.600          37.400
  23825870.046    23825869.090    23825867.233    -2553500.278 2  -1989730.672 3
        16.100          18.600
  22944836.479    22944835.890    22944835.479    -9904431.939 3  -7717735.218 4
        23.400          24.900
  22520314.824    22520314.811    22520313.357   -12178337.793 5  -9489602.105 5
        32.300          34.400
  22437960.217    22437959.676    22437959.429   -11676066.584 5  -9098230.317 5
        31.300          32.300
  24730987.116    24730987.450    24730987.913    -2881503.755 2  -2245327.059 2
        12.600          15.100
  20410423.735    20410422.920    20410421.590   -25730643.248 6 -20049840.795 7
        37.900          46.200
  22473969.712    22473968.759    22473968.398   -10904834.544 5  -8497269.956 5
        30.400          30.200
  21191742.208    21191741.698    21191738.701   -20844467.533 6 -16242432.406 6
        40.200          41.600
  23428253.704    23428251.942    23428249.791    -8446638.011 4  -6581795.024 4
        27.600          26.800
  24788165.227    24788165.657    24788164.889      137262.163      106961.563 1
         3.000           9.000
 09  1  1  0 37  0.0000000  0 11G21G26G 9G15G 6G14G18G 3G22G19G24
  21083045.592    21083044.794    21083043.275   -23602644.200 6 -18391661.381 6
        39.600          37.500
  23848265.170    23848264.943    23848262.593    -2435810.230 2  -1898024.166 3
        13.900          18.600
  22926864.186    22926863.961    22926863.568    -9998874.681 3  -7791326.936 4
        22.600          25.300
  22535854.924    22535854.682    22535853.030   -12096676.478 5  -9425969.913 5
        32.600          34.500
  22444363.578    22444362.894    22444362.676   -11642416.498 5  -9072009.473 5
        31.100          32.300
  24709231.167    24709230.320    24709230.717    -2995836.940 1  -2334417.806 2
        11.000          13.900
  20410342.720    20410341.987    20410339.385   -25731068.563 6 -20050172.208 7
        38.000          46.200
  22478973.398    22478972.723    22478972.865   -10878537.092 5  -8476778.427 5
        30.100          30.400
  21180543.742    21180543.210    21180540.104   -20903316.145 6 -16288288.462 6
        40.300          41.800
  23417798.533    23417796.737    23417795.172    -8501576.771 4  -6624604.439 4
        26.200          26.500
  24808555.982    24808555.311    24808557.180      244417.803 1    190459.392 1
         6.500          11.000
 09  1  1  0 37 30.0000000  0 11G21G26G 9G15G 6G14G18G 3G22G19G24
  21095293.004    21095292.202    21095290.481   -23538283.730 6 -18341510.367 6
        39.300          37.200
  23870698.778    23870698.366    23870696.682    -2317918.191 2  -1806160.277 3
        12.600          19.300
  22908967.891    22908967.246    22908966.237   -10092924.390 3  -7864612.391 4
        23.800          25.300
  22551459.896    22551459.971    22551458.581   -12014669.156 5  -9362068.098 5
        32.300          34.500
  22450867.925    22450867.186    22450867.036   -11608236.599 5  -9045375.789 5
        31.300          32.400
  24687491.556    24687490.284    24687489.694    -3110084.979 1  -2423442.204 2
        11.000          12.600
  20410336.228    20410335.395    20410334.191   -25731103.415 6 -20050199.359 7
        38.100          46.400
  22484088.881    22484088.041    22484088.006   -10851656.857 4  -8455832.776 5
        29.900          30.200
  21169404.805    21169404.345    21169401.236   -20961851.045 6 -16333900.063 6
        40.400          41.700
  23407439.734    23407438.016    23407436.214    -8556013.321 4  -6667022.525 4
        26.800          26.800
  24828962.426    24828960.588    24828963.579      351650.019      274016.942 2
         3.000          12.600
 09  1  1  0 38  0.0000000  0 11G21G26G 9G15G 6G14G18G 3G22G19G24
  21107626.471    21107625.606    21107623.951   -23473471.170 6 -18291007.077 6
        39.300          37.200
  23893171.843    23893170.092    23893170.239    -2199820.907 2  -1714136.432 3
        12.600          18.600
  22891147.255    22891146.573    22891146.198   -10186571.488 3  -7937584.134 4
        23.800          26.200
  22567131.943    22567131.859    22567130.496   -11932312.071 5  -9297893.744 5
        31.800          34.100
  22457473.789    22457473.223    22457472.939   -11573522.177 5  -9018325.591 5
        31.000          32.000
  24665768.119    24665766.875    24665766.929    -3224239.433 1  -2512393.659 1
         6.500          11.000
  20410405.039    20410404.276    20410401.494   -25730741.519 6 -20049917.357 7
        38.100          46.300
  22489315.829    22489315.049    22489314.731   -10824188.713 4  -8434429.025 5
        29.700          30.100
  21158326.841    21158326.364    21158323.557   -21020065.152 6 -16379261.696 6
        40.200          41.900
  23397177.934    23397176.439    23397174.238    -8609938.748 4  -6709042.330 4
        27.600          27.100
  24849382.627    24849382.006    24849383.304      458963.802      357638.012 1
                        11.000
 09  1  1  0 38 30.0000000  0 11G21G26G 9G15G 6G14G18G 3G22G19G24
  21120045.338    21120044.603    21120043.007   -23408208.423 6 -18240152.990 6
        39.100          37.000
  23915682.034    23915681.754    23915681.760    -2081522.406 1  -1621955.807 3
         9.000          18.600
  22873403.811    22873403.065    22873403.276   -10279813.074 4  -8010239.884 4
        24.600          27.400
  22582870.057    22582870.033    22582868.449   -11849608.451 5  -9233449.370 5
        32.100          34.100
  22464180.933    22464180.319    22464180.192   -11538275.596 5  -8990860.720 5
        30.800          32.100
  24644062.345    24644062.053    24644061.055    -3338299.512    -2601271.557 1
         3.000           9.000
  20410549.265    20410548.415    20410547.184   -25729983.778 6 -20049326.905 7
        38.100          46.400
  22494654.162    22494653.313    22494653.146   -10796135.406 4  -8412569.297 4
        29.900          29.700
  21147310.010    21147309.477    21147306.711   -21077958.930 6 -16424373.716 7
        40.200          42.000
  23387013.489    23387011.953    23387010.233    -8663352.774 4  -6750663.640 4
        27.400          27.600
  24869818.146    24869818.511    24869818.606      566356.297      441320.413 1
                        11.000
 09  1  1  0 39  0.0000000  0 11G21G26G 9G15G 6G14G18G 3G22G19G24
  21132550.443    21132549.615    21132547.826   -23342494.889 6 -18188947.659 6
        39.100          36.900
  23938229.776    23938229.570    23938231.679    -1963023.912 1  -1529619.335 3
         9.000          18.600
  22855738.635    22855738.210    22855737.785   -10372643.728 4  -8082575.441 4
        25.300          27.400
  22598674.287    22598674.043    22598672.180   -11766559.196 5  -9168735.661 5
        32.600          34.000
  22470989.772    22470989.043    22470988.879   -11502496.388 5  -8962980.804 5
        31.100          32.400
  24622375.503    24622376.225    24622375.471    -3452261.374    -2690072.939 1
         3.000           6.500
  20410769.167    20410768.332    20410765.704   -25728828.520 6 -20048426.701 7
        38.100          46.600
  22500104.283    22500103.447    22500103.185   -10767495.913 5  -8390252.803 4
        30.400          29.900
  21136354.932    21136354.429    21136351.417   -21135529.444 6 -16469233.850 7
        40.500          42.100
  23376947.342    23376945.951    23376943.982    -8716251.761 4  -6791883.625 4
        27.600          28.100
  24890268.966    24890268.305    24890270.687      673828.148      525064.639 1
                         6.500
 09  1  1  0 39 30.0000000  0 11G21G26G 9G15G 6G14G18G 3G22G19G24
  21145139.354    21145138.536    21145136.734   -23276340.248 6 -18137398.595 6
        39.100          36.800
  23960816.376    23960817.365    23960817.869    -1844336.424 1  -1437135.591 3
        11.000          18.600
  22838150.542    22838150.166    22838149.858   -10465068.584 4  -8154594.782 4
        24.600          27.400
  22614541.660    22614541.580    22614539.897   -11683174.673 5  -9103760.699 5
        32.300          34.400
  22477897.794    22477897.027    22477896.919   -11466194.301 5  -8934693.460 5
        31.000          32.300
  24600707.509    24600707.316    24600706.146    -3566131.070    -2778802.509 1
                         6.500
  20411063.066    20411062.211    20411060.903   -25727284.031 6 -20047223.194 7
        38.100          46.500
  22505663.696    22505662.723    22505662.636   -10738280.229 4  -8367487.317 5
        29.900          30.100
  21125459.691    21125459.111    21125456.121   -21192784.339 6 -16513848.044 7
        40.500          42.100
  23366977.756    23366976.342    23366974.484    -8768642.145 4  -6832707.302 4
        27.900          28.400
  24910736.934    24910735.939    24910735.318      781369.599      608863.137 1
                         9.000
 09  1  1  0 40  0.0000000  0 11G21G26G 9G15G 6G14G18G 3G22G19G24
  21157811.965    21157811.107    21157809.487   -23209744.836 6 -18085506.085 6
        38.900          36.800
  23983438.500    23983438.587    23983438.914    -1725462.427 1  -1344506.515 3
        11.000          18.600
  22820641.027    22820640.187    22820640.167   -10557083.298 4  -8226294.530 4
        24.200          27.600
  22630472.754    22630472.549    22630470.955   -11599456.776 5  -9038525.978 5
        32.000          34.500
  22484905.119    22484904.430    22484903.915   -11429370.369 5  -8905999.486 5
        31.300          31.600
  24579057.247    24579055.567    24579056.230    -3679906.368    -2867458.570 1
         3.000           9.000
  20411431.157    20411430.299    20411427.722   -25725349.741 6 -20045715.953 7
        38.100          46.600
  22511332.710    22511331.831    22511331.782   -10708489.199 4  -8344273.516 5
        29.700          30.100
  21114624.688    21114624.230    21114621.125   -21249722.323 6 -16558215.292 7
        40.600          42.200
  23357105.813    23357104.183    23357101.950    -8820521.473 4  -6873132.763 4
        27.900          27.600
  24931214.795    24931213.064    24931213.013      888979.674      692715.123 1
         3.000           9.000
 09  1  1  0 40 30.0000000  0 11G21G26G 9G15G 6G14G18G 3G22G19G24
  21170568.630    21170567.882    21170566.194   -23142707.528 6 -18033269.229 6
        38.800          36.500
  24006095.593    24006095.454    24006095.054    -1606402.263 1  -1251732.382 2
        11.000          17.800
  22803210.414    22803209.792    22803209.272   -10648681.509 4  -8297669.736 4
        25.300          26.800
  22646467.164    22646467.019    22646465.490   -11515405.443 5  -8973031.436 5
        31.800          34.400
  22492011.664    22492011.066    22492010.812   -11392023.491 5  -8876898.019 5
        30.800          31.500
  24557425.191    24557423.905    24557424.959    -3793582.585 1  -2956037.388 2
         6.500          12.600
  20411873.849    20411873.015    20411871.740   -25723023.156 6 -20043903.023 7
        38.100          46.500
  22517111.501    22517110.713    22517110.342   -10678121.618 4  -8320610.458 5
        29.900          30.100
  21103850.691    21103850.197    21103847.236   -21306339.736 6 -16602332.747 7
        40.600          42.300
  23347331.129    23347329.313    23347327.447    -8871885.456 4  -6913156.644 4
        27.100          27.400
  24951703.954    24951704.462    24951702.497      996659.472 1    776621.417 1
         6.500           9.000
 09  1  1  0 41  0.0000000  0 11G21G26G 9G15G 6G14G18G 3G22G19G24
  21183410.441    21183409.614    21183407.776   -23075224.292 6 -17980684.900 6
        38.900          36.500
  24028787.326    24028787.225    24028786.476    -1487154.044 1  -1158811.715 2
        11.000          16.100
  22785860.921    22785860.319    22785859.375   -10739855.308 4  -8368714.238 4
        26.200          26.500
  22662525.504    22662525.416    22662523.702   -11431017.931 5  -8907274.932 5
        31.800          34.100
  22499218.657    22499218.126    22499217.924   -11354149.970 5  -8847386.174 5
        31.000          31.500
  24535812.474    24535811.906    24535813.399    -3907152.782 1  -3044533.604 2
         6.500          12.600
  20412392.094    20412391.248    20412388.658   -25720299.492 6 -20041780.691 7
        38.100          46.400
  22523000.528    22522999.616    22522999.637   -10647173.736 4  -8296495.213 5
        29.900          30.100
  21093139.006    21093138.501    21093135.518   -21362630.703 6 -16646195.829 7
        40.900          42.400
  23337656.094    23337654.714    23337652.911    -8922727.223 4  -6952773.602 4
        27.100          27.900
  24972208.381    24972206.763    24972208.189     1104412.615      860584.915 1
                         9.000
 09  1  1  0 41 30.0000000  0 11G21G26G 9G15G 6G14G18G 3G22G19G24
  21196335.805    21196334.953    21196333.152   -23007300.628 6 -17927757.370 6
        38.700          36.300
  24051514.554    24051514.669    24051512.804    -1367724.698 1  -1065749.915 2
        11.000          16.100
  22768591.830    22768591.048    22768590.354   -10830605.119 4  -8439428.376 4
        25.900          26.800
  22678646.739    22678646.578    22678644.733   -11346300.661 5  -8841261.473 5
        31.600          34.000
  22506524.886    22506524.422    22506524.397   -11315755.595 5  -8817468.476 5
        30.600          31.600
  24514220.064    24514220.556    24514220.727    -4020619.062 1  -3132948.856 2
         6.500          15.100
  20412985.092    20412984.263    20412983.096   -25717182.838 6 -20039352.126 7
        38.000          46.200
  22528999.079    22528998.253    22528998.341   -10615651.246 5  -8271932.231 5
        30.100          30.200
  21082488.637    21082488.139    21082485.112   -21418598.580 6 -16689807.156 7
        40.900          42.500
  23328080.255    23328078.662    23328077.160    -8973049.148 4  -6991985.486 4
        26.800          28.100
  24992725.851    24992723.306    24992727.847     1212233.577      944601.164 1
                        11.000
 09  1  1  0 42  0.0000000  0 11G21G26G 9G15G 6G14G18G 3G22G19G24
  21209346.632    21209345.891    21209344.190   -22938927.761 6 -17874479.826 6
        38.600          36.200
  24074277.030    24074276.710    24074275.324    -1248106.961 2   -972541.317 2
        13.900          16.100
  22751405.926    22751405.249    22751404.519   -10920917.477 4  -8509801.624 4
        25.300          27.400
  22694832.105    22694831.937    22694829.855   -11261246.166 5  -8774985.249 5
        31.300          33.500
  22513931.892    22513931.340    22513931.143   -11276831.786 5  -8787138.223 5
        30.600          31.500
  24492650.029    24492649.573    24492650.555    -4133969.232 1  -3221273.627 2
         9.000          17.000
  20413654.997    20413654.104    20413651.456   -25713663.159 6 -20036609.521 7
        38.100          46.400
  22535109.118    22535108.071    22535107.736   -10583545.458 5  -8246914.729 5
        30.100          30.100
  21071901.714    21071901.211    21071898.236   -21474232.439 6 -16733158.208 7
        40.900          42.500
  23318605.369    23318603.898    23318602.053    -9022839.861 4  -7030783.438 4
        26.500          28.400
  25013258.312    25013256.592    25013259.067     1320131.106     1028677.097 1
                        11.000
 09  1  1  0 42 30.0000000  0 11G21G26G 9G15G 6G14G18G 3G22G19G24
  21222441.140    21222440.325    21222438.621   -22870116.265 6 -17820860.494 6
        38.500          36.100
  24097072.720    24097072.750    24097071.299    -1128313.118 2   -879195.496 2
        15.100          16.100
  22734301.914    22734301.338    22734301.027   -11010798.172 4  -8579838.507 4
        24.900          27.900
  22711078.878    22711079.134    22711077.274   -11175866.091 5  -8708455.321 5
        31.300          33.400
  22521437.543    22521436.935    22521436.726   -11237389.576 5  -8756404.029 5
        30.200          31.500
  24471102.059    24471101.109    24471102.393    -4247210.854 1  -3309513.797 2
        11.000          17.800
  20414399.673    20414398.807    20414397.582   -25709749.893 6 -20033560.217 7
        38.100          46.600
  22541327.480    22541326.524    22541325.990   -10550867.238 4  -8221451.179 4
        29.900          29.500
  21061376.937    21061376.464    21061373.407   -21529540.814 6 -16776255.636 7
        41.000          42.600
  23309230.137    23309228.846    23309226.749    -9072106.702 4  -7069173.177 4
        26.200          28.400
  25033803.155    25033801.266    25033804.010     1428094.253     1112804.156 1
         3.000           9.000
 09  1  1  0 43  0.0000000  0 11G21G26G 9G15G 6G14G18G 3G22G19G24
  21235618.272    21235617.372    21235615.532   -22800871.022 6 -17766903.177 5
        38.600          35.900
  24119900.962    24119901.690    24119899.824    -1008350.014 2   -785717.787 2
        13.900          17.000
  22717280.339    22717279.559    22717279.289   -11100247.436 4  -8649539.210 4
        24.900          28.100
  22727387.291    22727387.127    22727385.491   -11090166.655 5  -8641676.536 5
        31.300          33.400
  22529040.757    22529040.102    22529039.827   -11197434.227 5  -8725269.985 5
        30.200          31.100
  24449573.365    24449572.970    24449573.509    -4360345.478 2  -3397670.626 3
        12.600          18.600
  20415218.414    20415217.601    20415215.027   -25705446.765 6 -20030207.129 7
        38.100          46.400
  22547653.546    22547652.678    22547652.361   -10517621.916 5  -8195545.730 4
        30.100          29.500
  21050913.618    21050913.071    21050910.093   -21584526.558 6 -16819101.659 7
        41.000          42.800
  23299954.484    23299952.861    23299950.777    -9120851.664 4  -7107156.259 4
        27.100          28.400
  25054360.387    25054358.400    25054358.749     1536117.905     1196978.347 1
         3.000           9.000
 09  1  1  0 43 30.0000000  0 11G21G26G 9G15G 6G14G18G 3G22G19G24
  21248877.102    21248876.305    21248874.681   -22731193.494 6 -17712609.019 5
        38.100          35.700
  24142761.655    24142761.338    24142760.094     -888220.300 2   -692110.267 2
        12.600          17.800
  22700341.272    22700340.658    22700340.278   -11189261.781 4  -8718901.017 4
        24.900          28.400
  22743756.019    22743755.758    22743753.745   -11004150.039 5  -8574650.594 5
        31.300          32.800
  22536741.417    22536740.787    22536740.574   -11156967.250 5  -8693737.272 5
        30.200          31.500
  24428064.297    24428063.977    24428064.979    -4473371.222 2  -3485742.605 3
        12.600          18.600
  20416111.558    20416110.686    20416109.507   -25700753.937 6 -20026550.377 7
        38.100          46.600
  22554087.574    22554086.889    22554086.347   -10483811.289 5  -8169199.785 4
        30.100          29.200
  21040511.737    21040511.120    21040508.075   -21639189.173 6 -16861695.887 7
        40.900          42.800
  23290778.288    23290776.626    23290774.806    -9169073.343 4  -7144731.600 4
        26.800          29.000
  25074926.193    25074925.687    25074926.859     1644200.370     1281198.391 1
         3.000           9.000
 09  1  1  0 44  0.0000000  0 11G21G26G 9G15G 6G14G18G 3G22G19G24
  21262218.923    21262218.090    21262216.612   -22661082.289 6 -17657976.921 5
        38.200          35.800
  24165654.622    24165653.938    24165652.112     -767924.276 2   -598373.167 2
        13.900          17.800
  22683486.544    22683485.653    22683485.695   -11277834.852 4  -8787918.962 4
        25.300          28.600
  22760184.523    22760184.337    22760182.542   -10917816.195 5  -8507377.465 5
        30.800          32.800
  22544539.676    22544539.021    22544538.643   -11115987.752 5  -8661805.196 5
        30.400          31.600
  24406578.336    24406578.332    24406578.374    -4586283.126 2  -3573725.857 3
        16.100          20.500
  20417079.250    20417078.348    20417075.859   -25695668.800 6 -20022587.931 7
        38.100          46.700
  22560628.994    22560628.193    22560628.275   -10449433.792 4  -8142412.132 4
        29.000          29.700
  21030171.822    21030171.336    21030168.212   -21693524.859 6 -16904035.376 7
        41.000          42.700
  23281701.892    23281700.505    23281698.872    -9216767.296 4  -7181895.688 4
        26.800          29.500
  25095505.189    25095505.865    25095506.408     1752343.039     1365465.363 1
                         6.500
 09  1  1  0 44 30.0000000  0 11G21G26G 9G15G 6G14G18G 3G22G19G24
  21275643.378    21275642.512    21275640.703   -22590537.552 6 -17603007.008 5
        38.300          35.600
  24188577.123    24188576.338    24188574.784     -647463.775 2   -504507.875 2
        12.600          17.000
  22666716.242    22666715.554    22666715.485   -11365962.385 4  -8856589.748 4
        25.600          28.800
  22776673.296    22776673.049    22776671.614   -10831166.289 5  -8439858.054 5
        30.600          33.000
  22552435.159    22552434.600    22552434.457   -11074496.285 5  -8629474.183 5
        30.400          31.800
  24385115.101    24385114.145    24385113.488    -4699078.794 2  -3661618.551 3
        16.100          19.300
  20418121.620    20418120.824    20418119.748   -25690190.222 6 -20018318.906 7
        38.200          46.500
  22567279.203    22567278.169    22567278.038   -10414490.191 4  -8115183.344 4
        29.200          29.900
  21019894.618    21019894.085    21019891.037   -21747531.986 6 -16946118.846 7
        41.100          42.800
  23272727.270    23272725.696    23272724.090    -9263930.794 4  -7218646.464 5
        27.900          30.100
  25116098.830    25116094.158    25116097.082     1860545.495     1449778.905 1
                         6.500
 09  1  1  0 45  0.0000000  0 10G21G22G26G 9G15G 6G14G18G 3G19
  21289149.569    21289148.735    21289147.075   -22519560.952 6 -17547700.574 5
        38.000          35.400
  21009680.027    21009679.546    21009676.465   -21801210.092 6 -16987945.933 7
        41.200          42.900
  24211529.597    24211529.037    24211528.242     -526842.149 2   -410517.039 2
        12.600          16.100
  22650031.169    22650030.446    22650030.744   -11453641.277 4  -8924910.928 4
        25.600          29.000
  22793221.719    22793221.527    22793220.124   -10744203.261 5  -8372094.651 5
        30.200          33.000
  22560427.789    22560427.257    22560426.742   -11032494.915 5  -8596745.850 5
        30.200          31.100
  24363672.943    24363672.687    24363671.497    -4811756.447 2  -3749419.272 3
        17.000          19.300
  20419238.962    20419238.109    20419235.640   -25684319.071 6 -20013743.982 7
        38.300          46.700
  22574035.299    22574034.493    22574034.631   -10378982.555 4  -8087515.056 4
        29.000          29.500
  23263853.559    23263852.077    23263850.412    -9310562.860 4  -7254983.122 5
        28.100          30.200
 09  1  1  0 45 30.0000000  0 10G21G22G26G 9G15G 6G14G18G 3G19
  21302736.564    21302735.855    21302734.126   -22448160.981 6 -17492064.245 5
        38.100          35.300
  20999527.027    20999526.502    20999523.189   -21854565.297 6 -17029521.407 7
        41.300          43.000
  24234511.918    24234510.999    24234510.899     -406069.210 1   -316408.285 2
        11.000          16.100
  22633431.874    22633430.995    22633430.427   -11540875.331 4  -8992885.495 4
        26.500          28.800
  22809828.237    22809827.833    22809826.436   -10656936.680 5  -8304094.721 5
        30.400          32.800
  22568515.545    22568514.986    22568514.687   -10989992.267 5  -8563626.909 5
        30.100          31.300
  24342253.983    24342252.665    24342251.240    -4924320.968 2  -3837131.844 3
        16.100          19.300
  20420429.503    20420428.688    20420427.416   -25678062.470 6 -20008868.703 7
        38.300          46.700
  22580897.941    22580897.288    22580897.292   -10342919.262 4  -8059413.790 4
        29.000          29.700
  23255080.266    23255078.640    23255076.749    -9356668.542 4  -7290909.616 5
        27.900          30.100
 09  1  1  0 46  0.0000000  0 10G21G26G 9G15G 6G14G18G 3G22G19
  21316406.008    21316405.243    21316403.616   -22376327.062 6 -17436089.775 5
        37.800          35.100
  24257524.916    24257524.234    24257524.147     -285135.933 2   -222174.580 2
        12.600          17.000
  22616918.837    22616918.131    22616918.107   -11627649.212 4  -9060501.487 4
        26.500          29.200
  22826494.083    22826493.921    22826492.439   -10569356.818 5  -8235850.670 5
        30.400          33.000
  22576701.429    22576700.688    22576700.265   -10946978.288 5  -8530109.536 5
        30.600          31.500
  24320856.969    24320855.672    24320855.192    -5036758.378 2  -3924745.350 3
        13.900          19.900
  20421695.704    20421694.872    20421692.403   -25671408.812 6 -20003684.035 7
        38.400          46.800
  22587868.312    22587867.580    22587867.696   -10306290.287 4  -8030871.729 4
        29.200          29.700
  20989437.405    20989436.981    20989433.895   -21907584.991 6 -17070835.454 7
        41.100          43.100
  23246409.425    23246407.737    23246405.418    -9402234.642 4  -7326415.650 4
        28.600          29.700
 09  1  1  0 46 30.0000000  0 10G21G26G 9G15G 6G14G18G 3G22G19
  21330158.579    21330157.774    21330156.084   -22304057.795 6 -17379776.070 5
        37.800          35.100
  24280568.154    24280567.962    24280567.515     -164042.131 1   -127815.801 2
        11.000          17.000
  22600495.203    22600494.689    22600494.418   -11713956.074 4  -9127753.553 4
        26.500          29.200
  22843219.775    22843219.582    22843217.876   -10481462.947 5  -8167361.938 5
        30.200          32.300
  22584984.117    22584983.399    22584983.215   -10903451.571 5  -8496192.617 5
        30.400          31.500
  24299485.250    24299484.960    24299484.259    -5149063.879 2  -4012256.078 3
        13.900          19.300
  20423037.958    20423037.255    20423036.087   -25664354.697 6 -19998187.318 7
        38.500          46.800
  22594946.514    22594945.721    22594945.793   -10269094.330 4  -8001887.869 4
        28.600          29.900
  20979412.639    20979412.145    20979409.172   -21960265.441 6 -17111885.146 7
        41.000          43.100
  23237841.745    23237840.057    23237838.075    -9447256.828 4  -7361497.862 5
        29.200          30.100
 09  1  1  0 47  0.0000000  0 10G21G26G 9G15G 6G14G18G 3G22G19
  21343991.101    21343990.314    21343988.562   -22231367.462 6 -17323134.264 5
        37.700          34.800
  24303638.527    24303638.254    24303638.398      -42803.582 1    -33344.234 2
         9.000          17.800
  22584158.616    22584157.909    22584157.537   -11799805.802 4  -9194649.413 4
        25.900          29.000
  22860002.082    22860001.962    22860000.351   -10393270.647 4  -8098640.662 5
        29.700          32.000
  22593361.714    22593361.087    22593360.768   -10859427.086 5  -8461887.824 5
        30.400          31.500
  24278137.019    24278136.318    24278136.833    -5261248.678 2  -4099672.749 3
        13.900          19.900
  20424454.160    20424453.311    20424450.919   -25656913.345 6 -19992388.860 7
        38.400          47.100
  22602130.099    22602129.210    22602129.294   -10231345.801 4  -7972473.445 5
        28.800          30.200
  20969450.214    20969449.736    20969446.688   -22012618.925 6 -17152680.064 7
        41.100          43.200
  23229375.871    23229374.108    23229372.232    -9491746.109 4  -7396164.815 5
        28.800          30.600
 09  1  1  0 47 30.0000000  0 10G21G26G 9G15G 6G14G18G 3G22G19
  21357906.461    21357905.559    21357903.649   -22158242.606 6 -17266153.878 5
        37.700          34.500
  24326739.021    24326737.693    24326738.659       78591.592 1     61249.375 3
         9.000          19.300
  22567912.694    22567911.983    22567911.132   -11885180.264 4  -9261174.941 4
        27.100          28.600
  22876843.694    22876843.355    22876841.794   -10304767.482 4  -8029677.153 5
        29.200          31.500
  22601836.217    22601835.571    22601835.475   -10814891.601 4  -8427184.853 5
        29.700          31.100
  24256815.229    24256814.466    24256813.884    -5373295.877 2  -4186982.206 2
        12.600          17.800
  20425946.572    20425945.754    20425944.644   -25649069.973 6 -19986277.139 7
        38.500          46.900
  22609421.279    22609420.350    22609420.199   -10193031.859 4  -7942618.424 5
        28.800          30.200
  20959552.898    20959552.398    20959549.361   -22064629.733 6 -17193207.963 7
        41.100          43.300
  23221014.125    23221012.384    23221010.756    -9535686.606 4  -7430404.155 5
        28.800          30.400
 09  1  1  0 48  0.0000000  0 11G21G26G 9G15G 6G14G18G 3G24G22G19
  21371903.894    21371902.986    21371901.013   -22084686.277 6 -17208837.267 5
        37.700          34.300
  24349868.994    24349868.069    24349868.691      200138.986 1    155961.607 3
         9.000          19.900
  22551757.108    22551756.452    22551755.788   -11970077.689 4  -9327328.764 4
        27.600          28.600
  22893743.519    22893743.318    22893741.734   -10215957.692 4  -7960474.720 5
        29.000          31.800
  22610407.731    22610407.040    22610406.775   -10769848.551 4  -8392086.364 5
        29.900          30.800
  24235519.517    24235518.955    24235518.238    -5485205.155 2  -4274184.218 2
        12.600          17.800
  20427515.156    20427514.341    20427512.039   -25640826.717 6 -19979853.821 7
        38.500          46.800
  22616818.812    22616818.126    22616817.725   -10154155.720 4  -7912325.338 4
        29.000          29.700
  25260528.806    25260527.207    25260528.113            .0421          -.0391
         3.000
  20949720.531    20949720.096    20949717.023   -22116298.956 6 -17233469.692 7
        41.100          43.400
  23212756.919    23212755.124    23212753.527    -9579077.997 4  -7464215.621 5
        28.600          30.400
 09  1  1  0 48 30.0000000  0 10G21G26G 9G15G 6G14G18G 3G22G19
  21385978.374    21385977.585    21385975.780   -22010722.454 6 -17151203.124 5
        37.500          34.100
  24373023.094    24373022.901    24373021.848      321812.936 2    250772.447 3
        12.600          19.900
  22535688.596    22535687.819    22535687.619   -12054517.391 4  -9393125.900 4
        27.100          29.200
  22910697.381    22910697.159    22910695.502   -10126866.129 4  -7891052.720 5
        29.200          32.100
  22619071.174    22619070.338    22619070.379   -10724322.562 4  -8356611.577 5
        29.500          31.000
  24214246.071    24214245.192    24214244.496    -5596997.446 2  -4361295.048 2
        12.600          17.000
  20429155.720    20429154.832    20429153.559   -25632206.508 6 -19973136.774 7
        38.500          47.100
  22624318.907    22624318.121    22624317.952   -10114742.396 4  -7881613.653 4
        29.000          29.500
  20939949.007    20939948.591    20939945.566   -22167648.292 6 -17273482.158 7
        41.100          43.500
  23204599.723    23204598.299    23204596.523    -9621941.885 4  -7497616.039 5
        28.600          30.400
 09  1  1  0 49  0.0000000  0 10G21G26G 9G15G 6G14G18G 3G22G19
  21400131.439    21400130.630    21400128.853   -21936347.961 6 -17093248.987 5
        37.200          34.000
  24396201.847    24396201.382    24396199.849      443615.561 2    345683.578 3
        15.100          19.900
  22519709.046    22519708.361    22519707.902   -12138491.105 4  -9458559.932 4
        27.400          29.700
  22927704.723    22927704.524    22927703.009   -10037490.388 4  -7821409.287 5
        28.400          32.100
  22627826.716    22627826.032    22627825.931   -10678310.663 4  -8320758.155 5
        29.200          30.600
  24192995.794    24192994.740    24192994.568    -5708665.729 2  -4448309.237 2
        12.600          16.100
  20430868.470    20430867.657    20430865.462   -25623204.720 6 -19966122.391 7
        38.600          47.000
  22631921.620    22631920.874    22631920.758   -10074788.462 4  -7850480.730 4
        28.800          29.000
  20930239.632    20930239.079    20930236.061   -22218672.148 6 -17313241.001 7
        41.100          43.600
  23196544.891    23196543.135    23196541.699    -9664272.077 4  -7530600.600 5
        28.400          30.400
 09  1  1  0 49 30.0000000  0 10G21G26G 9G15G 6G14G18G 3G22G19
  21414363.671    21414362.962    21414361.292   -21861556.239 6 -17034969.738 5
        37.200          33.800
  24419405.462    24419405.270    24419404.048      565552.271 2    440699.200 3
        15.100          19.900
  22503820.042    22503819.513    22503818.867   -12221987.717 4  -9523622.198 4
        27.900          29.500
  22944767.318    22944767.202    22944765.792    -9947825.029 4  -7751540.184 5
        28.400          32.000
  22636676.313    22636675.764    22636675.427   -10631806.364 4  -8284521.051 5
        29.700          30.800
  24171772.841    24171772.049    24171770.416    -5820199.962 2  -4535218.989 2
        12.600          16.100
  20432655.785    20432654.945    20432653.818   -25613812.831 6 -19958804.033 7
        38.600          47.000
  22639629.016    22639628.264    22639627.864   -10034287.732 4  -7818921.723 4
        29.000          29.200
  20920593.644    20920593.161    20920590.042   -22269361.535 6 -17352739.220 7
        41.100          43.600
  23188593.644    23188591.821    23188589.917    -9706058.808 4  -7563161.682 5
        28.400          30.400
 09  1  1  0 50  0.0000000  0 10G21G26G 9G15G 6G14G18G 3G22G19
  21428678.146    21428677.115    21428675.259   -21786335.695 6 -16976356.324 5
        37.200          33.800
  24442636.470    24442635.906    24442635.166      687632.941 2    535826.959 3
        13.900          19.300
  22488025.252    22488024.506    22488023.830   -12304990.786 4  -9588299.890 4
        27.900          29.700
  22961887.737    22961887.364    22961885.689    -9857859.462 4  -7681437.148 5
        28.800          31.500
  22645621.440    22645620.790    22645620.927   -10584798.738 4  -8247891.721 5
        29.500          31.000
  24150576.013    24150575.583    24150574.392    -5931585.354 2  -4622012.784 2
        13.900          15.100
  20434519.530    20434518.759    20434516.491   -25604018.779 6 -19951172.303 7
        38.700          47.300
  22647442.439    22647441.530    22647441.144    -9993228.855 4  -7786927.799 4
        29.200          29.200
  20911013.924    20911013.439    20911010.440   -22319703.051 6 -17391966.376 7
        41.000          43.700
  23180747.508    23180745.603    23180744.057    -9747287.894 4  -7595288.239 5
        27.900          30.100
 09  1  1  0 50 30.0000000  0 10G21G26G 9G15G 6G14G18G 3G22G19
  21443072.073    21443071.259    21443069.385   -21710694.060 6 -16917414.801 5
        37.100          33.600
  24465892.721    24465893.223    24465892.661      809848.774 2    631060.048 2
        12.600          17.800
  22472323.500    22472322.879    22472322.259   -12387503.216 4  -9652595.262 4
        28.400          29.900
  22979062.814    22979062.621    22979060.989    -9767602.034 4  -7611106.683 5
        28.800          30.800
  22654660.774    22654660.264    22654660.227   -10537295.921 4  -8210876.546 5
        29.000          31.100
  24129407.303    24129406.561    24129406.619    -6042826.108 2  -4708693.876 2
        15.100          16.100
  20436458.597    20436457.854    20436456.689   -25593828.549 6 -19943231.861 7
        38.700          47.100
  22655360.064    22655359.312    22655358.877    -9951620.038 4  -7754505.344 4
        28.800          28.800
  20901499.454    20901499.004    20901495.965   -22369702.091 6 -17430926.661 7
        41.100          43.900
  23173007.082    23173005.316    23173003.498    -9787964.178 4  -7626984.028 5
        27.900          30.200
 09  1  1  0 51  0.0000000  0 10G21G26G 9G15G 6G14G18G 3G22G19
  21457544.278    21457543.550    21457541.705   -21634641.459 6 -16858153.046 5
        36.900          33.600
  24489172.200    24489172.653    24489172.942      932188.235 1    726389.496 2
        11.000          16.100
  22456714.222    22456713.411    22456712.936   -12469530.397 4  -9716512.525 4
        27.900          29.500
  22996292.016    22996291.819    22996290.032    -9677064.183 4  -7540557.700 5
        29.700          31.000
  22663792.808    22663792.043    22663792.089   -10489308.429 4  -8173483.708 5
        28.800          30.800
  24108266.120    24108264.790    24108265.352    -6153929.078 2  -4795267.607 2
        16.100          17.000
  20438471.524    20438470.687    20438468.460   -25583251.038 6 -19934989.644 7
        38.700          47.300
  22663380.599    22663379.820    22663379.579    -9909471.942 4  -7721662.684 4
        28.600          29.000
  20892048.557    20892048.086    20892045.251   -22419366.599 6 -17469626.275 7
        41.000          44.100
  23165370.530    23165368.729    23165367.066    -9828094.814 4  -7658254.650 5
        28.400          30.100
 09  1  1  0 51 30.0000000  0 10G21G26G 9G15G 6G14G18G 3G22G19
  21472095.873    21472095.154    21472093.308   -21558172.072 6 -16798566.519 5
        36.700          33.400
  24512477.151    24512477.388    24512477.732     1054655.734 1    821818.719 2
         9.000          12.600
  22441198.902    22441198.197    22441197.784   -12551062.015 4  -9780043.637 4
        27.400          29.200
  23013575.267    23013574.896    23013572.959    -9586240.869 4  -7469786.274 5
        29.500          31.000
  22673017.602    22673016.920    22673016.766   -10440831.045 4  -8135709.121 5
        28.600          30.200
  24087151.960    24087151.031    24087150.663    -6264885.174 2  -4881726.893 2
        17.000          16.100
  20440559.439    20440558.595    20440557.489   -25572279.148 6 -19926440.114 7
        38.800          47.500
  22671505.105    22671504.109    22671503.745    -9866779.258 4  -7688395.663 4
        29.000          29.200
  20882663.090    20882662.589    20882659.586   -22468688.406 6 -17508058.849 7
        41.200          44.100
  23157839.530    23157837.870    23157835.905    -9867671.401 4  -7689093.533 4
        29.500          29.700
 09  1  1  0 52  0.0000000  0 10G21G26G 9G15G 6G14G18G 3G22G19
  21486727.240    21486726.286    21486724.492   -21481284.745 6 -16738654.312 5
        36.500          33.200
  24535806.134    24535806.131    24535807.197     1177251.425 1    917347.821 1
         6.500          11.000
  22425780.061    22425779.212    22425778.546   -12632092.050 4  -9843183.900 4
        28.400          29.700
  23030912.630    23030912.495    23030910.514    -9495131.518 4  -7398791.985 5
        28.800          31.100
  22682335.856    22682335.303    22682335.252   -10391862.778 4  -8097552.040 5
        28.600          30.400
  24066065.861    24066065.651    24066065.445    -6375689.683 2  -4968068.059 2
        17.800          17.000
  20442722.680    20442721.952    20442719.750   -25560910.525 6 -19917581.450 7
        38.900          47.300
  22679732.952    22679732.192    22679731.785    -9823541.251 4  -7654703.719 4
        29.200          29.200
  20873343.329    20873342.790    20873339.606   -22517664.252 6 -17546221.842 7
        41.100          44.000
  23150414.084    23150412.644    23150410.652    -9906689.800 4  -7719497.481 4
        29.200          29.000
 09  1  1  0 52 30.0000000  0 10G21G26G 9G15G 6G14G18G 3G22G19
  21501435.714    21501434.862    21501433.237   -21403990.316 6 -16678424.906 5
        36.300          33.200
  24559158.526    24559157.422    24559156.641     1299963.234     1012967.418 1
         3.000           6.500
  22410454.459    22410453.918    22410453.329   -12712626.489 4  -9905937.989 5
        28.800          30.100
  23048302.542    23048302.093    23048300.215    -9403748.378 4  -7327584.348 5
        28.400          31.300
  22691745.711    22691744.986    22691744.900   -10342415.133 4  -8059021.419 5
        28.600          30.200
  24045008.091    24045007.350    24045006.921    -6486349.922 2  -5054296.801 2
        17.800          17.000
  20444959.784    20444958.962    20444957.841   -25549154.937 6 -19908421.252 7
        38.900          47.400
  22688062.130    22688061.290    22688061.416    -9779768.935 4  -7620595.425 4
        28.600          29.500
  20864087.524    20864087.041    20864084.071   -22566302.747 6 -17584121.962 7
        41.200          44.200
  23143093.393    23143092.236    23143090.425    -9945158.224 4  -7749472.867 4
        28.800          29.200
 09  1  1  0 53  0.0000000  0 10G21G26G 9G15G 6G14G18G 3G22G19
  21516222.705    21516221.844    21516219.863   -21326285.150 6 -16617875.438 5
        36.400          32.800
  24582533.137    24582532.556    24582530.860     1422793.683     1108679.492 1
         3.000           6.500
  22395224.983    22395224.603    22395224.093   -12792656.706 4  -9968299.178 5
        28.800          30.200
  23065744.459    23065744.206    23065742.759    -9312088.291 4  -7256160.910 5
        27.600          31.100
  22701246.920    22701246.295    22701246.177   -10292484.630 4  -8020114.537 5
        28.100          30.100
  24023979.521    24023978.744    24023977.273    -6596858.541 2  -5140407.407 2
        17.800          17.000
  20447271.595    20447270.773    20447268.612   -25537006.681 6 -19898955.079 7
        38.900          47.700
  22696494.612    22696493.792    22696493.094    -9735459.176 4  -7586068.352 4
        28.600          29.200
  20854897.418    20854896.867    20854893.851   -22614597.920 6 -17621754.566 7
        41.200          44.300
  23135879.724    23135878.308    23135876.082    -9983069.643 4  -7779014.220 4
        29.000          29.000
 09  1  1  0 53 30.0000000  0 10G21G26G 9G15G 6G14G18G 3G22G19
  21531086.977    21531086.220    21531084.418   -21248171.899 6 -16557007.974 5
        36.200          32.800
  24605930.171    24605928.298    24605927.953     1545738.899     1204480.939 1
         3.000           6.500
  22380092.560    22380091.714    22380091.150   -12872180.416 4 -10030265.704 5
        28.600          30.600
  23083238.642    23083238.375    23083236.806    -9220154.758 4  -7184524.397 5
        27.600          30.600
  22710839.536    22710838.984    22710839.179   -10242074.362 4  -7980833.822 5
        28.400          30.200
  24002979.659    24002978.666    24002976.754    -6707214.909 2  -5226399.358 3
        17.000          18.600
  20449657.809    20449657.047    20449655.762   -25524466.955 6 -19889183.864 7
        38.900          47.800
  22705027.924    22705027.011    22705026.911    -9690614.499 4  -7551124.459 4
        28.400          29.500
  20845772.398    20845771.899    20845768.799   -22662549.833 6 -17659119.686 7
        41.200          44.300
  23128771.442    23128770.011    23128767.496   -10020424.139 4  -7808121.609 4
        29.500          29.000
 09  1  1  0 54  0.0000000  0 10G21G26G 9G15G 6G14G18G 3G22G19
  21546028.321    21546027.540    21546025.705   -21169654.838 6 -16495825.861 5
        36.100          33.000
  24629347.718    24629345.996    24629344.820     1668793.436 1   1300367.567 1
         6.500           9.000
  22365055.696    22365055.135    22365054.624   -12951197.635 4 -10091837.550 5
        28.100          30.200
  23100784.026    23100783.901    23100782.157    -9127953.120 4  -7112678.976 5
        27.600          30.400
  22720522.813    22720522.263    22720522.042   -10191189.277 4  -7941183.113 5
        28.600          30.100
  23982008.654    23982007.848    23982005.503    -6817420.085 2  -5312273.505 3
        17.800          18.600
  20452117.781    20452116.958    20452114.825   -25511539.422 6 -19879110.462 7
        38.900          47.600
  22713662.333    22713661.433    22713661.508    -9645240.394 4  -7515768.018 4
        28.100          29.200
  20836712.439    20836711.928    20836708.770   -22710160.786 6 -17696219.125 7
        41.300          44.500
  23121768.668    23121767.218    23121765.128   -10057223.356 4  -7836796.321 4
        29.500          29.200
 09  1  1  0 54 30.0000000  0 10G21G26G 9G15G 6G14G18G 3G22G19
  21561045.065    21561044.244    21561042.383   -21090741.487 6 -16434334.953 5
        36.000          32.700
  24652782.916    24652781.729    24652781.198     1791948.495 1   1396332.554 1
         9.000           6.500
  22350115.024    22350114.250    22350114.092   -13029710.919 4 -10153016.714 5
        27.600          30.400
  23118379.276    23118379.007    23118376.609    -9035491.342 4  -7040630.834 4
        28.100          29.900
  22730295.220    22730294.457    22730294.134   -10139837.130 4  -7901168.461 5
        28.600          30.100
  23961064.867    23961064.261    23961062.676    -6927477.954 3  -5398032.878 3
        18.600          19.900
  20454650.519    20454649.677    20454648.542   -25498230.225 6 -19868739.659 7
        39.000          47.800
  22722395.984    22722394.902    22722395.215    -9599344.526 4  -7480005.008 4
        27.900          29.200
  20827716.125    20827715.657    20827712.659   -22757436.167 6 -17733057.078 7
        41.300          44.700
  23114870.653    23114868.957    23114867.173   -10093472.029 4  -7865042.034 4
        29.000          29.200
 09  1  1  0 55  0.0000000  0 10G21G26G 9G15G 6G14G18G 3G22G19
  21576138.428    21576137.606    21576136.030   -21011424.617 5 -16372529.612 5
        35.700          32.600
  24676238.223    24676237.484    24676237.120     1915210.305 1   1492380.707 1
         9.000           9.000
  22335272.391    22335271.836    22335271.904   -13107708.168 4 -10213793.770 5
        28.100          30.800
  23136024.944    23136024.395    23136022.419    -8942763.015 4  -6968374.989 4
        28.100          29.900
  22740157.362    22740156.725    22740156.450   -10088011.131 4  -7860784.580 5
        28.600          30.400
  23940151.519    23940150.349    23940149.661    -7037377.375 2  -5483668.774 3
        17.000          20.500
  20457257.407    20457256.662    20457254.571   -25484530.461 6 -19858064.518 7
        39.100          47.800
  22731230.242    22731229.355    22731229.371    -9552919.722 4  -7443829.849 4
        28.100          29.000
  20818785.678    20818785.203    20818782.252   -22804365.986 6 -17769625.761 7
        41.300          44.800
  23108079.169    23108077.945    23108076.300   -10129159.923 4  -7892850.789 4
        29.200          29.900
 09  1  1  0 55 30.0000000  0 10G21G26G 9G15G 6G14G18G 3G22G19
  21591308.587    21591307.656    21591305.945   -20931705.837 5 -16310411.084 5
        35.600          32.400
  24699713.781    24699713.093    24699712.971     2038576.361 1   1588510.113 1
         6.500           6.500
  22320529.242    22320528.650    22320528.015   -13185185.797 4 -10274165.930 5
        28.800          30.600
  23153719.886    23153720.147    23153718.309    -8849770.765 4  -6895913.499 4
        27.100          29.500
  22750109.090    22750108.161    22750108.473   -10035713.377 4  -7820033.095 5
        28.100          30.400
  23919268.415    23919267.888    23919266.750    -7147116.845 2  -5569180.019 3
        15.100          20.500
  20459938.704    20459937.904    20459936.645   -25470440.455 6 -19847085.291 7
        39.000          47.800
  22740164.753    22740163.789    22740163.759    -9505968.438 4  -7407244.429 4
        28.600          28.400
  20809921.135    20809920.581    20809917.622   -22850949.538 6 -17805924.627 7
        41.300          44.900
  23101395.504    23101393.872    23101391.998   -10164285.978 4  -7920221.737 4
        29.900          29.700
 09  1  1  0 56  0.0000000  0 10G21G26G 9G15G 6G14G18G 3G22G19
  21606554.913    21606554.140    21606552.344   -20851585.520 5 -16247979.681 5
        35.600          32.300
  24723208.012    24723207.355    24723207.887     2162044.940 1   1684719.377 1
         6.500           9.000
  22305885.533    22305884.798    22305884.353   -13262139.891 4 -10334130.149 5
        29.000          30.400
  23171465.910    23171465.818    23171464.371    -8756515.865 4  -6823247.346 4
        26.500          29.700
  22760150.804    22760150.115    22760150.066    -9982944.722 4  -7778914.670 5
        28.600          30.400
  23898416.310    23898415.299    23898415.233    -7256693.113 2  -5654564.090 3
        15.100          20.500
  20462694.429    20462693.635    20462691.487   -25455959.089 6 -19835801.108 7
        39.100          47.900
  22749199.292    22749198.463    22749198.173    -9458491.672 4  -7370249.543 4
        28.400          28.600
  20801122.808    20801122.311    20801119.270   -22897185.281 6 -17841952.477 7
        41.400          45.000
  23094818.725    23094817.119    23094814.812   -10198847.969 4  -7947153.157 4
        29.900          29.200
 09  1  1  0 56 30.0000000  0 10G21G26G 9G15G 6G14G18G 3G22G19
  21621877.824    21621877.023    21621875.338   -20771063.259 5 -16185235.087 5
        35.400          32.600
  24746722.455    24746720.770    24746722.462     2285615.655     1781008.227 1
         3.000           9.000
  22291342.131    22291341.408    22291341.121   -13338564.987 4 -10393682.159 5
        29.000          30.400
  23189261.871    23189261.731    23189260.429    -8662998.342 4  -6750376.547 5
        27.100          30.200
  22770281.520    22770281.090    22770280.959    -9929705.322 4  -7737429.434 5
        28.400          30.200
  23877596.427    23877595.775    23877595.664    -7366102.145 2  -5739817.855 3
        16.100          21.100
  20465524.896    20465524.047    20465522.894   -25441084.707 6 -19824210.676 7
        39.000          47.900
  22758333.985    22758333.176    22758333.003    -9410489.038 4  -7332844.908 4
        28.100          29.000
  20792391.214    20792390.645    20792387.621   -22943070.279 6 -17877707.015 7
        41.400          45.100
  23088349.611    23088347.983    23088346.057   -10232842.353 4  -7973642.280 4
        29.500          29.700
 09  1  1  0 57  0.0000000  0 10G21G26G 9G15G 6G14G18G 3G22G19
  21637277.391    21637276.530    21637274.711   -20690138.607 5 -16122176.931 5
        35.300          32.000
  24770255.039    24770256.256    24770256.671     2409287.764 1   1877376.082 1
         6.500           9.000
  22276900.621    22276899.936    22276899.189   -13414456.214 4 -10452818.167 5
        29.500          30.100
  23207107.781    23207107.650    23207106.027    -8569218.526 4  -6677301.358 5
        27.600          30.600
  22780502.554    22780501.892    22780501.891    -9875995.009 4  -7695577.257 5
        27.900          30.400
  23856808.965    23856808.665    23856808.359    -7475340.185 2  -5824938.378 3
        17.800          21.600
  20468430.499    20468429.683    20468427.666   -25425815.366 6 -19812312.487 7
        39.100          47.900
  22767568.703    22767567.869    22767567.586    -9361960.783 4  -7295030.679 4
        28.100          28.800
  20783726.833    20783726.332    20783723.215   -22988601.728 6 -17913186.061 7
        41.500          45.100
  23081989.192    23081987.681    23081985.595   -10266266.229 4  -7999686.856 4
        29.500          29.900
 09  1  1  0 57 30.0000000  0 10G21G26G 9G15G 6G14G18G 3G22G19
  21652750.331    21652749.427    21652747.659   -20608827.737 5 -16058817.819 5
        35.100          32.000
  24793804.938    24793805.618    24793807.129     2533044.156 1   1973809.629 2
         6.500          12.600
  22262558.627    22262557.790    22262557.068   -13489824.938 4 -10511547.026 5
        29.500          30.400
  23225000.734    23225000.360    23224998.604    -8475193.721 4  -6604035.277 5
        27.900          30.600
  22790809.263    22790808.980    22790808.842    -9821830.644 4  -7653371.268 5
        27.900          30.100
  23836051.962    23836050.928    23836050.755    -7584419.715 2  -5909935.385 3
        17.000          21.600
  20471408.560    20471407.765    20471406.522   -25410165.784 6 -19800118.005 7
        39.100          47.900
  22776900.277    22776899.563    22776899.088    -9312923.557 4  -7256819.864 4
        28.400          28.800
  20775127.218    20775126.704    20775123.550   -23033793.391 6 -17948400.340 7
        41.600          45.300
  23075734.617    23075733.209    23075731.286   -10299132.709 4  -8025297.092 5
        29.000          30.200
 09  1  1  0 58  0.0000000  0 10G21G26G 9G15G 6G14G18G 3G22G19
  21668297.802    21668296.997    21668295.429   -20527124.435 5 -15995152.924 5
        34.900          32.000
  24817372.892    24817372.793    24817373.862     2656890.030 1   2070312.913 2
         9.000          12.600
  22248317.670    22248316.805    22248316.511   -13564660.049 4 -10569860.079 5
        29.000          30.400
  23242940.533    23242940.336    23242938.447    -8380917.983 4  -6530573.669 5
        27.600          30.200
  22801204.238    22801203.585    22801203.366    -9767206.386 4  -7610806.923 4
        27.400          29.900
  23815326.911    23815326.217    23815325.637    -7693330.982 2  -5994801.264 3
        17.800          21.600
  20474460.454    20474459.586    20474457.561   -25394128.249 6 -19787621.222 8
        39.100          48.100
  22786329.394    22786328.711    22786328.461    -9263371.773 4  -7218208.077 4
        27.900          28.800
  20766593.742    20766593.209    20766590.102   -23078636.837 6 -17983343.279 7
        41.700          45.400
  23069588.235    23069586.722    23069584.431   -10331433.163 4  -8050466.276 5
        29.900          30.100
 09  1  1  0 58 30.0000000  0 10G21G26G 9G15G 6G14G18G 3G22G19
  21683919.885    21683919.005    21683917.282   -20445031.140 5 -15931184.144 5
        35.100          32.000
  24840956.018    24840957.312    24840957.451     2780821.990     2166883.302 2
         3.000          13.900
  22234178.774    22234178.190    22234177.829   -13638959.487 4 -10627755.730 5
        29.500          31.000
  23260927.619    23260927.447    23260925.670    -8286394.440 4  -6456918.960 4
        27.100          29.900
  22811685.434    22811684.900    22811685.298    -9712125.111 4  -7567886.459 4
        27.100          29.900
  23794633.740    23794632.672    23794632.872    -7802073.045 3  -6079535.309 3
        18.600          21.600
  20477585.663    20477584.904    20477583.727   -25377704.309 6 -19774823.341 7
        39.100          47.900
  22795856.233    22795855.493    22795855.358    -9213308.197 4  -7179197.490 4
        27.900          29.000
  20758126.450    20758125.932    20758122.833   -23123132.323 6 -18018015.077 7
        41.800          45.500
  23063549.780    23063548.107    23063545.829   -10363167.337 5  -8075194.207 5
        30.600          30.400
 09  1  1  0 59  0.0000000  0 10G21G26G 9G15G 6G14G18G 3G22G19
  21699617.324    21699616.477    21699614.548   -20362540.750 5 -15866905.935 5
        34.900          31.600
  24864557.571    24864558.908    24864557.983     2904846.392 1   2263525.705 2
         6.500          13.900
  22220144.627    22220143.888    22220143.544   -13712711.176 4 -10685224.560 5
        29.500          31.600
  23278963.327    23278962.890    23278961.391    -8191616.944 4  -6383066.370 5
        26.500          30.100
  22822255.436    22822254.918    22822254.902    -9656580.084 4  -7524604.629 4
        27.400          29.200
  23773975.250    23773974.362    23773973.973    -7910635.024 3  -6164129.032 3
        18.600          21.100
  20480786.336    20480785.505    20480783.540   -25360885.260 6 -19761717.588 8
        39.200          48.100
  22805481.930    22805481.059    22805480.753    -9162726.156 4  -7139782.916 4
        27.600          29.000
  20749727.333    20749726.807    20749723.849   -23167269.834 6 -18052407.941 7
        41.700          45.600
  23057620.494    23057618.767    23057616.949   -10394325.471 5  -8099473.270 5
        30.800          31.000
 09  1  1  0 59 30.0000000  0 10G21G26G 9G15G 6G14G18G 3G22G19
  21715388.483    21715387.732    21715386.106   -20279661.367 5 -15802324.611 5
        34.500          31.600
  24888175.440    24888175.685    24888174.182     3028954.137     2360233.057 2
         3.000          12.600
  22206213.625    22206212.966    22206212.557   -13785918.341 4 -10742269.083 5
        29.500          31.600
  23297044.846    23297044.680    23297043.352    -8096594.575 4  -6309022.966 4
        25.600          29.500
  22832912.353    22832911.623    22832911.416    -9600579.972 4  -7480968.170 4
        27.900          29.000
  23753350.018    23753348.987    23753348.371    -8019021.551 3  -6248586.040 3
        18.600          21.100
  20484060.856    20484060.015    20484058.714   -25343677.695 6 -19748309.092 8
        39.300          48.300
  22815204.140    22815203.297    22815203.319    -9111634.180 4  -7099970.990 4
        27.400          29.000
  20741395.296    20741394.781    20741391.767   -23211055.378 6 -18086526.550 7
        41.700          45.700
  23051799.977    23051798.116    23051796.383   -10424912.544 5  -8123307.334 5
        30.600          31.000
                            4 15
RINEX FILE SPLICE                                           COMMENT
teqc  2008Oct2      WCDA Operator       20090101 02:18:27UTCCOMMENT
STATION INFORMATION EFFECTIVE FROM: 2001/01/13 18:20:00     COMMENT
                                TO: CURRENT DATE (above)    COMMENT
BIT 2 OF LLI FLAGS (+4) DATA COLLECTED UNDER 'AS' CONDITION COMMENT
L1 PHASE CENTRE 0.110m ABOVE ARP                            COMMENT
L2 PHASE CENTRE 0.128m ABOVE ARP                            COMMENT
where ARP is the Antenna Reference Point for HI measurement COMMENT
CONTACT gps@pgc.nrcan.gc.ca FOR ADDITIONAL INFORMATION      COMMENT
    P1 =    P1  TurboRogue; =    Y1  Benchmark              COMMENT
    L1 = L1(CA)                                             COMMENT
    P2 =    P2  TurboRogue; =    Y2  Benchmark              COMMENT
    L2 = L2(P2) TurboRogue; = L2(Y2) Benchmark              COMMENT
 SNR is mapped to RINEX snr flag value [0-9]                COMMENT
  L1 & L2: min(max(int(snr_dBHz/6), 0), 9)                  COMMENT
 09  1  1  1  0  0.0000000  0 11G21G26G 9G15G 6G14G18G 3G28G22G19
  21731234.309    21731233.566    21731231.968   -20196391.384 5 -15737438.931 5
        34.600          31.800
  24911809.330    24911809.145    24911806.883     3153145.904     2457005.890 2
                        12.600
  22192387.912    22192387.019    22192386.421   -13858574.650 4 -10798884.374 5
        29.700          31.500
  23315173.458    23315173.559    23315172.558    -8001325.747 4  -6234787.517 4
        24.900          29.900
  22843655.925    22843655.215    22843654.830    -9544123.655 4  -7436976.233 4
        28.100          29.200
  23732758.492    23732757.599    23732757.443    -8127227.285 2  -6332902.163 3
        17.800          20.500
  20487409.978    20487409.128    20487407.164   -25326078.247 6 -19734595.232 8
        39.300          48.500
  22825023.723    22825022.847    22825022.927    -9060031.410 4  -7059761.043 4
        27.600          28.800
  25629995.713    25629994.505    25629994.421           -.7231          -.3481
                         3.000
  20733130.941    20733130.416    20733127.326   -23254485.096 6 -18120367.880 7
        41.800          45.800
  23046088.967    23046087.066    23046085.071   -10454924.639 5  -8146693.378 5
        30.400          31.000
 09  1  1  1  0 30.0000000  0 11G21G26G 9G15G 6G14G18G 3G28G22G19
  21747151.435    21747150.724    21747149.221   -20112745.267 5 -15672260.161 5
        34.100          31.500
  24935456.083    24935455.996    24935452.616     3277406.235     2553832.140 2
                        12.600
  22178664.235    22178663.550    22178663.117   -13930690.373 5 -10855078.425 5
        30.100          31.500
  23333346.658    23333346.570    23333345.540    -7905825.694 4  -6160371.899 4
        24.600          29.500
  22854483.098    22854482.439    22854482.054    -9487226.304 4  -7392640.649 4
        27.600          29.500
  23712199.461    23712199.495    23712199.036    -8235263.169 2  -6417085.943 3
        17.800          21.100
  20490831.034    20490830.150    20490828.808   -25308100.353 6 -19720586.478 8
        39.300          48.400
  22834937.928    22834937.042    22834936.811    -9007932.959 4  -7019164.854 4
        27.600          28.400
  25624076.116    25624074.365    25624073.182      -31106.544      -24238.563
         3.000           3.000
  20724931.884    20724931.402    20724928.327   -23297571.123 6 -18153941.405 7
        41.900          45.900
  23040484.790    23040482.987    23040481.320   -10484373.428 5  -8169640.485 5
        30.600          31.300
 09  1  1  1  1  0.0000000  0 11G21G26G 9G15G 6G14G18G 3G28G22G19
  21763140.942    21763140.115    21763138.396   -20028722.252 5 -15606787.694 5
        34.300          31.300
  24959116.198    24959114.653    24959111.696     3401735.015     2650711.694 2
                        12.600
  22165044.965    22165044.297    22165043.676   -14002259.682 4 -10910846.705 5
        29.700          31.100
  23351563.979    23351563.482    23351562.339    -7810094.727 4  -6085776.339 4
        24.900          29.200
  22865393.811    22865393.219    22865393.234    -9429887.606 4  -7347961.151 4
        27.100          29.200
  23691674.662    23691674.218    23691673.558    -8343124.872 2  -6501134.005 3
        17.800          20.500
  20494324.375    20494323.640    20494321.811   -25289741.463 6 -19706280.848 8
        39.300          48.200
  22844946.240    22844945.468    22844945.562    -8955338.427 4  -6978182.099 4
        27.400          28.100
  25618247.893    25618246.454    25618246.861      -61744.620      -48112.057
                         3.000
  20716798.864    20716798.407    20716795.333   -23340310.067 6 -18187244.473 7
        41.900          45.900
  23034988.846    23034987.203    23034985.293   -10513255.606 5  -8192146.067 5
        31.300          31.100
 09  1  1  1  1 30.0000000  0 11G21G26G 9G15G 6G14G18G 3G28G22G19
  21779202.598    21779201.860    21779200.155   -19944317.624 5 -15541017.874 5
        34.300          31.100
  24982790.200    24982787.347    24982784.326     3526136.525     2747647.911 2
                        12.600
  22151531.595    22151531.036    22151530.565   -14073272.768 4 -10966181.548 5
        29.900          31.300
  23369825.424    23369825.439    23369824.126    -7714128.059 4  -6010997.118 4
        25.300          28.800
  22876389.838    22876389.294    22876389.275    -9372103.104 4  -7302934.279 4
        27.100          29.200
  23671184.156    23671183.474    23671183.162    -8450804.024 3  -6585039.800 3
        18.600          21.600
  20497891.774    20497890.930    20497889.535   -25270995.878 6 -19691673.895 8
        39.300          48.300
  22855049.950    22855049.059    22855048.635    -8902243.310 4  -6936809.283 4
        26.800          27.600
  25612507.055    25612503.863    25612505.687      -91907.405      -71616.828 1
                         6.500
  20708733.389    20708732.840    20708729.788   -23382694.650 6 -18220271.417 7
        41.800          46.000
  23029602.234    23029600.443    23029598.229   -10541563.327 5  -8214204.029 5
        31.300          31.100
 09  1  1  1  2  0.0000000  0 10G21G26G 9G15G 6G14G18G 3G22G19
  21795338.140    21795337.298    21795335.495   -19859525.404 5 -15474946.029 5
        33.900          31.000
  25006474.755    25006475.255    25006469.449     3650615.618     2844644.581 1
                         9.000
  22138126.387    22138125.660    22138124.996   -14143719.220 5 -11021074.870 5
        30.200          31.000
  23388133.059    23388133.326    23388131.682    -7617920.610 4  -5936030.274 4
        25.300          28.600
  22887471.585    22887471.105    22887471.213    -9313867.430 4  -7257555.852 4
        26.200          29.200
  23650730.165    23650729.327    23650729.031    -8558291.196 2  -6668796.014 3
        17.800          22.100
  20501533.896    20501533.080    20501531.197   -25251855.971 6 -19676759.681 8
        39.400          48.400
  22865250.096    22865248.971    22865248.786    -8848642.582 4  -6895042.483 4
        26.800          27.600
  20700736.879    20700736.356    20700733.284   -23424716.706 6 -18253015.874 7
        41.900          46.000
  23024326.244    23024324.543    23024322.324   -10569288.412 5  -8235807.989 5
        31.000          31.500
 09  1  1  1  2 30.0000000  0 10G21G26G 9G15G 6G14G18G 3G22G19
  21811543.897    21811542.995    21811541.281   -19774363.084 5 -15408585.797 5
        33.600          30.800
  25030170.944    25030173.449    25030168.683     3775154.201     2941687.555 1
                         9.000
  22124826.125    22124825.562    22124824.643   -14213612.051 5 -11075536.812 5
        30.400          31.100
  23406482.774    23406483.365    23406481.640    -7521490.679 4  -5860890.054 4
        24.900          27.600
  22898636.210    22898635.498    22898635.427    -9255198.652 4  -7211839.931 4
        26.500          29.000
  23630309.978    23630309.456    23630309.074    -8665600.244 3  -6752413.406 3
        19.300          22.600
  20505248.079    20505247.224    20505245.831   -25232337.934 6 -19661550.818 8
        39.400          48.600
  22875542.611    22875541.883    22875541.585    -8794554.049 4  -6852895.577 4
        27.600          27.900
  20692806.452    20692805.981    20692802.805   -23466391.405 6 -18285489.665 7
        41.900          46.100
  23019158.114    23019156.417    23019154.724   -10596445.650 5  -8256969.458 5
        30.800          31.500
 09  1  1  1  3  0.0000000  0 10G21G26G 9G15G 6G14G18G 3G22G19
  21827820.777    21827819.877    21827818.059   -19688827.699 5 -15341934.860 5
        33.900          30.800
  25053883.408    25053883.738    25053882.966     3899754.549     3038778.730 1
                         9.000
  22111632.458    22111631.924    22111631.563   -14282943.487 5 -11129561.296 5
        30.100          32.100
  23424876.176    23424876.286    23424874.484    -7424835.642 4  -5785574.427 4
        24.600          27.400
  22909883.179    22909882.818    22909882.762    -9196094.061 4  -7165784.425 4
        25.900          29.200
  23609925.444    23609924.749    23609923.594    -8772724.111 3  -6835886.524 3
        19.900          22.100
  20509034.999    20509034.246    20509032.403   -25212437.089 6 -19646043.664 8
        39.500          48.600
  22885928.694    22885927.854    22885927.281    -8739975.437 4  -6810366.778 4
        27.600          27.600
  20684943.178    20684942.639    20684939.622   -23507712.978 6 -18317688.284 7
        41.900          46.300
  23014099.379    23014097.694    23014095.951   -10623029.210 5  -8277683.909 5
        30.800          31.100
 09  1  1  1  3 30.0000000  0 10G21G26G 9G15G 6G14G18G 3G22G19
  21844169.560    21844168.875    21844167.308   -19602913.149 5 -15274988.480 5
        33.800          30.800
  25077607.334    25077607.840    25077603.991     4024421.688     3135921.972 1
                         9.000
  22098548.491    22098547.792    22098547.164   -14351702.800 5 -11183139.962 5
        30.800          32.300
  23443313.769    23443313.041    23443311.599    -7327950.084 4  -5710079.182 4
        24.900          27.900
  22921214.149    22921213.626    22921213.920    -9136548.409 4  -7119385.224 4
        25.900          29.000
  23589577.503    23589576.956    23589575.407    -8879653.430 3  -6919208.060 3
        21.100          22.100
  20512896.350    20512895.487    20512894.122   -25192145.970 6 -19630232.398 8
        39.400          48.500
  22896408.447    22896407.875    22896407.868    -8684901.139 4  -6767451.744 4
        26.800          27.900
  20677148.793    20677148.251    20677145.185   -23548673.080 6 -18349605.243 7
        41.900          46.300
  23009151.609    23009149.921    23009147.633   -10649030.841 5  -8297944.908 5
        30.800          31.000
 09  1  1  1  4  0.0000000  0 11G21G26G 9G15G 6G14G18G 3G28G22G19
  21860591.573    21860590.798    21860589.143   -19516615.433 5 -15207743.537 5
        33.400          30.600
  25101343.360    25101343.857    25101342.239     4149158.900     3233119.776 1
                         9.000
  22085574.491    22085573.882    22085573.109   -14419881.221 5 -11236265.992 5
        30.800          32.300
  23461794.894    23461794.562    23461792.644    -7230830.592 4  -5634401.654 4
        25.300          27.900
  22932630.249    22932629.690    22932629.558    -9076558.239 4  -7072639.641 4
        26.800          28.400
  23569267.832    23569267.017    23569266.210    -8986380.733 3  -7002372.166 3
        21.100          23.000
  20516832.812    20516831.990    20516830.233   -25171459.461 6 -19614113.039 8
        39.400          48.500
  22906984.062    22906983.172    22906983.265    -8629327.813 4  -6724147.843 4
        26.500          27.900
  25585172.931    25585169.914    25585169.164           -.9711          -.2751
                         3.000
  20669424.220    20669423.720    20669420.726   -23589265.455 6 -18381235.663 7
        41.900          46.400
  23004315.782    23004314.150    23004312.118   -10674443.649 5  -8317747.090 5
        31.300          31.100
 09  1  1  1  4 30.0000000  0 10G21G 9G15G 6G14G18G 3G28G22G19
  21877082.105    21877081.287    21877079.668   -19429956.431 5 -15140217.061 4
        33.000          29.900
  22072707.583    22072706.994    22072706.435   -14487496.121 5 -11288952.912 5
        30.600          32.600
  23480315.757    23480315.730    23480314.000    -7133499.641 4  -5558559.342 4
        24.900          27.600
  22944126.593    22944126.259    22944125.656    -9016145.728 4  -7025564.966 4
        27.600          28.100
  23548992.717    23548992.185    23548991.571    -9092923.993 3  -7085392.851 3
        21.100          23.000
  20520840.794    20520839.983    20520838.447   -25150397.434 6 -19597701.068 8
        39.500          48.500
  22917649.886    22917649.093    22917648.910    -8573277.990 4  -6680472.654 4
        26.500          27.600
  25579982.753    25579979.690    25579980.073      -27286.048      -21261.363 1
         3.000           6.500
  20661765.991    20661765.487    20661762.438   -23629509.592 6 -18412594.726 7
        41.900          46.400
  22999588.055    22999586.348    22999584.443   -10699287.208 5  -8337105.707 5
        31.000          31.300
 09  1  1  1  5  0.0000000  0 10G21G 9G15G 6G14G18G 3G28G22G19
  21893642.229    21893641.433    21893639.844   -19342932.772 5 -15072406.431 4
        32.800          29.900
  22059949.729    22059949.162    22059948.407   -14554539.445 5 -11341194.440 5
        31.100          32.400
  23498877.849    23498877.847    23498876.471    -7035954.277 3  -5482549.954 4
        23.800          28.100
  22955703.367    22955702.795    22955702.260    -8955308.257 4  -6978159.155 4
        27.100          27.100
  23528755.200    23528754.211    23528753.148    -9199276.432 3  -7168264.855 3
        21.100          22.600
  20524921.064    20524920.261    20524918.483   -25128955.319 6 -19580992.925 8
        39.500          48.500
  22928406.885    22928406.100    22928406.079    -8516748.640 4  -6636423.788 4
        26.200          27.900
  25574882.939    25574882.810    25574881.546      -54092.515 1    -42149.608 2
         9.000          12.600
  20654175.195    20654174.671    20654171.554   -23669399.707 6 -18443677.927 7
        41.900          46.500
  22994970.143    22994968.439    22994966.463   -10723555.341 5  -8356015.931 5
        31.300          31.300
 09  1  1  1  5 30.0000000  0 10G21G 9G15G 6G14G18G 3G28G22G19
  21910275.006    21910274.138    21910272.433   -19255528.196 5 -15004298.988 4
        32.800          29.900
  22047304.622    22047304.033    22047303.301   -14620990.009 5 -11392974.088 5
        31.600          32.400
  23517483.982    23517483.924    23517482.589    -6938178.593 3  -5406361.115 4
        23.400          28.400
  22967364.754    22967363.999    22967363.466    -8894030.004 4  -6930409.862 4
        27.400          27.100
  23508556.777    23508556.300    23508554.991    -9305418.058 3  -7250972.593 3
        21.600          22.100
  20529077.090    20529076.295    20529074.692   -25107115.398 6 -19563974.805 8
        39.600          48.500
  22939258.725    22939257.770    22939257.577    -8459723.995 4  -6591989.002 4
        27.100          27.600
  25569871.557    25569871.096    25569872.313      -80400.953      -62649.905
                         3.000
  20646655.430    20646654.886    20646651.711   -23708916.696 6 -18474470.383 7
        41.900          46.500
  22990464.817    22990463.143    22990461.424   -10747229.015 5  -8374462.943 5
        30.800          31.300
 09  1  1  1  6  0.0000000  0 10G21G 9G15G 6G14G18G 3G28G22G19
  21926977.834    21926976.948    21926975.239   -19167754.175 5 -14935903.668 4
        32.700          29.900
  22034771.100    22034770.253    22034769.557   -14686855.095 5 -11444297.528 5
        31.500          32.600
  23536132.074    23536131.763    23536129.817    -6840184.860 4  -5330002.377 4
        24.200          27.600
  22979107.017    22979106.342    22979105.653    -8832323.018 4  -6882326.502 4
        27.100          26.800
  23488397.482    23488396.789    23488395.415    -9411356.622 3  -7333522.109 3
        21.600          21.100
  20533306.960    20533306.133    20533304.342   -25084887.672 6 -19546654.497 8
        39.700          48.500
  22950201.888    22950201.014    22950200.963    -8402216.547 4  -6547177.986 4
        26.800          27.600
  25564962.517    25564961.946    25564961.884     -106220.259 1    -82769.555 1
         6.500           6.500
  20639204.737    20639204.196    20639201.132   -23748070.013 6 -18504979.455 7
        41.800          46.600
  22986071.408    22986069.682    22986067.887   -10770317.613 5  -8392454.050 5
        30.400          31.300
 09  1  1  1  6 30.0000000  0 10G21G 9G15G 6G14G18G 3G28G22G19
  21943750.303    21943749.310    21943747.566   -19079614.880 5 -14867223.719 4
        32.700          29.700
  22022349.091    22022348.438    22022347.618   -14752133.671 5 -11495163.934 5
        31.800          33.100
  23554820.539    23554820.377    23554818.152    -6741977.575 4  -5253477.221 4
        25.300          26.800
  22990929.852    22990929.273    22990929.126    -8770191.885 4  -6833912.642 4
        26.800          27.100
  23468277.042    23468276.018    23468274.721    -9517092.628 3  -7415913.775 3
        22.100          21.600
  20537610.154    20537609.302    20537607.506   -25062274.622 6 -19529033.934 8
        39.700          48.400
  22961236.163    22961235.373    22961235.523    -8344230.635 4  -6501994.162 4
        26.500          28.400
  25560141.583    25560141.330    25560139.336     -131551.959     -102508.555 1
                         9.000
  20631823.010    20631822.502    20631819.533   -23786861.020 6 -18535206.206 7
        41.900          46.800
  22981789.002    22981787.101    22981785.149   -10792822.561 5  -8409990.379 5
        30.600          30.800
 09  1  1  1  7  0.0000000  0 10G21G 9G15G 6G14G18G 3G28G22G19
  21960590.216    21960589.279    21960587.271   -18991121.042 5 -14798267.495 4
        32.800          29.500
  22010037.368    22010036.619    22010035.925   -14816831.882 5 -11545578.109 5
        32.000          33.200
  23573547.385    23573546.774    23573545.275    -6643567.995 4  -5176794.425 4
        24.900          26.500
  23002831.585    23002830.942    23002830.859    -8707647.925 4  -6785177.101 4
        26.500          27.100
  23448192.464    23448192.034    23448190.778    -9622632.926 3  -7498152.953 3
        21.600          22.100
  20541984.817    20541983.979    20541982.290   -25039285.246 6 -19511120.136 8
        39.800          48.500
  22972359.320    22972358.688    22972358.433    -8285777.651 4  -6456446.379 4
        26.500          27.900
  25555410.554    25555408.840    25555407.424     -156403.822     -121873.630 1
         3.000           9.000
  20624508.871    20624508.347    20624505.124   -23825297.746 6 -18565156.898 7
        41.900          46.700
  22977616.196    22977614.341    22977611.996   -10814751.854 5  -8427078.142 5
        31.000          30.400
 09  1  1  1  7 30.0000000  0 10G21G 9G15G 6G14G18G 3G28G22G19
  21977498.720    21977497.801    21977495.915   -18902265.881 5 -14729029.722 4
        32.400          29.200
  21997837.851    21997837.312    21997836.855   -14880938.839 5 -11595531.576 5
        31.800          33.200
  23592313.841    23592313.315    23592312.009    -6544949.759 4  -5099949.045 4
        24.900          27.400
  23014813.262    23014812.904    23014811.987    -8644685.096 4  -6736115.168 4
        25.900          26.800
  23428147.767    23428147.103    23428146.599    -9727967.444 3  -7580231.774 3
        20.500          22.100
  20546432.486    20546431.762    20546430.134   -25015912.129 6 -19492907.314 8
        39.900          48.500
  22983572.816    22983571.713    22983571.661    -8226851.493 4  -6410529.890 4
        25.900          27.900
  25550777.994    25550776.413    25550775.003     -180766.277     -140857.404 1
         3.000          11.000
  20617263.645    20617263.101    20617259.884   -23863371.600 7 -18594824.831 7
        42.000          46.800
  22973554.201    22973552.427    22973550.395   -10836096.543 5  -8443710.364 5
        30.800          30.600
 09  1  1  1  8  0.0000000  0 10G21G 9G15G 6G14G18G 3G28G22G19
  21994475.248    21994474.471    21994472.788   -18813051.427 5 -14659511.984 4
        32.100          29.500
  21985751.993    21985751.335    21985750.797   -14944451.823 5 -11645022.198 5
        32.000          33.600
  23611119.200    23611118.878    23611117.611    -6446125.369 3  -5022943.042 4
        23.800          27.900
  23026874.070    23026873.162    23026873.183    -8581305.746 4  -6686728.679 4
        25.300          27.900
  23408142.938    23408142.008    23408141.737    -9833094.256 3  -7662148.743 3
        20.500          22.100
  20550953.376    20550952.530    20550950.867   -24992155.165 6 -19474395.395 8
        39.900          48.400
  22994875.043    22994874.104    22994874.639    -8167454.716 4  -6364246.684 4
        25.900          28.100
  25546232.073    25546231.585    25546230.717     -204638.557     -159459.077 2
                        12.600
  20610087.400    20610086.895    20610083.929   -23901081.968 6 -18624209.531 7
        41.900          47.000
  22969603.661    22969601.844    22969599.982   -10856856.097 5  -8459886.636 5
        30.600          30.600
 09  1  1  1  8 30.0000000  0 10G21G 9G15G 6G14G18G 3G28G22G19
  22011520.530    22011519.762    22011517.676   -18723479.433 5 -14589715.643 4
        32.100          29.000
  21973779.336    21973778.659    21973777.952   -15007367.874 5 -11694047.681 5
        32.000          33.100
  23629962.941    23629963.003    23629961.752    -6347096.954 4  -4945778.046 4
        24.200          27.400
  23039013.287    23039012.701    23039012.667    -8517512.172 4  -6637019.419 4
        25.300          28.100
  23388177.966    23388177.596    23388176.169    -9938011.589 3  -7743902.486 3
        22.100          22.100
  20555547.159    20555546.308    20555544.679   -24968014.581 6 -19455584.547 8
        40.000          48.300
  23006267.707    23006267.139    23006266.725    -8107589.826 4  -6317598.731 4
        26.500          28.600
  25541785.511    25541784.414    25541782.266     -228019.426     -177677.878 2
         3.000          15.100
  20602980.797    20602980.253    20602977.222   -23938427.809 6 -18653310.179 7
        41.900          47.000
  22965764.938    22965763.160    22965761.041   -10877029.781 5  -8475606.387 5
        30.200          31.000
 09  1  1  1  9  0.0000000  0 10G21G 9G15G 6G14G18G 3G28G22G19
  22028634.011    22028633.054    22028630.741   -18633549.704 5 -14519640.548 4
        32.300          28.800
  21961921.193    21961920.468    21961919.781   -15069682.158 5 -11742604.259 5
        31.600          33.100
  23648846.436    23648846.387    23648844.709    -6247865.011 3  -4868454.447 4
        23.800          26.800
  23051231.936    23051231.271    23051231.020    -8453304.872 4  -6586987.769 4
        26.500          28.400
  23368253.574    23368252.607    23368251.776   -10042715.622 3  -7825490.033 3
        21.600          23.000
  20560214.155    20560213.379    20560211.711   -24943489.204 6 -19436473.862 8
        39.900          48.300
  23017748.441    23017747.537    23017747.359    -8047257.361 4  -6270586.427 4
        26.500          27.600
  25537428.958    25537427.838    25537428.824     -250906.245     -195511.809 2
         3.000          16.100
  20595943.921    20595943.380    20595940.373   -23975406.581 6 -18682124.799 7
        41.900          47.100
  22962037.734    22962036.279    22962034.266   -10896615.152 5  -8490867.711 5
        30.600          31.300
 09  1  1  1  9 30.0000000  0 10G21G 9G15G 6G14G18G 3G28G22G19
  22045814.269    22045813.370    22045811.388   -18543265.634 5 -14449289.334 4
        32.100          28.600
  21950177.763    21950177.285    21950176.743   -15131393.673 5 -11790691.139 5
        32.000          33.600
  23667767.735    23667767.953    23667765.854    -6148432.907 3  -4790974.870 4
        23.800          27.100
  23063527.792    23063527.251    23063527.194    -8388687.679 4  -6536636.723 4
        25.900          28.100
  23348369.584    23348368.938    23348368.017   -10147205.681 3  -7906910.835 3
        21.600          23.400
  20564954.226    20564953.401    20564951.702   -24918580.366 6 -19417064.379 8
        40.000          48.200
  23029317.530    23029316.909    23029316.367    -7986461.404 4  -6223212.954 4
        26.500          27.600
  25533167.409    25533166.263    25533164.698     -273299.375     -212960.941 2
                        12.600
  20588976.847    20588976.325    20588973.279   -24012019.179 7 -18710654.088 7
        42.000          47.200
  22958422.516    22958420.966    22958419.191   -10915612.690 5  -8505670.987 5
        30.600          31.300
 09  1  1  1 10  0.0000000  0 10G21G 9G15G 6G14G18G 3G28G22G19
  22063061.391    22063060.542    22063059.025   -18452630.284 5 -14378664.405 4
        31.600          29.200
  21938549.690    21938549.166    21938548.541   -15192500.815 5 -11838307.081 5
        32.300          33.800
  23686727.135    23686726.952    23686724.815    -6048804.134 3  -4713342.058 4
        23.000          26.800
  23075901.105    23075900.834    23075900.740    -8323664.351 4  -6485969.206 4
        25.600          27.900
  23328526.850    23328526.104    23328525.249   -10251481.378 3  -7988164.623 3
        22.600          23.800
  20569766.831    20569766.038    20569764.285   -24893289.741 6 -19397357.394 8
        40.100          48.100
  23040974.100    23040973.321    23040973.444    -7925205.277 4  -6175480.914 4
        26.500          27.900
  25529001.154    25529000.081    25528998.759     -295199.350 1   -230025.854 2
         9.000          12.600
  20582079.496    20582078.964    20582075.717   -24048265.958 7 -18738898.327 7
        42.100          47.200
  22954919.123    22954917.354    22954915.791   -10934023.217 5  -8520016.857 5
        30.600          31.000
 09  1  1  1 10 30.0000000  0 10G21G 9G15G 6G14G18G 3G28G22G19
  22080374.243    22080373.477    22080372.004   -18361650.360 5 -14307770.989 4
        31.300          29.500
  21927035.802    21927035.400    21927034.641   -15253005.769 5 -11885453.787 5
        32.400          33.400
  23705722.182    23705721.534    23705719.390    -5948985.930 3  -4635561.647 4
        22.100          26.800
  23088350.887    23088350.300    23088349.973    -8258241.979 4  -6434990.739 4
        25.900          27.400
  23308724.194    23308723.172    23308722.524   -10355545.644 3  -8069253.637 4
        22.600          24.200
  20574651.217    20574650.352    20574648.582   -24867622.476 6 -19377356.928 8
        40.100          48.000
  23052716.937    23052715.944    23052716.388    -7863496.462 4  -6127396.127 4
        25.900          28.100
  25524926.068    25524925.369    25524922.392     -316609.765 1   -246709.294 1
         6.500           9.000
  20575250.512    20575249.978    20575246.894   -24084151.280 7 -18766860.910 7
        42.000          47.200
  22951526.565    22951525.079    22951522.852   -10951851.229 5  -8533908.824 5
        30.800          30.800
 09  1  1  1 11  0.0000000  0 10G21G 9G15G 6G14G18G 3G28G22G19
  22097753.672    22097752.773    22097751.372   -18270320.977 5 -14236605.253 4
        31.100          29.000
  21915638.441    21915637.832    21915637.484   -15312899.313 5 -11932124.067 5
        32.300          33.600
  23724754.027    23724753.417    23724751.025    -5848973.829 3  -4557630.155 4
        21.600          25.900
  23100876.474    23100876.053    23100876.243    -8192416.505 4  -6383698.176 4
        24.900          27.100
  23288962.943    23288962.055    23288961.521   -10459389.881 3  -8150171.203 4
        22.600          24.600
  20579608.287    20579607.464    20579605.771   -24841572.325 6 -19357058.109 7
        40.000          47.900
  23064546.736    23064546.005    23064545.796    -7801330.410 4  -6078955.060 4
        26.200          27.900
  25520944.448    25520944.123    25520944.519     -337523.171     -263005.402 1
                        11.000
  20568491.973    20568491.458    20568488.398   -24119667.688 7 -18794536.025 7
        42.100          47.300
  22948246.172    22948244.419    22948242.864   -10969089.416 5  -8547341.171 5
        30.200          31.100
 09  1  1  1 11 30.0000000  0 10G21G 9G15G 6G14G18G 3G28G22G19
  22115197.881    22115197.225    22115195.695   -18178650.496 5 -14165173.727 4
        31.000          28.800
  21904357.014    21904356.308    21904355.677   -15372185.079 5 -11978320.758 5
        32.600          33.600
  23743820.472    23743820.144    23743818.089    -5748776.692 3  -4479554.475 4
        21.100          24.900
  23113477.897    23113477.445    23113477.072    -8126196.770 4  -6332098.388 4
        24.900          26.500
  23269243.319    23269242.724    23269241.627   -10563018.775 3  -8230920.972 4
        23.000          24.600
  20584637.100    20584636.304    20584634.590   -24815145.904 6 -19336466.091 7
        40.100          47.900
  23076462.117    23076461.250    23076460.845    -7738716.272 4  -6030164.829 4
        26.500          27.600
  25517061.871    25517060.727    25517058.902     -357945.122 1   -278918.545 2
        11.000          12.600
  20561802.502    20561802.016    20561798.838   -24154820.956 7 -18821928.181 7
        42.100          47.300
  22945077.308    22945075.418    22945073.510   -10985743.504 5  -8560318.373 5
        30.200          31.100
 09  1  1  1 12  0.0000000  0 10G21G 9G15G 6G14G18G 3G28G22G19
  22132707.841    22132707.032    22132705.313   -18086636.976 5 -14093474.902 4
        31.300          28.600
  21893191.826    21893191.279    21893190.755   -15430856.413 5 -12024038.671 5
        32.600          33.600
  23762922.972    23762922.216    23762920.277    -5648392.431 3  -4401332.969 4
        20.500          24.600
  23126154.651    23126154.201    23126154.296    -8059581.261 4  -6280190.207 4
        24.900          27.100
  23249564.983    23249564.337    23249563.451   -10666426.719 3  -8311498.574 4
        22.600          24.200
  20589738.123    20589737.302    20589735.639   -24788339.968 6 -19315578.346 7
        40.200          47.900
  23088462.494    23088461.646    23088461.408    -7675653.051 4  -5981024.659 4
        25.900          27.100
  25513268.374    25513267.245    25513266.705     -377871.097 1   -294445.241 2
        11.000          12.600
  20555182.979    20555182.457    20555179.304   -24189606.920 7 -18849034.123 7
        42.100          47.400
  22942019.918    22942018.449    22942016.356   -11001809.196 5  -8572837.090 5
        31.000          31.100
 09  1  1  1 12 30.0000000  0 10G21G 9G15G 6G14G18G 3G28G22G19
  22150283.232    22150282.314    22150280.438   -17994278.203 5 -14021507.033 4
        31.100          28.100
  21882145.106    21882144.562    21882144.071   -15488907.035 5 -12069272.909 5
        32.300          33.600
  23782060.946    23782060.677    23782058.852    -5547819.411 3  -4322964.383 4
        21.600          24.600
  23138907.303    23138906.358    23138905.928    -7992568.468 4  -6227972.456 4
        24.200          26.500
  23229930.352    23229929.488    23229928.601   -10769607.581 3  -8391899.232 4
        22.600          24.600
  20594911.970    20594911.169    20594909.560   -24761150.714 6 -19294391.914 7
        40.100          47.800
  23100548.709    23100547.923    23100547.491    -7612139.341 4  -5931533.470 4
        26.200          26.500
  25509568.417    25509570.240    25509570.294     -397296.418 1   -309582.037 2
         6.500          12.600
  20548634.200    20548633.659    20548630.562   -24224021.001 7 -18875850.288 7
        42.100          47.500
  22939075.415    22939073.908    22939071.913   -11017282.027 5  -8584893.840 5
        31.100          31.100
 09  1  1  1 13  0.0000000  0 10G21G 9G15G 6G14G18G 3G28G22G19
  22167923.257    22167922.406    22167920.668   -17901578.263 5 -13949273.328 4
        30.800          28.100
  21871216.794    21871216.239    21871215.479   -15546336.669 5 -12114023.260 5
        32.600          33.500
  23801234.310    23801234.093    23801232.292    -5447061.929 3  -4244452.052 4
        21.600          24.900
  23151733.291    23151732.972    23151732.839    -7925163.102 4  -6175448.802 4
        24.600          27.400
  23210338.959    23210338.396    23210337.314   -10872561.864 3  -8472123.316 4
        23.400          24.900
  20600158.456    20600157.649    20600155.917   -24733580.556 6 -19272908.677 7
        40.200          47.600
  23112719.682    23112718.948    23112718.675    -7548179.790 4  -5881694.869 4
        25.900          27.100
  25505970.515    25505969.496    25505968.575     -416222.209 1   -324329.305 2
        11.000          13.900
  20542155.974    20542155.427    20542152.285   -24258064.499 7 -18902377.684 7
        42.100          47.600
  22936243.525    22936242.080    22936240.011   -11032163.835 5  -8596490.047 5
        31.600          31.000
 09  1  1  1 13 30.0000000  0 10G21G 9G15G 6G14G18G 3G28G22G19
  22185626.921    22185626.439    22185625.124   -17808541.900 5 -13876777.474 4
        30.200          28.600
  21860406.294    21860405.783    21860405.371   -15603145.297 5 -12158289.719 5
        32.600          33.800
  23820442.001    23820441.822    23820440.246    -5346125.089 3  -4165799.978 4
        22.100          25.300
  23164634.050    23164633.493    23164633.725    -7857370.226 3  -6122623.202 4
        23.800          27.900
  23190790.259    23190789.748    23190789.167   -10975290.224 3  -8552171.377 4
        23.800          25.600
  20605476.790    20605475.961    20605474.156   -24705632.891 6 -19251131.274 7
        40.200          47.400
  23124974.815    23124973.958    23124973.617    -7483779.268 4  -5831512.664 4
        25.600          27.400
  25502465.732    25502464.969    25502462.285     -434650.310 1   -338688.873 1
         6.500          11.000
  20535747.794    20535747.263    20535744.170   -24291739.447 7 -18928617.903 7
        42.100          47.700
  22933523.715    22933522.211    22933520.219   -11046456.845 5  -8607627.454 5
        31.600          31.000
 09  1  1  1 14  0.0000000  0 10G21G 9G15G 6G14G18G 3G28G22G19
  22203396.068    22203395.398    22203393.772   -17715166.385 5 -13804017.351 4
        30.400          28.100
  21849715.586    21849715.160    21849714.880   -15659325.683 5 -12202066.632 5
        32.800          34.300
  23839683.843    23839684.205    23839682.248    -5245006.570 3  -4087006.329 4
        22.100          25.600
  23177609.425    23177608.396    23177608.398    -7789188.017 4  -6069494.216 4
        24.600          27.900
  23171285.663    23171285.043    23171284.500   -11077786.980 3  -8632038.964 4
        23.400          25.300
  20610867.666    20610866.834    20610865.180   -24677303.384 6 -19229056.332 7
        40.200          47.400
  23137314.241    23137313.327    23137313.230    -7418936.024 4  -5780985.457 4
        25.300          27.600
  25499051.528    25499049.676    25499049.993     -452575.725     -352656.806 1
                         9.000
  20529410.763    20529410.255    20529407.145   -24325040.587 7 -18954566.836 7
        42.200          47.800
  22930917.005    22930915.256    22930913.283   -11060156.235 5  -8618302.304 5
        31.600          31.000
 09  1  1  1 14 30.0000000  0 10G21G 9G15G 6G14G18G 3G28G22G19
  22221229.792    22221228.968    22221227.514   -17621450.508 5 -13730992.015 4
        30.200          28.100
  21839145.474    21839144.923    21839144.260   -15714872.438 5 -12245349.803 5
        33.000          33.800
  23858960.925    23858961.061    23858959.141    -5143705.605 3  -4008070.511 4
        22.100          25.600
  23190657.657    23190657.219    23190657.273    -7720615.845 4  -6016061.360 4
        24.600          28.400
  23151826.336    23151825.557    23151825.258   -11180046.572 3  -8711721.739 4
        23.400          26.200
  20616331.797    20616330.950    20616329.292   -24648589.263 6 -19206681.692 7
        40.300          47.400
  23149737.343    23149736.353    23149736.892    -7353649.744 4  -5730113.050 4
        24.600          27.600
  25495739.013    25495737.076    25495735.635     -469994.403     -366229.759 2
                        12.600
  20523145.602    20523145.093    20523141.950   -24357964.279 7 -18980221.659 7
        42.200          47.800
  22928423.965    22928422.201    22928419.855   -11073258.583 5  -8628511.935 5
        32.100          30.600
 09  1  1  1 15  0.0000000  0 10G21G 9G15G 6G14G18G 3G28G22G19
  22239125.202    22239124.406    22239122.978   -17527408.317 4 -13657712.409 4
        29.900          27.600
  21828694.169    21828693.462    21828692.817   -15769794.872 5 -12288146.496 5
        32.800          33.800
  23878270.245    23878269.984    23878268.073    -5042235.816 3  -3929003.151 4
        21.100          25.600
  23203777.832    23203777.447    23203777.314    -7651668.021 4  -5962335.798 4
        24.200          27.600
  23132410.140    23132409.591    23132409.174   -11282079.260 4  -8791227.700 4
        24.600          26.200
  20621866.557    20621865.793    20621864.180   -24619503.088 6 -19184017.136 7
        40.300          47.300
  23162241.801    23162241.448    23162241.890    -7287934.873 4  -5678906.644 4
        24.200          27.100
  25492515.807    25492514.747    25492516.056     -486917.341     -379416.437 1
         3.000          11.000
  20516949.959    20516949.491    20516946.462   -24390522.068 7 -19005591.362 8
        42.200          48.000
  22926041.691    22926040.134    22926038.162   -11085775.248 5  -8638265.178 5
        32.100          30.600
 09  1  1  1 15 30.0000000  0  9G21G 9G15G 6G14G18G 3G22G19
  22257083.400    22257082.640    22257081.163   -17433037.329 4 -13584176.595 4
        29.500          27.400
  21818362.756    21818362.240    21818361.626   -15824086.445 5 -12330451.605 5
        33.200          34.300
  23897612.332    23897611.437    23897609.465    -4940595.490 3  -3849802.897 4
        20.500          24.900
  23216970.088    23216969.635    23216969.734    -7582342.720 3  -5908316.091 4
        23.400          27.900
  23113038.697    23113037.750    23113037.126   -11383878.887 4  -8870552.072 4
        24.600          25.900
  20627473.264    20627472.430    20627470.669   -24590040.393 6 -19161059.192 7
        40.300          47.100
  23174829.200    23174828.519    23174828.940    -7221789.557 4  -5627364.875 4
        24.200          27.400
  20510825.159    20510824.626    20510821.554   -24422708.706 7 -19030671.857 8
        42.300          48.100
  22923772.415    22923770.741    22923768.204   -11097701.530 5  -8647558.381 5
        32.000          30.200
 09  1  1  1 16  0.0000000  0 10G21G 9G15G 6G14G18G 3G28G22G19
  22275104.980    22275104.062    22275102.661   -17338333.685 4 -13510381.565 4
        29.200          27.100
  21808153.134    21808152.471    21808151.819   -15877738.801 5 -12372258.622 5
        33.400          34.000
  23916986.976    23916986.698    23916984.306    -4838780.611 3  -3770466.633 4
        21.100          24.600
  23230234.787    23230234.094    23230234.370    -7512636.869 3  -5853999.862 4
        23.000          27.600
  23093712.334    23093711.570    23093710.823   -11485437.815 4  -8949688.881 4
        24.600          25.600
  20633152.462    20633151.621    20633149.812   -24560195.987 6 -19137803.811 7
        40.400          47.000
  23187498.762    23187497.961    23187498.531    -7155210.699 3  -5575485.243 4
        23.400          27.100
  25486362.991    25486362.812    25486361.080     -519255.333     -404614.843
                         3.000
  20504771.984    20504771.518    20504768.413   -24454517.764 7 -19055458.135 8
        42.300          48.100
  22921616.507    22921614.634    22921612.320   -11109031.332 5  -8656386.786 5
        31.500          30.100
 09  1  1  1 16 30.0000000  0 10G21G 9G15G 6G14G18G 3G28G22G19
  22293187.153    22293186.220    22293184.898   -17243311.278 4 -13436338.161 4
        28.800          27.100
  21798063.252    21798062.582    21798061.778   -15930761.453 5 -12413574.964 5
        33.200          33.800
  23936392.428    23936392.162    23936389.663    -4736805.576 3  -3691005.564 4
        20.500          24.900
  23243568.796    23243568.310    23243568.500    -7442564.734 3  -5799398.202 4
        22.600          27.100
  23074429.834    23074429.098    23074428.364   -11586766.309 3  -9028646.125 4
        23.800          25.300
  20638902.094    20638901.198    20638899.452   -24529982.167 6 -19114260.572 7
        40.500          47.000
  23200248.627    23200247.686    23200247.652    -7088212.947 4  -5523279.222 4
        24.200          26.800
  25483430.166    25483428.573    25483428.794     -534675.201     -416630.386 1
         3.000           6.500
  20498788.661    20498788.156    20498785.060   -24485960.761 7 -19079959.168 8
        42.300          48.200
  22919571.498    22919570.003    22919567.862   -11119776.279 5  -8664759.471 5
        31.300          30.400
 09  1  1  1 17  0.0000000  0 10G21G 9G15G 6G14G18G 3G28G22G19
  22311330.307    22311329.618    22311327.912   -17147969.396 4 -13362045.811 4
        29.200          26.800
  21788094.161    21788093.506    21788092.804   -15983149.648 5 -12454396.931 5
        33.500          34.300
  23955827.642    23955827.679    23955825.641    -4634669.841 3  -3611419.284 4
        20.500          24.900
  23256973.207    23256972.697    23256972.648    -7372126.581 3  -5744511.347 4
        23.800          27.100
  23055192.911    23055191.906    23055190.794   -11687860.071 4  -9107420.475 4
        24.900          25.300
  20644722.207    20644721.320    20644719.639   -24499396.930 6 -19090427.920 7
        40.500          47.000
  23213077.499    23213076.841    23213076.661    -7020796.187 4  -5470746.683 4
        24.600          26.800
  25480590.601    25480589.540    25480587.747     -549596.055 1   -428257.130 1
         6.500           9.000
  20492875.573    20492875.088    20492871.951   -24517034.246 7 -19104172.270 8
        42.400          48.300
  22917638.720    22917637.100    22917634.885   -11129933.779 5  -8672674.407 5
        31.800          30.100
 09  1  1  1 17 30.0000000  0 10G21G 9G15G 6G14G18G 3G28G22G19
  22329536.576    22329535.776    22329534.133   -17052294.670 4 -13287494.091 4
        29.200          26.800
  21778249.183    21778248.516    21778248.015   -16034885.496 5 -12494710.563 5
        33.500          34.500
  23975295.692    23975296.277    23975294.895    -4532360.092 3  -3531697.389 4
        19.300          24.900
  23270449.322    23270448.689    23270448.517    -7301309.480 4  -5689329.189 4
        24.200          26.500
  23036003.407    23036002.665    23036001.654   -11788701.699 4  -9185998.350 4
        24.900          26.200
  20650615.891    20650615.065    20650613.306   -24468425.128 6 -19066294.046 7
        40.500          46.900
  23225988.647    23225987.854    23225987.812    -6952947.789 4  -5417877.828 4
        24.200          26.500
  25477847.244    25477849.452    25477847.603     -564001.907     -439482.458 2
         3.000          15.100
  20487035.747    20487035.245    20487032.182   -24547722.600 7 -19128085.273 8
        42.500          48.400
  22915820.479    22915818.895    22915816.390   -11139488.335 5  -8680119.522 4
        31.600          29.900
 09  1  1  1 18  0.0000000  0 10G21G 9G15G 6G14G18G 3G28G22G19
  22347804.298    22347803.510    22347802.097   -16956297.450 4 -13212691.081 4
        29.000          27.100
  21768527.243    21768526.554    21768525.854   -16085974.563 5 -12534520.218 5
        33.500          34.000
  23994795.832    23994796.341    23994795.188    -4429886.858 3  -3451848.134 4
        18.600          25.900
  23283995.228    23283994.848    23283994.671    -7230124.103 3  -5633860.077 4
        23.800          26.200
  23016860.422    23016859.844    23016858.718   -11889297.547 4  -9264384.700 4
        24.900          25.900
  20656581.562    20656580.733    20656578.985   -24437075.392 6 -19041865.682 7
        40.500          46.700
  23238979.757    23238979.056    23238979.142    -6884678.481 4  -5364680.965 4
        24.900          26.200
  25475204.612    25475202.942    25475203.393     -577900.525     -450312.567 2
                        12.600
  20481267.826    20481267.300    20481264.283   -24578033.499 7 -19151704.156 8
        42.500          48.500
  22914115.534    22914113.987    22914111.933   -11148447.623 5  -8687100.783 5
        31.300          30.400
 09  1  1  1 18 30.0000000  0 10G21G 9G15G 6G14G18G 3G28G22G19
  22366131.714    22366130.812    22366129.362   -16859987.281 4 -13137644.220 4
        28.800          27.400
  21758927.255    21758926.637    21758926.069   -16136422.363 5 -12573830.187 5
        33.600          34.100
  24014325.661    24014325.672    24014324.295    -4327259.999 3  -3371879.171 4
        19.300          25.600
  23297609.557    23297608.960    23297608.920    -7158580.995 4  -5578112.203 4
        24.200          26.200
  22997763.714    22997762.763    22997761.803   -11989653.920 4  -9342584.459 4
        25.600          25.900
  20662617.514    20662616.689    20662614.980   -24405356.159 6 -19017149.393 7
        40.500          46.700
  23252049.302    23252048.514    23252048.227    -6815998.830 4  -5311164.364 4
        24.900          25.600
  25472655.783    25472654.750    25472650.852     -591298.979     -460752.918 1
         3.000           6.500
  20475570.424    20475569.865    20475566.729   -24607973.884 7 -19175034.328 8
        42.500          48.600
  22912522.332    22912520.804    22912518.729   -11156819.453 5  -8693624.283 5
        31.300          30.400
 09  1  1  1 19  0.0000000  0 10G21G 9G15G 6G14G18G 3G28G22G19
  22384519.375    22384518.737    22384516.895   -16763358.993 4 -13062349.475 4
        28.800          26.800
  21749450.917    21749450.416    21749449.623   -16186220.046 5 -12612633.563 5
        33.600          34.000
  24033885.242    24033884.917    24033883.584    -4224474.599 2  -3291786.665 4
        17.800          25.300
  23311292.670    23311292.045    23311292.091    -7086675.686 3  -5522082.098 4
        23.800          26.800
  22978713.330    22978712.649    22978711.743   -12089761.930 4  -9420590.693 4
        25.300          25.600
  20668725.092    20668724.258    20668722.555   -24373260.437 6 -18992139.739 7
        40.500          46.600
  23265197.434    23265196.536    23265196.472    -6746904.759 3  -5257324.844 4
        23.800          25.300
  25470200.426    25470199.896    25470200.240     -604189.429     -470797.382
         3.000           3.000
  20469944.859    20469944.344    20469941.219   -24637536.071 7 -19198069.796 8
        42.600          48.600
  22911042.471    22911040.966    22911038.765   -11164596.317 5  -8699684.176 5
        31.600          30.200
 09  1  1  1 19 30.0000000  0 10G21G 9G15G 6G14G18G 3G28G22G19
  22402967.456    22402966.676    22402965.129   -16666412.828 4 -12986807.029 4
        28.800          25.900
  21740099.572    21740098.913    21740097.694   -16235363.169 5 -12650926.906 5
        33.900          33.600
  24053475.197    24053474.944    24053473.457    -4121530.889 3  -3211570.797 4
        18.600          24.600
  23325044.547    23325043.961    23325043.894    -7014408.607 3  -5465770.096 4
        23.400          26.200
  22959711.335    22959710.534    22959709.712   -12189617.721 4  -9498400.388 4
        24.900          25.900
  20674904.571    20674903.742    20674902.064   -24340787.019 6 -18966835.776 7
        40.500          46.500
  23278423.903    23278423.092    23278423.253    -6677397.042 3  -5203162.996 4
        23.800          24.900
  25467845.467    25467844.595    25467842.958     -616569.782     -480444.571
                         3.000
  20464391.721    20464391.259    20464388.158   -24666717.556 7 -19220808.614 8
        42.700          48.700
  22909676.016    22909674.334    22909672.369   -11171776.582 5  -8705279.193 5
        31.300          30.100
 09  1  1  1 20  0.0000000  0 10G21G 9G15G 6G14G18G 3G28G22G19
  22421475.652    22421474.601    22421473.420   -16569152.429 4 -12911019.728 4
        28.100          26.200
  21730872.386    21730871.815    21730871.199   -16283850.850 5 -12688709.505 5
        33.800          34.100
  24073094.296    24073094.391    24073092.887    -4018432.391 3  -3131234.313 4
        18.600          24.600
  23338864.823    23338864.068    23338863.856    -6941784.066 3  -5409179.548 4
        23.000          26.200
  22940757.404    22940756.514    22940755.817   -12289220.828 4  -9576013.183 4
        25.300          25.900
  20681155.614    20681154.763    20681153.041   -24307937.718 6 -18941238.918 7
        40.500          46.400
  23291729.512    23291728.582    23291728.014    -6607479.623 3  -5148681.893 3
        23.800          23.800
  25465588.615    25465588.161    25465585.196     -628441.046     -489694.903 1
         3.000           6.500
  20458911.003    20458910.517    20458907.325   -24695519.374 7 -19243251.589 8
        42.800          48.800
  22908423.320    22908421.634    22908419.339   -11178361.197 5  -8710410.051 5
        31.600          30.100
 09  1  1  1 20 30.0000000  0 10G 9G21G15G 6G14G18G 3G28G22G19
  21721770.727    21721770.116    21721769.438   -16331680.519 5 -12725979.370 5
        34.000          34.100
  22440043.103    22440042.358    22440040.858   -16471579.036 4 -12834988.537 4
        28.400          25.900
  24092742.879    24092742.369    24092740.556    -3915180.630 3  -3050778.409 4
        18.600          24.200
  23352751.960    23352751.272    23352752.066    -6868803.995 3  -5352311.971 4
        22.100          26.800
  22921851.617    22921851.191    22921850.404   -12388569.181 4  -9653427.468 4
        25.900          25.900
  20687478.200    20687477.428    20687475.646   -24274711.935 6 -18915348.693 7
        40.600          46.200
  23305111.356    23305110.552    23305110.481    -6537154.631 3  -5093883.194 3
        23.400          23.800
  25463424.849    25463423.652    25463424.152     -639801.772     -498547.440 1
         3.000           9.000
  20453502.682    20453502.182    20453499.026   -24723940.354 7 -19265397.805 8
        42.900          48.900
  22907283.853    22907282.257    22907279.680   -11184349.728 5  -8715076.438 5
        32.000          30.100
 09  1  1  1 21  0.0000000  0 10G 9G21G15G 6G14G18G 3G28G22G19
  21712793.088    21712792.354    21712791.667   -16378859.205 5 -12762741.980 5
        34.000          34.400
  22458668.177    22458667.431    22458666.040   -16373703.920 4 -12758722.232 4
        28.400          25.900
  24112417.500    24112416.716    24112415.237    -3811787.152 2  -2970212.071 3
        17.800          23.400
  23366705.031    23366703.943    23366704.895    -6795480.360 3  -5295176.689 4
        21.600          26.800
  22902993.615    22902993.069    22902992.099   -12487670.164 4  -9730649.002 4
        26.200          26.200
  20693870.600    20693869.779    20693867.962   -24241119.865 6 -18889173.051 7
        40.600          46.000
  23318569.376    23318568.452    23318568.412    -6466434.105 3  -5038776.291 4
        23.400          24.200
  25461356.533    25461356.175    25461358.640     -650660.991     -507009.133 1
         3.000          11.000
  20448165.230    20448164.694    20448161.519   -24751989.129 7 -19287253.991 8
        42.900          49.000
  22906255.978    22906254.198    22906252.022   -11189751.337 5  -8719285.478 5
        32.100          30.600
 09  1  1  1 21 30.0000000  0 10G 9G21G15G 6G14G18G 3G28G22G19
  21703941.400    21703940.718    21703940.117   -16425375.010 5 -12798988.047 5
        34.100          34.600
  22477352.492    22477351.507    22477349.996   -16275519.201 4 -12682214.679 4
        27.900          26.200
  24132120.966    24132120.342    24132118.692    -3708244.156 3  -2889529.241 3
        18.600          23.400
  23380724.989    23380724.179    23380724.560    -6721805.847 3  -5237768.001 4
        21.100          25.900
  22884184.972    22884184.218    22884183.403   -12586512.554 4  -9807669.042 4
        26.500          26.800
  20700334.507    20700333.624    20700331.845   -24207152.068 6 -18862704.637 7
        40.500          45.900
  23332103.591    23332102.401    23332102.146    -6395310.675 3  -4983355.451 4
        22.600          24.200
  25459389.435    25459388.985    25459389.765     -661008.104 1   -515071.881 1
         9.000           6.500
  20442900.408    20442899.945    20442896.838   -24779655.301 7 -19308812.045 8
        42.900          49.100
  22905341.612    22905340.152    22905337.891   -11194556.155 5  -8723029.486 5
        32.400          31.000
 09  1  1  1 22  0.0000000  0 10G 9G21G15G 6G14G18G 3G28G22G19
  21695216.160    21695215.549    21695214.712   -16471225.904 5 -12834716.008 5
        34.300          34.400
  22496094.971    22496093.869    22496092.433   -16177027.246 4 -12605467.738 4
        27.600          25.900
  24151852.104    24151852.249    24151849.949    -3604554.001 3  -2808731.728 3
        19.300          23.400
  23394810.744    23394810.141    23394810.220    -6647783.487 3  -5180088.233 4
        22.100          24.600
  22865424.970    22865424.411    22865423.788   -12685094.226 4  -9884485.909 4
        25.900          26.800
  20706869.747    20706868.960    20706867.111   -24172809.088 6 -18835943.874 7
        40.600          45.800
  23345713.906    23345713.014    23345712.443    -6323787.458 3  -4927623.079 3
        23.000          23.400
  25457518.137    25457517.199    25457516.169     -670842.862     -522735.493
         3.000           3.000
  20437708.724    20437708.219    20437704.995   -24806938.583 7 -19330071.745 8
        43.100          49.200
  22904540.843    22904539.223    22904536.938   -11198764.131 5  -8726308.427 5
        32.100          30.800
 09  1  1  1 22 30.0000000  0 10G 9G21G15G 6G14G18G 3G28G22G19
  21686617.135    21686616.406    21686615.822   -16516414.515 5 -12869927.907 5
        34.300          34.700
  22514894.434    22514893.401    22514891.734   -16078235.077 4 -12528486.866 4
        27.600          25.300
  24171609.915    24171609.356    24171608.043    -3500723.478 3  -2727824.831 3
        18.600          23.000
  23408961.656    23408960.992    23408961.097    -6573420.805 3  -5122143.302 4
        22.600          24.600
  22846714.503    22846713.707    22846713.189   -12783418.656 4  -9961102.331 4
        26.200          27.100
  20713475.358    20713474.540    20713472.724   -24138096.283 6 -18808894.933 7
        40.600          45.700
  23359399.397    23359398.329    23359397.934    -6251872.459 3  -4871585.429 4
        23.400          24.200
  25455740.798    25455741.264    25455741.734     -680170.188     -530003.593
         3.000           3.000
  20432588.886    20432588.376    20432585.163   -24833843.279 7 -19351036.442 8
        43.100          49.200
  22903852.818    22903850.934    22903848.879   -11202380.675 5  -8729126.517 5
        31.800          30.600
 09  1  1  1 23  0.0000000  0 10G 9G21G15G 6G14G18G 3G28G22G19
  21678144.064    21678143.360    21678142.639   -16560941.374 5 -12904624.152 5
        34.400          34.700
  22533750.057    22533749.268    22533747.340   -15979147.180 4 -12451275.534 4
        27.600          24.900
  24191394.117    24191393.381    24191392.175    -3396757.288 3  -2646812.228 3
        18.600          22.600
  23423176.067    23423175.643    23423175.491    -6498722.933 3  -5063937.167 4
        23.000          24.600
  22828052.895    22828052.232    22828051.428   -12881486.518 4 -10037518.834 4
        26.500          27.600
  20720150.711    20720149.908    20720148.187   -24103016.684 6 -18781560.178 7
        40.500          45.700
  23373157.431    23373156.491    23373156.573    -6179570.669 3  -4815246.376 4
        22.600          24.600
  25454064.486    25454064.064    25454064.332     -688992.378 1   -536877.910 1
         6.500           9.000
  20427540.763    20427540.229    20427537.097   -24860371.084 7 -19371707.458 8
        43.100          49.300
  22903276.312    22903274.612    22903272.673   -11205407.920 5  -8731485.401 5
        31.600          30.600
 09  1  1  1 23 30.0000000  0 10G 9G21G15G 6G14G18G 3G28G22G19
  21669799.158    21669798.574    21669797.809   -16604792.478 5 -12938793.844 5
        34.300          34.400
  22552663.491    22552663.218    22552661.636   -15879753.525 4 -12373825.956 4
        27.400          25.300
  24211205.834    24211205.623    24211203.984    -3292645.389 2  -2565686.080 3
        17.800          22.600
  23437456.339    23437455.823    23437455.717    -6423680.503 3  -5005462.556 4
        21.600          24.200
  22809442.918    22809442.036    22809441.093   -12979284.000 4 -10113724.639 4
        26.500          27.900
  20726898.256    20726897.403    20726895.635   -24067558.676 6 -18753930.559 7
        40.600          45.600
  23386991.243    23386990.442    23386990.442    -6106873.088 3  -4758598.928 4
        22.600          24.200
  25452483.960    25452483.364    25452482.670     -697296.274 1   -543348.513 1
         6.500           9.000
  20422566.843    20422566.305    20422563.062   -24886509.632 7 -19392075.156 8
        43.100          49.400
  22902814.639    22902813.007    22902810.976   -11207833.960 5  -8733375.814 5
        31.600          30.800
 09  1  1  1 24  0.0000000  0 10G 9G21G15G 6G14G18G 3G28G22G19
  21661582.120    21661581.384    21661580.802   -16647974.564 5 -12972442.215 5
        34.500          34.800
  22571633.747    22571633.078    22571631.804   -15780064.867 4 -12296146.507 4
        26.800          25.300
  24231043.429    24231043.271    24231041.357    -3188398.769 2  -2484454.965 3
        17.800          22.100
  23451799.452    23451799.138    23451799.285    -6348304.686 3  -4946728.160 3
        22.100          23.000
  22790882.722    22790881.933    22790880.915   -13076818.160 4 -10189725.268 4
        27.100          27.400
  20733715.899    20733715.108    20733713.355   -24031731.149 6 -18726013.006 7
        40.500          45.400
  23400898.362    23400897.759    23400897.812    -6033790.667 3  -4701651.598 4
        23.000          24.600
  25451000.346    25451000.839    25450998.400     -705090.176     -549421.640 1
         3.000           6.500
  20417665.340    20417664.830    20417661.653   -24912266.955 7 -19412145.793 8
        43.200          49.500
  22902465.989    22902463.978    22902462.145   -11209667.629 5  -8734804.645 5
        31.600          30.800
 09  1  1  1 24 30.0000000  0 10G 9G21G15G 6G14G18G 3G28G22G19
  21653492.249    21653491.441    21653490.820   -16690486.797 5 -13005568.625 5
        34.100          34.600
  22590659.620    22590658.875    22590657.638   -15680084.260 4 -12218239.573 4
        26.800          25.300
  24250905.857    24250905.568    24250903.929    -3084020.548 2  -2403121.292 3
        17.000          21.600
  23466206.314    23466205.850    23466205.476    -6272599.537 3  -4887737.123 3
        22.600          23.000
  22772372.713    22772372.053    22772370.867   -13174088.420 4 -10265520.265 4
        27.600          27.900
  20740603.627    20740602.834    20740601.050   -23995535.820 6 -18697808.853 7
        40.500          45.300
  23414877.670    23414876.830    23414877.082    -5960327.582 3  -4644407.645 4
        22.600          24.900
  25449612.520    25449613.489    25449610.068     -712375.408     -555098.365 1
                         6.500
  20412836.234    20412835.751    20412832.590   -24937643.773 7 -19431919.937 8
        43.300          49.600
  22902229.240    22902227.627    22902225.704   -11210910.243 5  -8735772.918 5
        32.000          31.300
 09  1  1  1 25  0.0000000  0 10G 9G21G15G 6G14G18G 3G28G22G19
  21645530.525    21645529.898    21645529.342   -16732325.232 5 -13038169.994 5
        34.500          34.800
  22609741.027    22609740.307    22609738.798   -15579811.769 4 -12140105.196 4
        27.100          24.600
  24270793.383    24270793.181    24270791.685    -2979510.742 2  -2321685.096 3
        17.000          22.600
  23480675.078    23480674.384    23480674.119    -6196565.734 3  -4828490.021 3
        21.600          22.600
  22753913.738    22753912.983    22753911.960   -13271090.818 4 -10341106.537 4
        27.600          27.900
  20747561.767    20747560.903    20747559.061   -23958971.275 6 -18669316.999 7
        40.500          45.200
  23428929.919    23428929.070    23428929.083    -5886484.680 3  -4586867.728 4
        22.600          24.900
  25448323.734    25448323.772    25448324.986     -719149.453     -560376.804 1
         3.000           9.000
  20408080.191    20408079.661    20408076.405   -24962637.451 7 -19451395.528 8
        43.400          49.600
  22902105.735    22902104.177    22902102.154   -11211559.965 5  -8736279.203 5
        31.800          31.500
 09  1  1  1 25 30.0000000  0 10G 9G21G15G 6G14G18G 3G28G22G19
  21637697.591    21637696.879    21637696.243   -16773488.678 5 -13070245.399 5
        34.600          34.900
  22628876.955    22628876.336    22628874.980   -15479250.935 4 -12061746.123 4
        26.800          24.600
  24290705.483    24290705.109    24290703.262    -2874872.377 2  -2240148.714 3
        16.100          21.600
  23495205.389    23495204.990    23495204.479    -6120207.092 3  -4768989.780 3
        21.600          23.000
  22735505.599    22735504.969    22735504.260   -13367824.993 4 -10416483.788 4
        27.600          28.400
  20754589.493    20754588.742    20754587.045   -23922039.138 6 -18640538.710 7
        40.500          45.100
  23443053.484    23443052.821    23443052.393    -5812265.886 3  -4529034.931 4
        22.600          24.900
  25447130.869    25447130.899    25447128.620     -725413.032 1   -565257.437 1
         6.500           9.000
  20403396.857    20403396.354    20403393.117   -24987248.527 7 -19470572.990 8
        43.400          49.700
  22902094.607    22902093.134    22902091.215   -11211617.816 5  -8736324.276 5
        31.800          32.000
 09  1  1  1 26  0.0000000  0 10G 9G21G15G 6G14G18G 3G28G22G19
  21629993.442    21629992.739    21629992.083   -16813973.922 5 -13101792.336 5
        34.900          34.900
  22648068.188    22648067.345    22648065.935   -15378402.270 4 -11983162.763 4
        26.800          24.600
  24310641.838    24310641.678    24310639.568    -2770106.223 2  -2158512.777 3
        16.100          21.600
  23509797.753    23509797.032    23509796.681    -6043524.809 3  -4709237.368 3
        21.100          23.400
  22717149.206    22717148.591    22717147.871   -13464287.867 4 -10491649.633 4
        27.600          28.400
  20761687.749    20761686.887    20761685.093   -23884738.512 6 -18611473.286 7
        40.500          44.900
  23457248.053    23457247.105    23457246.968    -5737672.561 3  -4470910.275 3
        22.100          23.800
  25446039.330    25446038.882    25446038.480     -731164.700 1   -569739.192 2
        11.000          15.100
  20398786.590    20398786.087    20398782.986   -25011475.224 7 -19489450.936 8
        43.400          49.900
  22902196.488    22902194.997    22902193.131   -11211082.603 5  -8735907.229 5
        32.300          31.600
 09  1  1  1 26 30.0000000  0 10G 9G21G15G 6G14G18G 3G28G22G19
  21622417.811    21622417.135    21622416.322   -16853783.951 5 -13132813.128 5
        34.900          34.800
  22667312.730    22667311.864    22667310.335   -15277272.438 4 -11904360.322 4
        26.500          24.900
  24330601.630    24330601.338    24330599.296    -2665218.762 2  -2076782.306 3
        17.000          22.100
  23524450.004    23524449.434    23524449.668    -5966526.336 3  -4649238.572 4
        20.500          24.200
  22698844.354    22698843.617    22698842.752   -13560482.300 4 -10566606.306 4
        27.900          28.800
  20768854.985    20768854.151    20768852.347   -23847074.258 6 -18582124.517 7
        40.500          44.900
  23471512.490    23471511.712    23471511.500    -5662712.855 3  -4412500.145 3
        22.100          23.800
  25445040.196    25445039.804    25445039.622     -736408.933 1   -573825.497 2
         6.500          12.600
  20394248.755    20394248.273    20394245.136   -25035321.556 7 -19508032.491 8
        43.400          49.900
  22902410.316    22902408.600    22902406.295   -11209959.373 5  -8735031.979 5
        32.000          30.600
 09  1  1  1 27  0.0000000  0 10G 9G21G15G 6G14G18G 3G28G22G19
  21614972.563    21614972.013    21614971.299   -16892908.526 5 -13163299.803 5
        34.800          34.900
  22686611.542    22686610.841    22686609.763   -15175855.144 4 -11825333.891 4
        25.900          24.900
  24350584.727    24350585.182    24350582.945    -2560204.123 2  -1994952.750 3
        16.100          21.600
  23539163.447    23539162.906    23539163.540    -5889206.140 3  -4588989.098 4
        19.900          25.300
  22680592.300    22680591.411    22680590.329   -13656398.168 4 -10641345.925 4
        27.900          28.600
  20776092.896    20776092.134    20776090.379   -23809038.636 6 -18552486.367 7
        40.600          44.800
  23485846.795    23485846.194    23485846.401    -5587380.797 3  -4353799.829 3
        21.100          23.000
  25444140.527    25444141.281    25444139.841     -741136.896     -577509.594 1
         3.000           6.500
  20389785.084    20389784.552    20389781.438   -25058778.766 7 -19526310.836 8
        43.500          50.000
  22902737.607    22902735.874    22902733.733   -11208240.095 5  -8733692.278 5
        32.000          30.800
 09  1  1  1 27 30.0000000  0 10G 9G21G15G 6G14G18G 3G28G22G19
  21607658.452    21607657.890    21607657.097   -16931344.997 5 -13193250.296 5
        34.900          34.900
  22705965.364    22705964.385    22705962.847   -15074152.199 4 -11746084.867 4
        25.900          24.900
  24370593.334    24370593.099    24370590.628    -2455063.458 2  -1913024.964 3
        16.100          20.500
  23553938.031    23553937.240    23553937.828    -5811566.209 3  -4528490.457 4
        21.600          25.600
  22662393.424    22662392.541    22662391.406   -13752033.385 4 -10715866.846 4
        27.900          28.400
  20783401.547    20783400.749    20783399.026   -23770631.637 6 -18522558.834 7
        40.600          44.800
  23500253.504    23500252.640    23500252.447    -5511678.083 3  -4294810.724 3
        20.500          23.000
  25443341.300    25443340.056    25443338.114     -745347.871     -580790.891
         3.000           3.000
  20385395.663    20385395.124    20385391.861   -25081845.837 7 -19544285.175 8
        43.500          50.100
  22903178.348    22903176.604    22903174.556   -11205924.231 5  -8731887.718 5
        32.100          31.500
 09  1  1  1 28  0.0000000  0 10G 9G21G15G 6G14G18G 3G28G22G19
  21600474.103    21600473.437    21600472.831   -16969098.196 5 -13222668.368 5
        34.500          34.900
  22725371.595    22725370.694    22725369.122   -14972172.009 4 -11666619.805 4
        25.600          24.900
  24390623.620    24390623.152    24390621.481    -2349805.421 2  -1831005.735 3
        16.100          20.500
  23568771.169    23568770.698    23568771.006    -5733615.920 3  -4467749.984 4
        21.600          24.900
  22644247.233    22644246.595    22644245.332   -13847392.559 4 -10790172.687 4
        28.400          28.800
  20790779.479    20790778.623    20790776.906   -23731860.379 6 -18492347.467 7
        40.500          44.700
  23514727.624    23514726.891    23514726.771    -5435614.394 3  -4235540.317 3
        21.100          22.600
  25442635.716    25442635.076    25442635.812     -749047.932     -583674.158
         3.000           3.000
  20381079.190    20381078.639    20381075.467   -25104528.789 7 -19561960.202 8
        43.500          50.200
  22903731.191    22903729.408    22903727.361   -11203018.640 5  -8729623.616 5
        32.300          31.300
 09  1  1  1 28 30.0000000  0  9G 9G21G15G 6G14G18G28G22G19
  21593421.319    21593420.727    21593420.126   -17006160.795 5 -13251548.308 5
        34.800          35.100
  22744831.275    22744830.323    22744828.746   -14869910.937 4 -11586935.884 4
        25.300          24.900
  24410676.206    24410675.986    24410674.113    -2244426.196 2  -1748892.085 3
        16.100          19.900
  23583665.047    23583664.377    23583663.992    -5655352.098 3  -4406765.205 4
        21.600          24.600
  22626154.307    22626153.831    22626153.034   -13942468.275 4 -10864257.640 4
        28.400          29.000
  20798227.808    20798227.006    20798225.163   -23692719.253 6 -18461847.889 7
        40.500          44.500
  25442029.262    25442027.898    25442028.792     -752231.436     -586154.726

  20376837.084    20376836.528    20376833.377   -25126821.141 7 -19579330.867 8
        43.500          50.200
  22904397.470    22904395.748    22904393.334   -11199517.790 5  -8726895.684 5
        32.400          31.300
 09  1  1  1 29  0.0000000  0  9G 9G21G15G 6G14G18G 3G22G19
  21586500.329    21586499.592    21586498.697   -17042532.319 5 -13279889.747 5
        35.100          34.900
  22764343.805    22764342.755    22764341.229   -14767372.265 4 -11507035.641 4
        24.600          24.200
  24430751.602    24430751.342    24430748.866    -2138929.175 2  -1666686.629 3
        17.000          18.600
  23598616.713    23598615.872    23598616.070    -5576778.891 3  -4345539.332 4
        21.600          24.200
  22608116.154    22608115.419    22608114.695   -14037260.138 4 -10938121.419 4
        28.400          29.200
  20805746.030    20805745.219    20805743.481   -23653210.249 6 -18431061.652 7
        40.500          44.400
  23543883.814    23543882.958    23543882.617    -5282400.293 3  -4116152.721 3
        22.100          22.600
  20372669.169    20372668.622    20372665.458   -25148723.625 7 -19596397.734 8
        43.500          50.300
  22905176.626    22905174.988    22905172.887   -11195423.324 5  -8723705.197 5
        32.700          31.500
 09  1  1  1 29 30.0000000  0 10G 9G21G28G15G 6G14G18G 3G22G19
  21579710.231    21579709.571    21579708.869   -17078213.235 5 -13307693.050 5
        34.800          34.900
  22783907.644    22783906.614    22783905.545   -14664560.519 3 -11426922.626 3
        23.800          23.400
  25441112.287    25441111.312    25441110.227           -.1031           .43011
         3.000           6.500
  24450848.614    24450848.570    24450845.589    -2033318.528 2  -1584392.616 2
        17.800          17.800
  23613626.693    23613625.873    23613626.176    -5497901.294 3  -4284076.288 3
        20.500          23.400
  22590131.902    22590131.206    22590130.288   -14131769.038 4 -11011764.702 4
        28.800          29.200
  20813333.886    20813333.063    20813331.222   -23613336.280 6 -18399991.026 7
        40.500          44.200
  23558562.844    23558561.892    23558562.035    -5205259.248 3  -4056042.813 3
        22.100          22.600
  20368574.976    20368574.432    20368571.362   -25170238.259 7 -19613162.383 8
        43.500          50.400
  22906068.195    22906066.467    22906064.287   -11190737.853 5  -8720054.183 5
        32.400          31.300
 09  1  1  1 30  0.0000000  0 10G 9G21G28G15G 6G14G18G 3G22G19
  21573051.994    21573051.388    21573050.650   -17113201.929 5 -13334956.968 5
        34.800          34.800
  22803523.580    22803522.739    22803521.277   -14561477.675 4 -11346598.371 3
        24.200          22.600
  25440799.210    25440797.837    25440797.548       -1641.326 1     -1278.406 1
         6.500          11.000
  24470966.381    24470966.847    24470964.106    -1927596.235 2  -1502011.631 3
        15.100          18.600
  23628693.753    23628692.998    23628693.280    -5418721.982 3  -4222378.117 3
        19.300          22.100
  22572201.743    22572200.834    22572200.163   -14225992.861 4 -11085185.855 4
        28.800          29.200
  20820991.084    20820990.170    20820988.328   -23573097.599 6 -18368636.210 7
        40.500          44.100
  23573309.701    23573308.804    23573308.328    -5127766.488 3  -3995658.858 3
        23.400          23.000
  20364554.967    20364554.440    20364551.241   -25191364.276 7 -19629624.215 8
        43.600          50.500
  22907072.100    22907070.404    22907068.353   -11185461.632 5  -8715942.850 5
        32.000          31.100
 09  1  1  1 30 30.0000000  0 10G 9G21G28G15G 6G14G18G 3G22G19
  21566526.052    21566525.473    21566524.927   -17147496.499 5 -13361680.006 5
        35.200          35.200
  22823190.994    22823190.270    22823188.252   -14458126.012 4 -11266064.628 3
        24.900          22.600
  25440585.973    25440584.727    25440582.954       -2768.864 1     -2156.986 1
         9.000           9.000
  24491105.836    24491105.547    24491102.848    -1821764.395 2  -1419545.320 3
        13.900          18.600
  23643817.644    23643817.373    23643817.439    -5339243.716 3  -4160447.009 3
        19.300          21.100
  22554326.399    22554325.658    22554324.452   -14319930.061 4 -11158383.664 4
        29.700          29.200
  20828717.514    20828716.682    20828714.917   -23532494.622 6 -18336997.528 7
        40.500          44.100
  23588121.632    23588121.141    23588120.945    -5049924.763 3  -3935002.983 3
        23.000          23.400
  20360608.747    20360608.217    20360605.106   -25212101.271 7 -19645782.910 8
        43.500          50.600
  22908188.146    22908186.693    22908184.445   -11179595.220 5  -8711371.623 5
        31.600          30.400
 09  1  1  1 31  0.0000000  0 10G 9G21G28G15G 6G14G18G 3G22G19
  21560132.590    21560132.121    21560131.345   -17181093.437 5 -13387859.430 5
        35.100          34.900
  22842909.307    22842908.580    22842906.697   -14354505.796 4 -11185321.623 3
        24.900          23.000
  25440469.508    25440468.823    25440467.575       -3380.530 1     -2633.640
         6.500           3.000
  24511265.139    24511265.563    24511263.215    -1715822.780 2  -1336993.443 3
        13.900          19.300
  23658998.975    23658998.541    23658997.995    -5259467.146 3  -4098283.463 3
        19.300          21.100
  22536505.736    22536505.026    22536503.986   -14413577.038 4 -11231355.325 4
        29.700          29.200
  20836513.734    20836512.908    20836510.963   -23491525.887 6 -18305073.839 7
        40.600          43.900
  23603000.923    23603000.048    23603000.123    -4971734.934 3  -3874075.863 3
        23.000          23.400
  20356737.078    20356736.578    20356733.500   -25232446.694 7 -19661636.485 8
        43.500          50.600
  22909417.333    22909416.033    22909413.276   -11173136.768 5  -8706339.068 4
        31.800          29.900
 09  1  1  1 31 30.0000000  0 10G 9G21G28G15G 6G14G18G 3G22G19
  21553872.398    21553871.716    21553871.023   -17213991.369 5 -13413494.172 5
        34.900          34.700
  22862678.823    22862677.675    22862676.068   -14250618.831 4 -11104370.781 3
        24.200          23.400
  25440449.818    25440449.371    25440450.346       -3476.614       -2708.454 1
         3.000           6.500
  24531445.207    24531446.519    24531443.411    -1609773.382 2  -1254357.578 3
        13.900          19.300
  23674235.708    23674235.443    23674235.669    -5179395.327 3  -4035889.843 3
        19.300          22.100
  22518740.699    22518739.946    22518739.031   -14506932.317 4 -11304099.691 4
        29.500          29.500
  20844379.156    20844378.295    20844376.410   -23450192.360 6 -18272865.896 7
        40.600          43.700
  23617945.962    23617945.014    23617945.159    -4893200.495 3  -3812880.189 3
        22.600          23.800
  20352940.069    20352939.519    20352936.450   -25252400.287 7 -19677184.738 8
        43.500          50.700
  22910758.773    22910757.045    22910754.957   -11166087.200 5  -8700845.898 5
        31.600          30.400
 09  1  1  1 32  0.0000000  0 10G 9G21G28G15G 6G14G18G 3G22G19
  21547744.662    21547744.067    21547743.298   -17246193.240 5 -13438586.535 5
        35.200          34.900
  22882496.920    22882496.112    22882494.877   -14146471.704 3 -11023217.218 3
        23.800          23.400
  25440528.648    25440527.940    25440526.904       -3061.118       -2384.639 1
                         6.500
  24551645.846    24551645.922    24551643.640    -1503622.551 2  -1171642.675 3
        13.900          19.300
  23689528.326    23689527.571    23689527.281    -5099035.193 3  -3973271.583 3
        19.900          22.100
  22501030.490    22501029.766    22501029.082   -14599998.514 4 -11376618.789 4
        29.200          29.500
  20852313.077    20852312.365    20852310.553   -23408498.489 6 -18240377.161 7
        40.600          43.700
  23632954.970    23632953.880    23632953.804    -4814328.273 3  -3751421.338 3
        21.600          23.400
  20349216.890    20349216.420    20349213.239   -25271965.648 7 -19692430.472 8
        43.600          50.700
  22912211.953    22912210.326    22912208.412   -11158450.886 5  -8694895.530 5
        31.600          31.100
 09  1  1  1 32 30.0000000  0 10G 9G21G28G15G 6G14G18G 3G22G19
  21541749.523    21541748.790    21541748.163   -17277698.532 5 -13463136.111 5
        35.300          35.300
  22902364.125    22902363.467    22902362.012   -14042068.151 3 -10941863.834 3
        23.800          23.000
  25440702.880    25440705.151    25440701.940       -2135.664       -1663.823
                         3.000
  24571865.680    24571865.296    24571862.235    -1397373.662 2  -1088851.367 3
        13.900          19.900
  23704874.633    23704873.928    23704873.221    -5018391.095 3  -3910432.035 3
        20.500          22.100
  22483375.734    22483375.112    22483374.269   -14692775.318 4 -11448912.387 4
        29.700          29.700
  20860315.393    20860314.586    20860312.787   -23366446.417 6 -18207609.314 7
        40.500          43.600
  23648026.785    23648026.279    23648026.212    -4735122.429 3  -3689702.499 3
        21.100          23.800
  20345567.348    20345566.831    20345563.751   -25291144.027 7 -19707374.662 8
        43.600          50.700
  22913776.548    22913774.995    22913772.570   -11150229.922 5  -8688489.588 5
        32.000          31.000
 09  1  1  1 33  0.0000000  0 10G 9G21G28G15G 6G14G18G 3G22G19
  21535887.803    21535887.240    21535886.493   -17308500.708 5 -13487137.800 5
        35.100          35.100
  22922281.133    22922280.116    22922279.123   -13937405.006 3 -10860308.166 3
        23.800          23.800
  25440981.542    25440981.178    25440979.345        -695.338 1      -542.139 1
         6.500           6.500
  24592103.470    24592103.072    24592100.411    -1291023.644 2  -1005981.241 3
        13.900          21.100
  23720275.296    23720274.676    23720274.270    -4937460.618 3  -3847369.341 3
        22.100          23.000
  22465777.825    22465776.907    22465775.692   -14785255.833 4 -11520975.113 5
        29.900          30.100
  20868386.587    20868385.822    20868383.997   -23324031.691 6 -18174558.874 7
        40.500          43.500
  23663162.637    23663161.622    23663162.784    -4655581.122 3  -3627722.286 4
        18.600          24.200
  20341992.670    20341992.141    20341988.947   -25309929.602 7 -19722012.770 8
        43.700          50.700
  22915453.142    22915451.356    22915449.333   -11141419.854 5  -8681624.601 5
        32.000          31.100
 09  1  1  1 33 30.0000000  0 10G 9G21G28G15G 6G14G18G 3G22G19
  21530160.977    21530160.351    21530159.307   -17338597.129 5 -13510589.556 5
        35.600          34.900
  22942246.986    22942246.038    22942245.379   -13832483.230 3 -10778550.977 3
        23.400          23.400
  25441353.228    25441353.136    25441350.185        1261.481 1       982.561 1
         6.500           6.500
  24612360.604    24612359.871    24612357.443    -1184573.114 2   -923032.786 3
        15.100          22.600
  23735729.350    23735728.810    23735729.151    -4856245.411 3  -3784084.765 3
        21.600          23.400
  22448236.092    22448235.201    22448234.117   -14877437.365 4 -11592804.860 5
        29.700          30.100
  20876527.084    20876526.258    20876524.570   -23281253.156 6 -18141224.950 7
        40.500          43.400
  23678363.183    23678362.123    23678362.029    -4575706.233 3  -3565482.127 3
        19.900          23.000
  20338492.983    20338492.469    20338489.198   -25328320.708 7 -19736343.501 8
        43.700          50.700
  22917241.546    22917239.946    22917237.990   -11132019.727 5  -8674299.842 5
        31.100          31.100
 09  1  1  1 34  0.0000000  0 10G 9G21G28G15G 6G14G18G 3G22G19
  21524566.795    21524566.103    21524565.349   -17367994.337 5 -13533496.466 5
        35.500          35.200
  22962260.142    22962259.268    22962258.297   -13727313.008 3 -10696600.194 3
        23.800          23.000
  25441819.323    25441819.217    25441820.291        3726.645        2903.558 1
                         6.500
  24632634.512    24632634.171    24632631.779    -1078032.116 2   -840013.838 3
        15.100          23.400
  23751237.150    23751236.435    23751236.190    -4774756.145 3  -3720586.638 3
        21.100          23.800
  22430749.768    22430749.188    22430748.407   -14969326.470 5 -11664406.741 5
        30.200          30.600
  20884735.205    20884734.345    20884732.681   -23238119.483 6 -18107614.295 7
        40.500          43.400
  23693623.964    23693623.249    23693623.021    -4495508.332 3  -3502990.269 3
        18.600          22.100
  20335066.765    20335066.282    20335063.174   -25346324.834 7 -19750372.691 8
        43.700          50.800
  22919140.929    22919139.346    22919137.454   -11122038.123 5  -8666521.981 5
        30.800          31.100
 09  1  1  1 34 30.0000000  0 10G 9G21G28G15G 6G14G18G 3G22G19
  21519108.430    21519107.660    21519107.045   -17396678.018 5 -13555847.380 5
        35.400          35.300
  22982322.981    22982322.033    22982320.881   -13621883.502 3 -10614447.364 3
        23.400          22.600
  25442389.494    25442388.213    25442388.516        6712.937        5229.486 1
         3.000           9.000
  24652927.238    24652927.363    24652924.707     -971389.339 2   -756915.592 3
        15.100          23.800
  23766798.172    23766797.340    23766797.083    -4692982.587 3  -3656866.996 3
        20.500          23.800
  22413322.193    22413321.524    22413320.961   -15060908.244 5 -11735769.144 5
        30.100          30.400
  20893013.293    20893012.495    20893010.722   -23194618.018 6 -18073717.048 7
        40.600          43.300
  23708948.433    23708947.818    23708947.681    -4414977.382 3  -3440238.919 3
        18.600          22.100
  20331716.962    20331716.441    20331713.259   -25363928.449 7 -19764089.791 8
        43.700          50.800
  22921153.504    22921151.865    22921150.080   -11111462.736 5  -8658281.435 5
        31.100          31.500
 09  1  1  1 35  0.0000000  0 10G 9G21G28G15G 6G14G18G 3G22G19
  21513783.427    21513782.815    21513782.281   -17424660.198 5 -13577651.680 5
        35.400          35.300
  23002432.066    23002431.089    23002429.874   -13516210.569 3 -10532104.862 3
        23.000          22.100
  25443055.575    25443054.454    25443052.921       10206.877 1      7952.045 1
         9.000           9.000
  24673236.667    24673236.810    24673235.225     -864660.502 2   -673750.292 3
        15.100          23.800
  23782409.624    23782409.007    23782408.685    -4610941.250 3  -3592938.685 3
        18.600          23.400
  22395951.060    22395950.393    22395949.679   -15152194.977 5 -11806901.649 5
        30.200          30.400
  20901358.435    20901357.637    20901355.865   -23150763.686 6 -18039544.838 7
        40.600          43.100
  23724333.295    23724332.497    23724332.343    -4334129.794 3  -3377240.800 3
        19.300          21.600
  20328440.748    20328440.277    20328437.086   -25381145.033 7 -19777505.309 8
        43.800          50.900
  22923276.373    22923274.783    22923272.527   -11100307.779 5  -8649589.273 5
        31.800          31.000
 09  1  1  1 35 30.0000000  0 10G 9G21G28G15G 6G14G18G 3G22G19
  21508592.969    21508592.227    21508591.432   -17451937.337 5 -13598906.581 5
        35.500          35.100
  23022586.658    23022585.839    23022584.600   -13410293.988 3 -10449572.493 3
        22.100          21.100
  25443816.333    25443815.189    25443812.508       14210.750       11071.949 1
         3.000           9.000
  24693562.913    24693563.047    24693561.197     -757845.457 2   -590517.802 4
        16.100          24.200
  23798072.620    23798071.809    23798071.545    -4528632.445 2  -3528802.001 3
        17.800          23.400
  22378636.738    22378636.141    22378635.216   -15243182.372 5 -11877800.900 5
        30.400          30.800
  20909771.279    20909770.443    20909768.679   -23106554.238 6 -18005095.917 7
        40.600          43.000
  23739778.145    23739777.108    23739777.295    -4252966.550 3  -3313996.735 3
        19.900          22.600
  20325238.801    20325238.271    20325235.134   -25397971.398 7 -19790616.763 8
        43.800          50.900
  22925510.115    22925508.221    22925506.048   -11088571.380 5  -8640444.039 5
        31.800          31.500
 09  1  1  1 36  0.0000000  0 10G 9G21G28G15G 6G14G18G 3G22G19
  21503538.394    21503537.736    21503537.102   -17478498.709 5 -13619603.754 5
        35.600          35.100
  23042790.025    23042789.204    23042787.694   -13304126.656 3 -10366844.751 3
        22.100          20.500
  25444676.818    25444675.142    25444675.886       18733.444       14596.106 1
                         9.000
  24713908.133    24713907.072    24713905.398     -650936.094 2   -507211.822 4
        16.100          24.900
  23813787.033    23813786.513    23813787.475    -4446049.820 3  -3464451.905 4
        18.600          24.200
  22361381.675    22361380.820    22361379.805   -15333859.676 5 -11948458.521 5
        30.800          30.800
  20918253.423    20918252.578    20918250.703   -23061980.648 6 -17970363.249 7
        40.600          42.800
  23755283.564    23755282.966    23755283.988    -4171481.176 3  -3250501.620 3
        19.900          23.400
  20322112.926    20322112.396    20322109.219   -25414398.126 7 -19803416.809 8
        43.800          50.900
  22927855.708    22927854.000    22927852.095   -11076245.184 5  -8630839.228 5
        32.300          32.100
 09  1  1  1 36 30.0000000  0 10G 9G21G28G15G 6G14G18G 3G22G19
  21498620.721    21498620.113    21498619.333   -17504341.310 5 -13639740.847 5
        35.400          35.100
  23063040.281    23063039.282    23063038.538   -13197709.220 3 -10283922.096 3
        22.100          19.900
  25445637.916    25445636.264    25445634.726       23776.649       18525.921

  24734269.614    24734269.862    24734266.976     -543933.021 2   -423832.820 4
        16.100          24.200
  23829553.687    23829553.022    23829554.148    -4363194.319 2  -3399889.189 4
        17.000          24.600
  22344185.990    22344185.198    22344184.267   -15424223.561 5 -12018871.925 5
        31.000          31.000
  20926804.911    20926804.157    20926802.165   -23017041.756 6 -17935345.929 7
        40.600          42.600
  23770852.446    23770851.378    23770850.909    -4089674.402 3  -3186756.102 3
        21.100          23.000
  20319063.471    20319062.975    20319059.813   -25430422.835 7 -19815903.595 8
        43.800          51.000
  22930313.409    22930311.627    22930309.910   -11063327.723 5  -8620773.692 5
        31.800          32.100
 09  1  1  1 37  0.0000000  0  9G 9G21G15G 6G14G18G 3G22G19
  21493837.204    21493836.598    21493835.838   -17529478.309 5 -13659328.112 5
        35.500          35.100
  23083335.525    23083334.757    23083333.590   -13091057.866 3 -10200817.179 3
        22.100          20.500
  24754645.989    24754646.232    24754643.758     -436852.655 2   -340393.563 4
        16.100          24.200
  23845369.489    23845368.779    23845369.324    -4280083.390 2  -3335127.431 3
        17.800          23.800
  22327047.545    22327046.678    22327045.554   -15514286.876 5 -12089051.115 5
        31.000          30.800
  20935422.960    20935422.131    20935420.373   -22971753.129 6 -17900056.088 7
        40.500          42.600
  23786477.779    23786476.478    23786475.864    -4007563.958 3  -3122773.940 3
        21.100          23.000
  20316087.915    20316087.406    20316084.321   -25446059.292 7 -19828087.848 8
        43.800          51.000
  22932881.148    22932879.555    22932877.614   -11049834.449 5  -8610259.461 5
        31.800          32.000
 09  1  1  1 37 30.0000000  0  9G 9G21G15G 6G14G18G 3G22G19
  21489190.702    21489189.973    21489189.107   -17553897.258 5 -13678355.866 5
        35.600          35.100
  23103676.412    23103675.669    23103675.052   -12984163.768 3 -10117523.115 3
        22.100          21.100
  24775039.575    24775040.516    24775036.226     -329685.047 2   -256886.339 3
        15.100          22.600
  23861235.977    23861234.862    23861235.393    -4196708.266 2  -3270159.800 3
        17.800          23.800
  22309968.453    22309967.686    22309966.568   -15604036.590 5 -12158985.940 5
        30.800          30.800
  20944109.744    20944108.983    20944107.252   -22926103.381 6 -17864484.859 7
        40.500          42.500
  23802161.317    23802160.554    23802160.594    -3925141.422 3  -3058548.598 3
        20.500          23.400
  20313188.507    20313187.925    20313184.804   -25461296.195 7 -19839960.755 8
        43.800          51.000
  22935560.527    22935558.711    22935557.118   -11035754.396 5  -8599287.991 5
        31.500          32.300
 09  1  1  1 38  0.0000000  0 10G 9G21G28G15G 6G14G18G 3G22G19
  21484679.908    21484679.273    21484678.878   -17577599.204 5 -13696824.913 5
        35.400          35.200
  23124062.750    23124062.342    23124061.594   -12877031.306 3 -10034043.307 3
        21.600          21.100
  25449097.031    25449097.449    25449099.921           -.6231           .19111
                        11.000
  24795449.959    24795449.843    24795446.082     -222434.551 2   -173314.538 3
        15.100          23.000
  23877150.716    23877149.925    23877150.184    -4113074.206 3  -3204990.417 3
        18.600          23.800
  22292949.105    22292948.415    22292947.635   -15693473.554 5 -12228677.069 5
        31.300          31.300
  20952864.881    20952864.085    20952862.200   -22880095.756 6 -17828634.760 7
        40.600          42.300
  23817904.268    23817903.298    23817903.597    -3842412.041 3  -2994084.145 4
        19.900          24.200
  20310364.640    20310364.127    20310360.956   -25476135.437 7 -19851523.797 8
        43.900          51.000
  22938350.571    22938349.104    22938347.372   -11021090.746 5  -8587861.779 5
        31.600          32.100
 09  1  1  1 38 30.0000000  0 10G 9G21G28G15G 6G14G18G 3G22G19
  21480305.236    21480304.571    21480303.841   -17600589.627 5 -13714739.525 5
        35.700          35.100
  23144493.898    23144493.461    23144492.019   -12769669.305 3  -9950384.640 3
        23.000          21.100
  25450449.439    25450448.277    25450445.307        7087.938 1      5523.667 1
         6.500           6.500
  24815873.787    24815873.510    24815869.593     -115110.048 2    -89685.081 3
        13.900          23.000
  23893113.432    23893112.896    23893112.575    -4029190.789 3  -3139626.722 3
        19.300          23.400
  22275988.502    22275987.687    22275986.737   -15782602.987 5 -12298128.554 5
        31.500          31.000
  20961686.562    20961685.804    20961683.891   -22833737.432 6 -17792511.387 7
        40.600          42.200
  23833703.837    23833702.687    23833703.090    -3759385.725 3  -2929388.339 4
        18.600          24.600
  20307615.329    20307614.864    20307611.643   -25490583.094 7 -19862781.714 8
        44.000          51.000
  22941251.111    22941249.351    22941247.386   -11005851.208 5  -8575986.838 5
        31.800          32.000
 09  1  1  1 39  0.0000000  0 10G 9G21G28G15G 6G14G18G 3G22G19
  21476067.190    21476066.489    21476065.626   -17622861.442 5 -13732094.184 5
        35.900          34.900
  23164968.907    23164968.178    23164967.004   -12662073.991 3  -9866544.164 3
        23.000          22.100
  25451894.418    25451894.087    25451892.930       14690.030 1     11447.360 1
         6.500           9.000
  24836311.197    24836310.961    24836307.707       -7707.356 1     -5994.698 3
        11.000          21.600
  23909123.547    23909122.911    23909122.967    -3945054.840 3  -3074066.254 3
        19.900          23.000
  22259087.933    22259087.230    22259085.899   -15871416.980 5 -12367334.259 5
        32.100          31.100
  20970575.971    20970575.200    20970573.339   -22787022.981 6 -17756110.515 7
        40.500          42.200
  23849560.653    23849559.863    23849559.746    -3676059.168 3  -2864458.565 3
        18.600          23.800
  20304941.739    20304941.240    20304938.060   -25504632.953 7 -19873729.655 8
        44.000          51.100
  22944261.297    22944259.788    22944258.035   -10990030.527 5  -8563659.036 5
        31.600          31.800
 09  1  1  1 39 30.0000000  0 10G 9G21G28G15G 6G14G18G 3G22G19
  21471965.610    21471964.853    21471964.200   -17644415.161 5 -13748889.283 5
        35.900          35.200
  23185487.741    23185486.768    23185485.417   -12554249.122 3  -9782524.827 3
        22.600          21.600
  25453437.765    25453436.220    25453436.413       22803.693       17769.727 1
                         9.000
  24856761.521    24856762.614    24856759.904       99770.519 1     77754.279 2
         9.000          17.800
  23925181.025    23925180.411    23925180.647    -3860670.679 3  -3008312.363 3
        18.600          23.000
  22242247.130    22242246.327    22242245.173   -15959915.822 5 -12436294.383 5
        31.600          31.300
  20979532.982    20979532.160    20979530.280   -22739954.350 6 -17719433.658 7
        40.500          42.200
  23865473.106    23865472.181    23865472.377    -3592436.890 2  -2799298.363 3
        17.000          23.400
  20302343.743    20302343.175    20302340.036   -25518285.873 7 -19884368.295 8
        44.000          51.200
  22947382.367    22947380.436    22947378.330   -10973630.967 5  -8550880.175 5
        31.100          31.100
 09  1  1  1 40  0.0000000  0  9G21G28G 9G 6G14G18G 3G22G19
  23206049.930    23206048.985    23206047.302   -12446193.914 3  -9698325.999 3
        21.100          20.500
  25455082.031    25455081.379    25455077.719       31431.737 1     24492.841 1
         6.500           6.500
  21468001.573    21468000.939    21468000.292   -17665246.513 6 -13765121.511 5
        36.200          35.400
  23941286.629    23941286.352    23941285.455    -3776038.138 2  -2942364.952 3
        17.800          23.000
  22225467.017    22225466.454    22225465.333   -16048094.802 5 -12505005.260 5
        32.000          31.600
  20988557.527    20988556.751    20988554.894   -22692529.335 6 -17682479.103 7
        40.500          42.000
  23881441.847    23881441.261    23881441.393    -3508519.050 2  -2733907.869 3
        17.800          22.100
  20299821.768    20299821.275    20299818.096   -25531538.505 7 -19894695.020 8
        44.100          51.200
  22950613.687    22950611.811    22950609.800   -10956650.421 5  -8537648.594 5
        30.600          31.100
 09  1  1  1 40 30.0000000  0  9G21G28G 9G 6G14G18G 3G22G19
  23226652.955    23226651.915    23226650.826   -12337923.191 3  -9613959.241 3
        20.500          20.500
  25456816.518    25456815.754    25456817.090       40561.528       31606.906 1
                         6.500
  21464172.721    21464172.025    21464171.259   -17685367.110 6 -13780799.897 5
        36.100          35.200
  23957435.264    23957434.462    23957435.614    -3691172.666 2  -2876236.040 3
        17.000          22.600
  22208745.838    22208745.101    22208744.099   -16135964.956 5 -12573475.494 5
        31.800          31.800
  20997647.615    20997646.751    20997644.894   -22644761.154 6 -17645257.144 6
        40.500          41.900
  23897464.058    23897463.222    23897463.656    -3424321.042 2  -2668299.055 3
        15.100          21.100
  20297373.959    20297373.369    20297370.141   -25544402.941 7 -19904719.256 8
        44.100          51.200
  22953953.014    22953951.244    22953949.207   -10939102.247 5  -8523974.701 5
        30.800          31.000
 09  1  1  1 41  0.0000000  0  9G21G28G 9G 6G14G18G 3G22G19
  23247298.901    23247297.725    23247296.227   -12229429.185 3  -9529418.488 3
        20.500          19.900
  25458653.862    25458651.760    25458651.287       50202.102       39119.156 1
         3.000           9.000
  21460481.246    21460480.522    21460479.835   -17704766.214 6 -13795916.082 5
        36.200          35.300
  23973630.924    23973629.759    23973630.762    -3606067.202 2  -2809920.121 3
        17.000          22.100
  22192085.838    22192085.060    22192083.720   -16223514.983 5 -12641696.275 5
        32.300          32.100
  21006804.634    21006803.825    21006801.979   -22596640.452 6 -17607760.493 6
        40.500          41.800
  23913540.701    23913539.928    23913540.362    -3339836.154 2  -2602466.700 3
        17.000          20.500
  20295001.523    20295001.077    20294997.848   -25556869.034 7 -19914433.092 8
        44.100          51.200
  22957401.861    22957400.136    22957398.010   -10920977.369 5  -8509851.428 5
        30.200          30.600
 09  1  1  1 41 30.0000000  0 10G21G28G 9G15G 6G14G18G 3G22G19
  23267990.574    23267989.845    23267988.467   -12120690.588 3  -9444687.154 3
        20.500          19.300
  25460589.455    25460588.232    25460587.378       60376.908 1     47047.556 1
         6.500           6.500
  21456931.567    21456930.982    21456930.346   -17723418.830 6 -13810450.586 5
        36.000          35.300
  24938711.266    24938709.999    24938706.247           -.28711         -.27112
         6.500          13.900
  23989875.623    23989875.200    23989874.727    -3520700.944 2  -2743400.964 3
        17.800          20.500
  22175491.330    22175490.469    22175489.437   -16310719.671 5 -12709647.967 5
        32.400          32.300
  21016033.105    21016032.312    21016030.511   -22548144.194 6 -17569971.199 6
        40.300          41.700
  23929676.985    23929676.093    23929676.050    -3255043.481 2  -2536394.475 3
        17.800          19.300
  20292709.720    20292709.191    20292706.043   -25568912.768 7 -19923817.821 8
        44.100          51.300
  22960964.782    22960963.194    22960961.096   -10902253.245 5  -8495261.201 5
        30.400          30.600
 09  1  1  1 42  0.0000000  0 10G21G28G 9G15G 6G14G18G 3G22G19
  23288722.526    23288721.817    23288720.524   -12011743.118 3  -9359793.048 3
        20.500          19.300
  25462620.049    25462618.858    25462619.765       71051.993       55365.730 1
         3.000          11.000
  21453517.749    21453517.147    21453516.548   -17741358.173 6 -13824429.291 5
        36.100          35.300
  24959229.593    24959229.280    24959226.297      107833.084 1     84025.732 2
         6.500          12.600
  24006162.741    24006161.865    24006162.079    -3435110.353 2  -2676707.015 3
        16.100          19.300
  22158955.710    22158955.133    22158954.741   -16397611.251 5 -12777355.674 5
        32.400          32.400
  21025326.599    21025325.782    21025324.153   -22499306.519 6 -17531915.870 6
        40.200          41.800
  23945863.577    23945862.732    23945863.042    -3169979.425 2  -2470110.819 2
        17.800          17.800
  20290492.051    20290491.509    20290488.321   -25580566.996 7 -19932899.037 8
        44.200          51.300
  22964635.664    22964633.942    22964631.720   -10882964.431 5  -8480230.958 5
        31.100          30.800
 09  1  1  1 42 30.0000000  0 10G21G28G 9G15G 6G14G18G 3G22G19
  23309493.712    23309493.030    23309491.354   -11902591.295 3  -9274739.712 3
        20.500          19.900
  25464743.954    25464745.791    25464744.210       82224.924       64071.770 1
                        11.000
  21450239.826    21450239.253    21450238.162   -17758585.147 6 -13837852.910 5
        36.400          34.900
  24979758.845    24979758.425    24979756.364      215718.462 1    168092.276 1
         6.500          11.000
  24022492.457    24022491.802    24022491.057    -3349300.511 3  -2609842.205 3
        18.600          18.600
  22142480.651    22142479.857    22142479.096   -16484190.434 5 -12844819.955 5
        32.600          32.400
  21034684.678    21034683.831    21034682.143   -22450130.232 6 -17493596.686 6
        40.300          41.600
  23962101.971    23962101.033    23962100.705    -3084649.785 3  -2403620.190 3
        18.600          18.600
  20288347.994    20288347.500    20288344.280   -25591833.848 7 -19941678.402 8
        44.200          51.300
  22968413.353    22968411.569    22968409.349   -10863113.864 5  -8464762.993 5
        31.100          31.100
 09  1  1  1 43  0.0000000  0 10G21G28G 9G15G 6G14G18G 3G22G19
  23330306.349    23330305.142    23330304.239   -11793220.594 3  -9189515.812 3
        19.300          19.900
  25466969.682    25466969.493    25466965.363       93911.928       73177.563
                         3.000
  21447100.511    21447099.807    21447099.027   -17775082.412 6 -13850707.920 5
        36.000          35.100
  25000301.523    25000300.806    25000299.911      323670.640 1    252210.873 2
         9.000          13.900
  24038865.251    24038864.572    24038864.470    -3263257.474 3  -2542795.670 2
        19.900          16.100
  22126068.023    22126067.333    22126066.583   -16570438.739 5 -12912026.403 5
        32.600          32.600
  21044110.138    21044109.283    21044107.290   -22400599.025 6 -17455000.942 6
        40.200          41.300
  23978392.376    23978392.047    23978391.574    -2999040.615 3  -2336911.762 3
        18.600          18.600
  20286280.956    20286280.413    20286277.272   -25602696.324 7 -19950142.666 8
        44.200          51.300
  22972300.341    22972298.707    22972296.482   -10842685.817 5  -8448845.033 5
        31.000          30.800
 09  1  1  1 43 30.0000000  0 10G21G28G 9G15G 6G14G18G 3G22G19
  23351159.553    23351158.911    23351158.207   -11683634.143 3  -9104123.814 3
        19.300          21.100
  25469291.820    25469290.529    25469291.752      106111.578       82683.801 1
         3.000           6.500
  21444100.073    21444099.253    21444098.417   -17790850.033 5 -13862994.378 5
        35.900          35.100
  25020857.912    25020856.800    25020854.767      431687.657 1    336379.990 2
        11.000          15.100
  24055282.261    24055281.771    24055281.652    -3176985.065 3  -2475570.409 2
        19.900          17.000
  22109718.609    22109717.986    22109716.977   -16656355.562 5 -12978974.553 5
        33.000          32.800
  21053602.647    21053601.943    21053600.119   -22350714.684 6 -17416130.027 6
        40.000          41.200
  23994735.958    23994735.208    23994734.675    -2913155.437 2  -2269988.235 2
        17.800          17.800
  20284290.733    20284290.245    20284287.111   -25613154.685 7 -19958292.037 8
        44.200          51.400
  22976297.276    22976295.581    22976293.535   -10821682.310 5  -8432478.662 5
        31.000          30.600
 09  1  1  1 44  0.0000000  0 10G21G28G 9G15G 6G14G18G 3G22G19
  23372052.446    23372051.462    23372051.348   -11573841.508 3  -9018571.145 3
        19.300          21.600
  25471708.816    25471708.739    25471706.569      118815.978       92583.364 1
         3.000           9.000
  21441237.148    21441236.440    21441235.654   -17805894.515 6 -13874717.353 5
        36.200          35.400
  25041422.080    25041422.383    25041420.981      539759.653 1    420591.923 2
         9.000          15.100
  24071740.685    24071740.569    24071740.262    -3090493.591 3  -2408174.450 2
        18.600          17.800
  22093431.110    22093430.477    22093429.562   -16741946.908 5 -13045669.088 5
        33.100          33.000
  21063161.132    21063160.293    21063158.400   -22300485.246 6 -17376990.206 6
        40.000          40.900
  24011129.369    24011129.103    24011129.329    -2827005.273 2  -2202858.242 3
        17.000          18.600
  20282376.095    20282375.545    20282372.426   -25623216.265 7 -19966132.230 8
        44.200          51.400
  22980401.791    22980399.946    22980398.155   -10800111.985 5  -8415670.628 5
        31.000          31.000
 09  1  1  1 44 30.0000000  0 10G21G28G 9G15G 6G14G18G 3G22G19
  23392983.831    23392982.897    23392982.470   -11463847.224 2  -8932861.358 3
        17.000          21.100
  25474224.148    25474223.626    25474220.747      132022.726 1    102874.367 1
        11.000           9.000
  21438511.359    21438510.849    21438510.263   -17820217.020 6 -13885877.745 5
        36.200          35.500
  25061996.503    25061997.307    25061995.694      647883.101 1    504843.935 2
         6.500          16.100
  24088240.611    24088239.844    24088240.103    -3003788.039 2  -2340611.658 3
        17.800          19.300
  22077205.187    22077204.497    22077203.923   -16827213.532 5 -13112110.587 5
        32.800          33.100
  21072784.476    21072783.702    21072781.892   -22249913.382 6 -17337583.554 6
        40.000          40.800
  24027573.161    24027572.192    24027572.525    -2740594.991 2  -2135525.561 3
        16.100          18.600
  20280536.573    20280536.056    20280532.849   -25632882.973 7 -19973664.727 8
        44.200          51.400
  22984613.865    22984612.334    22984610.372   -10777977.732 5  -8398423.158 5
        31.300          31.100
 09  1  1  1 45  0.0000000  0 10G21G28G 9G15G 6G14G18G 3G22G19
  23413953.910    23413953.064    23413952.523   -11353648.004 2  -8846991.888 3
        17.000          20.500
  25476834.139    25476832.236    25476830.507      145737.137      113560.795 1
         3.000          11.000
  21435924.491    21435923.837    21435923.185   -17833812.101 6 -13896471.320 5
        36.100          35.300
  25082580.021    25082581.880    25082582.680      756061.077      589138.453 2
         3.000          12.600
  24104781.009    24104780.255    24104781.247    -2916865.883 2  -2272880.106 3
        15.100          19.900
  22061042.680    22061041.973    22061041.162   -16912148.566 5 -13178293.707 5
        33.200          33.200
  21082474.218    21082473.322    21082471.498   -22198994.439 6 -17297906.453 6
        39.800          40.700
  24044065.755    24044065.430    24044065.647    -2653921.909 2  -2067988.106 2
        16.100          17.800
  20278773.299    20278772.800    20278769.596   -25642148.896 7 -19980884.924 8
        44.200          51.400
  22988933.804    22988932.271    22988930.321   -10755275.419 5  -8380733.038 5
        31.300          31.100
 09  1  1  1 45 30.0000000  0 10G21G28G 9G15G 6G14G18G 3G22G19
  23434964.413    23434963.418    23434962.702   -11243239.818 2  -8760959.573 3
        17.800          20.500
  25479541.419    25479538.057    25479540.051      159964.072      124646.818 1
                        11.000
  21433477.391    21433476.749    21433475.969   -17846671.981 6 -13906492.004 5
        36.400          35.300
  25103174.654    25103182.413    25103183.911      864299.109      673479.435 1
                        11.000
  24121364.701    24121363.181    24121363.853    -2829723.481 2  -2204976.952 3
        13.900          20.500
  22044944.714    22044944.030    22044943.184   -16996743.984 5 -13244212.197 5
        33.200          33.400
  21092230.888    21092230.083    21092228.182   -22147722.601 6 -17257954.373 6
        39.900          40.600
  24060609.797    24060609.726    24060608.890    -2566983.193 2  -2000243.667 3
        16.100          18.600
  20277087.686    20277087.180    20277083.961   -25651007.165 7 -19987787.473 8
        44.300          51.400
  22993363.509    22993361.678    22993359.724   -10731999.515 5  -8362595.975 5
        31.300          31.300
 09  1  1  1 46  0.0000000  0 10G21G28G 9G15G 6G14G18G 3G22G19
  23456013.797    23456012.957    23456011.746   -11132626.052 3  -8674767.068 3
        19.300          19.300
  25482346.483    25482344.413    25482343.738      174702.690      136131.444 1
         3.000           6.500
  21431169.844    21431169.275    21431168.626   -17858797.237 6 -13915940.255 5
        36.100          35.300
  25123783.702    25123788.055    25123786.900      972593.721      757864.085 2
                        12.600
  24137988.013    24137987.487    24137987.484    -2742364.767 2  -2136905.253 3
        15.100          20.500
  22028911.526    22028910.846    22028909.949   -17080999.235 5 -13309865.623 5
        33.500          33.500
  21102054.503    21102053.664    21102051.834   -22096099.156 6 -17217728.312 6
        39.700          40.600
  24077204.950    24077203.754    24077203.207    -2479782.120 2  -1932294.813 3
        17.000          19.300
  20275479.499    20275478.957    20275475.732   -25659458.366 7 -19994372.825 8
        44.300          51.400
  22997901.519    22997899.667    22997897.481   -10708152.297 5  -8344013.740 5
        31.300          31.500
 09  1  1  1 46 30.0000000  0 10G21G28G 9G15G 6G14G18G 3G22G19
  23477100.595    23477099.282    23477098.203   -11021816.541 3  -8588422.016 3
        19.300          18.600
  25485246.427    25485243.908    25485243.358      189944.406      148008.015
         3.000
  21429001.256    21429000.505    21428999.607   -17870195.216 6 -13924821.800 5
        36.300          35.100
  25144401.346    25144402.498    25144403.731     1080935.406      842286.180 2
                        12.600
  24154651.209    24154650.777    24154650.340    -2654800.550 2  -2068673.415 3
        16.100          21.100
  22012941.399    22012940.853    22012940.027   -17164921.177 5 -13375259.328 5
        33.500          33.500
  21111943.376    21111942.539    21111940.739   -22044132.872 6 -17177235.107 6
        39.700          40.400
  24093846.861    24093845.547    24093844.635    -2392330.296 2  -1864150.558 3
        17.000          19.300
  20273947.265    20273946.768    20273943.549   -25667510.124 7 -20000646.919 8
        44.300          51.500
  23002546.009    23002544.622    23002542.604   -10683742.687 5  -8324993.270 5
        31.000          32.000
 09  1  1  1 47  0.0000000  0  9G21G 9G15G 6G14G18G 3G22G19
  23498223.618    23498222.626    23498221.144   -10910814.347 3  -8501926.842 2
        19.300          17.800
  21426970.513    21426969.850    21426969.161   -17880865.792 6 -13933136.535 5
        36.300          35.200
  25165026.521    25165025.424    25165028.932     1189321.821      926743.539 1
                        11.000
  24171351.588    24171351.201    24171351.166    -2567034.246 2  -2000284.108 3
        15.100          21.100
  21997035.505    21997034.893    21997033.844   -17248508.585 5 -13440392.358 5
        33.900          33.500
  21121897.047    21121896.211    21121894.494   -21991825.273 6 -17136475.938 6
        39.600          40.300
  24110534.264    24110533.309    24110532.942    -2304630.987 2  -1795813.444 3
        16.100          19.300
  20272490.913    20272490.431    20272487.344   -25675162.743 7 -20006610.000 8
        44.200          51.500
  23007297.742    23007296.129    23007294.344   -10658772.485 5  -8305535.977 5
        30.400          31.600
 09  1  1  1 47 30.0000000  0 10G21G28G 9G15G 6G14G18G 3G22G19
  23519383.154    23519382.773    23519381.280   -10799617.239 3  -8415279.757 2
        19.900          17.800
  25491335.660    25491334.131    25491332.772           -.07712          .47511
        12.600           9.000
  21425079.312    21425078.711    21425077.902   -17890804.174 6 -13940880.726 5
        36.300          35.100
  25185658.473    25185659.512    25185656.407     1297755.640     1011239.080 1
                         9.000
  24188091.895    24188091.256    24188091.451    -2479064.457 2  -1931736.228 3
        13.900          20.500
  21981194.256    21981193.530    21981192.274   -17331755.703 5 -13505260.234 5
        33.900          33.500
  21131916.438    21131915.642    21131913.962   -21939172.502 6 -17095447.808 6
        39.500          40.100
  24127269.734    24127268.765    24127269.784    -2216682.946 2  -1727282.526 3
        15.100          19.900
  20271111.699    20271111.140    20271107.895   -25682411.509 7 -20012258.388 8
        44.300          51.500
  23012157.058    23012155.215    23012153.149   -10633238.586 5  -8285639.447 5
        30.400          31.500
 09  1  1  1 48  0.0000000  0 10G21G28G 9G15G 6G14G18G 3G22G19
  23540579.853    23540578.904    23540578.097   -10688230.774 3  -8328485.149 3
        19.300          19.300
  25494520.576    25494518.367    25494517.763       16751.269 1     13053.408 1
         6.500           9.000
  21423327.091    21423326.417    21423325.664   -17900012.159 6 -13948055.774 5
        36.200          34.900
  25206302.354    25206304.740    25206301.877     1406232.317     1095764.255 1
                        11.000
  24204870.155    24204869.438    24204869.389    -2390896.935 2  -1863034.257 3
        15.100          21.100
  21965417.182    21965416.414    21965415.330   -17414664.086 5 -13569864.155 5
        33.900          33.500
  21142001.116    21142000.240    21141998.440   -21886178.122 6 -17054153.487 6
        39.600          40.000
  24144052.793    24144052.008    24144052.292    -2128491.970 2  -1658562.297 3
        17.000          21.100
  20269808.609    20269808.054    20269804.845   -25689259.056 7 -20017594.138 8
        44.300          51.500
  23017122.104    23017120.501    23017118.814   -10607145.033 5  -8265306.829 5
        30.600          31.600
 09  1  1  1 48 30.0000000  0 10G21G28G 9G15G 6G14G18G 3G22G19
  23561811.718    23561810.617    23561809.708   -10576657.801 3  -8241545.207 3
        18.600          18.600
  25497802.422    25497800.799    25497801.727       34002.881       26496.244 1
         3.000          11.000
  21421713.749    21421713.041    21421712.182   -17908490.840 6 -13954662.543 5
        36.300          35.100
  25226955.199    25226956.052    25226955.785     1514749.155     1180322.731 2
                        13.900
  24221684.878    24221684.214    24221684.614    -2302535.423 2  -1794181.161 3
        16.100          21.100
  21949704.801    21949704.063    21949703.079   -17497233.358 5 -13634203.833 5
        34.100          33.600
  21152150.148    21152149.310    21152147.562   -21832843.834 6 -17012594.300 6
        39.500          39.800
  24160881.155    24160880.115    24160879.190    -2040062.423 3  -1589656.175 3
        18.600          20.500
  20268581.757    20268581.271    20268578.119   -25695705.756 7 -20022617.541 8
        44.300          51.600
  23022193.661    23022192.098    23022190.162   -10580494.015 5  -8244539.805 5
        30.800          31.100
 09  1  1  1 49  0.0000000  0 10G21G28G 9G15G 6G14G18G 3G22G19
  23583078.469    23583077.411    23583076.822   -10464896.818 2  -8154458.758 3
        17.000          18.600
  25501180.895    25501180.388    25501180.983       51758.038       40331.523 1
         3.000          11.000
  21420239.867    21420239.164    21420238.271   -17916235.952 6 -13960697.691 5
        36.400          34.800
  25247612.730    25247614.335    25247613.984     1623308.305     1264914.208 2
         3.000          13.900
  24238535.703    24238535.237    24238536.463    -2213979.150 2  -1725176.278 3
        16.100          21.600
  21934057.994    21934057.276    21934056.223   -17579458.103 5 -13698275.050 5
        34.400          33.900
  21162364.684    21162363.917    21162362.066   -21779166.341 6 -16970767.683 6
        39.600          39.800
  24177752.679    24177752.357    24177752.534    -1951393.318 3  -1520563.368 3
        18.600          19.900
  20267431.998    20267431.467    20267428.319   -25701747.838 7 -20027325.656 8
        44.300          51.600
  23027371.772    23027370.185    23027368.377   -10553283.087 5  -8223336.483 5
        30.600          31.100
 09  1  1  1 49 30.0000000  0 10G21G28G 9G15G 6G14G18G 3G22G19
  23604381.576    23604380.663    23604379.925   -10352947.869 2  -8067225.855 3
        17.000          19.300
  25504656.311    25504655.379    25504656.601       70018.510       54560.539 1
                         9.000
  21418906.337    21418905.549    21418904.670   -17923244.521 6 -13966158.919 5
        36.400          35.200
  25268281.068    25268281.763    25268280.264     1731910.139 1   1349538.960 2
         9.000          13.900
  24255425.081    24255424.577    24255424.793    -2125228.734 2  -1656020.117 3
        16.100          21.600
  21918477.272    21918476.609    21918475.543   -17661335.101 5 -13762075.291 5
        34.600          34.100
  21172644.732    21172643.965    21172642.243   -21725144.067 6 -16928672.401 6
        39.500          39.700
  24194672.531    24194672.164    24194671.032    -1862485.019 3  -1451284.203 3
        19.300          18.600
  20266359.838    20266359.266    20266356.019   -25707382.815 7 -20031716.544 8
        44.300          51.600
  23032656.835    23032655.442    23032653.262   -10525511.187 5  -8201696.043 5
        31.500          31.100
 09  1  1  1 50  0.0000000  0 10G21G28G 9G15G 6G14G18G 3G22G19
  23625719.327    23625717.960    23625717.829   -10240818.016 2  -7979851.993 3
        15.100          19.300
  25508225.692    25508226.111    25508223.115       88778.777       69178.881
                         3.000
  21417711.793    21417711.145    21417710.472   -17929521.318 6 -13971049.922 5
        36.300          35.400
  25288953.566    25288954.007    25288953.164     1840548.115 1   1434191.863 2
         6.500          13.900
  24272349.741    24272349.199    24272348.571    -2036291.854 2  -1586718.659 3
        15.100          20.500
  21902962.022    21902961.265    21902960.372   -17742867.713 5 -13825607.184 5
        34.600          34.000
  21182989.609    21182988.729    21182986.770   -21670782.517 6 -16886312.753 6
        39.500          39.400
  24211635.515    24211634.377    24211633.392    -1773346.090 2  -1381825.294 3
        17.800          18.600
  20265364.042    20265363.529    20265360.416   -25712615.020 7 -20035793.589 8
        44.200          51.600
  23038047.151    23038045.532    23038043.349   -10497184.479 5  -8179623.279 5
        31.500          30.800
 09  1  1  1 50 30.0000000  0 10G21G28G 9G15G 6G14G18G 3G22G19
  23647090.706    23647089.476    23647089.532   -10128508.051 2  -7892337.793 3
        13.900          18.600
  25511892.240    25511892.089    25511889.720      108039.507       84187.204 1
                         6.500
  21416656.943    21416656.208    21416655.276   -17935064.394 6 -13975369.201 5
        36.200          35.100
  25309632.263    25309633.242    25309633.092     1949222.308 1   1518873.015 2
         9.000          12.600
  24289308.853    24289307.785    24289307.690    -1947169.971 2  -1517273.070 3
        16.100          18.600
  21887513.045    21887512.361    21887511.249   -17824052.650 5 -13888868.159 5
        34.800          34.000
  21193398.823    21193398.077    21193396.274   -21616080.774 6 -16843688.019 6
        39.500          39.500
  24228640.562    24228639.700    24228640.401    -1683977.906 2  -1312187.754 3
        16.100          19.300
  20264445.403    20264444.857    20264441.714   -25717442.888 7 -20039555.564 8
        44.300          51.700
  23043543.009    23043541.470    23043539.657   -10468303.040 5  -8157118.267 5
        31.300          31.000
 09  1  1  1 51  0.0000000  0 10G21G28G 9G15G 6G14G18G 3G22G19
  23668495.063    23668494.404    23668495.235   -10016020.983 2  -7804685.575 2
        13.900          17.800
  25515652.722    25515652.448    25515650.890      127798.673 1     99583.977 1
         6.500           9.000
  21415741.813    21415741.089    21415740.059   -17939874.166 6 -13979117.074 5
        36.500          35.200
  25330319.177    25330319.880    25330320.552     2057930.166 1   1603580.336 2
         6.500          12.600
  24306302.901    24306302.264    24306301.852    -1857866.583 2  -1447686.023 3
        17.000          18.600
  21872130.253    21872129.683    21872128.610   -17904889.345 5 -13951857.781 5
        34.900          34.300
  21203872.833    21203871.897    21203870.078   -21561040.388 6 -16800799.408 6
        39.400          39.300
  24245689.825    24245688.763    24245689.694    -1594383.989 2  -1242374.320 3
        16.100          19.900
  20263603.526    20263603.060    20263599.958   -25721866.350 7 -20043002.415 8
        44.300          51.700
  23049144.472    23049142.640    23049140.838   -10438868.728 5  -8134182.440 5
        31.300          31.300
 09  1  1  1 51 30.0000000  0 10G21G28G 9G15G 6G14G18G 3G22G19
  23689934.377    23689934.559    23689934.436    -9903357.686 2  -7716896.030 2
        15.100          17.800
  25519507.279    25519506.192    25519506.113      148057.844      115370.296 1
         3.000           9.000
  21414966.520    21414965.775    21414964.710   -17943948.637 6 -13982291.987 5
        36.500          35.100
  25351010.688    25351013.061    25351011.521     2166671.332     1688313.703 1
         3.000          11.000
  24323330.501    24323330.463    24323330.167    -1768383.120 2  -1377958.657 2
        15.100          17.800
  21856814.685    21856813.920    21856812.616   -17985375.218 5 -14014574.030 5
        35.100          34.500
  21214411.183    21214410.367    21214408.501   -21505660.655 6 -16757646.367 6
        39.500          39.200
  24262781.937    24262780.873    24262780.913    -1504566.293 2  -1172386.511 3
        13.900          18.600
  20262838.987    20262838.473    20262835.319   -25725884.324 7 -20046133.309 8
        44.300          51.600
  23054850.607    23054848.964    23054847.229   -10408881.340 5  -8110815.645 5
        30.800          31.100
 09  1  1  1 52  0.0000000  0 10G21G28G 9G15G 6G14G18G 3G22G19
  23711407.998    23711406.951    23711406.847    -9790519.931 2  -7628970.547 2
        13.900          17.800
  25523457.584    25523456.924    25523456.837      168816.534      131545.924 1
         3.000           6.500
  21414330.948    21414330.230    21414329.332   -17947287.332 6 -13984893.566 5
        36.200          34.800
  25371710.412    25371709.138    25371710.874     2275444.620     1773072.059 1
                        11.000
  24340390.828    24340390.549    24340391.713    -1678722.001 1  -1308092.838 2
        11.000          17.000
  21841565.956    21841565.085    21841563.902   -18065508.182 5 -14077015.280 5
        35.100          34.600
  21225014.089    21225013.323    21225011.561   -21449941.633 6 -16714228.947 6
        39.500          39.200
  24279915.707    24279915.287    24279914.345    -1414526.775 2  -1102225.867 3
        15.100          18.600
  20262151.785    20262151.261    20262148.039   -25729495.804 7 -20048947.451 8
        44.300          51.600
  23060662.374    23060660.555    23060658.200   -10378341.921 5  -8087018.709 5
        30.400          30.800
 09  1  1  1 52 30.0000000  0  9G21G28G 9G 6G14G18G 3G22G19
  23732912.616    23732911.077    23732910.860    -9677517.177 2  -7540916.496 2
        15.100          17.000
  25527500.821    25527498.960    25527498.803      190066.900      148104.666 1
                         6.500
  21413834.275    21413833.689    21413832.712   -17949897.001 6 -13986927.079 5
        36.300          35.100
  24357485.865    24357485.156    24357485.433    -1588893.160 1  -1238096.374 2
        11.000          17.000
  21826382.997    21826382.331    21826381.030   -18145293.855 5 -14139185.910 5
        35.200          34.600
  21235680.085    21235679.371    21235677.533   -21393891.353 6 -16670553.405 6
        39.500          39.100
  24297090.501    24297089.899    24297089.365    -1324275.763 2  -1031900.423 3
        15.100          19.900
  20261540.543    20261540.047    20261536.835   -25732707.605 7 -20051450.155 8
        44.300          51.500
  23066576.891    23066575.263    23066573.241   -10347259.021 5  -8062798.277 5
        30.600          30.600
 09  1  1  1 53  0.0000000  0  9G21G28G 9G 6G14G18G 3G22G19
  23754447.094    23754445.633    23754444.421    -9564352.418 2  -7452736.183 2
        13.900          16.100
  25531640.398    25531638.649    25531635.939      211807.412      165045.403 1
                         9.000
  21413476.472    21413475.711    21413475.112   -17951778.180 6 -13988392.930 5
        36.100          35.400
  24374611.989    24374611.521    24374610.930    -1498900.140 2  -1167971.929 2
        13.900          15.100
  21811266.522    21811265.831    21811264.600   -18224731.549 5 -14201085.396 5
        35.600          34.700
  21246409.051    21246408.223    21246406.464   -21337510.662 6 -16626620.398 6
        39.300          39.100
  24314303.475    24314302.573    24314303.421    -1233817.006 2   -961413.086 3
        15.100          19.900
  20261005.477    20261004.915    20261001.722   -25735519.759 7 -20053641.440 8
        44.300          51.500
  23072594.611    23072593.182    23072591.209   -10315634.084 5  -8038155.472 5
        30.200          30.400
 09  1  1  1 53 30.0000000  0  9G21G28G 9G 6G14G18G 3G22G19
  23776016.223    23776014.885    23776013.514    -9451006.422 2  -7364414.679 2
        12.600          16.100
  25535874.145    25535873.115    25535871.264      234058.181 1    182383.535 1
         6.500          11.000
  21413261.023    21413260.365    21413259.719   -17952909.037 6 -13989274.118 5
        36.200          35.300
  24391771.792    24391771.706    24391770.466    -1408724.388 2  -1097705.135 2
        13.900          15.100
  21796220.515    21796219.687    21796218.627   -18303798.885 5 -14262696.285 5
        35.700          35.100
  21257204.713    21257203.878    21257202.115   -21280779.184 6 -16582414.053 6
        39.200          38.900
  24331561.317    24331560.284    24331560.204    -1143131.970 2   -890749.438 3
        16.100          20.500
  20260550.357    20260549.909    20260546.709   -25737910.865 7 -20055504.646 8
        44.300          51.500
  23078719.895    23078718.486    23078716.577   -10283447.639 5  -8013075.129 5
        30.600          31.000
 09  1  1  1 54  0.0000000  0  9G21G28G 9G 6G14G18G 3G22G19
  23797616.798    23797615.362    23797614.425    -9337492.516 2  -7275962.352 2
        13.900          15.100
  25540202.735    25540202.004    25540201.555      256807.230      200109.997 1
         3.000          11.000
  21413186.668    21413185.947    21413184.987   -17953301.195 6 -13989579.696 5
        36.400          35.200
  24408962.252    24408961.597    24408962.243    -1318380.441 1  -1027307.283 2
         9.000          15.100
  21781242.889    21781242.137    21781241.269   -18382505.954 5 -14324026.453 5
        35.700          35.300
  21268064.860    21268064.003    21268062.068   -21223709.257 6 -16537943.979 6
        39.300          38.700
  24348856.730    24348856.560    24348856.895    -1052235.398 2   -819920.964 3
        15.100          19.900
  20260173.284    20260172.802    20260169.666   -25739892.241 7 -20057048.579 8
        44.200          51.500
  23084949.385    23084947.749    23084945.449   -10250712.687 5  -7987567.378 5
        30.600          30.600
 09  1  1  1 54 30.0000000  0  9G21G28G 9G 6G14G18G 3G22G19
  23819248.418    23819247.976    23819246.318    -9223813.352 2  -7187381.217 2
        12.600          12.600
  25544624.090    25544623.735    25544623.076      280053.787      218224.264 1
                         9.000
  21413252.659    21413251.792    21413251.145   -17952954.178 6 -13989309.291 5
        36.100          35.300
  24426186.131    24426185.753    24426185.976    -1227871.069 1   -956780.510 2
         9.000          15.100
  21766334.175    21766333.641    21766332.595   -18460851.276 5 -14385074.740 5
        35.800          35.400
  21278989.328    21278988.445    21278986.458   -21166301.393 6 -16493210.582 6
        39.200          38.600
  24366193.539    24366193.033    24366194.047     -961130.724 2   -748930.350 3
        15.100          19.900
  20259874.492    20259873.922    20259870.645   -25741463.692 7 -20058273.084 8
        44.300          51.500
  23091282.374    23091280.851    23091278.811   -10217430.675 5  -7961633.353 5
        30.200          30.600
 09  1  1  1 55  0.0000000  0  9G21G28G 9G 6G14G18G 3G22G19
  23840909.218    23840908.441    23840907.191    -9109984.449 2  -7098683.391 2
        12.600          12.600
  25549138.910    25549138.009    25549139.548      303783.951      236715.287 1
                         9.000
  21413456.628    21413456.082    21413455.316   -17951881.305 6 -13988473.284 5
        36.200          35.300
  24443438.790    24443437.965    24443437.191    -1137212.128 2   -886137.179 2
        12.600          13.900
  21751492.193    21751491.552    21751490.679   -18538846.623 5 -14445850.314 5
        35.800          35.700
  21289975.190    21289974.390    21289972.543   -21108569.413 6 -16448224.625 6
        39.200          38.600
  24383567.484    24383567.348    24383567.130     -869833.277 2   -677789.492 3
        15.100          19.900
  20259650.932    20259650.421    20259647.247   -25742637.720 7 -20059187.912 8
        44.300          51.500
  23097717.441    23097715.419    23097713.563   -10183616.033 4  -7935284.279 5
        29.900          30.100
 09  1  1  1 55 30.0000000  0  9G21G28G 9G 6G14G18G 3G22G19
  23862599.542    23862599.027    23862597.301    -8996002.151 2  -7009866.051 2
        12.600          12.600
  25553749.517    25553748.837    25553749.598      328002.518      255586.809 2
                        13.900
  21413800.170    21413799.462    21413798.723   -17950076.338 6 -13987066.817 5
        36.200          35.300
  24460720.095    24460719.161    24460718.116    -1046400.685 2   -815375.000 2
        12.600          15.100
  21736718.238    21736717.441    21736716.419   -18616484.833 5 -14506347.599 5
        35.900          35.800
  21301023.876    21301023.099    21301021.358   -21050508.052 6 -16402982.004 6
        39.100          38.600
  24400978.356    24400977.543    24400977.189     -778340.494 2   -606496.417 3
        13.900          18.600
  20259504.341    20259503.793    20259500.555   -25743408.453 7 -20059788.482 8
        44.300          51.500
  23104254.364    23104252.456    23104250.287   -10149264.728 5  -7908517.023 4
        30.100          29.700
 09  1  1  1 56  0.0000000  0  9G21G28G 9G 6G14G18G 3G22G19
  23884320.478    23884319.239    23884317.714    -8881861.894 2  -6920925.652 2
        13.900          13.900
  25558450.654    25558450.062    25558450.653      352715.731      274843.811 2
                        12.600
  21414284.487    21414283.826    21414282.737   -17947532.695 6 -13985084.752 5
        36.400          35.300
  24478029.296    24478028.537    24478029.532     -955432.827 1   -744490.959 2
        11.000          16.100
  21722013.685    21722012.973    21722011.870   -18693757.811 6 -14566560.289 5
        36.200          35.900
  21312136.424    21312135.583    21312133.779   -20992111.552 6 -16357478.240 6
        39.100          38.600
  24418426.303    24418424.913    24418425.753     -686648.815 2   -535048.362 3
        13.900          19.300
  20259435.674    20259435.158    20259431.978   -25743769.028 7 -20060069.451 8
        44.300          51.500
  23110894.128    23110892.296    23110890.338   -10114371.408 5  -7881327.427 4
        30.100          29.900
 09  1  1  1 56 30.0000000  0  9G21G28G 9G 6G14G18G 3G22G19
  23906070.183    23906069.402    23906067.697    -8767566.944 2  -6831864.678 2
        15.100          15.100
  25563246.346    25563246.723    25563244.440      377921.284      294485.391 1
                         6.500
  21414908.535    21414907.858    21414907.088   -17944251.697 6 -13982528.129 5
        36.000          35.200
  24495368.972    24495368.967    24495369.284     -864312.332 1   -673488.018 2
        11.000          17.800
  21707378.624    21707377.907    21707376.682   -18770665.143 6 -14626488.064 5
        36.400          35.700
  21323312.338    21323311.552    21323309.765   -20933381.116 6 -16311714.267 6
        39.100          38.400
  24435911.998    24435911.298    24435911.608     -594761.849 2   -463448.140 3
        15.100          19.300
  20259445.074    20259444.505    20259441.296   -25743720.077 7 -20060031.308 8
        44.300          51.500
  23117636.734    23117635.200    23117633.060   -10078938.297 5  -7853717.210 4
        30.400          29.900
 09  1  1  1 57  0.0000000  0  8G21G 9G 6G14G18G 3G22G19
  23927845.987    23927845.229    23927843.119    -8653134.376 2  -6742696.497 2
        13.900          12.600
  21415670.444    21415669.828    21415668.912   -17940248.183 6 -13979408.509 5
        36.200          35.100
  24512735.491    24512734.876    24512734.508     -773057.172 1   -602380.105 2
        11.000          17.800
  21692810.640    21692809.930    21692808.927   -18847220.471 6 -14686141.553 6
        36.400          36.100
  21334548.947    21334548.239    21334546.332   -20874332.428 6 -16265702.301 6
        39.100          38.300
  24453430.665    24453430.189    24453430.773     -502697.743 2   -391709.884 3
        15.100          18.600
  20259529.499    20259529.013    20259525.808   -25743275.813 7 -20059685.129 8
        44.400          51.400
  23124479.100    23124477.428    23124475.356   -10042982.126 5  -7825699.417 5
        30.100          30.200
 09  1  1  1 57 30.0000000  0  8G21G 9G 6G14G18G 3G22G19
  23949650.354    23949650.177    23949647.826    -8538550.838 2  -6653410.646 2
        13.900          13.900
  21416572.729    21416572.060    21416571.278   -17935506.611 6 -13975713.773 5
        36.300          35.200
  24530128.053    24530127.017    24530127.899     -681654.331 1   -531157.122 2
         9.000          16.100
  21678313.192    21678312.342    21678311.054   -18923406.614 6 -14745507.364 6
        36.500          36.200
  21345848.716    21345847.990    21345846.308   -20814950.825 6 -16219430.925 6
        38.800          38.100
  24470985.860    24470985.593    24470985.753     -410443.652 2   -319823.569 2
        12.600          17.000
  20259692.314    20259691.754    20259688.487   -25742420.811 7 -20059018.892 8
        44.400          51.400
  23131423.561    23131421.895    23131419.884   -10006488.643 4  -7797262.933 5
        29.900          30.200
 09  1  1  1 58  0.0000000  0  9G21G11G 9G 6G14G18G 3G22G19
  23971486.479    23971485.355    23971484.622    -8423802.135 2  -6563996.108 2
        13.900          15.100
  24873922.593    24873922.131    24873917.971           -.0911           .41511
                         6.500
  21417618.608    21417617.935    21417617.012   -17930010.554 6 -13971431.131 5
        36.100          35.100
  24547551.844    24547550.112    24547551.305     -590090.368 1   -459808.587 2
         6.500          15.100
  21663888.727    21663887.987    21663886.780   -18999206.054 6 -14804571.848 6
        36.500          36.300
  21357215.247    21357214.429    21357212.594   -20755220.467 6 -16172887.791 6
        38.800          37.900
  24488580.543    24488579.740    24488579.873     -317986.311 2   -247778.901 2
        13.900          16.100
  20259936.301    20259935.786    20259932.463   -25741138.405 7 -20058019.614 8
        44.400          51.300
  23138472.956    23138471.314    23138469.526    -9969443.133 4  -7768396.313 5
        29.900          30.200
 09  1  1  1 58 30.0000000  0  9G21G11G 9G 6G14G18G 3G22G19
  23993348.679    23993347.913    23993346.416    -8308918.877 2  -6474476.712 2
        17.000          16.100
  24855252.827    24855253.233    24855249.297      -98097.707      -76439.222 1
                         9.000
  21418802.642    21418802.044    21418801.276   -17923788.045 6 -13966582.424 5
        36.200          35.200
  24565001.139    24565000.239    24565000.644     -498396.191 1   -388358.600 2
        11.000          16.100
  21649532.807    21649532.230    21649530.992   -19074646.046 6 -14863356.243 6
        36.600          36.400
  21368642.361    21368641.614    21368639.735   -20695170.102 6 -16126095.298 6
        38.800          37.700
  24506207.229    24506205.993    24506207.000     -225357.301 2   -175600.468 2
        12.600          15.100
  20260256.321    20260255.821    20260252.596   -25739456.399 7 -20056708.958 8
        44.400          51.400
  23145621.859    23145620.247    23145618.276    -9931875.473 5  -7739122.813 4
        30.100          29.700
 09  1  1  1 59  0.0000000  0  9G 9G21G11G 6G14G18G 3G22G19
  21420126.925    21420126.243    21420125.444   -17916829.383 6 -13961160.089 5
        36.100          35.200
  24015237.022    24015236.623    24015234.522    -8193893.199 2  -6384846.361 2
        16.100          15.100
  24836628.751    24836629.159    24836626.773     -195960.269     -152695.745 1
         3.000           9.000
  24582477.137    24582476.326    24582475.721     -406564.761 2   -316801.704 2
        13.900          17.800
  21635247.716    21635246.965    21635246.030   -19149714.750 6 -14921851.327 6
        36.500          36.500
  21380132.047    21380131.342    21380129.596   -20634790.537 6 -16079046.286 6
        38.600          37.700
  24523867.618    24523867.113    24523866.679     -132549.036 1   -103282.368 2
        11.000          15.100
  20260654.390    20260653.891    20260650.702   -25737364.690 7 -20055079.054 8
        44.400          51.400
  23152871.807    23152870.046    23152868.060    -9893777.342 4  -7709435.959 4
        29.500          29.500
 09  1  1  1 59 30.0000000  0  9G21G11G 9G 6G14G18G 3G22G19
  24037150.292    24037149.912    24037148.409    -8078736.591 2  -6295113.982 2
        13.900          13.900
  24818049.477    24818048.213    24818049.532     -293594.089     -228774.008 1
                        11.000
  21421589.184    21421588.589    21421587.853   -17909144.238 6 -13955171.665 5
        36.100          35.100
  24599973.419    24599973.239    24599975.061     -314608.069 2   -245147.184 3
        12.600          19.300
  21621032.012    21621031.206    21621029.916   -19224420.229 6 -14980063.374 6
        36.700          36.600
  21391682.826    21391682.044    21391680.215   -20574091.824 6 -16031748.591 6
        38.500          37.700
  24541560.049    24541559.142    24541559.394      -39573.466 1    -30833.886 2
         9.000          13.900
  20261128.737    20261128.212    20261125.033   -25734871.913 7 -20053136.630 8
        44.300          51.400
  23160220.353    23160218.573    23160216.563    -9855159.453 4  -7679344.107 4
        29.000          29.000
                            4 15
RINEX FILE SPLICE                                           COMMENT
teqc  2008Oct2      WCDA Operator       20090101 03:18:16UTCCOMMENT
STATION INFORMATION EFFECTIVE FROM: 2001/01/13 18:20:00     COMMENT
                                TO: CURRENT DATE (above)    COMMENT
BIT 2 OF LLI FLAGS (+4) DATA COLLECTED UNDER 'AS' CONDITION COMMENT
L1 PHASE CENTRE 0.110m ABOVE ARP                            COMMENT
L2 PHASE CENTRE 0.128m ABOVE ARP                            COMMENT
where ARP is the Antenna Reference Point for HI measurement COMMENT
CONTACT gps@pgc.nrcan.gc.ca FOR ADDITIONAL INFORMATION      COMMENT
    P1 =    P1  TurboRogue; =    Y1  Benchmark              COMMENT
    L1 = L1(CA)                                             COMMENT
    P2 =    P2  TurboRogue; =    Y2  Benchmark              COMMENT
    L2 = L2(P2) TurboRogue; = L2(Y2) Benchmark              COMMENT
 SNR is mapped to RINEX snr flag value [0-9]                COMMENT
  L1 & L2: min(max(int(snr_dBHz/6), 0), 9)                  COMMENT
 09  1  1  2  0  0.0000000  0  9G21G11G 9G 6G14G18G 3G22G19
  24059089.340    24059088.129    24059087.854    -7963444.328 2  -6205275.940 1
        12.600          11.000
  24799516.194    24799515.448    24799516.138     -390989.846     -304666.840 2
         3.000          12.600
  21423191.378    21423190.713    21423189.637   -17900725.597 6 -13948611.682 5
        36.100          34.700
  24617497.858    24617497.062    24617498.792     -222521.828 2   -173391.639 3
        13.900          19.300
  21606886.606    21606885.901    21606884.681   -19298754.063 6 -15037985.836 6
        36.800          36.700
  21403295.374    21403294.537    21403292.714   -20513067.484 6 -15984197.162 6
        38.400          37.500
  24559286.618    24559285.751    24559285.998       53573.270 1     41747.968 2
         6.500          15.100
  20261680.785    20261680.245    20261677.088   -25731970.902 7 -20050876.103 8
        44.300          51.400
  23167669.086    23167667.333    23167665.547    -9816016.168 4  -7648842.852 4
        29.000          29.200
 09  1  1  2  0 30.0000000  0  9G21G11G 9G 6G14G18G 3G22G19
  24081056.623    24081055.661    24081054.325    -7848007.786 2  -6115325.440 1
        13.900           9.000
  24781029.956    24781030.105    24781030.454     -488134.357 1   -380363.886 2
         6.500          12.600
  21424934.933    21424934.223    21424933.212   -17891562.980 5 -13941471.982 5
        35.900          34.600
  24635048.795    24635048.363    24635047.551     -130297.977 2   -101528.896 2
        17.000          17.800
  21592814.276    21592813.647    21592812.475   -19372704.406 6 -15095609.474 6
        36.900          37.000
  21414971.959    21414971.023    21414969.180   -20451707.284 6 -15936384.021 6
        38.300          37.400
  24577046.114    24577044.981    24577044.905      146898.954 1    114469.273 2
         9.000          15.100
  20262312.633    20262312.110    20262308.840   -25728650.738 7 -20048288.961 8
        44.300          51.300
  23175219.719    23175217.981    23175215.887    -9776338.686 4  -7617925.329 4
        29.200          29.200
 09  1  1  2  1  0.0000000  0  9G21G11G 9G 6G14G18G 3G22G19
  24103046.517    24103046.754    24103046.174    -7732443.143 2  -6025275.092 1
        15.100          11.000
  24762590.671    24762589.895    24762591.386     -585038.927 1   -455873.925 1
         6.500          11.000
  21426817.452    21426816.745    21426815.771   -17881670.240 5 -13933763.351 5
        35.800          34.700
  24652621.167    24652620.507    24652619.156      -37953.275 2    -29572.025 2
        15.100          15.100
  21578812.753    21578811.963    21578810.758   -19446283.618 6 -15152943.912 6
        36.900          37.200
  21426709.532    21426708.752    21426706.652   -20390025.940 6 -15888320.639 6
        38.300          37.200
  24594834.993    24594834.126    24594835.750      240386.361 1    187316.649 2
        11.000          15.100
  20263021.617    20263021.085    20263017.829   -25724925.048 7 -20045385.823 8
        44.200          51.300
  23182868.697    23182866.993    23182864.880    -9736142.317 4  -7586603.477 4
        29.200          29.200
 09  1  1  2  1 30.0000000  0  9G21G11G 9G 6G14G18G 3G22G19
  24125060.362    24125060.128    24125060.108    -7616756.441 2  -5935129.652 1
        15.100           9.000
  24744197.555    24744196.359    24744195.791     -681704.856 1   -531198.033 1
         6.500          11.000
  21428838.342    21428837.560    21428836.704   -17871051.981 6 -13925489.383 5
        36.100          35.100
  24670214.299    24670214.065    24670213.578       54505.480 2     42473.734 2
        13.900          15.100
  21564881.214    21564880.431    21564879.208   -19519494.538 6 -15209991.372 6
        37.100          37.200
  21438507.198    21438506.389    21438504.541   -20328027.985 6 -15840010.546 6
        38.000          37.000
  24612655.310    24612654.389    24612654.625      334029.262 2    260285.146 2
        13.900          13.900
  20263807.006    20263806.472    20263803.346   -25720797.414 7 -20042169.487 8
        44.100          51.400
  23190615.737    23190614.005    23190611.806    -9695432.841 4  -7554881.815 4
        29.200          29.700
 09  1  1  2  2  0.0000000  0  9G 9G21G11G 6G14G18G 3G22G19
  21430998.440    21430997.838    21430997.028   -17859698.376 5 -13916642.411 5
        35.700          34.900
  24147100.265    24147099.776    24147099.373    -7500939.721 2  -5844882.905 1
        13.900           9.000
  24725849.479    24725848.502    24725846.657     -778119.497     -606326.334 1
         3.000          11.000
  24687832.671    24687832.622    24687831.864      147085.636 2    114614.125 2
        12.600          17.000
  21551021.542    21551020.934    21551019.909   -19592325.621 6 -15266742.849 6
        37.100          37.300
  21450367.356    21450366.488    21450364.436   -20265703.851 6 -15791446.290 6
        38.200          36.900
  24630506.025    24630505.531    24630504.962      427834.685 2    333380.230 2
        15.100          13.900
  20264670.982    20264670.440    20264667.293   -25716257.321 7 -20038631.756 8
        44.100          51.400
  23198461.439    23198459.439    23198457.670    -9654201.865 4  -7522753.784 4
        28.800          29.700
 09  1  1  2  2 30.0000000  0  9G 9G21G11G 6G14G18G 3G22G19
  21433299.282    21433298.629    21433298.048   -17847607.142 5 -13907220.674 5
        35.500          35.200
  24169165.169    24169164.405    24169163.705    -7384992.711 2  -5754534.649 1
        16.100           9.000
  24707551.128    24707551.686    24707546.682     -874277.967     -681255.013 1
         3.000          11.000
  24705473.008    24705472.823    24705473.351      239786.926 1    186848.863 3
        11.000          18.600
  21537235.284    21537234.586    21537233.545   -19664773.346 6 -15323195.611 6
        37.300          37.500
  21462289.475    21462288.584    21462286.826   -20203051.966 6 -15742626.639 6
        38.000          37.000
  24648387.375    24648386.707    24648385.459      521801.818 2    406601.355 2
        13.900          13.900
  20265613.873    20265613.345    20265610.195   -25711302.411 7 -20034770.783 8
        44.100          51.300
  23206406.853    23206404.931    23206403.168    -9612448.794 4  -7490218.930 4
        28.600          29.700
 09  1  1  2  3  0.0000000  0  9G 9G21G11G 6G14G18G 3G22G19
  21435739.601    21435738.877    21435738.025   -17834784.811 5 -13897229.240 5
        35.800          35.100
  24191253.435    24191252.065    24191251.166    -7268923.602 2  -5664091.232 1
        17.800           9.000
  24689302.703    24689301.930    24689296.203     -970183.134     -755986.326 1
         3.000           9.000
  24723134.980    24723133.385    24723134.936      332600.599 1    259171.179 3
         6.500          19.300
  21523520.841    21523520.299    21523519.454   -19736842.122 6 -15379353.089 6
        37.400          37.700
  21474272.688    21474271.918    21474270.290   -20140078.903 6 -15693556.723 6
        37.800          36.900
  24666298.245    24666297.038    24666296.048      615922.226 2    479941.912 2
        12.600          15.100
  20266634.668    20266634.137    20266630.874   -25705938.217 7 -20030590.889 8
        44.100          51.200
  23214450.009    23214448.516    23214446.222    -9570181.013 4  -7457283.000 4
        28.800          29.500
 09  1  1  2  3 30.0000000  0  9G 9G21G11G 6G14G18G 3G22G19
  21438318.472    21438317.838    21438316.937   -17821232.558 6 -13886669.044 5
        36.000          35.100
  24213362.581    24213361.962    24213360.781    -7152735.620 2  -5573555.175 1
        17.800           6.500
  24671098.542    24671097.762    24671094.351    -1065833.971     -830519.425 1
         3.000          11.000
  24740816.858    24740818.137    24740817.157      425523.042      331578.267 2
         3.000          16.100
  21509878.943    21509878.293    21509877.410   -19808531.750 6 -15435215.127 6
        37.500          37.900
  21486316.953    21486316.071    21486314.367   -20076786.238 6 -15644237.766 6
        37.800          36.700
  24684235.752    24684235.541    24684236.554      710191.773 1    553398.705 2
        11.000          17.800
  20267733.081    20267732.556    20267729.384   -25700165.650 7 -20026092.783 8
        44.100          51.200
  23222591.120    23222589.181    23222587.386    -9527401.112 4  -7423948.022 4
        28.800          29.900
