     2.11           OBSERVATION DATA    G (GPS)             RINEX VERSION / TYPE
teqc  2008Oct2      WCDA Operator       20090105 00:18:56UTCPGM / RUN BY / DATE
Solaris x86 5.10|AMD64|cc SC5.8 -xarch=amd64|=+|=+          COMMENT
teqc  2008Oct2      WCDA Operator       20090104 01:18:40UTCCOMMENT
flin  WCDA-ACP   965000   CFS Flin Flon SASK Canada         MARKER NAME
40135M001                                                   MARKER NUMBER
PGC-WCDA            GEOL. SURV. CANADA                      OBSERVER / AGENCY
1115                AOA BENCHMARK ACT   3.3.32.4            REC # / TYPE / VERS
231                 AOAD/M_T        SCIS                    ANT # / TYPE
  -766174.4630 -3611375.3160  5184056.2210                  APPROX POSITION XYZ
        0.1500        0.0000        0.0000                  ANTENNA: DELTA H/E/N
     1     1                                                WAVELENGTH FACT L1/2
     7    C1    P1    P2    L1    L2    S1    S2            # / TYPES OF OBSERV
STATION INFORMATION EFFECTIVE FROM: 2001/01/13 18:20:00     COMMENT
                                TO: CURRENT DATE (above)    COMMENT
BIT 2 OF LLI FLAGS (+4) DATA COLLECTED UNDER 'AS' CONDITION COMMENT
L1 PHASE CENTRE 0.110m ABOVE ARP                            COMMENT
L2 PHASE CENTRE 0.128m ABOVE ARP                            COMMENT
where ARP is the Antenna Reference Point for HI measurement COMMENT
CONTACT gps@pgc.nrcan.gc.ca FOR ADDITIONAL INFORMATION      COMMENT
    P1 =    P1  TurboRogue; =    Y1  Benchmark              COMMENT
    L1 = L1(CA)                                             COMMENT
    P2 =    P2  TurboRogue; =    Y2  Benchmark              COMMENT
    L2 = L2(P2) TurboRogue; = L2(Y2) Benchmark              COMMENT
 SNR is mapped to RINEX snr flag value [0-9]                COMMENT
  L1 & L2: min(max(int(snr_dBHz/6), 0), 9)                  COMMENT
  2009     1     4     0     0    0.0000000     GPS         TIME OF FIRST OBS
                                                            END OF HEADER
 09  1  4  0  0  0.0000000  0 10G21G26G19G15G 6G 3G18G22G 9G24
  20589677.249    20589676.418    20589674.672   -26123214.544 6 -20355740.586 7
        40.700          43.000
  22802002.384    22802002.061    22802001.197    -7978376.131 3  -6216905.235 4
        23.800          25.600
  24051631.419    24051629.911    24051627.722    -5270894.377 3  -4107188.831 3
        21.100          23.400
  21849723.783    21849723.624    21849722.332   -15790883.699 6 -12304572.363 6
        37.000          39.100
  22255511.989    22255511.396    22255511.229   -13494047.801 5 -10514843.566 5
        33.600          33.000
  22369876.527    22369875.534    22369875.176   -10631238.081 5  -8284079.132 5
        31.800          31.000
  20505457.309    20505456.530    20505455.476   -25326468.028 6 -19734900.724 7
        38.200          46.900
  21802502.446    21802501.810    21802498.873   -17572525.675 6 -13692869.106 6
        37.000          36.800
  23890729.424    23890729.599    23890729.323    -5788493.301 2  -4510510.792 3
        13.900          22.600
  23825516.176    23825514.820    23825515.426    -4959730.299 2  -3864720.059 3
        16.100          20.500
 09  1  4  0  0 30.0000000  0 10G21G26G19G15G 6G 3G18G22G 9G24
  20597486.606    20597485.815    20597484.142   -26082176.155 6 -20323762.619 7
        40.700          42.900
  22821803.117    22821802.747    22821802.076    -7874321.193 3  -6135823.455 4
        22.600          25.600
  24036945.026    24036943.114    24036941.890    -5348069.530 3  -4167325.280 3
        18.600          23.000
  21861469.648    21861469.498    21861468.092   -15729159.480 6 -12256475.567 6
        37.200          38.900
  22256742.987    22256742.352    22256742.098   -13487578.317 5 -10509802.416 5
        33.200          33.000
  22369245.644    22369244.801    22369244.898   -10634551.475 5  -8286660.983 5
        31.300          31.300
  20501715.461    20501714.707    20501712.588   -25346131.074 6 -19750222.567 7
        38.200          46.700
  21788578.808    21788578.170    21788575.344   -17645694.974 6 -13749884.115 6
        37.000          37.200
  23869924.468    23869923.318    23869922.460    -5897833.494 2  -4595710.868 3
        16.100          23.000
  23844846.298    23844845.611    23844845.653    -4858150.403 2  -3785566.948 3
        16.100          21.100
 09  1  4  0  1  0.0000000  0 10G21G26G19G15G 6G 3G18G22G 9G24
  20605389.514    20605388.667    20605386.863   -26040647.146 6 -20291402.352 7
        40.900          42.800
  22841672.529    22841672.192    22841671.213    -7769907.407 3  -6054462.054 4
        22.600          25.600
  24022336.542    24022335.152    24022332.427    -5424842.571 3  -4227148.388 3
        19.300          23.000
  21873303.403    21873303.406    21873302.025   -15666972.070 6 -12208017.838 6
        37.200          38.900
  22258083.806    22258083.173    22258082.995   -13480532.349 5 -10504312.050 5
        33.400          33.000
  22368733.583    22368732.750    22368732.439   -10637243.874 5  -8288758.957 5
        31.600          31.300
  20498048.113    20498047.364    20498046.208   -25365403.450 6 -19765239.989 7
        38.200          46.700
  21774707.051    21774706.585    21774704.028   -17718589.389 6 -13806684.929 6
        37.000          37.200
  23849159.155    23849158.680    23849158.863    -6006950.520 2  -4680737.051 3
        17.000          23.400
  23864203.718    23864203.803    23864204.381    -4756420.957 2  -3706297.302 3
        17.000          21.100
 09  1  4  0  1 30.0000000  0 10G21G26G19G15G 6G 3G18G22G 9G24
  20613385.423    20613384.575    20613382.772   -25998628.306 6 -20258660.396 7
        40.900          42.700
  22861609.785    22861609.422    22861608.441    -7665138.245 3  -5972823.751 4
        23.000          26.200
  24007803.652    24007802.078    24007800.632    -5501211.460 3  -4286656.595 3
        21.100          23.800
  21885225.154    21885224.977    21885223.413   -15604323.998 6 -12159201.159 6
        37.100          38.900
  22259534.246    22259533.723    22259533.390   -13472910.434 5 -10498372.907 5
        33.200          33.100
  22368339.092    22368338.259    22368338.145   -10639315.324 5  -8290373.070 5
        31.300          30.800
  20494454.722    20494454.020    20494451.862   -25384285.704 6 -19779953.426 7
        38.100          46.400
  21760888.159    21760887.697    21760884.940   -17791208.455 6 -13863271.189 6
        37.400          37.300
  23828438.606    23828437.526    23828437.678    -6115840.762 2  -4765586.517 3
        16.100          22.600
  23883590.883    23883590.126    23883591.147    -4654543.563 2  -3626912.355 3
        17.000          21.100
 09  1  4  0  2  0.0000000  0 10G21G26G19G15G 6G 3G18G22G 9G24
  20621474.384    20621473.490    20621471.818   -25956120.607 6 -20225537.511 7
        40.700          42.700
  22881613.726    22881613.215    22881612.542    -7560017.460 3  -5890911.451 4
        23.400          25.900
  23993348.890    23993347.299    23993345.391    -5577174.317 3  -4345848.408 4
        22.100          24.200
  21897233.845    21897233.646    21897232.205   -15541217.761 6 -12110027.464 6
        36.900          38.900
  22261094.070    22261093.545    22261093.291   -13464713.556 5 -10491985.727 5
        33.200          33.000
  22368062.903    22368062.149    22368062.043   -10640766.766 5  -8291504.054 5
        31.300          31.000
  20490936.027    20490935.217    20490934.122   -25402777.704 6 -19794362.770 7
        38.100          46.600
  21747121.919    21747121.369    21747118.482   -17863551.041 6 -13919642.016 6
        37.400          37.200
  23807759.553    23807759.345    23807759.685    -6224501.294 2  -4850256.982 3
        13.900          21.100
  23903006.505    23903005.209    23903005.542    -4552520.284 2  -3547413.740 3
        16.100          21.100
 09  1  4  0  2 30.0000000  0 10G21G26G19G15G 6G 3G18G22G 9G24
  20629656.625    20629655.794    20629654.051   -25913122.384 6 -20192032.406 7
        40.900          42.600
  22901684.196    22901683.639    22901682.993    -7454546.324 3  -5808726.156 4
        23.000          26.200
  23978971.055    23978969.560    23978968.007    -5652726.915 3  -4404720.547 4
        22.100          24.200
  21909329.605    21909329.531    21909328.094   -15477653.787 6 -12060497.095 6
        37.000          38.900
  22262763.522    22262762.942    22262762.707   -13455939.867 5 -10485149.084 5
        33.000          32.800
  22367905.296    22367904.444    22367904.214   -10641596.046 5  -8292150.247 5
        31.500          31.100
  20487491.700    20487490.950    20487488.677   -25420877.356 6 -19808466.394 7
        38.100          46.700
  21733408.470    21733407.987    21733405.195   -17935614.872 6 -13975795.630 6
        37.400          37.500
  23787127.622    23787126.730    23787126.787    -6332926.330 2  -4934743.935 3
        12.600          20.500
  23922447.466    23922446.697    23922447.970    -4450350.307 2  -3467800.826 3
        13.900          21.100
 09  1  4  0  3  0.0000000  0 10G21G26G19G15G 6G 3G18G22G 9G24
  20637931.608    20637930.750    20637929.024   -25869636.773 6 -20158147.515 7
        40.800          42.400
  22921819.820    22921819.646    22921818.851    -7348730.532 3  -5726272.300 4
        22.600          26.200
  23964672.791    23964670.845    23964668.763    -5727869.283 3  -4463273.032 4
        22.600          24.200
  21921511.664    21921511.568    21921509.978   -15413636.749 6 -12010613.686 6
        37.100          38.600
  22264542.333    22264541.734    22264541.496   -13446592.371 5 -10477865.324 5
        33.000          32.800
  22367865.339    22367864.564    22367864.275   -10641806.383 5  -8292314.140 5
        31.100          31.100
  20484121.692    20484120.943    20484119.886   -25438587.084 6 -19822266.187 7
        38.100          46.600
  21719747.973    21719747.451    21719744.643   -18007401.451 6 -14031733.206 6
        37.400          37.700
  23766540.119    23766539.392    23766539.913    -6441114.930 2  -5019046.657 3
        16.100          22.100
  23941917.421    23941916.574    23941917.055    -4348037.628 2  -3388076.709 3
        15.100          19.300
 09  1  4  0  3 30.0000000  0 10G21G26G19G15G 6G 3G18G22G 9G24
  20646298.647    20646297.806    20646296.092   -25825667.436 6 -20123885.694 7
        40.800          42.300
  22942020.175    22942019.667    22942019.360    -7242576.528 3  -5643554.904 4
        21.600          25.900
  23950451.059    23950449.614    23950447.702    -5802602.080 3  -4521506.369 4
        22.100          24.200
  21933778.761    21933778.693    21933777.027   -15349171.926 6 -11960381.353 6
        36.800          38.300
  22266429.736    22266429.180    22266428.736   -13436674.751 5 -10470137.309 5
        33.400          32.800
  22367941.856    22367941.329    22367941.661   -10641400.369 5  -8291997.760 5
        30.600          31.300
  20480825.384    20480824.550    20480822.318   -25455909.689 6 -19835764.331 7
        38.100          46.700
  21706139.820    21706139.251    21706136.510   -18078912.950 6 -14087456.429 6
        37.400          37.800
  23745997.062    23745996.590    23745997.241    -6549066.713 2  -5103164.826 3
        17.800          22.600
  23961413.250    23961412.566    23961412.514    -4245586.807 2  -3308244.922 3
        17.800          18.600
 09  1  4  0  4  0.0000000  0 10G21G26G19G15G 6G 3G18G22G 9G24
  20654758.386    20654757.522    20654755.793   -25781211.502 6 -20089244.710 7
        40.700          42.300
  22962284.953    22962284.639    22962284.202    -7136084.210 3  -5560573.894 4
        21.100          25.600
  23936307.644    23936306.863    23936305.692    -5876919.785 3  -4579416.246 3
        21.600          23.800
  21946131.641    21946131.445    21946129.823   -15284257.944 6 -11909799.021 6
        36.700          38.200
  22268426.124    22268425.465    22268424.974   -13426184.049 5 -10461962.749 5
        33.400          32.700
  22368137.618    22368136.742    22368136.465   -10640374.926 5  -8291198.706 5
        31.000          31.100
  20477603.394    20477602.529    20477601.473   -25472841.504 6 -19848957.954 7
        38.100          46.600
  21692585.073    21692584.476    21692581.575   -18150144.727 6 -14142961.686 6
        37.900          37.900
  23725501.531    23725500.583    23725500.413    -6656774.797 3  -5187093.137 3
        19.900          21.100
  23980935.680    23980934.946    23980935.103    -4142995.606 3  -3228303.776 3
        18.600          18.600
 09  1  4  0  4 30.0000000  0 10G21G26G19G15G 6G 3G18G22G 9G24
  20663309.944    20663309.121    20663307.525   -25736272.103 6 -20054227.000 7
        40.700          42.100
  22982613.012    22982612.804    22982612.238    -7029259.243 3  -5477333.665 4
        22.100          24.900
  23922245.931    23922244.172    23922241.947    -5950822.527 3  -4637002.782 3
        23.000          23.000
  21958568.689    21958568.619    21958567.195   -15218900.097 6 -11858870.828 6
        36.900          38.300
  22270530.827    22270530.168    22270529.937   -13415123.340 5 -10453344.013 5
        33.100          33.000
  22368449.526    22368448.833    22368448.911   -10638733.513 5  -8289919.680 5
        30.600          31.100
  20474455.187    20474454.388    20474452.075   -25489385.155 6 -19861849.115 7
        38.100          46.600
  21679082.770    21679082.252    21679079.379   -18221098.909 6 -14198250.643 6
        38.100          37.900
  23705051.276    23705050.914    23705050.252    -6764238.289 3  -5270830.874 3
        19.900          18.600
  24000484.863    24000483.797    24000484.011    -4040268.331 2  -3148256.607 3
        17.800          19.300
 09  1  4  0  5  0.0000000  0 10G21G26G19G15G 6G 3G18G22G 9G24
  20671953.935    20671953.106    20671951.318   -25690848.329 6 -20018831.851 6
        40.900          41.900
  23003004.443    23003004.098    23003002.909    -6922103.755 3  -5393835.883 4
        21.600          24.600
  23908261.745    23908260.460    23908258.156    -6024306.658 3  -4694263.154 3
        22.100          22.600
  21971090.153    21971090.146    21971088.495   -15153099.091 6 -11807597.305 6
        36.700          38.100
  22272744.086    22272743.488    22272743.499   -13403491.897 5 -10444280.550 5
        32.800          33.100
  22368879.680    22368878.744    22368878.939   -10636474.451 5  -8288159.369 5
        30.600          31.500
  20471381.130    20471380.295    20471379.338   -25505538.882 6 -19874436.427 7
        38.100          46.300
  21665634.127    21665633.597    21665630.594   -18291772.535 6 -14253320.989 6
        38.200          38.100
  23684650.262    23684648.846    23684648.124    -6871451.906 2  -5354373.884 3
        17.800          18.600
  24020058.921    24020057.700    24020058.560    -3937404.973 2  -3068103.375 3
        17.000          21.100
 09  1  4  0  5 30.0000000  0 10G21G26G19G15G 6G 3G18G22G 9G24
  20680690.949    20680690.098    20680688.295   -25644935.501 6 -19983055.619 6
        40.900          41.900
  23023458.706    23023458.423    23023457.371    -6814615.398 3  -5310078.728 3
        21.600          23.800
  23894358.782    23894357.245    23894356.212    -6097364.442 3  -4751191.286 3
        20.500          22.100
  21983696.710    21983696.682    21983695.101   -15086851.443 6 -11755975.761 6
        36.500          38.200
  22275067.088    22275066.389    22275066.162   -13391284.529 5 -10434768.318 5
        33.000          32.800
  22369427.706    22369427.066    22369427.023   -10633593.042 5  -8285914.114 5
        31.000          31.300
  20468382.510    20468381.682    20468379.367   -25521297.250 6 -19886715.669 7
        38.000          46.500
  21652239.735    21652239.254    21652236.365   -18362159.762 6 -14308168.169 6
        38.200          38.400
  23664296.283    23664295.367    23664295.660    -6978406.325 2  -5437714.933 3
        17.000          18.600
  24039659.782    24039658.605    24039659.971    -3834401.302 2  -2987840.824 3
        16.100          21.100
 09  1  4  0  6  0.0000000  0 10G21G26G19G15G 6G 3G18G22G 9G24
  20689519.452    20689518.705    20689516.908   -25598540.747 6 -19946903.863 6
        40.900          41.700
  23043974.639    23043974.157    23043973.179    -6706803.921 3  -5226069.779 3
        22.100          23.400
  23880537.406    23880535.550    23880533.774    -6169999.958 3  -4807790.363 3
        20.500          22.600
  21996386.510    21996386.372    21996384.927   -15020165.892 6 -11704012.993 6
        36.300          38.100
  22277498.461    22277497.823    22277497.586   -13378508.485 5 -10424812.959 5
        33.000          33.000
  22370093.655    22370092.904    22370092.618   -10630096.030 5  -8283189.168 5
        31.500          31.500
  20465457.816    20465456.992    20465455.930   -25536666.494 6 -19898691.693 7
        38.000          46.300
  21638898.897    21638898.408    21638895.610   -18432266.218 6 -14362796.563 6
        38.100          38.400
  23643992.544    23643991.922    23643991.264    -7085104.758 2  -5520856.523 3
        17.800          19.900
  24059285.015    24059283.948    24059285.527    -3731265.337 2  -2907475.168 3
        15.100          21.600
 09  1  4  0  6 30.0000000  0 10G21G26G19G15G 6G 3G18G22G 9G24
  20698440.750    20698439.903    20698438.115   -25551659.495 6 -19910373.016 6
        40.900          41.600
  23064552.556    23064552.279    23064550.913    -6598667.389 3  -5141807.536 3
        22.600          23.400
  23866797.020    23866795.513    23866793.607    -6242205.636 3  -4864054.519 3
        22.100          23.000
  22009160.248    22009160.183    22009158.661   -14953039.772 6 -11651706.922 6
        36.200          38.000
  22280038.814    22280038.099    22280037.879   -13365159.147 5 -10414410.877 5
        33.000          32.800
  22370876.837    22370876.038    22370876.048   -10625978.764 5  -8279980.904 5
        30.600          31.100
  20462608.091    20462607.302    20462604.884   -25551641.513 6 -19910360.523 7
        38.000          46.400
  21625612.680    21625612.223    21625609.405   -18502085.537 6 -14417201.208 6
        38.100          38.500
  23623738.740    23623738.321    23623737.876    -7191538.410 2  -5603791.790 3
        17.000          21.600
  24078937.771    24078936.730    24078937.709    -3627993.199 2  -2827003.420 3
        12.600          21.100
 09  1  4  0  7  0.0000000  0 10G21G26G19G15G 6G 3G18G22G 9G24
  20707455.330    20707454.412    20707452.643   -25504288.313 6 -19873460.407 6
        40.900          41.600
  23085191.924    23085191.694    23085190.522    -6490205.189 3  -5057291.534 3
        22.100          23.800
  23853139.795    23853138.352    23853136.297    -6313975.296 3  -4919978.928 3
        22.600          23.800
  22022018.267    22022018.084    22022016.476   -14885471.268 6 -11599056.134 6
        36.100          37.900
  22282688.433    22282687.869    22282687.933   -13351233.070 5 -10403559.386 5
        32.700          32.800
  22371779.237    22371778.485    22371778.362   -10621237.053 5  -8276286.064 5
        30.800          31.000
  20459834.317    20459833.484    20459832.419   -25566217.922 6 -19921718.751 7
        37.800          46.400
  21612382.050    21612381.480    21612378.843   -18571613.006 6 -14471378.428 6
        37.900          38.500
  23603536.426    23603536.172    23603536.329    -7297700.002 2  -5686515.032 3
        13.900          23.000
  24098615.532    24098614.817    24098616.009    -3524582.357 2  -2746423.599 3
        12.600          21.600
 09  1  4  0  7 30.0000000  0 10G21G26G19G15G 6G 3G18G22G 9G24
  20716560.761    20716559.825    20716558.010   -25456438.662 6 -19836174.963 6
        40.900          41.400
  23105890.606    23105890.729    23105889.628    -6381431.101 3  -4972532.507 3
        21.600          23.800
  23839564.401    23839562.658    23839560.665    -6385317.389 3  -4975570.143 4
        23.000          24.600
  22034957.619    22034957.530    22034956.079   -14817473.286 6 -11546070.689 6
        36.000          37.900
  22285446.121    22285445.557    22285445.555   -13336741.571 5 -10392267.307 5
        32.700          33.000
  22372798.188    22372797.336    22372797.517   -10615882.220 5  -8272113.466 5
        30.800          31.300
  20457134.403    20457133.595    20457131.279   -25580406.102 6 -19932774.461 7
        37.900          46.500
  21599205.188    21599204.623    21599201.732   -18640858.341 6 -14525335.808 6
        38.200          38.600
  23583384.971    23583384.936    23583384.737    -7403596.171 2  -5769031.428 3
        16.100          23.400
  24118317.998    24118317.492    24118318.369    -3421044.828 2  -2665745.058 3
        12.600          22.100
 09  1  4  0  8  0.0000000  0 10G21G26G19G15G 6G 3G18G22G 9G24
  20725757.016    20725756.202    20725754.500   -25408111.253 6 -19798517.244 6
        40.900          41.400
  23126648.358    23126648.131    23126647.342    -6272348.587 3  -4887533.157 3
        21.100          23.800
  23826069.805    23826068.126    23826066.414    -6456230.023 3  -5030826.733 4
        23.400          24.600
  22047978.359    22047978.424    22047976.919   -14749048.236 5 -11492752.470 6
        35.800          37.700
  22288311.336    22288310.661    22288310.553   -13321685.540 5 -10380535.338 5
        32.800          32.800
  22373933.471    22373932.762    22373933.114   -10609915.077 5  -8267463.743 5
        30.400          31.300
  20454508.185    20454507.485    20454506.278   -25594206.500 6 -19943528.008 7
        37.900          46.200
  21586081.956    21586081.509    21586078.511   -18709820.778 6 -14579072.754 6
        38.400          38.600
  23563285.251    23563284.602    23563284.099    -7509223.789 3  -5851338.614 3
        18.600          22.600
  24138045.199    24138044.052    24138045.150    -3317382.060 1  -2584968.943 3
        11.000          21.100
 09  1  4  0  8 30.0000000  0 10G21G26G19G15G 6G 3G18G22G 9G24
  20735044.233    20735043.427    20735041.696   -25359306.569 6 -19760487.622 6
        40.900          41.200
  23147464.832    23147464.309    23147462.779    -6162960.322 3  -4802295.554 3
        21.100          23.400
  23812656.702    23812655.503    23812654.190    -6526710.346 3  -5085746.455 4
        21.600          24.900
  22061080.243    22061080.075    22061078.648   -14680198.080 5 -11439102.991 6
        35.700          37.700
  22291284.044    22291283.490    22291283.089   -13306065.062 5 -10368363.540 5
        33.100          33.000
  22375185.577    22375184.907    22375184.900   -10603335.325 5  -8262336.661 5
        30.600          31.000
  20451956.079    20451955.297    20451952.775   -25607618.362 6 -19953978.809 7
        37.900          46.400
  21573012.875    21573012.374    21573009.484   -18778499.001 6 -14632588.228 6
        38.300          38.700
  23543236.518    23543235.841    23543235.744    -7614578.469 3  -5933433.120 3
        19.300          23.000
  24157794.620    24157793.854    24157795.111    -3213595.236 2  -2504096.125 3
        12.600          20.500
 09  1  4  0  9  0.0000000  0 10G21G26G19G15G 6G 3G18G22G 9G24
  20744423.328    20744422.435    20744420.554   -25310020.193 6 -19722082.650 6
        41.000          41.100
  23168339.391    23168338.659    23168337.051    -6053264.963 3  -4716818.630 3
        21.100          23.000
  23799328.949    23799327.748    23799326.112    -6596751.299 3  -5140323.817 4
        22.100          25.600
  22074263.274    22074263.162    22074261.806   -14610920.391 5 -11385120.376 6
        35.600          37.700
  22294364.551    22294363.943    22294363.757   -13289876.298 5 -10355748.922 5
        32.700          33.100
  22376555.056    22376554.304    22376554.303   -10596139.267 5  -8256729.333 5
        31.000          31.000
  20449478.721    20449477.889    20449476.833   -25620637.066 6 -19964123.251 7
        37.900          46.200
  21559999.086    21559998.562    21559995.503   -18846887.470 6 -14685877.923 6
        38.500          38.700
  23523241.719    23523241.009    23523240.654    -7719652.089 3  -6015308.614 3
        19.300          23.000
  24177569.606    24177568.455    24177569.312    -3109681.143 2  -2423124.144 3
        13.900          19.900
 09  1  4  0  9 30.0000000  0 10G21G26G19G15G 6G 3G18G22G 9G24
  20753894.235    20753893.380    20753891.659   -25260249.331 6 -19683300.161 6
        41.000          41.100
  23189271.854    23189271.248    23189270.162    -5943261.684 3  -4631101.778 3
        20.500          23.000
  23786085.496    23786083.694    23786082.696    -6666346.666 3  -5194553.970 4
        22.100          24.900
  22087528.241    22087528.066    22087526.654   -14541213.543 5 -11330803.351 6
        35.600          37.700
  22297553.706    22297553.185    22297553.100   -13273115.816 5 -10342688.811 5
        32.400          32.800
  22378042.454    22378041.650    22378041.601   -10588323.433 5  -8250639.076 5
        31.500          31.000
  20447076.930    20447076.081    20447073.649   -25633258.271 6 -19973957.954 7
        37.800          46.100
  21547041.069    21547040.591    21547037.632   -18914981.365 6 -14738938.084 6
        38.800          38.600
  23503301.632    23503301.467    23503300.955    -7824436.940 3  -6096959.085 3
        19.900          23.400
  24197369.721    24197368.245    24197368.112    -3005637.200 2  -2342051.047 3
        13.900          19.300
 09  1  4  0 10  0.0000000  0 10G21G26G19G15G 6G 3G18G22G 9G24
  20763456.383    20763455.574    20763453.825   -25209999.529 6 -19644144.470 6
        40.800          40.800
  23210261.553    23210261.110    23210260.215    -5832958.854 3  -4545151.532 3
        19.900          23.400
  23772925.943    23772924.585    23772922.574    -6735499.438 3  -5248439.227 4
        21.600          24.600
  22100873.293    22100873.125    22100871.541   -14471084.796 5 -11276157.569 6
        35.600          37.300
  22300850.962    22300850.316    22300850.165   -13255789.591 5 -10329187.851 5
        32.400          32.800
  22379646.768    22379645.937    22379645.795   -10579893.107 5  -8244069.984 5
        31.500          30.800
  20444749.916    20444749.057    20444747.968   -25645486.906 6 -19983486.752 7
        37.800          46.200
  21534138.592    21534138.075    21534135.128   -18982784.744 6 -14791771.868 6
        38.800          38.900
  23483417.064    23483416.315    23483415.907    -7928934.460 3  -6178385.664 3
        19.300          23.800
  24217190.868    24217189.816    24217190.465    -2901469.738 2  -2260881.682 3
        16.100          18.600
 09  1  4  0 10 30.0000000  0 10G21G26G19G15G 6G 3G18G22G 9G24
  20773109.704    20773108.913    20773107.112   -25159271.027 6 -19604615.763 6
        40.900          40.700
  23231307.795    23231307.732    23231306.989    -5722359.145 3  -4458969.938 3
        19.900          23.000
  23759852.100    23759850.114    23759847.911    -6804206.853 3  -5301977.439 4
        22.100          24.900
  22114297.959    22114297.876    22114296.444   -14400535.939 5 -11221184.427 6
        35.300          37.200
  22304255.533    22304255.037    22304254.739   -13237897.891 5 -10315246.261 5
        32.400          32.700
  22381367.902    22381366.989    22381366.902   -10570848.150 5  -8237021.957 5
        31.100          30.400
  20442497.614    20442496.807    20442494.345   -25657322.445 6 -19992709.238 7
        37.800          46.200
  21521291.826    21521291.188    21521288.050   -19050296.349 6 -14844378.299 6
        38.900          38.900
  23463586.939    23463586.269    23463586.299    -8033140.669 3  -6259585.256 4
        20.500          24.200
  24237036.087    24237035.058    24237036.154    -2797179.867 2  -2179616.906 2
        15.100          17.000
 09  1  4  0 11  0.0000000  0 10G21G26G19G15G 6G 3G18G22G 9G24
  20782853.775    20782852.929    20782851.290   -25108065.586 6 -19564715.416 6
        40.700          40.700
  23252410.158    23252410.473    23252409.277    -5611466.970 3  -4372560.439 3
        20.500          23.800
  23746862.033    23746860.245    23746858.195    -6872467.940 3  -5355167.876 4
        21.600          24.600
  22127802.523    22127802.445    22127800.969   -14329570.462 5 -11165886.652 6
        35.600          37.300
  22307767.732    22307767.018    22307766.713   -13219442.664 5 -10300865.562 5
        32.300          32.800
  22383205.528    22383204.841    22383204.682   -10561190.990 5  -8229496.894 5
        31.600          30.200
  20440320.018    20440319.204    20440318.057   -25668765.895 6 -20001626.203 7
        37.800          46.100
  21508499.923    21508499.426    21508496.588   -19117516.635 6 -14896757.717 6
        38.700          39.300
  23443813.268    23443812.392    23443812.060    -8137052.966 3  -6340555.842 3
        21.100          23.000
  24256904.947    24256904.056    24256904.409    -2692770.194 2  -2098258.767 2
        15.100          16.100
 09  1  4  0 11 30.0000000  0 10G21G26G19G15G 6G 3G18G22G 9G24
  20792690.373    20792689.428    20792687.642   -25056375.012 6 -19524437.046 6
        40.700          40.700
  23273569.736    23273569.329    23273567.992    -5500275.974 3  -4285918.115 3
        19.900          23.000
  23733959.200    23733957.928    23733956.501    -6940270.773 3  -5408001.241 4
        22.100          25.600
  22141387.358    22141387.363    22141385.882   -14258181.161 5 -11110258.627 6
        35.500          37.200
  22311388.274    22311387.704    22311387.673   -13200415.056 5 -10286038.860 5
        32.300          33.000
  22385161.488    22385160.752    22385160.337   -10550912.492 5  -8221487.669 5
        31.600          30.200
  20438218.875    20438218.017    20438215.483   -25679807.698 6 -20010230.205 7
        37.800          46.100
  21495765.620    21495765.163    21495762.472   -19184434.921 6 -14948901.815 6
        38.700          39.300
  23424096.977    23424096.451    23424096.265    -8240658.615 3  -6421287.483 3
        19.900          21.600
  24276797.622    24276796.598    24276797.690    -2588232.428 2  -2016800.808 2
        13.900          15.100
 09  1  4  0 12  0.0000000  0 10G21G26G19G15G 6G 3G18G22G 9G24
  20802617.138    20802616.292    20802614.575   -25004208.704 6 -19483787.977 6
        40.600          40.500
  23294783.408    23294782.744    23294781.393    -5388798.280 3  -4199052.388 3
        19.900          22.100
  23721142.963    23721141.456    23721139.588    -7007622.216 3  -5460482.881 4
        23.400          25.300
  22155050.931    22155050.882    22155049.222   -14186379.412 5 -11054309.206 6
        35.600          37.000
  22315116.277    22315115.560    22315115.396   -13180825.101 5 -10270773.950 5
        32.300          32.800
  22387234.065    22387233.244    22387232.854   -10540022.183 5  -8213001.714 5
        31.600          30.400
  20436192.371    20436191.569    20436190.407   -25690457.016 6 -20018528.368 7
        37.800          46.100
  21483087.631    21483087.072    21483084.215   -19251059.154 6 -15000816.785 6
        38.900          39.300
  23404439.019    23404438.055    23404438.108    -8343963.102 3  -6501784.455 3
        19.300          21.600
  24296712.626    24296711.720    24296712.528    -2483576.888 2  -1935251.087 2
        12.600          13.900
 09  1  4  0 12 30.0000000  0 10G22G21G26G19G15G 6G 3G18G 9G24
  21470462.921    21470462.405    21470459.516   -19317402.174 6 -15052512.629 6
        39.100          39.500
  20812631.768    20812630.980    20812629.225   -24951580.935 6 -19442779.321 6
        40.600          40.300
  23316047.669    23316047.376    23316046.192    -5277050.835 3  -4111976.458 3
        18.600          22.100
  23708410.610    23708408.495    23708406.955    -7074533.718 3  -5512621.709 4
        23.400          25.600
  22168789.555    22168789.629    22168788.092   -14114181.234 5 -10998050.885 6
        35.300          36.800
  22318948.243    22318947.647    22318947.618   -13160687.001 5 -10255081.923 5
        32.100          32.700
  22389419.778    22389419.086    22389419.030   -10528533.932 5  -8204049.826 5
        31.300          30.400
  20434238.072    20434237.280    20434234.589   -25700726.876 6 -20026530.853 7
        37.800          46.100
  23384835.959    23384835.779    23384835.176    -8446975.981 3  -6582054.207 3
        19.300          22.100
  24316647.247    24316646.399    24316647.789    -2378818.454 1  -1853621.204 2
        11.000          13.900
 09  1  4  0 13  0.0000000  0 11G22G21G26G19G15G 6G 3G14G18G 9G24
  21457895.341    21457894.920    21457891.923   -19383445.263 6 -15103974.758 6
        39.300          39.500
  20822737.650    20822736.763    20822735.107   -24898474.512 6 -19401397.692 6
        40.300          40.300
  23337366.529    23337366.168    23337365.473    -5165018.602 3  -4024678.623 3
        19.300          22.100
  23695765.203    23695763.472    23695761.393    -7140985.296 4  -5564402.152 4
        24.200          25.600
  22182606.912    22182606.790    22182605.284   -14041570.908 5 -10941471.407 6
        34.900          36.700
  22322888.279    22322887.606    22322887.176   -13139983.796 5 -10238949.561 5
        32.400          32.700
  22391723.237    22391722.477    22391722.318   -10516430.729 5  -8194618.754 5
        31.100          30.800
  25209368.418    25209367.907    25209368.650           -.37611         -.90712
         9.000          16.100
  20432359.400    20432358.647    20432357.512   -25710598.923 6 -20034223.344 7
        37.700          46.100
  23365292.990    23365292.236    23365292.817    -8549675.584 3  -6662079.827 3
        19.300          23.800
  24336605.449    24336604.087    24336605.397    -2273941.136 1  -1771898.699 2
        11.000          13.900
 09  1  4  0 13 30.0000000  0 11G22G21G26G19G15G 6G 3G14G18G 9G24
  21445384.333    21445383.882    21445380.955   -19449190.462 6 -15155204.763 6
        39.300          39.600
  20832933.758    20832932.924    20832931.294   -24844893.299 6 -19359646.089 6
        40.500          40.300
  23358738.380    23358737.957    23358737.199    -5052707.887 3  -3937163.752 3
        18.600          21.600
  23683207.698    23683205.505    23683203.160    -7206977.383 4  -5615824.537 4
        24.200          25.300
  22196501.680    22196501.651    22196500.031   -13968553.465 5 -10884574.698 6
        35.100          36.500
  22326934.634    22326934.069    22326933.716   -13118719.333 5 -10222379.847 5
        32.600          32.400
  22394142.791    22394141.922    22394141.693   -10503716.191 5  -8184711.313 5
        31.100          30.600
  25187330.113    25187330.827    25187332.897     -115795.988 1    -90231.152 2
         6.500          13.900
  20430555.933    20430555.085    20430552.390   -25720076.809 6 -20041608.700 7
        37.800          46.200
  23345810.264    23345809.363    23345809.434    -8652061.771 3  -6741861.224 4
        21.600          24.600
  24356585.892    24356584.758    24356583.715    -2168949.133 1  -1690086.808 2
        11.000          12.600
 09  1  4  0 14  0.0000000  0 11G22G21G26G19G15G 6G 3G14G18G 9G24
  21432929.311    21432928.732    21432925.600   -19514643.407 6 -15206207.036 6
        39.600          39.600
  20843218.826    20843218.041    20843216.390   -24790844.693 6 -19317530.287 6
        40.400          40.200
  23380161.528    23380161.203    23380160.369    -4940128.084 2  -3849439.226 3
        17.000          21.600
  23670735.809    23670734.213    23670731.922    -7272514.563 3  -5666892.460 4
        23.400          24.900
  22210472.185    22210472.084    22210470.528   -13895137.896 5 -10827367.758 6
        34.900          36.400
  22331086.443    22331085.873    22331085.744   -13096900.915 5 -10205378.484 5
        32.400          32.600
  22396677.360    22396676.463    22396676.239   -10490397.533 5  -8174333.134 5
        31.000          30.800
  25165301.834    25165300.735    25165305.632     -231551.840 1   -180430.428 2
         6.500          12.600
  20428826.191    20428825.325    20428823.954   -25729166.569 6 -20048691.620 7
        37.800          46.100
  23326385.357    23326384.877    23326384.511    -8754136.936 3  -6821400.275 3
        20.500          23.800
  24376585.324    24376584.577    24376584.231    -2063849.881 2  -1608191.318 2
        12.600          12.600
 09  1  4  0 14 30.0000000  0 11G22G21G26G19G15G 6G 3G14G18G 9G24
  21420531.190    21420530.697    21420527.736   -19579795.105 6 -15256974.581 6
        39.600          39.800
  20853594.340    20853593.429    20853591.819   -24736321.591 6 -19275044.757 6
        40.300          40.000
  23401637.270    23401636.958    23401635.735    -4827274.734 2  -3761501.558 3
        17.800          22.100
  23658352.621    23658350.803    23658349.520    -7337586.699 3  -5717598.013 4
        23.400          25.600
  22224519.657    22224519.400    22224517.703   -13821319.072 5 -10769846.590 6
        35.100          36.400
  22335344.962    22335344.577    22335344.365   -13074521.423 5 -10187939.926 5
        32.300          32.700
  22399327.870    22399326.985    22399327.021   -10476468.090 5  -8163479.014 5
        31.000          31.100
  25143286.072    25143284.623    25143286.406     -347257.987     -270591.010 1
         3.000          11.000
  20427171.725    20427170.875    20427168.197   -25737860.523 6 -20055466.131 7
        37.700          46.100
  23307022.635    23307021.831    23307021.798    -8855889.455 3  -6900687.919 3
        20.500          23.400
  24396606.393    24396605.891    24396605.676    -1958637.381 1  -1526207.589 2
         9.000          13.900
 09  1  4  0 15  0.0000000  0 11G22G21G26G19G15G 6G 3G14G18G 9G24
  21408189.261    21408188.765    21408185.768   -19644651.989 6 -15307512.388 6
        39.500          39.800
  20864058.469    20864057.617    20864055.715   -24681332.475 6 -19232196.093 6
        40.400          39.700
  23423162.984    23423162.287    23423161.127    -4714158.258 2  -3673358.867 3
        17.000          21.600
  23646057.375    23646055.776    23646054.201    -7402199.177 4  -5767945.384 4
        24.200          26.500
  22238642.054    22238641.849    22238640.228   -13747105.907 5 -10712018.144 6
        35.100          36.500
  22339709.069    22339708.430    22339708.112   -13051589.527 5 -10170070.920 5
        32.400          32.600
  22402093.006    22402092.359    22402092.466   -10461935.546 5  -8152154.947 5
        31.000          31.100
  25121275.626    25121273.956    25121275.921     -462920.058 1   -360717.261 1
         6.500           9.000
  20425591.286    20425590.463    20425589.237   -25746165.733 6 -20061937.720 7
        37.700          46.100
  23287720.320    23287719.468    23287719.495    -8957323.543 3  -6979727.446 4
        21.100          24.600
  24416647.346    24416646.794    24416646.273    -1853320.251 1  -1444142.360 2
         9.000          13.900
 09  1  4  0 15 30.0000000  0 11G22G21G26G19G15G 6G 3G14G18G 9G24
  21395905.044    21395904.490    21395901.517   -19709206.438 6 -15357814.542 6
        39.700          39.900
  20874612.353    20874611.589    20874609.735   -24625871.087 6 -19188979.426 6
        40.400          39.600
  23444738.552    23444738.273    23444737.018    -4600774.956 3  -3585008.229 3
        18.600          21.100
  23633851.628    23633850.062    23633847.704    -7466343.154 4  -5817927.693 4
        24.900          26.200
  22252840.150    22252840.007    22252838.201   -13672494.420 5 -10653879.320 6
        34.900          36.200
  22344178.894    22344178.291    22344178.103   -13028099.425 5 -10151766.944 5
        32.300          32.400
  22404974.929    22404974.055    22404973.697   -10446793.994 5  -8140356.327 5
        31.300          31.000
  25099277.141    25099275.660    25099275.244     -578529.152 1   -450802.173 1
         9.000          11.000
  20424086.063    20424085.316    20424082.549   -25754074.996 6 -20068100.783 7
        37.800          45.900
  23268480.408    23268480.006    23268479.832    -9058428.455 3  -7058510.451 4
        21.100          25.600
  24436708.899    24436707.955    24436708.739    -1747893.138 1  -1361991.437 2
         6.500          15.100
 09  1  4  0 16  0.0000000  0 11G22G21G26G19G15G 6G 3G14G18G 9G24
  21383679.533    21383678.973    21383675.852   -19773452.410 6 -15407876.319 6
        39.800          39.800
  20885256.829    20885255.979    20885254.289   -24569933.760 6 -19145391.900 6
        40.300          39.400
  23466365.519    23466365.226    23466364.323    -4487122.980 2  -3496448.242 3
        17.800          22.100
  23621735.418    23621734.317    23621732.182    -7530011.085 4  -5867539.053 4
        24.900          26.200
  22267114.595    22267114.395    22267112.650   -13597481.708 5 -10595427.849 6
        34.800          36.300
  22348756.264    22348755.640    22348755.151   -13004046.582 5 -10133024.476 5
        32.600          32.600
  22407972.793    22407971.942    22407971.620   -10431039.158 5  -8128079.827 5
        31.000          30.800
  25077289.469    25077288.015    25077287.623     -694078.089 1   -540840.262 1
         9.000           9.000
  20422657.398    20422656.566    20422655.408   -25761583.548 6 -20073951.594 7
        37.800          46.100
  23249305.764    23249305.105    23249304.432    -9159195.462 3  -7137030.142 4
        21.600          25.900
  24456792.489    24456792.162    24456792.460    -1642352.537    -1279752.097 2
         3.000          16.100
 09  1  4  0 16 30.0000000  0 11G22G21G26G19G15G 6G 3G14G18G 9G24
  21371511.466    21371510.967    21371507.952   -19837394.938 6 -15457701.650 6
        39.700          39.900
  20895990.739    20895989.968    20895988.181   -24513526.679 6 -19101438.331 6
        40.300          39.300
  23488042.140    23488041.961    23488041.083    -4373211.232 3  -3407685.824 3
        18.600          22.600
  23609709.751    23609708.102    23609706.117    -7593206.842 4  -5916782.486 4
        24.600          25.900
  22281463.665    22281463.624    22281462.011   -13522075.830 5 -10536670.024 6
        34.600          36.400
  22353438.680    22353438.385    22353438.053   -12979438.236 5 -10113849.148 5
        32.600          32.700
  22411086.041    22411085.329    22411085.224   -10414677.429 5  -8115330.425 5
        30.600          30.800
  25055311.080    25055311.852    25055311.897     -809570.732 1   -630834.499 1
         6.500           9.000
  20421303.731    20421302.863    20421300.320   -25768697.046 6 -20079494.574 7
        37.800          46.300
  23230193.133    23230192.869    23230192.745    -9259626.885 3  -7215288.356 4
        21.600          25.300
  24476897.170    24476896.921    24476897.239    -1536705.573    -1197429.853 2
                        16.100
 09  1  4  0 17  0.0000000  0 11G22G21G26G19G15G 6G 3G14G18G 9G24
  21359398.955    21359398.400    21359395.525   -19901046.865 6 -15507300.538 6
        39.800          40.300
  20906811.244    20906810.453    20906808.678   -24456664.307 6 -19057129.990 6
        40.300          39.100
  23509765.686    23509765.136    23509764.249    -4259056.355 2  -3318733.991 3
        17.000          23.000
  23597771.359    23597769.865    23597767.865    -7655941.810 3  -5965666.860 4
        23.800          26.200
  22295884.483    22295884.443    22295882.771   -13446293.013 5 -10477618.476 5
        34.300          35.800
  22358224.609    22358224.157    22358224.062   -12954288.790 5 -10094252.184 5
        32.300          33.100
  22414312.288    22414311.493    22414311.505   -10397723.761 5  -8102119.781 5
        30.600          31.000
  25033342.108    25033342.571    25033341.981     -925018.841     -720794.017 1
                        11.000
  20420022.677    20420021.846    20420020.593   -25775429.222 6 -20084740.419 7
        37.800          46.100
  23211144.068    23211143.714    23211143.374    -9359732.837 3  -7293292.968 4
        21.600          24.900
  24497017.327    24497016.749    24497017.855    -1430967.148    -1115036.325 2
                        15.100
 09  1  4  0 17 30.0000000  0 11G22G21G26G19G15G 6G 3G14G18G 9G24
  21347346.042    21347345.459    21347342.453   -19964385.713 6 -15556655.468 6
        40.000          40.300
  20917722.415    20917721.601    20917719.779   -24399326.275 6 -19012451.004 6
        40.300          38.900
  23531538.640    23531538.189    23531536.572    -4144639.983 2  -3229578.390 3
        17.800          22.100
  23585925.962    23585924.172    23585921.815    -7718192.913 3  -6014174.202 4
        23.800          26.200
  22310380.545    22310380.678    22310379.086   -13370113.993 5 -10418258.197 5
        34.100          35.700
  22363117.245    22363116.672    22363116.591   -12928577.863 5 -10074217.702 5
        31.800          33.000
  22417655.217    22417654.489    22417654.327   -10380157.481 5  -8088431.762 5
        31.300          31.100
  25011385.835    25011386.001    25011385.981    -1040398.850     -810700.460 1
         3.000          11.000
  20418818.186    20418817.356    20418814.793   -25781758.282 6 -20089672.153 7
        37.900          46.200
  23192161.747    23192160.830    23192160.800    -9459488.293 3  -7371024.466 4
        21.600          25.300
  24517157.753    24517157.129    24517162.726    -1325117.407    -1032556.096 2
                        13.900
 09  1  4  0 18  0.0000000  0 11G22G21G26G19G15G 6G 3G14G18G 9G24
  21335352.127    21335351.606    21335348.597   -20027413.626 6 -15605768.115 6
        40.000          40.300
  20928723.235    20928722.418    20928720.677   -24341516.510 6 -18967404.438 6
        40.400          38.900
  23553360.494    23553359.948    23553357.867    -4029968.340 2  -3140223.865 3
        17.800          21.600
  23574171.815    23574170.019    23574168.266    -7779960.875 4  -6062305.077 4
        24.600          26.500
  22324951.671    22324951.712    22324949.999   -13293544.289 5 -10358593.492 5
        34.500          35.900
  22368116.127    22368115.453    22368115.404   -12902309.543 5 -10053748.886 5
        32.000          33.000
  22421113.691    22421112.813    22421112.906   -10361982.565 5  -8074269.485 5
        30.800          31.000
  24989442.871    24989442.166    24989441.146    -1155711.689     -900554.549 1
         3.000           9.000
  20417689.972    20417689.186    20417687.817   -25787686.965 6 -20094291.907 7
        37.900          46.000
  23173245.610    23173244.647    23173244.478    -9558892.464 3  -7448482.228 4
        22.600          25.600
  24537323.729    24537323.188    24537323.880    -1219160.758     -949993.564 2
                        13.900
 09  1  4  0 18 30.0000000  0 11G22G21G26G19G15G 6G 3G14G18G 9G24
  21323415.644    21323415.134    21323412.357   -20090139.858 6 -15654645.681 6
        39.900          40.700
  20939811.776    20939810.896    20939809.095   -24283246.106 6 -18921998.927 6
        40.300          38.600
  23575227.157    23575227.133    23575225.547    -3915054.677 2  -3050680.760 3
        17.000          21.100
  23562508.153    23562506.645    23562504.899    -7841253.445 4  -6110065.507 4
        24.900          27.100
  22339594.600    22339594.375    22339592.770   -13216596.328 5 -10298634.041 5
        34.400          35.800
  22373218.693    22373218.076    22373217.914   -12875495.150 5 -10032854.559 5
        32.000          32.800
  22424685.602    22424684.975    22424684.941   -10343210.048 5  -8059641.553 5
        30.400          30.800
  24967510.690    24967509.355    24967508.825    -1270965.491     -990362.623 1
                         9.000
  20416636.168    20416635.307    20416632.692   -25793225.802 6 -20098607.884 7
        38.000          46.400
  23154394.573    23154394.006    23154394.035    -9657951.669 3  -7525671.177 4
        22.600          26.200
  24557505.061    24557503.558    24557505.042    -1113108.699     -867355.674 2
                        16.100
 09  1  4  0 19  0.0000000  0 11G22G21G26G19G15G 6G 3G14G18G 9G24
  21311535.675    21311535.248    21311532.307   -20152569.072 6 -15703291.803 6
        40.000          40.600
  20950986.669    20950985.837    20950983.983   -24224521.254 6 -18876239.307 6
        40.200          38.400
  23597138.690    23597137.819    23597137.144    -3799907.136 2  -2960955.405 3
        16.100          21.100
  23550935.158    23550933.114    23550931.214    -7902073.693 4  -6157457.897 4
        24.600          27.400
  22354307.742    22354307.697    22354306.104   -13139277.526 5 -10238385.622 5
        34.100          35.800
  22378424.283    22378423.522    22378423.421   -12848140.839 5 -10011539.525 5
        32.000          32.800
  22428370.687    22428369.867    22428369.823   -10323845.666 5  -8044552.418 5
        30.400          30.600
  24945589.942    24945589.171    24945585.642    -1386163.599    -1080127.340 1
         3.000          11.000
  20415655.304    20415654.491    20415653.364   -25798379.912 6 -20102624.060 7
        38.100          46.400
  23135609.853    23135609.181    23135609.425    -9756667.700 3  -7602592.706 4
        21.600          26.500
  24577703.121    24577702.044    24577703.968    -1006967.913 1   -784648.612 2
         6.500          17.000
 09  1  4  0 19 30.0000000  0 11G22G21G26G19G15G 6G 3G14G18G 9G24
  21299715.454    21299714.837    21299711.737   -20214686.043 6 -15751694.627 6
        40.100          40.500
  20962250.670    20962249.806    20962248.135   -24165328.742 6 -18830115.277 6
        40.200          38.600
  23619096.625    23619096.576    23619095.563    -3684514.793 2  -2871039.293 3
        16.100          22.100
  23539453.283    23539451.550    23539450.195    -7962406.158 3  -6204470.181 4
        23.400          27.100
  22369094.072    22369093.819    22369092.273   -13061576.217 5 -10177839.147 6
        34.000          36.100
  22383734.656    22383734.023    22383733.821   -12820233.806 5  -9989793.790 5
        32.300          32.800
  22432171.039    22432170.302    22432169.859   -10303876.604 5  -8028992.111 5
        31.000          30.600
  24923681.213    24923680.093    24923679.828    -1501289.848    -1169836.046 2
                        12.600
  20414750.332    20414749.564    20414746.952   -25803134.925 6 -20106329.260 7
        38.000          46.100
  23116893.867    23116893.288    23116892.883    -9855022.795 3  -7679232.984 4
        23.400          26.200
  24597921.397    24597920.370    24597920.785     -900725.702 1   -701862.529 2
         9.000          16.100
 09  1  4  0 20  0.0000000  0 11G22G21G26G19G15G 6G 3G14G18G 9G24
  21287953.590    21287953.103    21287950.155   -20276493.802 6 -15799856.501 6
        40.000          40.700
  20973602.787    20973601.922    20973600.120   -24105673.511 6 -18783630.691 6
        40.100          38.400
  23641101.160    23641100.503    23641098.957    -3568884.488 2  -2780937.768 3
        16.100          21.600
  23528064.600    23528063.186    23528062.085    -8022252.519 3  -6251103.689 4
        23.800          27.100
  22383951.706    22383951.390    22383949.875   -12983498.801 5 -10116999.605 6
        33.600          36.000
  22389149.288    22389148.696    22389148.646   -12791778.876 5  -9967621.120 5
        32.000          32.700
  22436085.003    22436084.213    22436083.999   -10283308.000 5  -8012964.631 5
        31.000          30.400
  24901785.928    24901785.237    24901784.590    -1616346.192    -1259490.257 2
                        12.600
  20413920.782    20413919.986    20413918.646   -25807494.848 6 -20109726.585 7
        38.100          46.400
  23098245.787    23098245.279    23098244.978    -9953017.476 3  -7755592.461 4
        23.400          25.900
  24618155.727    24618155.492    24618156.313     -794387.471 1   -619001.639 2
         9.000          15.100
 09  1  4  0 20 30.0000000  0 11G21G26G19G15G 6G 3G14G18G22G 9G24
  20985042.737    20985041.883    20985040.037   -24045555.791 6 -18736785.713 6
        40.100          38.000
  23663149.498    23663149.189    23663147.792    -3453018.468 2  -2690652.572 3
        16.100          21.100
  23516769.809    23516768.232    23516766.375    -8081609.502 4  -6297355.861 4
        24.600          26.500
  22398880.521    22398880.331    22398878.851   -12905046.448 5 -10055867.902 5
        33.500          35.500
  22394668.073    22394667.436    22394667.654   -12762776.295 5  -9945021.706 5
        31.500          32.600
  22440113.302    22440112.385    22440112.240   -10262139.764 5  -7996469.903 5
        30.600          30.400
  24879907.284    24879905.762    24879906.162    -1731329.580    -1349087.668 2
         3.000          15.100
  20413166.462    20413165.671    20413162.966   -25811458.593 6 -20112815.209 7
        38.100          46.500
  21276251.187    21276250.704    21276247.772   -20337990.464 6 -15847775.970 6
        40.000          40.900
  23079667.532    23079666.952    23079666.450   -10050647.244 3  -7831667.579 4
        23.400          25.900
  24638409.480    24638408.484    24638410.332     -687953.416 1   -536066.045 2
         6.500          13.900
 09  1  4  0 21  0.0000000  0 11G21G26G19G15G 6G 3G14G18G22G 9G24
  20996569.646    20996568.820    20996566.973   -23984981.910 6 -18689585.284 6
        40.200          38.000
  23685241.694    23685241.341    23685239.871    -3336925.112 2  -2600190.225 3
        17.000          21.100
  23505567.031    23505565.310    23505563.118    -8140480.924 4  -6343229.692 4
        25.300          26.200
  22413879.381    22413879.186    22413877.734   -12826227.008 5  -9994450.156 5
        33.400          35.300
  22400290.422    22400289.730    22400289.500   -12733232.930 5  -9922000.908 5
        32.000          32.700
  22444254.038    22444253.331    22444253.025   -10240378.480 5  -7979513.067 5
        30.800          30.200
  24858039.552    24858037.964    24858038.236    -1846243.457    -1438630.909 2
         3.000          16.100
  20412486.449    20412485.695    20412484.348   -25815031.885 6 -20115599.580 7
        38.100          46.400
  21264607.134    21264606.637    21264603.729   -20399180.150 6 -15895456.232 6
        40.000          41.000
  23061158.232    23061157.647    23061157.387   -10147913.742 3  -7907459.631 4
        23.400          26.200
  24658679.990    24658678.627    24658680.099     -581430.619     -453061.270 2
         3.000          12.600
 09  1  4  0 21 30.0000000  0 11G21G26G19G15G 6G 3G14G18G22G 9G24
  21008184.610    21008183.732    21008181.735   -23923945.419 6 -18642024.386 6
        40.200          38.000
  23707377.722    23707376.850    23707376.157    -3220600.259 2  -2509547.493 3
        17.000          20.500
  23494458.364    23494456.573    23494455.021    -8198857.160 4  -6388717.656 4
        25.900          27.400
  22428948.950    22428948.702    22428947.330   -12747035.359 5  -9932742.374 5
        33.100          34.800
  22406016.515    22406015.818    22406015.900   -12703142.539 5  -9898553.855 5
        32.000          32.800
  22448509.335    22448508.435    22448508.283   -10218017.739 5  -7962089.123 5
        30.600          30.200
  24836187.764    24836186.821    24836185.868    -1961078.448 1  -1528112.667 2
         6.500          17.000
  20411882.352    20411881.502    20411878.861   -25818206.838 6 -20118073.563 7
        38.100          46.500
  21253023.000    21253022.494    21253019.537   -20460054.911 6 -15942891.104 6
        40.000          41.000
  23042720.472    23042719.581    23042719.088   -10244806.305 3  -7982960.284 4
        22.600          25.900
  24678968.660    24678966.381    24678969.388     -474813.039     -369982.659 2
                        13.900
 09  1  4  0 22  0.0000000  0 11G21G26G19G15G 6G 3G14G18G22G 9G24
  21019885.286    21019884.435    21019882.459   -23862457.774 6 -18594111.948 6
        40.200          37.800
  23729554.032    23729553.706    23729553.551    -3104057.324 2  -2418734.836 3
        15.100          20.500
  23483442.568    23483440.864    23483439.350    -8256746.748 4  -6433826.395 4
        25.900          27.400
  22444086.851    22444086.698    22444085.365   -12667484.576 5  -9870754.750 5
        33.200          34.800
  22411844.300    22411843.619    22411843.441   -12672516.635 5  -9874689.515 5
        31.800          32.300
  22452876.061    22452875.414    22452875.385   -10195069.394 5  -7944207.296 5
        30.600          31.000
  24814347.146    24814348.252    24814346.704    -2075842.949 1  -1617539.561 2
         6.500          17.000
  20411351.816    20411351.060    20411349.767   -25820994.231 6 -20120245.545 7
        38.100          46.400
  21241497.053    21241496.533    21241493.620   -20520624.665 6 -15990088.303 6
        40.100          41.200
  23024352.020    23024351.568    23024351.013   -10341331.190 3  -8058174.459 4
        23.400          25.300
  24699273.572    24699272.307    24699274.633     -368112.528     -286839.436 2
                        13.900
 09  1  4  0 22 30.0000000  0 11G21G26G19G15G 6G 3G14G18G22G 9G24
  21031671.630    21031670.746    21031668.902   -23800519.961 6 -18545848.729 6
        40.000          37.600
  23751771.681    23751771.203    23751771.924    -2987299.268 2  -2327754.546 3
        15.100          20.500
  23472519.909    23472518.303    23472515.719    -8314147.667 4  -6478554.376 4
        26.800          26.200
  22459292.731    22459292.690    22459291.312   -12587576.864 5  -9808488.992 5
        33.400          35.100
  22417773.820    22417773.124    22417773.022   -12641356.509 5  -9850408.899 5
        31.800          32.300
  22457355.294    22457354.315    22457354.152   -10171533.732 5  -7925867.823 5
        30.800          31.100
  24792520.593    24792520.045    24792521.313    -2190534.953 1  -1706909.912 2
         6.500          15.100
  20410895.120    20410894.380    20410891.627   -25823393.897 6 -20122115.412 7
        38.100          46.400
  21230029.211    21230028.789    21230025.895   -20580887.932 6 -16037046.683 6
        40.200          41.300
  23006054.331    23006053.909    23006053.513   -10437484.922 3  -8133099.426 4
        22.600          24.600
  24719594.046    24719593.054    24719595.638     -261330.493     -203632.704 2
                        13.900
 09  1  4  0 23  0.0000000  0 11G21G26G19G15G 6G 3G14G18G22G 9G24
  21043545.942    21043545.010    21043543.007   -23738120.315 6 -18497225.627 6
        40.000          37.300
  23774032.505    23774033.198    23774033.111    -2870316.270 2  -2236598.945 3
        15.100          19.900
  23461692.321    23461690.984    23461688.540    -8371045.248 4  -6522890.147 4
        27.600          26.500
  22474568.465    22474568.494    22474567.172   -12507301.856 5  -9745937.032 5
        33.000          34.900
  22423807.342    22423806.696    22423806.527   -12609650.570 5  -9825702.979 5
        31.800          32.300
  22461947.488    22461946.509    22461946.493   -10147399.934 5  -7907062.266 5
        30.600          30.800
  24770713.415    24770712.713    24770712.357    -2305139.563 1  -1796212.191 2
        11.000          16.100
  20410514.823    20410513.993    20410512.861   -25825392.946 6 -20123673.101 7
        38.200          46.500
  21218622.359    21218621.915    21218618.943   -20640831.633 6 -16083756.048 6
        40.200          41.400
  22987831.446    22987830.475    22987829.667   -10533251.122 3  -8207722.426 4
        23.400          24.900
  24739932.466    24739932.679    24739933.292     -154455.557     -120353.543 2
                        13.900
 09  1  4  0 23 30.0000000  0 11G21G26G19G15G 6G 3G14G18G22G 9G24
  21055507.547    21055506.711    21055504.875   -23675261.163 6 -18448244.474 6
        39.800          37.400
  23796336.919    23796336.580    23796336.333    -2753112.634 2  -2145271.445 3
        16.100          19.900
  23450960.672    23450959.251    23450957.042    -8427438.894 4  -6566833.237 4
        27.900          26.500
  22489913.636    22489913.547    22489912.090   -12426663.072 5  -9683101.624 5
        32.700          34.800
  22429944.150    22429943.470    22429943.128   -12577401.310 5  -9800573.695 5
        31.500          32.000
  22466653.502    22466652.655    22466652.321   -10122670.303 5  -7887792.427 5
        30.800          30.600
  24748921.570    24748921.677    24748921.058    -2419655.988 2  -1885445.771 2
        12.600          16.100
  20410210.390    20410209.647    20410206.931   -25826992.127 6 -20124919.212 7
        38.200          46.500
  21207276.162    21207275.781    21207272.734   -20700455.747 6 -16130216.384 6
        40.200          41.300
  22969681.439    22969680.843    22969680.329   -10628627.618 4  -8282041.749 4
        24.200          25.300
  24760288.021    24760286.654    24760286.833      -47490.562      -37004.243 2
         3.000          12.600
 09  1  4  0 24  0.0000000  0 11G21G26G19G15G 6G 3G14G18G22G 9G24
  21067555.931    21067555.229    21067553.459   -23611945.323 6 -18398907.470 6
        39.600          37.300
  23818682.538    23818681.982    23818679.909    -2635693.282 2  -2053775.847 3
        16.100          19.300
  23440325.197    23440323.448    23440321.546    -8483328.481 4  -6610383.549 4
        27.900          26.500
  22505326.836    22505326.909    22505325.282   -12345664.832 5  -9619986.105 5
        32.300          34.400
  22436183.482    22436182.950    22436182.798   -12544612.175 5  -9775023.714 5
        31.100          32.000
  22471472.404    22471471.387    22471471.169   -10097347.349 5  -7868060.257 5
        30.600          30.400
  24727146.680    24727146.583    24727146.263    -2534084.139 1  -1974610.548 2
        11.000          16.100
  20409981.811    20409980.991    20409979.675   -25828194.140 6 -20125855.838 7
        38.200          46.700
  21195990.867    21195990.279    21195987.275   -20759761.862 6 -16176428.928 6
        40.200          41.600
  22951606.423    22951605.808    22951605.002   -10723612.622 3  -8356056.022 4
        23.400          24.900
  24780657.572    24780656.649    24780657.787       59561.272       46412.719 1
         3.000          11.000
 09  1  4  0 24 30.0000000  0 11G21G26G19G15G 6G 3G14G18G22G 9G24
  21079689.196    21079688.508    21079686.847   -23548184.812 6 -18349223.961 6
        39.700          37.400
  23841064.698    23841064.174    23841062.248    -2518071.942 2  -1962122.865 3
        13.900          19.300
  23429784.484    23429782.889    23429780.653    -8538722.921 4  -6653548.045 4
        27.900          26.500
  22520806.351    22520806.197    22520804.758   -12264320.437 5  -9556600.863 5
        32.300          34.400
  22442523.580    22442523.042    22442522.828   -12511295.144 5  -9749062.395 5
        31.100          32.100
  22476401.434    22476400.584    22476400.334   -10071443.838 5  -7847875.704 5
        30.200          30.100
  24705386.340    24705386.324    24705386.749    -2648433.007 1  -2063713.544 2
        11.000          12.600
  20409826.495    20409825.715    20409823.085   -25829009.739 6 -20126491.366 7
        38.300          46.600
  21184763.841    21184763.352    21184760.304   -20818759.694 6 -16222401.248 6
        40.300          41.700
  22933604.003    22933603.485    22933602.989   -10818213.648 3  -8429771.086 4
        23.000          25.300
  24801042.463    24801042.599    24801042.981      166687.685 1    129887.798 2
         6.500          12.600
 09  1  4  0 25  0.0000000  0 11G21G26G19G15G 6G 3G14G18G22G 9G24
  21091908.657    21091907.872    21091906.263   -23483971.465 6 -18299187.599 6
        39.500          37.300
  23863486.248    23863485.662    23863484.648    -2400242.194 1  -1870307.504 3
        11.000          19.300
  23419339.061    23419337.190    23419335.625    -8593611.195 4  -6696318.133 4
        26.200          26.800
  22536353.281    22536352.961    22536351.354   -12182622.631 5  -9492940.235 5
        32.600          34.500
  22448965.595    22448965.023    22448964.904   -12477442.290 5  -9722683.550 5
        31.100          32.300
  22481442.577    22481441.827    22481441.913   -10044951.108 4  -7827232.021 5
        29.900          30.200
  24683645.291    24683643.771    24683643.305    -2762691.062 1  -2152745.769 2
        11.000          12.600
  20409746.590    20409745.778    20409744.526   -25829429.657 6 -20126818.570 7
        38.400          46.600
  21173597.618    21173597.158    21173594.092   -20877438.344 6 -16268124.861 6
        40.500          41.800
  22915677.767    22915677.109    22915676.208   -10912417.552 3  -8503176.695 4
        23.400          25.300
  24821443.466    24821442.672    24821445.515      273896.527 1    213427.153 1
         6.500          11.000
 09  1  4  0 25 30.0000000  0 11G21G26G19G15G 6G 3G14G18G22G 9G24
  21104212.985    21104212.162    21104210.403   -23419312.062 6 -18248803.661 6
        39.400          37.000
  23885946.005    23885945.582    23885944.944    -2282212.751 1  -1778336.525 3
        11.000          18.600
  23408989.934    23408987.883    23408986.472    -8647996.654 4  -6738696.406 4
        26.800          26.800
  22551965.159    22551965.100    22551963.642   -12100579.571 5  -9429010.574 5
        32.300          34.400
  22455508.437    22455507.847    22455507.592   -12443060.434 5  -9695892.498 5
        31.100          32.300
  22486595.008    22486594.120    22486594.101   -10017876.140 4  -7806134.647 5
        29.900          30.200
  24661918.934    24661917.403    24661916.810    -2876862.137 1  -2241710.219 1
         6.500          11.000
  20409741.007    20409740.249    20409737.690   -25829459.278 6 -20126841.650 7
        38.400          46.800
  21162491.100    21162490.612    21162487.655   -20935803.238 6 -16313603.991 6
        40.500          41.900
  22897826.983    22897826.338    22897825.163   -11006226.404 4  -8576274.491 4
        24.200          26.200
  24841859.244    24841857.547    24841860.117      381180.846      297025.275 2
         3.000          12.600
 09  1  4  0 26  0.0000000  0 11G21G26G19G15G 6G 3G14G18G22G 9G24
  21116603.750    21116602.935    21116601.262   -23354197.973 6 -18198065.415 6
        39.300          37.000
  23908444.951    23908444.481    23908444.603    -2163976.701 1  -1686204.554 3
        11.000          19.300
  23398738.517    23398736.862    23398734.878    -8701867.919 4  -6780674.012 4
        27.400          27.100
  22567644.478    22567644.377    22567643.031   -12018183.618 5  -9364805.933 5
        32.000          34.100
  22462153.028    22462152.494    22462152.397   -12408141.223 5  -9668682.727 5
        30.600          32.000
  22491859.628    22491858.751    22491858.504    -9990210.648 4  -7784577.131 4
        29.900          29.900
  24640211.059    24640210.102    24640209.679    -2990934.273 1  -2330597.535 1
         6.500           9.000
  20409811.537    20409810.715    20409809.356   -25829088.605 6 -20126552.808 7
        38.400          46.700
  21151446.226    21151445.702    21151442.952   -20993843.605 6 -16358830.241 7
        40.200          42.000
  22880052.934    22880052.389    22880052.217   -11099626.736 4  -8649053.955 4
        24.600          26.800
  24862290.331    24862288.865    24862290.964      488548.982      380688.706 1
                        11.000
 09  1  4  0 26 30.0000000  0 11G21G26G19G15G 6G 3G14G18G22G 9G24
  21129081.190    21129080.339    21129078.640   -23288628.686 6 -18146972.469 6
        39.200          36.800
  23930982.566    23930982.985    23930984.092    -2045535.459 1  -1593912.690 2
         9.000          17.800
  23388585.567    23388583.901    23388582.447    -8755221.513 4  -6822248.233 4
        27.400          27.900
  22583391.068    22583390.962    22583389.398   -11935436.049 5  -9300327.312 5
        32.100          34.100
  22468900.500    22468899.851    22468899.682   -12372684.549 5  -9641054.151 5
        31.000          32.000
  22497236.436    22497235.733    22497235.637    -9961954.012 5  -7762558.982 4
        30.100          29.700
  24618522.828    24618522.497    24618522.374    -3104903.833    -2419404.951 1
         3.000           9.000
  20409958.548    20409957.774    20409955.155   -25828316.088 6 -20125950.844 7
        38.400          46.800
  21140463.859    21140463.402    21140460.449   -21051556.974 6 -16403801.682 7
        40.500          42.000
  22862358.063    22862357.728    22862357.164   -11192613.541 4  -8721511.197 4
        25.300          27.400
  24882736.243    24882736.820    24882739.607      596001.121      464417.565 1
                         9.000
 09  1  4  0 27  0.0000000  0 11G21G26G19G15G 6G 3G14G18G22G 9G24
  21141641.883    21141641.018    21141639.200   -23222622.724 6 -18095539.254 6
        39.300          36.700
  23953556.223    23953557.265    23953558.052    -1926909.289 1  -1501476.717 3
        11.000          18.600
  23378528.531    23378526.992    23378525.058    -8808072.959 4  -6863431.168 4
        27.400          27.900
  22599200.949    22599200.749    22599198.925   -11852356.096 5  -9235589.684 5
        32.600          34.000
  22475746.609    22475745.829    22475745.735   -12336709.086 5  -9613021.324 5
        31.100          32.300
  22502722.915    22502722.018    22502721.661    -9933124.929 5  -7740094.771 5
        30.400          30.100
  24596851.109    24596849.549    24596850.201    -3218786.029    -2508144.286 1
                         6.500
  20410178.789    20410177.935    20410176.656   -25827159.165 6 -20125049.337 7
        38.400          46.800
  21129540.493    21129539.968    21129537.046   -21108959.902 6 -16448531.225 7
        40.500          42.100
  22844739.477    22844738.914    22844738.308   -11285200.460 4  -8793656.838 4
        24.600          27.100
  24903198.890    24903196.593    24903198.633      703518.396      548197.155 1
                         9.000
 09  1  4  0 27 30.0000000  0 11G21G26G19G15G 6G 3G14G18G22G 9G24
  21154286.593    21154285.776    21154284.070   -23156173.802 6 -18043760.877 6
        39.000          36.800
  23976167.360    23976167.812    23976167.629    -1808093.822 2  -1408893.250 3
        12.600          19.300
  23368568.138    23368566.901    23368565.241    -8860412.990 4  -6904215.601 4
        27.600          28.400
  22615074.695    22615074.540    22615072.750   -11768939.016 5  -9170589.357 5
        32.300          34.400
  22482692.394    22482691.601    22482691.238   -12300209.019 5  -9584579.722 5
        31.100          32.000
  22508318.561    22508317.513    22508317.640    -9903717.869 4  -7717180.187 4
        29.500          29.900
  24575199.538    24575198.801    24575197.783    -3332571.634 1  -2596808.349 1
         6.500           9.000
  20410473.441    20410472.617    20410469.982   -25825610.612 6 -20123842.671 7
        38.400          47.000
  21118677.735    21118677.244    21118674.201   -21166044.121 6 -16493012.423 7
        40.600          42.100
  22827198.952    22827198.317    22827198.048   -11377376.691 4  -8865482.451 4
        24.200          27.400
  24923673.387    24923672.280    24923672.539      811106.582      632032.084 1
         3.000           9.000
 09  1  4  0 28  0.0000000  0 11G21G26G19G15G 6G 3G14G18G22G 9G24
  21167015.890    21167015.057    21167013.397   -23089280.543 6 -17991636.262 6
        38.900          36.500
  23998814.541    23998814.027    23998813.426    -1689089.357 1  -1316162.517 2
        11.000          17.800
  23358706.905    23358705.476    23358703.134    -8912237.152 4  -6944598.068 4
        27.900          27.600
  22631012.640    22631012.421    22631010.806   -11685184.525 5  -9105326.124 5
        32.000          34.600
  22489737.787    22489737.170    22489736.809   -12263183.151 5  -9555728.397 5
        31.000          31.500
  22514024.821    22514023.885    22514023.915    -9873731.382 4  -7693814.109 5
        29.500          30.100
  24553566.207    24553565.807    24553565.919    -3446255.760 1  -2685393.355 1
         9.000          11.000
  20410843.227    20410842.392    20410841.075   -25823667.510 6 -20122328.560 7
        38.400          47.000
  21107876.310    21107875.800    21107872.756   -21222805.990 6 -16537242.442 7
        40.700          42.200
  22809737.704    22809737.043    22809736.348   -11469136.361 4  -8936983.475 4
        24.600          26.800
  24944160.306    24944160.166    24944158.678      918767.126      715923.367 1
         3.000           9.000
 09  1  4  0 28 30.0000000  0 11G21G26G19G15G 6G 3G14G18G22G 9G24
  21179830.744    21179829.866    21179828.044   -23021938.772 6 -17939162.161 6
        39.000          36.400
  24021495.967    24021496.066    24021495.404    -1569893.256 1  -1223282.462 2
        11.000          17.000
  23348944.194    23348942.526    23348940.479    -8963538.498 4  -6984573.144 4
        27.100          27.400
  22647015.477    22647015.183    22647013.723   -11601089.402 5  -9039797.464 5
        31.800          34.400
  22496884.358    22496883.799    22496883.594   -12225627.538 5  -9526464.285 5
        30.800          31.300
  22519842.255    22519841.298    22519841.195    -9843161.238 4  -7669993.235 5
        29.900          30.100
  24531953.557    24531952.770    24531952.841    -3559831.240 1  -2773893.694 2
         6.500          12.600
  20411289.019    20411288.149    20411285.645   -25821324.801 6 -20120503.070 7
        38.400          47.000
  21097137.327    21097136.852    21097133.955   -21279239.330 6 -16581216.457 7
        40.900          42.400
  22792357.384    22792356.866    22792356.021   -11560470.181 4  -9008152.668 4
        25.900          26.500
  24964660.193    24964659.988    24964660.513     1026504.074      799874.218 1
         3.000           9.000
 09  1  4  0 29  0.0000000  0 11G21G26G19G15G 6G 3G14G18G22G 9G24
  21192729.137    21192728.302    21192726.407   -22954156.870 6 -17886345.107 6
        38.800          36.200
  24044213.187    24044213.136    24044211.658    -1450516.099 1  -1130261.317 2
        11.000          16.100
  23339279.843    23339278.784    23339276.868    -9014322.626 4  -7024145.185 4
        27.100          27.600
  22663080.988    22663081.011    22663079.302   -11516663.701 5  -8974011.204 5
        31.800          34.100
  22504129.929    22504129.347    22504129.335   -12187551.089 5  -9496794.323 5
        30.600          31.500
  22525768.684    22525767.850    22525767.949    -9812016.632 4  -7645724.715 5
        29.900          30.100
  24510359.290    24510359.312    24510359.384    -3673303.862 1  -2862313.887 2
         9.000          15.100
  20411809.314    20411808.484    20411807.280   -25818590.147 6 -20118372.166 7
        38.400          46.800
  21086459.748    21086459.276    21086456.218   -21335350.973 6 -16624939.806 7
        41.000          42.500
  22775057.975    22775057.249    22775056.101   -11651382.065 4  -9078993.095 4
        26.200          26.200
  24985174.633    24985173.077    24985177.015     1134308.289      883877.448 1
                         9.000
 09  1  4  0 29 30.0000000  0 11G21G26G19G15G 6G 3G14G18G22G 9G24
  21205711.048    21205710.266    21205708.481   -22885936.177 6 -17833186.138 6
        38.700          36.100
  24066964.235    24066963.755    24066962.078    -1330960.460 2  -1037101.102 2
        12.600          16.100
  23329715.015    23329713.779    23329712.137    -9064587.305 4  -7063312.464 4
        26.800          28.100
  22679209.270    22679209.185    22679207.366   -11431909.382 5  -8907968.872 5
        31.600          34.000
  22511474.506    22511473.983    22511473.946   -12148955.015 5  -9466719.466 5
        30.600          31.500
  22531804.656    22531803.846    22531803.796    -9780298.290 5  -7621009.131 5
        30.100          30.100
  24488785.626    24488784.622    24488786.459    -3786670.768 1  -2950651.664 2
         9.000          15.100
  20412404.300    20412403.479    20412400.999   -25815462.926 6 -20115935.369 7
        38.400          46.700
  21075843.430    21075842.902    21075839.944   -21391139.640 6 -16668411.482 7
        40.900          42.500
  22757838.758    22757838.081    22757837.106   -11741868.401 4  -9149501.911 4
        25.600          26.800
  25005702.121    25005700.664    25005703.582     1242178.937      967932.438 1
                        11.000
 09  1  4  0 30  0.0000000  0 11G21G26G19G15G 6G 3G14G18G22G 9G24
  21218777.215    21218776.407    21218774.734   -22817273.043 6 -17779682.411 6
        38.600          36.100
  24089749.272    24089749.132    24089747.262    -1211224.263 2   -943800.187 2
        13.900          17.000
  23320250.147    23320248.517    23320246.886    -9114326.166 4  -7102070.018 4
        26.500          28.100
  22695400.585    22695400.390    22695398.322   -11346824.113 5  -8841668.670 5
        31.500          33.500
  22518918.660    22518918.097    22518917.985   -12109836.135 5  -9436237.216 5
        30.200          31.500
  22537950.462    22537949.560    22537949.099    -9748003.126 4  -7595844.077 4
        29.900          29.700
  24467235.200    24467234.260    24467235.159    -3899925.256 1  -3038901.850 2
        11.000          17.800
  20413075.130    20413074.259    20413072.953   -25811938.488 6 -20113189.048 7
        38.400          46.800
  21065289.563    21065289.057    21065286.030   -21446600.167 6 -16711627.464 7
        41.000          42.500
  22740702.109    22740701.511    22740700.991   -11831920.815 4  -9219672.598 4
        25.300          27.400
  25026242.867    25026241.793    25026243.715     1350119.450     1052041.863 1
         3.000          11.000
 09  1  4  0 30 30.0000000  0 11G21G26G19G15G 6G 3G14G18G22G 9G24
  21231927.514    21231926.647    21231924.729   -22748169.067 6 -17725835.165 6
        38.700          36.000
  24112567.498    24112567.633    24112566.282    -1091310.937 2   -850361.241 2
        15.100          16.100
  23310885.543    23310884.106    23310881.968    -9163537.874 4  -7140416.794 4
        26.200          28.400
  22711653.686    22711653.938    22711652.044   -11261410.643 5  -8775112.720 5
        31.300          33.400
  22526461.943    22526461.310    22526461.008   -12070196.320 5  -9405349.054 5
        30.200          31.100
  22544205.327    22544204.426    22544203.801    -9715133.073 4  -7570231.057 4
        29.700          29.500
  24445705.617    24445705.110    24445705.307    -4013065.916 2  -3127063.361 3
        13.900          18.600
  20413821.278    20413820.452    20413817.961   -25808017.432 6 -20110133.680 7
        38.400          47.000
  21054798.505    21054798.018    21054794.993   -21501731.607 6 -16754587.022 7
        41.100          42.700
  22723648.958    22723648.152    22723647.705   -11921536.158 4  -9289502.712 4
        24.900          27.600
  25046796.678    25046795.499    25046796.032     1458127.551     1136203.946 1
         3.000           9.000
 09  1  4  0 31  0.0000000  0 11G21G26G19G15G 6G 3G14G18G22G 9G24
  21245159.672    21245158.812    21245157.086   -22678632.329 6 -17671650.687 5
        38.400          35.700
  24135418.756    24135418.303    24135416.921     -971230.111 2   -756791.793 2
        12.600          17.800
  23301620.111    23301618.561    23301616.529    -9212227.601 4  -7178356.832 4
        27.100          28.100
  22727968.300    22727968.341    22727966.626   -11175678.014 5  -8708308.073 5
        31.300          33.400
  22534102.584    22534102.083    22534101.712   -12030044.050 5  -9374061.571 5
        30.200          31.100
  22550568.133    22550567.314    22550566.857    -9681696.282 5  -7544176.415 4
        30.100          29.700
  24424195.780    24424194.995    24424195.825    -4126097.639 2  -3215140.008 3
        13.900          19.300
  20414641.573    20414640.722    20414639.576   -25803706.362 6 -20106774.399 7
        38.400          46.900
  21044368.951    21044368.360    21044365.399   -21556539.822 6 -16797294.711 7
        41.000          42.800
  22706678.111    22706677.338    22706676.918   -12010717.792 4  -9358994.871 4
        24.900          27.900
  25067361.243    25067359.630    25067360.212     1566195.160     1220412.414 1
                         9.000
 09  1  4  0 31 30.0000000  0 11G21G26G19G15G 6G 3G14G18G22G 9G24
  21258474.303    21258473.523    21258471.974   -22608662.693 6 -17617128.905 5
        38.300          35.800
  24158301.868    24158300.968    24158299.669     -850983.486 2   -663093.185 3
        12.600          18.600
  23292454.932    23292453.264    23292451.361    -9260392.509 4  -7215887.940 4
        27.400          28.600
  22744343.519    22744343.319    22744341.321   -11089627.335 5  -8641255.592 5
        31.500          32.800
  22541841.000    22541840.334    22541840.120   -11989379.585 5  -9342374.984 5
        30.400          31.500
  22557038.647    22557037.874    22557037.578    -9647692.822 4  -7517680.219 4
        29.700          29.500
  24402708.253    24402707.667    24402707.898    -4239016.784 2  -3303128.907 3
        17.000          19.900
  20415536.448    20415535.585    20415533.190   -25799004.419 6 -20103110.550 7
        38.500          47.200
  21034001.186    21034000.682    21033997.513   -21611022.552 6 -16839748.778 7
        41.100          42.700
  22689790.524    22689790.179    22689789.685   -12099461.107 4  -9428145.484 4
        25.300          28.400
  25087935.785    25087933.909    25087937.762     1674321.982     1304667.092 1
                         6.500
 09  1  4  0 32  0.0000000  0 11G21G22G26G19G15G 6G 3G14G18G 9G24
  21271871.830    21271870.970    21271869.149   -22538259.893 6 -17562269.586 5
        38.400          35.700
  21023695.748    21023695.244    21023692.176   -21665177.620 6 -16881947.524 7
        41.200          42.800
  24181215.510    24181214.880    24181213.217     -730572.135 2   -569266.185 2
        12.600          17.800
  23283389.344    23283387.782    23283386.406    -9308029.172 4  -7253007.387 4
        26.800          29.500
  22760778.510    22760778.316    22760776.540   -11003259.626 5  -8573956.072 5
        31.000          32.800
  22549676.469    22549675.845    22549675.776   -11948202.912 5  -9310289.259 5
        30.400          31.800
  22563616.865    22563615.823    22563616.036    -9613123.190 4  -7490742.857 4
        29.000          29.700
  24381242.391    24381241.712    24381241.914    -4351819.735 2  -3391027.293 3
        16.100          19.300
  20416505.885    20416505.011    20416503.826   -25793909.896 6 -20099140.787 7
        38.600          47.100
  22672988.167    22672987.432    22672986.903   -12187760.688 4  -9496950.334 4
        25.600          28.600
  25108524.858    25108523.553    25108524.194     1782508.255     1388968.036 1
                         6.500
 09  1  4  0 32 30.0000000  0 11G21G26G19G15G 6G 3G14G18G22G 9G24
  21285351.803    21285350.960    21285349.254   -22467421.542 6 -17507070.867 5
        38.100          35.400
  24204159.483    24204158.509    24204158.317     -609995.305 2   -475310.226 2
        12.600          17.000
  23274426.214    23274424.500    23274423.210    -9355132.224 4  -7289711.061 4
        27.900          29.900
  22777274.166    22777274.034    22777272.453   -10916573.514 5  -8506408.449 5
        30.600          33.100
  22557610.042    22557609.553    22557609.214   -11906512.034 5  -9277802.865 5
        30.400          31.600
  22570303.784    22570302.824    22570302.885    -9577985.146 4  -7463362.562 4
        29.000          29.900
  24359799.768    24359799.021    24359798.879    -4464501.278 2  -3478831.045 3
        15.100          19.300
  20417550.566    20417549.712    20417547.433   -25788419.334 6 -20094862.427 7
        38.600          47.000
  21013453.465    21013452.954    21013449.967   -21719000.909 6 -16923887.738 7
        41.200          42.900
  22656270.335    22656269.865    22656269.813   -12275609.595 4  -9565404.016 4
        25.300          28.800
  25129124.077    25129120.135    25129120.375     1890756.071     1473316.934
                         3.000
 09  1  4  0 33  0.0000000  0 10G21G22G26G19G15G 6G 3G14G18G 9
  21298912.218    21298911.452    21298909.683   -22396161.071 6 -17451543.238 5
        38.200          35.200
  21003272.392    21003271.892    21003268.710   -21772503.513 6 -16965578.068 7
        41.300          43.000
  24227132.841    24227132.346    24227132.429     -489267.623 2   -381236.713 2
        12.600          16.100
  23265562.360    23265560.994    23265559.393    -9401712.285 4  -7326007.205 5
        28.400          30.200
  22793827.624    22793827.521    22793826.148   -10829583.368 5  -8438623.913 5
        30.400          33.100
  22565638.672    22565638.185    22565637.789   -11864320.589 5  -9244926.423 5
        30.100          31.000
  22577095.452    22577094.712    22577094.595    -9542291.866 4  -7435549.633 4
        29.000          29.500
  24338378.923    24338378.390    24338377.571    -4577070.996 2  -3566547.680 3
        16.100          19.300
  20418668.640    20418667.763    20418666.620   -25782544.168 6 -20090284.367 7
        38.600          47.000
  22639638.173    22639637.293    22639636.707   -12363016.397 4  -9633513.199 4
        26.200          28.800
 09  1  4  0 33 30.0000000  0 10G21G22G26G19G15G 6G 3G14G18G 9
  21312555.045    21312554.295    21312552.606   -22324467.012 6 -17395677.742 5
        38.000          35.100
  20993154.902    20993154.379    20993151.176   -21825671.200 6 -17007007.430 7
        41.300          43.000
  24250137.376    24250136.256    24250136.451     -368379.327 2   -287038.017 2
        12.600          16.100
  23256801.185    23256799.448    23256797.745    -9447754.471 4  -7361884.227 5
        27.900          30.100
  22810441.513    22810441.296    22810439.802   -10742278.240 5  -8370593.948 5
        30.400          33.000
  22573764.882    22573764.404    22573764.116   -11821617.300 5  -9211651.132 5
        30.100          31.100
  22583995.401    22583994.750    22583994.800    -9506032.230 4  -7407295.377 4
        28.800          29.500
  24316982.262    24316981.118    24316980.257    -4689514.106 2  -3654165.655 3
        15.100          19.300
  20419862.134    20419861.302    20419858.850   -25776272.182 6 -20085397.103 7
        38.600          47.200
  22623092.324    22623091.672    22623091.172   -12449964.457 4  -9701264.932 4
        26.800          29.000
 09  1  4  0 34  0.0000000  0 10G21G26G19G15G 6G 3G14G18G22G 9
  21326280.532    21326279.697    21326277.975   -22252339.626 6 -17339474.596 5
        37.800          35.100
  24273171.902    24273171.070    24273171.000     -247332.205 1   -192715.609 2
        11.000          17.000
  23248142.583    23248141.053    23248138.675    -9493256.393 4  -7397340.256 4
        28.600          29.700
  22827114.669    22827114.451    22827113.195   -10654660.028 5  -8302320.021 5
        30.600          33.100
  22581988.840    22581988.226    22581987.744   -11778402.812 5  -9177977.507 5
        30.600          31.300
  22591003.093    22591002.302    22591002.423    -9469206.941 4  -7378600.353 4
        28.800          29.700
  24295609.570    24295608.681    24295607.999    -4801827.580 2  -3741682.624 3
        13.900          19.300
  20421131.345    20421130.566    20421129.369   -25769602.437 6 -20080199.895 7
        38.700          47.200
  20983101.143    20983100.673    20983097.779   -21878502.252 6 -17048174.471 7
        41.000          43.100
  22606634.476    22606634.007    22606633.525   -12536449.650 4  -9768655.975 4
        26.500          29.200
 09  1  4  0 34 30.0000000  0 10G21G26G19G15G 6G 3G14G18G22G 9
  21340087.646    21340086.858    21340085.132   -22179783.095 6 -17282937.050 5
        37.800          34.900
  24296235.187    24296234.818    24296234.482     -126131.845 1    -98273.801 2
         9.000          17.800
  23239586.319    23239584.510    23239582.459    -9538219.383 4  -7432376.343 5
        29.000          30.100
  22843846.637    22843846.512    22843844.711   -10566733.903 5  -8233806.166 5
        30.400          32.300
  22590308.274    22590307.801    22590307.622   -11734681.753 5  -9143909.154 5
        30.200          31.300
  22598117.548    22598116.634    22598116.829    -9431820.498 4  -7349468.075 4
        28.400          29.900
  24274261.128    24274260.267    24274260.103    -4914012.297 2  -3829099.254 3
        13.900          19.300
  20422475.699    20422474.935    20422472.604   -25762537.576 6 -20074694.810 7
        38.800          47.300
  20973111.537    20973111.077    20973108.058   -21930998.796 6 -17089080.864 7
        41.200          43.200
  22590265.314    22590264.751    22590264.179   -12622471.211 4  -9835685.746 4
        26.200          29.200
 09  1  4  0 35  0.0000000  0 10G21G26G19G15G 6G 3G14G18G22G 9
  21353976.134    21353975.360    21353973.559   -22106798.605 6 -17226066.032 5
        37.700          34.600
  24319327.167    24319327.155    24319326.525       -4781.227 1     -3714.908 3
         9.000          19.300
  23231133.079    23231131.354    23231129.459    -9582641.938 4  -7466991.309 5
        28.800          30.400
  22860636.447    22860636.296    22860634.685   -10478502.167 5  -8165054.160 5
        30.100          31.800
  22598724.339    22598723.612    22598723.587   -11690455.964 5  -9109447.493 5
        30.100          31.100
  22605338.852    22605337.765    22605337.881    -9393874.964 4  -7319900.147 5
        28.600          30.200
  24252937.931    24252936.844    24252936.596    -5026066.294 2  -3916414.031 2
        13.900          17.800
  20423895.363    20423894.477    20423893.286   -25755078.081 6 -20068882.211 7
        38.800          47.500
  20963185.607    20963185.090    20963182.075   -21983160.379 6 -17129726.246 7
        41.200          43.300
  22573985.021    22573984.217    22573983.472   -12708026.302 4  -9902352.030 4
        26.800          28.600
 09  1  4  0 35 30.0000000  0 11G21G26G19G15G 6G 3G14G18G22G24G 9
  21367946.539    21367945.619    21367943.623   -22033384.895 6 -17168860.549 5
        37.700          34.400
  24342447.890    24342447.392    24342447.300      116719.924 1     90961.285 3
         9.000          19.900
  23222783.217    23222781.461    23222779.834    -9626519.709 4  -7501181.771 5
        28.600          30.600
  22877484.580    22877484.332    22877482.777   -10389964.269 4  -8096063.591 5
        29.200          31.500
  22607236.246    22607235.582    22607235.395   -11645724.310 4  -9074591.667 5
        29.700          31.000
  22612666.239    22612665.415    22612665.225    -9355368.486 4  -7289895.103 4
        28.800          29.900
  24231640.482    24231639.404    24231639.385    -5137984.999 2  -4003623.400 2
        12.600          17.800
  20425390.348    20425389.501    20425387.229   -25747221.109 6 -20062759.895 7
        38.800          47.300
  20953323.948    20953323.500    20953320.530   -22034983.102 6 -17170107.580 7
        41.200          43.300
  25252939.110    25252937.955    25252938.357           -.3671          -.9181
         3.000
  22557794.347    22557793.825    22557792.713   -12793108.245 4  -9968649.651 4
        27.600          28.600
 09  1  4  0 36  0.0000000  0 10G21G26G19G15G 6G 3G14G18G22G 9
  21381995.130    21381994.342    21381992.436   -21959557.697 6 -17111332.866 5
        37.700          34.100
  24365594.570    24365594.229    24365593.758      238354.350 1    185741.326 3
         9.000          21.100
  23214534.666    23214532.863    23214531.342    -9669865.236 4  -7534957.505 5
        28.600          30.400
  22894387.825    22894387.638    22894386.096   -10301137.057 4  -8026847.582 5
        29.200          31.600
  22615841.704    22615840.943    22615840.882   -11600502.951 4  -9039354.238 5
        29.700          31.000
  22620097.234    22620096.591    22620096.156    -9316317.779 4  -7259465.992 4
        29.200          29.200
  24210365.499    24210366.083    24210365.096    -5249780.898 2  -4090737.062 2
        13.900          17.000
  20426958.311    20426957.499    20426956.463   -25738981.092 6 -20056339.098 7
        38.800          47.300
  20943524.372    20943523.902    20943520.845   -22086480.519 6 -17210235.433 7
        41.200          43.500
  22541691.608    22541690.818    22541690.446   -12877727.948 4 -10034587.075 4
        26.800          29.200
 09  1  4  0 36 30.0000000  0 11G21G26G19G15G 6G 3G14G18G22G24G 9
  21396123.945    21396123.106    21396121.208   -21885310.745 6 -17053478.110 5
        37.300          34.000
  24388767.975    24388767.447    24388766.092      360127.025 2    280629.077 3
        13.900          19.900
  23206388.963    23206387.526    23206385.813    -9712669.535 4  -7568311.495 5
        28.400          30.200
  22911347.477    22911347.311    22911345.458   -10212015.330 4  -7957402.082 5
        29.200          32.000
  22624541.431    22624540.614    22624540.578   -11554785.745 4  -9003730.449 5
        29.200          31.000
  22627633.162    22627632.293    22627632.043    -9276716.360 4  -7228607.745 4
        28.800          29.200
  24189116.712    24189115.801    24189115.972    -5361443.406 2  -4177746.777 2
        13.900          17.000
  20428600.718    20428599.919    20428597.656   -25730350.372 6 -20049613.862 7
        38.800          47.500
  20933788.312    20933787.795    20933784.804   -22137643.988 6 -17250103.062 7
        41.200          43.600
  25294281.156    25294282.352    25294280.665           -.7241          -.4921

  22525679.046    22525678.606    22525678.012   -12961874.164 4 -10100155.536 4
        27.100          29.700
 09  1  4  0 37  0.0000000  0 10G21G26G19G15G 6G 3G14G18G22G 9
  21410331.420    21410330.681    21410329.023   -21810648.406 6 -16995299.675 5
        37.200          33.800
  24411965.737    24411965.035    24411963.612      482031.997 2    375619.940 3
        15.100          19.900
  23198346.546    23198344.791    23198343.307    -9754934.477 4  -7601245.207 5
        28.400          30.400
  22928361.619    22928361.338    22928359.666   -10122604.176 4  -7887731.048 5
        28.600          32.100
  22633334.278    22633333.820    22633333.585   -11508577.764 4  -8967724.238 5
        29.200          30.800
  22635272.656    22635271.860    22635271.816    -9236569.442 4  -7197324.440 4
        28.600          29.000
  24167893.810    24167893.659    24167892.395    -5472974.333 2  -4264653.967 2
        13.900          16.100
  20430316.697    20430315.904    20430314.867   -25721332.475 6 -20042586.928 7
        38.900          47.300
  20924115.229    20924114.732    20924111.671   -22188475.924 6 -17289712.356 7
        41.200          43.600
  22509756.870    22509756.274    22509755.359   -13045546.661 4 -10165354.867 4
        27.900          29.700
 09  1  4  0 37 30.0000000  0 10G21G26G19G15G 6G 3G14G18G22G 9
  21424615.789    21424614.884    21424612.911   -21735585.567 6 -16936809.157 5
        37.300          33.600
  24435185.259    24435184.312    24435184.036      604053.171 2    470701.333 3
        13.900          19.300
  23190404.608    23190402.865    23190400.939    -9796671.721 4  -7633767.730 5
        28.400          30.200
  22945427.987    22945427.771    22945426.215   -10032919.504 4  -7817846.896 5
        28.400          32.000
  22642218.026    22642217.464    22642217.169   -11461894.286 4  -8931347.509 5
        29.500          30.600
  22643013.548    22643012.892    22643012.345    -9195892.339 4  -7165627.999 4
        28.800          29.200
  24146693.544    24146692.850    24146691.375    -5584385.012 2  -4351467.447 2
        15.100          16.100
  20432103.933    20432103.167    20432100.876   -25711940.667 6 -20035268.635 7
        38.900          47.400
  20914502.958    20914502.469    20914499.402   -22238988.860 6 -17329073.079 7
        41.100          43.600
  22493922.670    22493922.008    22493921.215   -13128755.779 4 -10230193.128 4
        27.600          29.700
 09  1  4  0 38  0.0000000  0 10G21G26G19G15G 6G 3G14G18G22G 9
  21438981.989    21438981.126    21438979.211   -21660090.438 6 -16877981.792 5
        37.200          33.600
  24458432.925    24458432.394    24458431.863      726221.053 2    565897.013 3
        12.600          18.600
  23182568.826    23182567.000    23182565.458    -9837846.322 4  -7665851.834 5
        27.900          30.200
  22962552.685    22962552.333    22962550.631    -9942930.313 4  -7747725.452 5
        28.600          31.300
  22651197.884    22651197.273    22651197.445   -11414703.668 4  -8894575.595 5
        28.800          31.000
  22650861.182    22650860.304    22650859.949    -9154653.151 4  -7133493.580 4
        28.800          29.000
  24125521.778    24125521.414    24125520.576    -5695639.974 2  -4438159.605 2
        16.100          16.100
  20433968.659    20433967.876    20433966.809   -25702141.640 6 -20027633.023 7
        38.900          47.500
  20904957.770    20904957.293    20904954.279   -22289148.804 6 -17368158.735 7
        41.100          43.800
  22478183.737    22478182.937    22478182.230   -13211464.670 4 -10294641.602 5
        28.100          30.100
 09  1  4  0 38 30.0000000  0 10G21G26G19G15G 6G 3G14G18G22G 9
  21453430.310    21453429.479    21453427.540   -21584164.098 6 -16818818.422 5
        37.100          33.400
  24481707.413    24481707.792    24481707.042      848533.177 1    661205.118 2
        11.000          17.000
  23174840.879    23174839.194    23174837.540    -9878456.777 4  -7697496.330 5
        28.100          30.200
  22979734.387    22979733.987    22979732.362    -9852639.010 4  -7677368.596 5
        28.800          30.800
  22660274.219    22660273.701    22660273.674   -11367007.571 4  -8857409.816 5
        28.600          30.800
  22658815.135    22658814.380    22658814.075    -9112853.575 4  -7100922.486 4
        28.600          28.800
  24104380.571    24104380.146    24104380.182    -5806737.279 2  -4524728.916 2
        16.100          16.100
  20435910.774    20435910.007    20435907.712   -25691935.439 6 -20019680.138 7
        39.000          47.500
  20895479.929    20895479.456    20895476.625   -22338954.910 6 -17406968.681 7
        41.100          44.000
  22462540.664    22462539.780    22462539.038   -13293669.882 4 -10358697.597 4
        28.100          29.700
 09  1  4  0 39  0.0000000  0 10G21G26G19G15G 6G 3G14G18G22G 9
  21467957.486    21467956.707    21467954.958   -21507822.262 6 -16759331.290 5
        36.700          33.500
  24505006.275    24505005.655    24505007.170      970972.723 1    756612.534 2
         9.000          13.900
  23167218.019    23167216.345    23167214.554    -9918516.059 4  -7728711.348 5
        28.800          30.200
  22996970.925    22996970.621    22996968.843    -9762061.944 4  -7606789.056 5
        29.500          31.000
  22669443.766    22669443.115    22669443.062   -11318822.075 4  -8819862.685 5
        28.600          30.600
  22666872.986    22666872.153    22666871.963    -9070509.679 4  -7067927.260 4
        28.600          29.000
  24083268.029    24083266.998    24083266.650    -5917688.806 2  -4611184.623 2
        17.000          16.100
  20437927.783    20437926.993    20437925.810   -25681336.425 6 -20011421.160 7
        39.000          47.600
  20886067.136    20886066.594    20886063.660   -22388420.261 6 -17445513.100 7
        41.200          44.100
  22446990.734    22446989.989    22446989.683   -13375382.312 4 -10422369.611 4
        27.100          29.500
 09  1  4  0 39 30.0000000  0 10G21G26G19G15G 6G 3G14G18G22G 9
  21482562.281    21482561.410    21482559.564   -21431074.120 6 -16699527.539 5
        36.600          33.200
  24528328.127    24528328.547    24528328.317     1093529.273 1    852111.106 1
         9.000          11.000
  23159698.966    23159697.328    23159695.309    -9958030.247 4  -7759501.614 4
        29.200          29.700
  23014259.793    23014259.488    23014257.529    -9671208.977 4  -7535994.530 5
        29.500          31.100
  22678704.228    22678703.727    22678703.463   -11270156.631 4  -8781941.562 5
        28.100          30.100
  22675032.804    22675031.879    22675031.668    -9027631.003 4  -7034515.313 4
        28.600          29.200
  24062180.756    24062179.493    24062180.223    -6028500.588 2  -4697531.443 2
        15.100          17.000
  20440018.103    20440017.267    20440015.091   -25670351.867 6 -20002861.762 7
        39.100          47.700
  20876717.815    20876717.258    20876714.129   -22437551.749 6 -17483797.364 7
        41.200          44.000
  22431534.848    22431533.976    22431533.339   -13456605.874 4 -10485660.690 4
        27.600          29.500
 09  1  4  0 40  0.0000000  0 10G21G26G19G15G 6G 3G14G18G22G 9
  21497245.785    21497244.803    21497243.115   -21353911.514 6 -16639400.846 5
        36.200          33.100
  24551674.179    24551674.601    24551673.415     1216209.537      947706.089 1
         3.000           6.500
  23152284.793    23152283.473    23152281.537    -9996988.598 4  -7789858.769 4
        29.500          28.800
  23031602.197    23031601.927    23031600.042    -9580073.315 4  -7464979.736 5
        28.600          31.100
  22688057.944    22688057.271    22688057.402   -11221003.850 4  -8743640.701 5
        28.400          30.400
  22683295.513    22683294.644    22683294.329    -8984210.111 4  -7000680.862 4
        28.600          29.200
  24041122.256    24041121.200    24041122.353    -6139160.926 2  -4783760.247 2
        16.100          17.000
  20442183.218    20442182.437    20442181.343   -25658973.460 6 -19993995.468 7
        39.100          47.600
  20867433.462    20867433.018    20867429.991   -22486339.816 6 -17521814.032 7
        41.100          44.100
  22416173.881    22416173.331    22416172.401   -13537328.226 4 -10548561.213 4
        28.600          29.900
 09  1  4  0 40 30.0000000  0 10G21G26G19G15G 6G 3G14G18G22G 9
  21512006.877    21512006.060    21512004.074   -21276341.963 6 -16578957.063 5
        36.500          33.000
  24575042.692    24575040.926    24575040.113     1339005.331     1043391.147 1
         3.000           6.500
  23144975.985    23144974.605    23144972.919   -10035395.552 4  -7819786.260 4
        28.800          29.000
  23048997.263    23048996.862    23048994.960    -9488662.977 4  -7393750.908 5
        28.100          31.300
  22697502.930    22697502.306    22697501.972   -11171371.181 4  -8704965.906 5
        28.400          30.200
  22691659.462    22691658.704    22691659.020    -8940254.203 4  -6966429.520 4
        28.100          29.500
  24020092.391    24020091.816    24020092.221    -6249673.756 2  -4869874.102 2
        17.000          17.000
  20444422.387    20444421.631    20444419.473   -25647206.611 6 -19984826.493 7
        39.100          47.800
  20858214.135    20858213.656    20858210.638   -22534788.439 6 -17559566.196 7
        41.300          44.300
  22400907.446    22400906.956    22400906.500   -13617551.623 4 -10611072.944 5
        28.800          30.100
 09  1  4  0 41  0.0000000  0 10G21G26G19G15G 6G 3G14G18G22G 9
  21526844.969    21526844.122    21526842.108   -21198367.691 6 -16518197.910 5
        36.400          32.800
  24598432.214    24598430.068    24598429.345     1461912.974 1   1139163.360 1
         6.500           6.500
  23137772.963    23137771.349    23137769.475   -10073250.654 4  -7849283.729 4
        29.000          29.000
  23066443.207    23066442.925    23066441.543    -9396981.071 4  -7322310.465 5
        27.900          31.300
  22707037.965    22707037.173    22707037.598   -11121261.572 4  -8665919.461 5
        27.900          30.100
  22700125.919    22700125.068    22700124.489    -8895766.743 4  -6931763.973 4
        28.400          29.200
  23999091.023    23999090.301    23999089.943    -6360037.924 2  -4955872.110 2
        17.000          17.800
  20446735.374    20446734.573    20446733.358   -25635052.341 6 -19975355.626 7
        39.200          47.900
  20849059.281    20849058.707    20849055.593   -22582898.067 6 -17597054.208 7
        41.300          44.400
  22385737.146    22385736.368    22385735.826   -13697273.756 4 -10673194.078 5
        28.800          30.200
 09  1  4  0 41 30.0000000  0 10G21G26G19G15G 6G 3G14G18G22G 9
  21541760.384    21541759.572    21541757.774   -21119985.732 6 -16457121.087 5
        36.100          32.800
  24621843.133    24621841.735    24621841.661     1584934.312 1   1235024.150 1
         6.500           6.500
  23130675.509    23130674.126    23130671.465   -10110548.016 4  -7878346.597 4
        29.200          28.800
  23083941.745    23083941.566    23083939.942    -9305025.402 4  -7250656.706 5
        27.600          30.600
  22716664.910    22716664.390    22716664.343   -11070672.342 4  -8626499.290 5
        28.600          30.200
  22708692.980    22708692.126    22708692.122    -8850744.630 4  -6896681.825 4
        28.100          29.500
  23978119.347    23978118.355    23978117.546    -6470246.792 2  -5041749.106 3
        17.800          18.600
  20449122.868    20449122.034    20449119.813   -25622506.166 6 -19965579.386 8
        39.300          48.100
  20839969.739    20839969.222    20839966.123   -22630663.370 6 -17634273.916 7
        41.300          44.500
  22370663.364    22370662.525    22370662.071   -13776486.900 4 -10734918.594 5
        28.400          30.400
 09  1  4  0 42  0.0000000  0 10G21G26G19G15G 6G 3G14G18G22G 9
  21556753.046    21556752.206    21556750.341   -21041199.068 6 -16395728.909 5
        36.100          32.600
  24645274.271    24645272.987    24645271.391     1708065.016 1   1330970.171 1
         9.000           9.000
  23123684.028    23123682.591    23123680.550   -10147287.910 4  -7906975.076 4
        29.500          29.000
  23101491.427    23101491.261    23101489.664    -9212800.073 4  -7178792.826 5
        27.600          30.400
  22726382.445    22726381.907    22726381.562   -11019607.078 4  -8586708.190 5
        28.400          30.100
  22717361.275    22717360.579    22717360.940    -8805191.355 4  -6861185.772 4
        27.900          29.200
  23957177.015    23957176.194    23957175.563    -6580300.157 2  -5127504.944 3
        17.800          19.900
  20451584.444    20451583.645    20451582.436   -25609569.974 6 -19955499.232 7
        39.300          47.900
  20830945.717    20830945.220    20830942.178   -22678085.049 6 -17671225.867 7
        41.400          44.700
  22355686.604    22355685.977    22355685.261   -13855189.320 4 -10796245.147 5
        27.900          30.100
 09  1  4  0 42 30.0000000  0 10G21G26G19G15G 6G 3G14G18G22G 9
  21571822.590    21571821.692    21571819.966   -20962008.130 5 -16334021.698 5
        35.800          32.400
  24668724.892    24668723.745    24668723.900     1831303.278 1   1427000.009 1
         9.000           6.500
  23116798.908    23116797.355    23116795.496   -10183468.303 4  -7935167.585 4
        29.000          29.200
  23119092.809    23119092.522    23119090.342    -9120306.376 4  -7106719.817 4
        28.100          29.900
  22736190.307    22736189.667    22736189.579   -10968066.843 4  -8546546.979 5
        28.400          30.200
  22726130.631    22726129.514    22726130.153    -8759108.171 4  -6825276.807 4
        27.400          29.200
  23936264.457    23936263.852    23936263.271    -6690195.025 2  -5213137.262 3
        17.000          20.500
  20454120.523    20454119.783    20454117.664   -25596242.956 6 -19945114.542 8
        39.300          48.200
  20821987.307    20821986.858    20821983.883   -22725161.422 6 -17707908.742 7
        41.400          44.800
  22340807.713    22340807.137    22340807.083   -13933376.675 4 -10857170.345 5
        27.900          30.400
 09  1  4  0 43  0.0000000  0 10G21G26G19G15G 6G 3G14G18G22G 9
  21586968.535    21586967.676    21586965.987   -20882415.329 5 -16272001.351 5
        35.600          32.400
  24692195.836    24692194.651    24692194.702     1954646.062 1   1523111.282 1
         6.500           9.000
  23110020.421    23110019.153    23110017.488   -10219088.232 4  -7962923.369 4
        29.000          29.700
  23136744.435    23136743.917    23136741.872    -9027547.128 4  -7034439.880 4
        28.100          29.900
  22746088.129    22746087.416    22746087.283   -10916054.180 4  -8506017.637 5
        28.100          30.400
  22735000.570    22734999.670    22734999.584    -8712497.743 4  -6788957.003 4
        28.100          28.800
  23915382.832    23915381.602    23915381.045    -6799930.109 2  -5298645.070 3
        16.100          20.500
  20456730.853    20456730.014    20456728.826   -25582525.795 6 -19934425.845 8
        39.300          48.200
  20813094.661    20813094.167    20813091.192   -22771892.555 6 -17744322.606 7
        41.300          44.900
  22326027.906    22326027.411    22326026.760   -14011046.298 4 -10917692.120 5
        28.600          30.200
 09  1  4  0 43 30.0000000  0 10G21G26G19G15G 6G 3G14G18G22G 9
  21602190.752    21602189.899    21602188.031   -20802422.589 5 -16209669.358 5
        35.600          32.300
  24715686.135    24715685.253    24715686.451     2078090.115     1619301.429 1
         3.000           9.000
  23103349.461    23103347.941    23103346.215   -10254146.859 4  -7990241.773 4
        29.500          29.700
  23154445.177    23154445.043    23154443.363    -8934525.234 4  -6961955.280 4
        27.100          29.500
  22756075.142    22756074.528    22756074.593   -10863571.485 4  -8465122.039 5
        28.400          30.600
  22743969.861    22743969.065    22743969.019    -8665361.911 4  -6752227.788 4
        28.100          28.600
  23894531.121    23894529.878    23894529.629    -6909503.919 2  -5384027.217 3
        16.100          20.500
  20459415.278    20459414.430    20459412.354   -25568419.022 6 -19923433.555 8
        39.300          48.100
  20804267.823    20804267.313    20804264.306   -22818278.051 6 -17780467.139 7
        41.400          45.000
  22311347.298    22311346.515    22311345.732   -14088195.584 4 -10977808.441 5
        29.000          30.200
 09  1  4  0 44  0.0000000  0 10G21G26G19G15G 6G 3G14G18G22G 9
  21617488.422    21617487.746    21617486.121   -20722031.715 5 -16147027.132 5
        35.500          32.400
  24739195.036    24739193.616    24739194.674     2201632.801     1715568.410 1
         3.000           9.000
  23096785.205    23096783.537    23096781.314   -10288643.514 4  -8017122.279 4
        29.700          29.200
  23172196.064    23172195.977    23172194.642    -8841243.242 4  -6889268.011 4
        26.800          29.900
  22766151.516    22766150.751    22766150.653   -10810621.000 4  -8423861.919 5
        28.400          30.400
  22753039.257    22753038.409    22753038.219    -8617703.345 4  -6715091.241 4
        28.100          28.800
  23873711.164    23873710.069    23873710.178    -7018914.620 2  -5469282.259 3
        17.000          21.600
  20462173.744    20462172.914    20462171.612   -25553923.274 6 -19912138.162 8
        39.300          48.200
  20795506.958    20795506.372    20795503.366   -22864317.282 6 -17816341.856 7
        41.500          45.200
  22296765.551    22296764.920    22296764.598   -14164821.446 4 -11037516.904 5
        29.000          30.200
 09  1  4  0 44 30.0000000  0 10G21G26G19G15G 6G 3G14G18G22G 9
  21632861.788    21632860.896    21632859.155   -20641245.321 5 -16084076.718 5
        35.400          32.100
  24762721.879    24762720.080    24762721.240     2325270.648     1811909.570 1
         3.000          11.000
  23090327.586    23090325.872    23090324.035   -10322577.866 4  -8043564.626 4
        29.000          29.700
  23189996.187    23189996.056    23189994.856    -8747704.116 4  -6816380.377 5
        27.100          30.400
  22776315.762    22776315.160    22776315.144   -10757205.581 4  -8382239.507 5
        28.100          30.200
  22762207.330    22762206.430    22762206.199    -8569525.151 4  -6677549.807 4
        27.600          28.800
  23852922.608    23852921.298    23852921.123    -7128160.859 3  -5554409.147 3
        18.600          22.100
  20465005.965    20465005.116    20465003.138   -25539039.640 6 -19900540.526 8
        39.300          48.200
  20786811.741    20786811.243    20786808.170   -22910010.354 6 -17851946.840 7
        41.600          45.200
  22282284.162    22282283.490    22282282.825   -14240921.745 4 -11096815.826 4
        29.200          29.900
 09  1  4  0 45  0.0000000  0 10G21G26G19G15G 6G 3G14G18G22G 9
  21648310.537    21648309.693    21648307.783   -20560061.875 5 -16020816.892 5
        35.300          31.800
  24786266.642    24786267.311    24786267.328     2449003.538     1908324.801 2
         3.000          12.600
  23083978.031    23083976.429    23083974.150   -10355945.912 4  -8069565.693 4
        29.000          29.900
  23207845.067    23207845.175    23207843.586    -8653907.944 4  -6743292.450 5
        27.600          30.600
  22786569.164    22786568.394    22786568.355   -10703324.963 4  -8340254.611 5
        28.100          30.400
  22771474.497    22771473.552    22771473.455    -8520826.622 4  -6639602.902 4
        27.600          29.000
  23832165.758    23832164.754    23832163.806    -7237238.450 3  -5639404.642 3
        18.600          21.100
  20467912.503    20467911.676    20467910.461   -25523765.609 6 -19888638.683 8
        39.300          48.200
  20778183.265    20778182.717    20778179.575   -22955354.005 6 -17887279.547 7
        41.800          45.300
  22267904.215    22267903.451    22267902.396   -14316490.925 4 -11155700.899 5
        29.500          30.200
 09  1  4  0 45 30.0000000  0 10G21G26G19G15G 6G 3G14G18G22G 9
  21663835.004    21663834.088    21663832.386   -20478480.133 5 -15957246.704 5
        35.100          32.000
  24809830.298    24809831.286    24809831.247     2572832.395     2004814.823 2
         3.000          12.600
  23077736.361    23077734.782    23077732.951   -10388743.359 4  -8095122.137 4
        28.800          29.900
  23225743.602    23225743.335    23225741.633    -8559854.010 4  -6670003.678 5
        27.900          31.000
  22796910.694    22796910.083    22796910.272   -10648977.632 4  -8297906.036 5
        27.600          30.100
  22780840.514    22780839.831    22780839.613    -8471606.339 4  -6601249.434 4
        27.900          29.000
  23811441.397    23811440.907    23811440.607    -7346141.967 3  -5724264.482 3
        18.600          21.100
  20470893.988    20470893.177    20470891.160   -25508097.836 6 -19876430.034 8
        39.400          48.200
  20769621.812    20769621.308    20769618.199   -23000344.306 6 -17922336.913 7
        41.800          45.400
  22253625.776    22253625.182    22253624.650   -14391522.109 4 -11214166.746 5
        29.200          30.400
 09  1  4  0 46  0.0000000  0 10G21G26G19G15G 6G 3G14G18G22G 9
  21679433.365    21679432.560    21679430.855   -20396510.179 5 -15893374.022 5
        35.200          32.000
  24833410.172    24833409.912    24833411.611     2696745.879 1   2101370.799 2
         6.500          12.600
  23071602.508    23071600.968    23071598.825   -10420977.711 4  -8120239.807 4
        29.500          29.900
  23243688.446    23243688.212    23243686.445    -8465552.438 4  -6596521.947 5
        27.600          30.200
  22807339.605    22807339.108    22807338.932   -10594174.387 4  -8255202.212 4
        27.400          29.900
  22790304.155    22790303.355    22790303.221    -8421875.322 4  -6562497.995 4
        27.600          29.000
  23790749.327    23790748.552    23790748.866    -7454878.266 3  -5808994.033 3
        18.600          21.600
  20473948.664    20473947.847    20473946.533   -25492045.364 6 -19863921.613 8
        39.500          48.400
  20761126.139    20761125.682    20761122.522   -23044988.947 6 -17957124.936 7
        41.800          45.500
  22239449.098    22239448.400    22239447.969   -14466021.023 4 -11272217.841 5
        29.200          30.600
 09  1  4  0 46 30.0000000  0 10G21G26G19G15G 6G 3G14G18G22G 9
  21695107.536    21695106.757    21695104.869   -20314142.145 5 -15829191.160 5
        35.100          31.600
  24857007.931    24857007.544    24857009.632     2820752.966     2197999.676 2
         3.000          13.900
  23065578.435    23065576.926    23065574.552   -10452636.006 5  -8144908.609 5
        30.400          30.200
  23261682.061    23261682.081    23261680.320    -8370994.247 4  -6522840.239 4
        26.800          29.900
  22817856.402    22817855.994    22817856.253   -10538905.711 4  -8212135.717 4
        27.100          29.700
  22799866.660    22799865.776    22799865.849    -8371623.711 4  -6523340.899 4
        27.600          29.000
  23770092.101    23770091.070    23770091.271    -7563433.682 3  -5893582.638 3
        18.600          21.100
  20477078.613    20477077.841    20477075.911   -25475596.892 6 -19851104.621 8
        39.400          48.300
  20752698.705    20752698.200    20752695.112   -23089275.415 6 -17991633.863 7
        41.800          45.600
  22225376.696    22225376.072    22225375.600   -14539972.640 4 -11329842.470 5
        29.500          31.500
 09  1  4  0 47  0.0000000  0 10G21G26G19G15G 6G 3G14G18G22G 9
  21710855.088    21710854.237    21710852.565   -20231387.894 5 -15764707.343 5
        34.600          31.600
  24880621.951    24880621.416    24880621.669     2944841.128     2294691.769 2
         3.000          12.600
  23059661.849    23059660.119    23059658.242   -10483727.725 5  -8169135.914 5
        30.600          30.800
  23279722.527    23279722.155    23279720.622    -8276192.151 4  -6448968.479 5
        26.200          30.100
  22828460.121    22828459.528    22828459.540   -10483183.986 4  -8168716.185 4
        27.600          29.000
  22809526.129    22809525.361    22809525.058    -8320864.086 4  -6483787.954 4
        27.400          29.000
  23749467.669    23749466.796    23749466.477    -7671816.560 3  -5978036.805 3
        18.600          21.600
  20480282.113    20480281.322    20480280.045   -25458762.781 6 -19837987.131 8
        39.500          48.400
  20744337.558    20744337.037    20744334.079   -23133213.487 6 -18025871.312 7
        41.800          45.700
  22211406.951    22211406.260    22211405.870   -14613384.295 4 -11387046.340 5
        29.700          31.800
 09  1  4  0 47 30.0000000  0 10G21G26G19G15G 6G 3G14G18G22G 9
  21726678.013    21726677.271    21726675.595   -20148237.285 5 -15699914.673 5
        34.600          31.600
  24904252.522    24904252.770    24904251.311     3069019.285     2391453.979 2
         3.000          12.600
  23053855.584    23053853.639    23053851.911   -10514239.995 5  -8192911.692 5
        30.400          31.000
  23297810.513    23297810.271    23297808.891    -8181136.634 4  -6374899.249 4
        25.300          29.500
  22839152.127    22839151.446    22839151.181   -10426999.613 4  -8124936.156 4
        27.600          29.000
  22819283.649    22819282.866    22819282.830    -8269587.144 4  -6443831.900 4
        27.600          29.000
  23728878.476    23728877.368    23728877.214    -7780013.147 2  -6062345.801 3
        17.800          21.100
  20483561.186    20483560.375    20483558.464   -25441531.411 6 -19824560.092 8
        39.600          48.500
  20736045.192    20736044.672    20736041.600   -23176790.477 6 -18059827.399 7
        41.900          45.800
  22197543.090    22197542.122    22197541.541   -14686240.777 4 -11443817.614 5
        29.500          31.500
 09  1  4  0 48  0.0000000  0 11G21G26G19G15G 6G 3G14G18G22G28G 9
  21742572.370    21742571.598    21742570.219   -20064711.054 5 -15634829.315 5
        34.400          31.500
  24927896.642    24927895.751    24927895.126     3193265.802     2488269.488 1
                        11.000
  23048156.113    23048154.437    23048152.313   -10544191.160 5  -8216250.253 5
        30.100          30.600
  23315942.729    23315942.865    23315941.874    -8085849.209 4  -6300649.315 4
        24.900          29.900
  22849927.851    22849927.112    22849926.930   -10370373.949 4  -8080812.257 4
        27.600          29.500
  22829135.565    22829134.658    22829134.810    -8217813.944 4  -6403489.150 4
        27.100          28.600
  23708321.278    23708320.710    23708320.156    -7888040.888 2  -6146523.241 3
        17.800          20.500
  20486912.071    20486911.272    20486909.810   -25423922.433 6 -19810838.807 8
        39.600          48.800
  20727817.984    20727817.444    20727814.315   -23220024.829 6 -18093516.494 7
        41.900          45.900
  25626835.246    25626835.336    25626831.352           -.4981          -.0191
         3.000           3.000
  22183781.292    22183780.522    22183779.908   -14758558.510 5 -11500169.087 5
        30.100          31.500
 09  1  4  0 48 30.0000000  0 11G21G26G19G15G 6G 3G14G18G22G28G 9
  21758539.102    21758538.243    21758536.603   -19980807.209 5 -15569449.708 5
        34.400          31.100
  24951554.164    24951553.012    24951551.712     3317582.115     2585139.372 1
                        11.000
  23042564.078    23042562.269    23042560.737   -10573575.862 5  -8239147.422 5
        30.400          31.100
  23334119.598    23334119.653    23334118.592    -7990328.234 4  -6226217.395 4
        24.600          29.700
  22860787.728    22860786.981    22860786.626   -10313305.092 4  -8036343.038 4
        27.400          29.200
  22839082.507    22839081.676    22839081.691    -8165543.114 4  -6362758.643 4
        27.400          28.600
  23687797.952    23687797.044    23687796.364    -7995893.741 2  -6230564.418 3
        17.800          21.100
  20490335.490    20490334.657    20490332.830   -25405932.183 6 -19796820.431 8
        39.600          48.700
  20719656.682    20719656.229    20719653.151   -23262912.066 7 -18126935.115 7
        42.000          45.900
  25620982.166    25620981.184    25620979.965      -30775.783      -23980.751
                         3.000
  22170123.332    22170122.570    22170121.894   -14830330.647 4 -11556095.429 5
        29.900          31.500
 09  1  4  0 49  0.0000000  0 10G21G26G19G15G 6G 3G14G18G22G 9
  21774577.868    21774577.053    21774575.303   -19896523.704 5 -15503774.263 5
        34.400          31.100
  24975226.762    24975226.108    24975221.109     3441969.229     2682064.357 2
                        12.600
  23037081.175    23037079.643    23037077.720   -10602389.635 5  -8261599.701 5
        31.000          31.100
  23352341.824    23352341.373    23352340.090    -7894572.397 4  -6151602.461 4
        25.300          29.200
  22871731.438    22871730.735    22871731.145   -10255791.777 4  -7991527.475 4
        26.800          29.200
  22849124.446    22849123.596    22849123.481    -8112772.623 4  -6321638.787 4
        27.400          28.100
  23667308.499    23667307.309    23667307.447    -8103566.022 2  -6314464.877 3
        17.800          21.100
  20493832.025    20493831.243    20493829.987   -25387556.856 6 -19782501.992 8
        39.500          48.600
  20711562.438    20711561.948    20711558.843   -23305447.795 6 -18160079.834 7
        41.900          46.000
  22156570.337    22156569.894    22156569.219   -14901550.277 4 -11611591.227 5
        29.900          31.300
 09  1  4  0 49 30.0000000  0 10G21G26G19G15G 6G 3G14G18G22G 9
  21790688.071    21790687.249    21790685.469   -19811863.991 5 -15437805.667 5
        34.000          31.000
  24998911.273    24998909.538    24998904.902     3566422.478     2779040.826 1
                        11.000
  23031706.636    23031704.892    23031702.627   -10630633.907 5  -8283608.225 5
        31.100          31.000
  23370607.015    23370607.046    23370605.546    -7798586.323 4  -6076808.136 4
        25.300          29.000
  22882759.838    22882759.254    22882759.323   -10197838.289 4  -7946368.922 4
        26.500          29.200
  22859260.464    22859259.663    22859259.477    -8059507.055 4  -6280133.163 4
        26.800          27.400
  23646853.018    23646852.053    23646852.123    -8211058.409 2  -6398225.152 3
        17.800          22.100
  20497401.713    20497400.881    20497398.919   -25368799.112 6 -19767885.569 8
        39.600          48.600
  20703534.830    20703534.275    20703531.208   -23347633.236 6 -18192951.602 7
        41.900          46.000
  22143123.378    22143122.708    22143121.978   -14972216.618 5 -11666655.900 5
        30.100          31.100
 09  1  4  0 50  0.0000000  0 10G21G26G19G15G 6G 3G14G18G22G 9
  21806872.326    21806871.483    21806869.835   -19726814.424 5 -15371533.283 5
        33.600          30.800
  25022604.659    25022603.927    25022601.467     3690955.246     2876079.241 1
                        11.000
  23026443.618    23026441.759    23026439.723   -10658291.727 5  -8305159.768 5
        31.000          31.100
  23388918.905    23388919.044    23388917.508    -7702356.440 4  -6001823.816 4
        24.900          28.400
  22893874.050    22893873.616    22893873.744   -10139431.096 4  -7900856.839 4
        26.200          29.000
  22869493.470    22869492.499    22869492.424    -8005732.983 4  -6238231.291 4
        26.800          27.900
  23626436.042    23626434.634    23626434.532    -8318353.008 3  -6481831.297 3
        19.300          22.100
  20501046.777    20501045.969    20501044.574   -25349643.749 6 -19752959.310 8
        39.700          48.700
  20695577.038    20695576.500    20695573.346   -23389452.102 7 -18225537.727 7
        42.000          46.100
  22129784.872    22129784.199    22129783.351   -15042311.208 5 -11721275.055 5
        30.600          31.100
 09  1  4  0 50 30.0000000  0 10G21G26G19G15G 6G 3G14G18G22G 9
  21823130.491    21823129.582    21823127.780   -19641377.780 5 -15304959.286 5
        33.800          30.600
  25046314.127    25046314.622    25046317.797     3815563.795     2973176.727 1
                         9.000
  23021291.830    23021289.944    23021288.204   -10685363.303 5  -8326254.488 5
        30.600          31.500
  23407276.061    23407277.002    23407274.978    -7605886.119 4  -5926652.134 4
        25.300          27.600
  22905074.861    22905074.250    22905074.018   -10080573.553 4  -7854993.827 4
        26.200          29.000
  22879822.401    22879821.616    22879821.500    -7951453.966 4  -6195935.958 4
        27.400          27.900
  23606056.546    23606055.634    23606055.002    -8425448.838 3  -6565282.574 3
        19.900          22.100
  20504767.428    20504766.642    20504764.829   -25330091.537 6 -19737723.820 8
        39.700          48.800
  20687688.677    20687688.183    20687685.123   -23430904.955 6 -18257838.645 7
        41.900          46.200
  22116555.358    22116554.673    22116553.964   -15111831.856 5 -11775446.988 5
        30.100          31.800
 09  1  4  0 51  0.0000000  0 10G21G26G19G15G 6G 3G14G18G22G 9
  21839458.852    21839458.137    21839456.378   -19555571.043 5 -15238096.912 5
        33.900          30.800
  25070038.544    25070039.069    25070035.897     3940230.559     3070319.638 1
                         6.500
  23016248.869    23016247.169    23016245.502   -10711863.058 5  -8346903.637 5
        30.600          31.100
  23425676.871    23425676.887    23425675.356    -7509193.066 4  -5851306.897 4
        24.600          27.400
  22916356.860    22916356.543    22916356.665   -10021282.951 4  -7808793.372 4
        25.900          28.800
  22890244.374    22890243.588    22890242.895    -7896687.312 4  -6153260.638 4
        27.100          27.900
  23585711.859    23585710.890    23585710.897    -8532359.349 3  -6648589.461 3
        19.900          22.600
  20508560.528    20508559.736    20508558.274   -25310158.546 6 -19722191.620 8
        39.700          48.800
  20679867.435    20679866.908    20679863.835   -23472006.332 6 -18289865.686 7
        41.900          46.300
  22103432.984    22103432.292    22103431.753   -15180790.877 5 -11829181.271 5
        30.400          32.400
 09  1  4  0 51 30.0000000  0  9G21G19G15G 6G 3G14G18G22G 9
  21855857.959    21855857.217    21855855.705   -19469392.961 5 -15170945.193 5
        33.500          30.600
  23011315.908    23011314.003    23011311.959   -10737787.194 5  -8367104.255 5
        30.600          31.000
  23444120.202    23444119.773    23444118.262    -7412276.435 4  -5775787.440 4
        24.900          28.100
  22927722.383    22927721.800    22927721.737    -9961558.883 4  -7762255.147 4
        26.200          28.800
  22900758.475    22900757.704    22900757.921    -7841432.468 4  -6110204.926 4
        26.500          27.900
  23565403.618    23565402.975    23565402.329    -8639079.633 3  -6731748.111 3
        20.500          23.000
  20512426.701    20512425.861    20512424.131   -25289841.873 6 -19706360.443 8
        39.700          48.800
  20672113.734    20672113.185    20672110.124   -23512752.383 6 -18321615.852 7
        41.900          46.400
  22090418.763    22090417.996    22090417.185   -15249182.504 5 -11882473.442 5
        30.600          32.300
 09  1  4  0 52  0.0000000  0  9G21G19G15G 6G 3G14G18G22G 9
  21872326.265    21872325.466    21872323.731   -19382851.177 5 -15103510.059 5
        33.000          30.100
  23006491.399    23006489.629    23006487.664   -10763140.657 5  -8386860.195 5
        31.000          31.300
  23462603.885    23462603.458    23462601.694    -7315144.433 4  -5700100.177 4
        25.300          27.900
  22939168.453    22939167.998    22939167.985    -9901409.250 4  -7715385.309 4
        27.100          28.400
  22911364.907    22911363.800    22911364.017    -7785697.193 4  -6066774.844 4
        26.200          28.100
  23545130.517    23545129.743    23545129.457    -8745613.754 3  -6814761.689 3
        21.100          23.000
  20516364.700    20516363.825    20516362.308   -25269147.730 6 -19690235.135 8
        39.700          48.800
  20664426.454    20664425.980    20664422.963   -23553148.400 6 -18353093.262 7
        41.900          46.500
  22077511.320    22077510.749    22077510.145   -15317009.425 5 -11935325.582 5
        30.600          32.300
 09  1  4  0 52 30.0000000  0  9G21G19G15G 6G 3G14G18G22G 9
  21888868.117    21888867.361    21888865.806   -19295923.016 5 -15035773.851 4
        33.000          29.700
  23001779.940    23001778.279    23001776.350   -10787898.383 5  -8406151.935 5
        31.000          31.100
  23481132.206    23481131.973    23481130.398    -7217775.022 4  -5624227.900 4
        24.600          27.600
  22950700.057    22950699.322    22950698.858    -9840812.084 4  -7668166.740 4
        27.400          27.900
  22922066.419    22922065.448    22922065.501    -7729459.844 4  -6022953.542 4
        26.500          27.900
  23524898.473    23524897.690    23524896.918    -8851935.565 3  -6897609.836 3
        20.500          22.600
  20520379.033    20520378.251    20520376.476   -25248051.804 6 -19673796.748 8
        39.800          48.800
  20656810.799    20656810.263    20656807.209   -23593169.222 6 -18384278.314 7
        41.900          46.500
  22064716.937    22064716.332    22064715.543   -15384244.699 5 -11987716.693 5
        30.800          32.400
 09  1  4  0 53  0.0000000  0 10G21G28G19G15G 6G 3G14G18G22G 9
  21905480.655    21905479.728    21905478.150   -19208624.939 5 -14967749.399 4
        32.800          29.900
  25572373.237    25572377.032    25572373.538           -.7341          -.6661
                         3.000
  22997179.588    22997178.041    22997175.943   -10812073.811 5  -8424989.920 5
        31.100          31.300
  23499702.703    23499702.653    23499701.583    -7120185.150 4  -5548183.845 4
        24.200          28.100
  22962312.914    22962312.486    22962311.919    -9779784.326 4  -7620612.650 4
        27.100          27.100
  22932860.212    22932859.316    22932859.398    -7672737.526 4  -5978754.332 4
        26.200          27.900
  23504704.043    23504703.475    23504702.610    -8958057.776 3  -6980302.439 3
        20.500          21.600
  20524467.032    20524466.217    20524464.648   -25226569.149 6 -19657057.014 8
        39.800          48.700
  20649263.929    20649263.371    20649260.206   -23632828.913 6 -18415181.961 7
        41.900          46.500
  22052033.094    22052032.400    22052031.495   -15450899.720 5 -12039655.659 5
        31.500          32.100
 09  1  4  0 53 30.0000000  0 10G21G28G19G15G 6G 3G14G18G22G 9
  21922160.568    21922159.661    21922158.103   -19120971.039 5 -14899447.693 4
        32.600          29.900
  25567435.039    25567434.129    25567433.375      -25968.709      -20235.377 1
         3.000           6.500
  22992687.365    22992685.779    22992684.029   -10835679.036 5  -8443383.599 5
        30.800          31.300
  23518312.652    23518312.561    23518311.380    -7022389.555 3  -5471979.502 4
        23.400          28.600
  22974005.688    22974004.795    22974004.356    -9718340.905 4  -7572734.653 4
        26.800          27.100
  22943743.800    22943742.952    22943742.688    -7615545.248 4  -5934188.928 4
        26.500          27.900
  23484545.742    23484545.019    23484543.601    -9063991.022 3  -7062847.817 3
        21.100          21.600
  20528626.349    20528625.550    20528623.823   -25204712.183 6 -19640025.611 8
        39.800          48.700
  20641783.360    20641782.829    20641779.706   -23672139.193 6 -18445813.342 7
        41.900          46.600
  22039457.433    22039456.698    22039455.866   -15516984.687 5 -12091150.445 5
        31.500          32.300
 09  1  4  0 54  0.0000000  0 10G21G28G19G15G 6G 3G14G18G22G 9
  21938910.356    21938909.540    21938907.807   -19032950.934 5 -14830860.613 4
        32.800          29.700
  25562587.460    25562586.691    25562585.480      -51448.915      -40090.139 1
         3.000           9.000
  22988306.649    22988304.935    22988303.203   -10858701.105 5  -8461322.868 5
        30.400          31.300
  23536964.268    23536963.862    23536961.962    -6924378.147 3  -5395606.982 4
        23.800          27.600
  22985778.930    22985778.202    22985777.689    -9656471.630 4  -7524524.833 4
        26.800          27.100
  22954718.446    22954717.675    22954717.729    -7557872.451 4  -5889249.076 4
        26.500          28.100
  23464426.305    23464425.630    23464423.960    -9169721.029 3  -7145234.834 3
        21.600          21.600
  20532858.978    20532858.142    20532856.383   -25182469.798 6 -19622693.877 8
        39.900          48.600
  20634371.762    20634371.256    20634368.220   -23711087.267 6 -18476162.485 7
        41.900          46.800
  22026993.561    22026992.819    22026991.970   -15582484.105 5 -12142188.946 5
        31.800          32.800
 09  1  4  0 54 30.0000000  0 10G21G28G19G15G 6G 3G14G18G22G 9
  21955730.629    21955729.733    21955727.630   -18944561.263 5 -14761985.553 4
        33.000          29.500
  25557830.003    25557830.097    25557828.606      -76435.336      -59560.031 1
                         9.000
  22984037.997    22984036.091    22984034.119   -10881134.003 5  -8478803.042 5
        30.400          31.000
  23555656.903    23555656.557    23555654.379    -6826148.339 4  -5319064.275 4
        24.900          27.100
  22997633.423    22997632.864    22997632.844    -9594173.576 4  -7475980.899 4
        26.200          27.400
  22965784.885    22965784.258    22965784.506    -7499716.379 4  -5843932.677 4
        26.200          28.400
  23444346.223    23444345.820    23444344.095    -9275240.517 3  -7227457.802 3
        21.100          21.600
  20537166.047    20537165.183    20537163.390   -25159836.388 6 -19605057.448 8
        40.000          48.500
  20627030.237    20627029.795    20627026.711   -23749666.946 7 -18506224.570 7
        42.000          46.800
  22014642.391    22014641.670    22014640.904   -15647389.936 5 -12192764.909 5
        32.000          33.000
 09  1  4  0 55  0.0000000  0 10G21G28G19G15G 6G 3G14G18G22G 9
  21972619.017    21972618.073    21972616.095   -18855811.658 5 -14692830.032 4
        32.400          29.200
  25553171.048    25553170.149    25553168.306     -100934.482      -78650.319 1
         3.000           9.000
  22979880.101    22979878.180    22979875.931   -10902984.413 5  -8495829.333 5
        31.000          30.400
  23574389.215    23574388.681    23574386.781    -6727709.723 4  -5242358.847 4
        24.600          26.800
  23009568.258    23009567.593    23009567.393    -9531457.028 4  -7427110.868 4
        26.200          27.100
  22976941.859    22976941.007    22976940.818    -7441087.715 4  -5798247.998 4
        26.200          27.900
  23424304.697    23424304.019    23424303.398    -9380555.666 3  -7309521.529 3
        20.500          21.100
  20541545.799    20541545.008    20541543.300   -25136820.159 6 -19587122.722 8
        40.000          48.600
  20619757.715    20619757.175    20619753.903   -23787885.313 7 -18536005.114 7
        42.000          46.800
  22002402.983    22002402.395    22002401.806   -15711707.057 5 -12242882.142 5
        31.800          33.100
 09  1  4  0 55 30.0000000  0 10G21G28G19G15G 6G 3G14G18G22G 9
  21989575.286    21989574.521    21989572.678   -18766704.406 5 -14623395.827 4
        32.100          29.200
  25548599.163    25548600.053    25548598.916     -124946.224      -97360.693 2
                        12.600
  22975832.561    22975830.817    22975828.838   -10924252.732 5  -8512402.049 5
        30.600          30.600
  23593160.564    23593160.291    23593158.837    -6629065.136 4  -5165492.942 4
        24.600          27.100
  23021581.703    23021581.392    23021580.753    -9468324.952 4  -7377917.045 4
        25.600          27.100
  22988188.081    22988187.064    22988187.056    -7381988.892 4  -5752196.972 4
        25.600          28.100
  23404303.484    23404302.738    23404301.888    -9485665.338 3  -7391425.140 3
        21.100          22.100
  20545998.293    20545997.450    20545995.847   -25113422.235 6 -19568890.568 8
        40.000          48.500
  20612553.578    20612553.051    20612549.982   -23825742.457 7 -18565504.185 7
        42.000          47.000
  21990276.300    21990275.574    21990275.103   -15775433.344 5 -12292538.981 5
        31.800          33.400
 09  1  4  0 56  0.0000000  0 10G21G28G19G15G 6G 3G14G18G22G 9
  22006599.990    22006599.310    22006597.383   -18677238.731 5 -14553682.333 4
        32.100          29.000
  25544125.226    25544123.737    25544122.308     -148466.769     -115688.390 2
         3.000          15.100
  22971896.844    22971894.945    22971893.069   -10944935.549 5  -8528518.524 5
        30.400          30.800
  23611970.952    23611970.976    23611969.332    -6530214.572 4  -5088466.552 4
        24.200          27.600
  23033674.543    23033673.804    23033673.736    -9404777.192 4  -7328399.324 4
        24.900          28.100
  22999523.100    22999522.213    22999522.847    -7322420.146 4  -5705779.764 4
        25.300          28.400
  23384341.985    23384341.346    23384340.316    -9590564.739 3  -7473164.903 3
        22.100          22.600
  20550523.922    20550523.062    20550521.370   -25089640.012 6 -19550358.962 8
        40.100          48.400
  20605418.779    20605418.267    20605415.312   -23863235.441 6 -18594719.489 7
        41.900          47.000
  21978263.087    21978262.469    21978261.639   -15838563.697 5 -12341731.453 5
        32.100          33.100
 09  1  4  0 56 30.0000000  0 10G21G28G19G15G 6G 3G14G18G22G 9
  22023692.690    22023691.702    22023689.491   -18587418.504 5 -14483692.553 4
        32.100          28.800
  25539742.989    25539741.415    25539740.490     -171497.232     -133634.244 2
         3.000          16.100
  22968072.253    22968070.581    22968068.372   -10965033.989 5  -8544179.642 5
        30.100          31.000
  23630819.668    23630819.660    23630818.246    -6431162.240 4  -5011282.921 4
        24.200          27.400
  23045845.758    23045844.825    23045844.937    -9340818.006 4  -7278561.009 4
        25.600          28.100
  23010948.000    23010947.337    23010947.020    -7262385.698 4  -5658999.683 4
        26.200          28.400
  23364419.742    23364419.092    23364418.406    -9695253.928 3  -7554740.868 3
        22.100          22.600
  20555122.141    20555121.293    20555119.632   -25065476.046 6 -19531529.894 8
        40.100          48.400
  20598353.292    20598352.786    20598349.731   -23900365.218 7 -18623651.784 7
        42.000          47.000
  21966363.231    21966362.330    21966361.660   -15901097.181 5 -12390458.841 5
        31.600          32.800
 09  1  4  0 57  0.0000000  0 10G21G28G19G15G 6G 3G14G18G22G 9
  22040852.579    22040851.642    22040849.571   -18497242.329 5 -14413425.398 4
        32.100          28.600
  25535452.731    25535451.178    25535450.578     -194033.527     -151194.968 2
                        13.900
  22964359.432    22964357.747    22964356.010   -10984543.916 5  -8559382.172 5
        30.400          31.500
  23649707.538    23649707.679    23649705.509    -6331906.692 3  -4933940.937 4
        23.800          26.500
  23058095.377    23058094.559    23058094.442    -9276446.287 4  -7228401.230 4
        26.200          28.400
  23022460.744    23022459.927    23022459.823    -7201884.637 4  -5611855.999 4
        25.900          27.400
  23344539.137    23344538.320    23344537.832    -9799727.936 3  -7636149.142 3
        21.600          23.400
  20559793.650    20559792.837    20559791.162   -25040927.035 6 -19512400.793 8
        40.200          48.300
  20591357.634    20591357.105    20591354.094   -23937127.596 7 -18652297.787 7
        42.000          47.200
  21954578.088    21954577.552    21954576.838   -15963027.571 5 -12438716.283 5
        32.000          33.200
 09  1  4  0 57 30.0000000  0 10G21G28G19G15G 6G 3G14G18G22G 9
  22058078.933    22058078.218    22058076.444   -18406716.234 5 -14342885.591 4
        31.600          29.000
  25531259.017    25531257.094    25531257.101     -216078.728 1   -168372.996 2
         6.500          12.600
  22960758.005    22960756.268    22960754.601   -11003469.390 5  -8574129.286 5
        30.600          31.300
  23668632.861    23668632.790    23668630.669    -6232454.573 3  -4856445.782 4
        23.800          26.800
  23070421.916    23070421.516    23070421.209    -9211668.791 4  -7177925.273 4
        25.600          28.100
  23034061.271    23034060.671    23034060.251    -7140923.556 4  -5564353.855 4
        26.200          27.600
  23324698.511    23324698.223    23324697.884    -9903989.079 3  -7717391.559 3
        22.100          23.800
  20564537.548    20564536.697    20564534.999   -25015997.834 6 -19492975.440 8
        40.200          48.200
  20584431.351    20584430.831    20584427.634   -23973526.536 7 -18680660.594 7
        42.100          47.300
  21942907.782    21942907.245    21942906.595   -16024356.468 5 -12486505.025 5
        32.300          33.500
 09  1  4  0 58  0.0000000  0 10G21G28G19G15G 6G 3G14G18G22G 9
  22075371.866    22075371.173    22075369.719   -18315840.626 5 -14272073.460 4
        31.300          29.500
  25527158.055    25527157.808    25527152.795     -237630.870 1   -185166.894 1
         9.000          11.000
  22957267.989    22957266.457    22957264.683   -11021808.740 5  -8588419.688 5
        30.600          31.000
  23687595.240    23687594.983    23687593.041    -6132807.197 3  -4778798.484 4
        22.600          27.100
  23082825.416    23082824.909    23082824.656    -9146487.044 4  -7127134.312 4
        25.600          27.600
  23045748.907    23045748.188    23045748.378    -7079504.211 4  -5516494.629 4
        26.200          28.100
  23304899.831    23304899.404    23304898.908   -10008034.256 3  -7798465.681 4
        22.600          24.600
  20569353.841    20569353.093    20569351.331   -24990687.658 6 -19473253.222 8
        40.300          48.100
  20577574.234    20577573.749    20577570.635   -24009559.986 7 -18708738.606 7
        42.100          47.200
  21931352.229    21931351.831    21931351.103   -16085080.058 5 -12533822.100 5
        32.300          33.400
 09  1  4  0 58 30.0000000  0 10G21G28G19G15G 6G 3G14G18G22G 9
  22092731.575    22092730.613    22092729.127   -18224615.802 5 -14200989.209 4
        31.100          29.200
  25523147.991    25523146.958    25523146.493     -258687.486     -201574.695 1
                        11.000
  22953890.325    22953888.826    22953886.571   -11039559.421 5  -8602251.387 5
        31.000          30.800
  23706595.150    23706594.710    23706592.244    -6032964.844 3  -4700999.237 4
        22.100          26.500
  23095305.968    23095305.436    23095305.197    -9080901.400 4  -7076028.615 4
        25.600          27.400
  23057523.629    23057522.762    23057523.067    -7017627.222 4  -5468278.796 4
        25.900          28.100
  23285142.283    23285141.628    23285141.274   -10111860.034 3  -7879368.854 4
        22.600          24.600
  20574243.131    20574242.236    20574240.470   -24964994.987 6 -19453232.958 8
        40.300          48.000
  20570787.221    20570786.697    20570783.657   -24045225.718 7 -18736530.078 7
        42.100          47.300
  21919913.111    21919912.522    21919911.931   -16145193.713 5 -12580663.905 5
        32.400          33.500
 09  1  4  0 59  0.0000000  0 10G21G28G19G15G 6G 3G14G18G22G 9
  22110156.247    22110155.596    22110154.064   -18133046.997 5 -14129636.926 4
        31.000          28.800
  25519238.509    25519237.421    25519236.678     -279250.562 1   -217597.871 2
         9.000          12.600
  22950623.769    22950622.342    22950620.662   -11056724.060 5  -8615626.422 5
        30.400          31.300
  23725630.830    23725629.870    23725627.704    -5932932.802 3  -4623052.210 4
        21.600          26.500
  23107862.104    23107861.348    23107861.569    -9014917.482 4  -7024612.590 4
        24.600          26.800
  23069384.644    23069383.988    23069383.838    -6955298.293 4  -5419710.807 4
        25.900          27.600
  23265426.684    23265425.715    23265425.117   -10215467.737 3  -7960102.120 4
        22.600          24.600
  20579204.244    20579203.477    20579201.787   -24938923.090 6 -19432917.190 8
        40.200          48.000
  20564069.820    20564069.371    20564066.198   -24080526.202 7 -18764036.946 7
        42.200          47.300
  21908590.065    21908589.336    21908588.686   -16204697.893 5 -12627030.789 5
        32.400          33.600
 09  1  4  0 59 30.0000000  0 10G21G28G19G15G 6G 3G14G18G22G 9
  22127647.201    22127646.329    22127644.787   -18041132.509 5 -14058015.277 4
        31.100          28.600
  25515420.084    25515418.561    25515416.102     -299315.646 1   -233232.935 2
        11.000          12.600
  22947470.138    22947468.180    22947466.340   -11073298.752 5  -8628541.750 5
        30.400          31.100
  23744702.365    23744701.745    23744699.515    -5832709.892 3  -4544956.453 4
        21.100          25.300
  23120494.255    23120493.992    23120494.038    -8948534.420 4  -6972885.524 4
        24.600          26.800
  23081331.594    23081330.913    23081330.668    -6892516.343 4  -5370789.807 4
        25.900          27.100
  23245753.118    23245752.534    23245751.758   -10318851.633 3  -8040660.970 3
        22.100          23.800
  20584238.362    20584237.551    20584235.856   -24912469.124 6 -19412303.708 7
        40.200          47.900
  20557422.597    20557422.107    20557418.949   -24115457.149 7 -18791255.859 7
        42.200          47.400
  21897383.586    21897383.057    21897382.345   -16263586.726 5 -12672918.188 5
        32.600          33.500
                            4 15
RINEX FILE SPLICE                                           COMMENT
teqc  2008Oct2      WCDA Operator       20090104 02:18:21UTCCOMMENT
STATION INFORMATION EFFECTIVE FROM: 2001/01/13 18:20:00     COMMENT
                                TO: CURRENT DATE (above)    COMMENT
BIT 2 OF LLI FLAGS (+4) DATA COLLECTED UNDER 'AS' CONDITION COMMENT
L1 PHASE CENTRE 0.110m ABOVE ARP                            COMMENT
L2 PHASE CENTRE 0.128m ABOVE ARP                            COMMENT
where ARP is the Antenna Reference Point for HI measurement COMMENT
CONTACT gps@pgc.nrcan.gc.ca FOR ADDITIONAL INFORMATION      COMMENT
    P1 =    P1  TurboRogue; =    Y1  Benchmark              COMMENT
    L1 = L1(CA)                                             COMMENT
    P2 =    P2  TurboRogue; =    Y2  Benchmark              COMMENT
    L2 = L2(P2) TurboRogue; = L2(Y2) Benchmark              COMMENT
 SNR is mapped to RINEX snr flag value [0-9]                COMMENT
  L1 & L2: min(max(int(snr_dBHz/6), 0), 9)                  COMMENT
 09  1  4  1  0  0.0000000  0 10G21G28G19G15G 6G 3G14G18G22G 9
  22145202.352    22145201.526    22145199.535   -17948880.449 5 -13986130.574 4
        31.100          28.100
  25511690.641    25511691.612    25511692.501     -318888.452 1   -248484.566 2
         6.500          12.600
  22944427.174    22944425.542    22944423.562   -11089289.033 5  -8641001.700 5
        31.000          31.100
  23763808.637    23763807.937    23763805.957    -5732304.524 3  -4466718.513 4
        20.500          24.600
  23133201.510    23133200.857    23133200.701    -8881760.673 4  -6920854.056 4
        24.600          27.100
  23093363.352    23093362.436    23093362.224    -6829290.298 4  -5321522.766 4
        25.900          26.800
  23226121.946    23226120.957    23226119.954   -10422016.400 3  -8121049.076 4
        23.000          24.600
  20589343.945    20589343.135    20589341.414   -24885639.339 6 -19391397.376 7
        40.300          47.900
  20550844.803    20550844.232    20550841.084   -24150024.293 7 -18818191.295 7
        42.100          47.500
  21886293.628    21886293.180    21886292.493   -16321864.072 5 -12718329.102 5
        32.300          33.500
 09  1  4  1  0 30.0000000  0 10G21G28G19G15G 6G 3G14G18G22G 9
  22162821.927    22162820.885    22162819.055   -17856289.819 5 -13913982.048 4
        30.800          28.100
  25508063.885    25508063.132    25508061.760     -337965.624 1   -263349.797 2
         9.000          13.900
  22941495.971    22941494.385    22941492.258   -11104691.928 5  -8653003.953 5
        31.500          31.100
  23782949.256    23782949.501    23782946.975    -5631716.477 3  -4388338.225 4
        21.600          24.200
  23145982.639    23145981.778    23145981.172    -8814596.295 4  -6868518.184 4
        24.200          26.800
  23105479.123    23105478.392    23105478.047    -6765619.719 4  -5271909.337 4
        25.600          26.500
  23206532.508    23206531.539    23206531.072   -10524957.773 3  -8201263.095 4
        23.400          25.300
  20594521.359    20594520.524    20594518.844   -24858431.733 6 -19370196.644 7
        40.300          47.800
  20544336.735    20544336.175    20544333.081   -24184224.405 7 -18844840.727 7
        42.200          47.600
  21875321.359    21875320.810    21875320.190   -16379524.514 5 -12763259.310 5
        32.400          33.500
 09  1  4  1  1  0.0000000  0 10G21G28G19G15G 6G 3G14G18G22G 9
  22180506.282    22180505.587    22180504.252   -17763354.690 5 -13841565.076 4
        30.400          28.100
  25504531.897    25504530.833    25504527.728     -356538.096 1   -277821.863 2
         9.000          12.600
  22938678.175    22938676.748    22938674.632   -11119499.143 5  -8664542.029 5
        31.600          31.000
  23802126.453    23802126.513    23802124.199    -5530939.742 3  -4309810.901 4
        21.600          24.600
  23158838.086    23158837.781    23158838.143    -8747035.635 4  -6815873.519 4
        24.200          27.600
  23117680.777    23117680.073    23117679.814    -6701499.423 4  -5221945.485 4
        25.300          27.100
  23186987.599    23186987.125    23186986.394   -10627665.749 3  -8281295.247 4
        23.800          25.600
  20599772.116    20599771.346    20599769.623   -24830838.332 6 -19348695.289 7
        40.300          47.600
  20537900.176    20537899.632    20537896.464   -24218048.774 7 -18871197.377 7
        42.200          47.700
  21864468.456    21864467.873    21864467.162   -16436557.487 5 -12807700.588 5
        32.600          33.600
 09  1  4  1  1 30.0000000  0 10G21G28G19G15G 6G 3G14G18G22G 9
  22198256.226    22198255.564    22198253.976   -17670079.042 5 -13768882.768 4
        30.400          28.100
  25501090.833    25501090.339    25501088.280     -374607.325     -291901.853 1
                         9.000
  22935973.580    22935971.999    22935970.026   -11133712.290 5  -8675617.205 5
        31.600          31.100
  23821338.510    23821338.464    23821336.798    -5429978.765 3  -4231140.030 4
        22.100          25.600
  23171769.421    23171768.513    23171769.073    -8679083.305 3  -6762923.671 4
        23.800          27.600
  23129967.133    23129966.501    23129966.340    -6636934.141 4  -5171634.882 4
        24.900          27.400
  23167487.162    23167486.611    23167486.087   -10730140.632 3  -8361145.768 4
        23.400          25.600
  20605095.914    20605095.108    20605093.299   -24802862.028 6 -19326895.569 7
        40.300          47.500
  20531534.725    20531534.193    20531531.157   -24251498.935 7 -18897262.433 7
        42.200          47.800
  21853734.709    21853734.184    21853733.936   -16492962.548 5 -12851652.579 5
        32.600          34.100
 09  1  4  1  2  0.0000000  0 10G21G28G19G15G 6G 3G14G18G22G 9
  22216068.586    22216067.743    22216066.415   -17576475.153 5 -13695944.679 4
        30.200          27.900
  25497747.387    25497745.534    25497744.098     -392182.991     -305597.160 1
                        11.000
  22933380.121    22933378.494    22933376.675   -11147340.822 5  -8686236.834 5
        31.600          31.100
  23840583.255    23840583.448    23840581.727    -5328845.857 3  -4152335.194 4
        22.100          25.600
  23184773.055    23184772.280    23184772.164    -8610752.125 4  -6709678.607 4
        24.900          27.900
  23142335.958    23142335.213    23142335.135    -6571936.627 4  -5120987.464 4
        24.900          27.600
  23148029.880    23148029.301    23148028.748   -10832390.689 3  -8440821.101 4
        23.400          25.900
  20610490.443    20610489.658    20610487.988   -24774513.262 6 -19304805.617 7
        40.300          47.500
  20525238.848    20525238.338    20525235.161   -24284584.383 7 -18923043.298 7
        42.300          47.800
  21843119.343    21843118.892    21843118.302   -16548747.287 5 -12895121.197 5
        33.000          33.900
 09  1  4  1  2 30.0000000  0 10G21G28G19G15G 6G 3G14G18G22G 9
  22233944.258    22233943.510    22233942.101   -17482536.599 4 -13622745.832 4
        29.900          27.600
  25494496.938    25494496.335    25494497.003     -409255.830     -318900.624 2
         3.000          12.600
  22930899.888    22930898.118    22930895.861   -11160376.618 5  -8696394.592 5
        32.000          30.600
  23859862.316    23859862.562    23859860.559    -5227534.917 3  -4073391.627 4
        22.100          25.900
  23197848.480    23197847.919    23197848.185    -8542036.322 4  -6656133.833 4
        24.200          28.100
  23154787.635    23154786.712    23154787.127    -6506500.866 4  -5069998.565 4
        24.200          27.100
  23128616.808    23128616.218    23128615.794   -10934405.762 4  -8520313.326 4
        24.600          25.900
  20615957.458    20615956.590    20615954.963   -24745784.137 6 -19282419.286 7
        40.300          47.400
  20519013.867    20519013.404    20519010.324   -24317296.178 7 -18948533.006 7
        42.300          47.900
  21832624.115    21832623.316    21832622.592   -16603901.023 5 -12938098.136 5
        32.700          33.500
 09  1  4  1  3  0.0000000  0 10G21G28G19G15G 6G 3G14G18G22G 9
  22251883.930    22251883.292    22251881.912   -17388262.987 4 -13549285.914 4
        29.700          27.400
  25491346.978    25491345.837    25491344.186     -425822.976     -331810.132 1
         3.000           9.000
  22928531.956    22928530.540    22928528.571   -11172817.179 5  -8706088.533 5
        32.100          30.600
  23879175.232    23879174.974    23879173.266    -5126045.814 3  -3994309.232 4
        21.100          25.600
  23210997.566    23210997.470    23210997.248    -8472935.992 3  -6602289.437 4
        23.800          27.400
  23167322.307    23167321.859    23167322.402    -6440627.353 3  -5018668.545 4
        23.800          27.100
  23109249.348    23109248.916    23109248.437   -11036181.884 4  -8599619.371 4
        24.600          25.600
  20621497.055    20621496.274    20621494.639   -24716672.933 6 -19259735.227 7
        40.500          47.300
  20512860.695    20512860.206    20512857.128   -24349631.639 7 -18973729.471 8
        42.400          48.100
  21822249.493    21822249.003    21822248.290   -16658419.403 5 -12980579.983 5
        33.000          34.000
 09  1  4  1  3 30.0000000  0 10G21G28G19G15G 6G 3G14G18G22G 9
  22269885.844    22269884.943    22269883.465   -17293663.286 4 -13475571.875 4
        29.500          27.100
  25488286.510    25488287.129    25488284.780     -441890.416     -344330.143
                         3.000
  22926277.070    22926275.355    22926273.047   -11184668.703 5  -8715323.474 5
        32.000          30.100
  23898520.633    23898520.130    23898517.926    -5024387.768 3  -3915095.185 4
        20.500          24.900
  23224218.605    23224218.279    23224218.269    -8403460.687 3  -6548152.852 4
        23.400          27.900
  23179939.138    23179938.817    23179939.294    -6374325.577 3  -4967004.856 4
        23.800          27.100
  23089926.446    23089925.777    23089925.310   -11137724.346 4  -8678743.335 4
        24.200          25.600
  20627108.161    20627107.374    20627105.592   -24687186.658 6 -19236758.908 7
        40.500          47.100
  20506777.927    20506777.425    20506774.318   -24381596.740 7 -18998637.344 8
        42.400          48.100
  21811995.157    21811994.461    21811993.902   -16712306.475 5 -13022569.903 5
        33.100          34.100
 09  1  4  1  4  0.0000000  0 10G21G28G19G15G 6G 3G14G18G22G 9
  22287949.324    22287948.363    22287947.027   -17198739.182 4 -13401605.090 4
        28.800          27.100
  25485326.255    25485325.194    25485324.850     -457457.448     -356460.236 1
         3.000           6.500
  22924134.107    22924132.235    22924129.861   -11195930.597 5  -8724098.964 5
        31.500          30.200
  23917897.359    23917897.049    23917894.786    -4922562.901 3  -3835751.151 4
        21.100          24.600
  23237510.344    23237509.877    23237509.712    -8333612.843 3  -6493725.990 4
        23.000          26.800
  23192637.065    23192636.459    23192637.138    -6307598.391 3  -4915009.640 4
        23.000          26.800
  23070648.112    23070647.422    23070646.988   -11239031.098 4  -8757683.619 4
        24.200          25.300
  20632790.600    20632789.775    20632787.936   -24657325.391 6 -19213490.385 7
        40.500          47.000
  20500765.662    20500765.197    20500762.103   -24413191.069 7 -19023256.303 8
        42.400          48.200
  21801861.460    21801860.782    21801859.934   -16765559.849 5 -13064066.037 5
        33.100          33.800
 09  1  4  1  4 30.0000000  0 10G21G28G19G15G 6G 3G14G18G22G 9
  22306075.199    22306074.389    22306072.798   -17103487.463 4 -13327383.029 4
        29.000          26.800
  25482459.437    25482458.790    25482457.298     -472518.352     -368196.038 1
         3.000           6.500
  22922103.988    22922102.392    22922100.346   -11206597.455 5  -8732410.798 5
        31.100          30.400
  23937306.518    23937306.065    23937304.033    -4820567.809 3  -3756274.480 4
        20.500          24.600
  23250873.335    23250872.729    23250872.924    -8263389.768 3  -6439006.720 4
        23.000          26.800
  23205417.076    23205416.341    23205416.192    -6240442.883 4  -4862680.690 4
        24.200          26.500
  23051416.367    23051415.977    23051415.241   -11340094.835 4  -8836434.556 4
        24.600          25.600
  20638545.325    20638544.483    20638542.726   -24627084.518 6 -19189926.067 7
        40.600          47.100
  20494825.307    20494824.768    20494821.653   -24444408.533 7 -19047581.599 8
        42.500          48.300
  21791849.710    21791849.187    21791848.303   -16818171.640 5 -13105062.236 5
        33.400          33.900
 09  1  4  1  5  0.0000000  0 10G21G28G19G15G 6G 3G14G18G22G 9
  22324263.088    22324262.393    22324260.753   -17007908.996 4 -13252906.316 4
        29.200          26.500
  25479689.188    25479690.063    25479688.753     -487071.296 1   -379535.977 2
         6.500          13.900
  22920187.625    22920185.973    22920183.920   -11216668.221 5  -8740258.139 5
        31.500          30.200
  23956747.520    23956747.326    23956745.486    -4718403.865 3  -3676666.252 4
        20.500          24.900
  23264307.666    23264307.003    23264307.052    -8192792.930 3  -6383996.212 4
        23.800          26.500
  23218277.206    23218276.455    23218276.628    -6172860.932 4  -4810019.429 4
        24.200          26.500
  23032231.760    23032231.201    23032230.288   -11440912.869 4  -8914994.031 4
        24.900          25.900
  20644372.274    20644371.435    20644369.744   -24596463.490 6 -19166065.524 7
        40.600          47.000
  20488956.744    20488956.219    20488953.139   -24475247.836 7 -19071612.226 8
        42.600          48.400
  21781960.810    21781960.158    21781959.536   -16870138.837 5 -13145556.153 5
        33.500          34.500
 09  1  4  1  5 30.0000000  0 10G21G28G19G15G 6G 3G14G18G22G 9
  22342512.126    22342511.298    22342509.693   -16912011.121 4 -13178180.647 4
        29.000          27.100
  25477016.237    25477014.772    25477015.285     -501121.555     -390484.230 2
                        12.600
  22918383.740    22918382.017    22918379.570   -11226148.075 5  -8747645.036 5
        31.600          30.100
  23976218.184    23976218.772    23976217.597    -4616078.793 3  -3596932.410 4
        19.300          25.300
  23277811.357    23277810.648    23277810.734    -8121830.516 3  -6328700.828 4
        23.800          26.200
  23231217.504    23231216.604    23231216.764    -6104860.468 4  -4757032.076 4
        24.600          26.200
  23013092.920    23013092.332    23013091.336   -11541488.979 4  -8993364.993 4
        25.300          25.900
  20650270.472    20650269.649    20650267.884   -24565468.144 6 -19141913.302 7
        40.500          46.900
  20483159.297    20483158.783    20483155.718   -24505713.803 7 -19095351.944 8
        42.600          48.500
  21772193.866    21772193.142    21772192.500   -16921464.407 5 -13185550.102 5
        33.600          34.100
 09  1  4  1  6  0.0000000  0 10G21G28G19G15G 6G 3G14G18G22G 9
  22360822.210    22360821.434    22360819.715   -16815791.779 4 -13103204.550 4
        29.000          27.400
  25474441.239    25474440.148    25474438.076     -514663.738     -401036.638 1
                         6.500
  22916692.891    22916691.141    22916689.384   -11235032.200 5  -8754567.726 5
        31.000          30.400
  23995721.283    23995721.677    23995720.596    -4513589.851 3  -3517070.876 4
        19.300          25.600
  23291384.809    23291384.236    23291384.339    -8050500.609 4  -6273119.093 4
        24.600          26.200
  23244237.362    23244236.511    23244236.695    -6036440.001 4  -4703717.418 4
        24.600          26.200
  22994001.182    22994000.351    22993999.607   -11641816.938 4  -9071542.595 4
        24.900          25.600
  20656240.661    20656239.846    20656238.093   -24534094.525 6 -19117466.323 7
        40.600          46.800
  20477433.870    20477433.336    20477430.269   -24535801.159 7 -19118796.639 8
        42.600          48.600
  21762550.363    21762549.695    21762548.887   -16972141.437 5 -13225038.694 5
        33.600          33.900
 09  1  4  1  6 30.0000000  0 10G21G28G19G15G 6G 3G14G18G22G 9
  22379192.422    22379191.546    22379189.913   -16719255.696 4 -13027981.659 4
        28.800          26.800
  25471958.324    25471957.576    25471956.526     -527700.238     -411194.980
         3.000           3.000
  22915114.960    22915113.413    22915111.553   -11243323.617 5  -8761028.565 5
        31.000          30.600
  24015254.694    24015254.585    24015253.571    -4410942.743 3  -3437086.136 4
        18.600          25.600
  23305027.599    23305026.942    23305026.976    -7978808.683 4  -6217255.259 4
        24.200          26.500
  23257336.407    23257335.722    23257335.486    -5967604.974 4  -4650079.747 4
        24.600          25.600
  22974956.314    22974955.684    22974954.773   -11741897.858 4  -9149527.702 4
        25.300          25.900
  20662282.171    20662281.395    20662279.646   -24502346.055 6 -19092727.252 7
        40.600          46.700
  20471780.093    20471779.554    20471776.428   -24565512.076 7 -19141948.005 8
        42.700          48.600
  21753029.992    21753029.263    21753028.660   -17022170.742 5 -13264022.565 5
        33.500          34.000
 09  1  4  1  7  0.0000000  0 10G21G28G19G15G 6G 3G14G18G22G 9
  22397622.053    22397621.337    22397619.704   -16622406.073 4 -12952514.465 4
        28.600          26.200
  25469573.565    25469573.580    25469570.840     -540231.711     -420959.852
                         3.000
  22913649.999    22913648.424    22913646.377   -11251023.251 5  -8767028.275 5
        31.300          30.400
  24034817.726    24034817.645    24034816.222    -4308140.130 2  -3356980.214 4
        17.800          25.300
  23318738.217    23318737.415    23318737.635    -7906758.564 3  -6161112.322 4
        23.400          26.500
  23270513.237    23270512.513    23270512.844    -5898359.028 3  -4596121.876 4
        23.400          24.900
  22955958.432    22955957.764    22955956.972   -11841731.214 4  -9227319.904 4
        25.300          25.600
  20668394.749    20668393.966    20668392.298   -24470223.839 6 -19067696.952 7
        40.600          46.600
  20466197.724    20466197.238    20466194.112   -24594847.310 7 -19164806.630 8
        42.800          48.700
  21743633.296    21743632.660    21743631.399   -17071551.347 5 -13302500.958 5
        33.900          33.500
 09  1  4  1  7 30.0000000  0 10G21G28G19G15G 6G 3G14G18G22G 9
  22416111.724    22416110.888    22416109.599   -16525241.679 4 -12876801.998 4
        28.400          25.900
  25467287.670    25467287.641    25467283.102     -552254.603     -430328.367 1
         3.000           9.000
  22912297.685    22912296.257    22912294.283   -11258127.827 5  -8772564.313 5
        31.100          30.100
  24054410.265    24054410.216    24054408.803    -4205181.203 3  -3276752.470 4
        18.600          24.600
  23332517.245    23332516.457    23332516.327    -7834349.606 3  -6104689.774 4
        23.400          25.900
  23283768.542    23283767.847    23283767.783    -5828702.006 3  -4541843.679 4
        23.400          24.600
  22937008.964    22937008.143    22937007.151   -11941312.058 4  -9304915.337 4
        25.600          25.900
  20674579.064    20674578.256    20674576.581   -24437725.265 6 -19042373.385 7
        40.600          46.500
  20460687.517    20460687.088    20460683.910   -24623803.411 7 -19187369.825 8
        42.900          48.800
  21734360.722    21734360.185    21734359.319   -17120277.677 5 -13340469.529 5
        33.800          33.800
 09  1  4  1  8  0.0000000  0 10G 9G21G28G19G15G 6G 3G14G18G22
  21725212.956    21725212.230    21725211.594   -17168349.915 5 -13377928.409 5
        33.800          34.100
  22434660.724    22434659.892    22434658.514   -16427766.893 4 -12800847.661 4
        28.400          25.600
  25465095.338    25465094.155    25465092.946     -563770.694     -439301.927 1
         3.000           9.000
  22911058.923    22911057.260    22911055.046   -11264639.704 5  -8777638.497 4
        31.300          29.900
  24074032.004    24074031.636    24074030.470    -4102070.705 2  -3196406.623 4
        17.800          24.900
  23346363.427    23346362.815    23346362.948    -7761586.946 3  -6047991.602 4
        22.600          26.200
  23297101.486    23297100.643    23297100.412    -5758638.993 3  -4487249.127 3
        23.800          23.800
  22918106.545    22918106.038    22918105.393   -12040640.947 4  -9382314.436 4
        25.600          25.600
  20680834.413    20680833.615    20680831.855   -24404853.277 6 -19016758.852 7
        40.600          46.400
  20455249.288    20455248.770    20455245.589   -24652382.244 7 -19209639.045 8
        43.100          48.900
 09  1  4  1  8 30.0000000  0 10G 9G21G28G19G15G 6G 3G14G18G22
  21716188.773    21716188.131    21716187.339   -17215772.364 5 -13414880.970 5
        33.900          34.000
  22453266.915    22453266.169    22453264.827   -16329990.234 4 -12724658.062 4
        28.400          25.900
  25462997.493    25462997.283    25462997.771     -574785.820     -447885.119 1
         3.000           9.000
  22909931.654    22909929.875    22909927.409   -11270565.085 5  -8782255.679 5
        31.600          30.200
  24093681.193    24093680.697    24093678.464    -3998816.952 3  -3115949.153 3
        18.600          23.800
  23360275.035    23360274.535    23360274.960    -7688479.624 3  -5991024.875 4
        21.600          26.800
  23310509.289    23310508.326    23310508.677    -5688178.765 3  -4432345.049 4
        23.000          24.200
  22899252.313    22899251.643    22899250.835   -12139722.443 4  -9459520.776 4
        26.200          25.900
  20687159.554    20687158.660    20687156.862   -24371614.979 6 -18990858.879 7
        40.700          46.200
  20449881.607    20449881.127    20449877.963   -24680589.208 7 -19231618.496 8
        43.000          49.000
 09  1  4  1  9  0.0000000  0 10G 9G21G28G19G15G 6G 3G14G18G22
  21707290.273    21707289.593    21707288.958   -17262534.672 5 -13451319.127 5
        34.000          34.500
  22471932.022    22471931.171    22471929.805   -16231905.793 4 -12648228.621 4
        27.900          25.900
  25460999.277    25460999.243    25460999.995     -585291.355 1   -456071.313 1
         6.500           6.500
  22908917.162    22908915.365    22908913.341   -11275895.840 5  -8786409.510 5
        31.800          30.800
  24113357.429    24113356.909    24113355.106    -3895414.172 2  -3035375.545 3
        17.800          23.400
  23374253.418    23374252.781    23374253.464    -7615022.268 3  -5933785.401 4
        21.100          26.200
  23323994.365    23323993.380    23323993.320    -5617316.254 3  -4377127.515 4
        23.400          24.600
  22880446.861    22880446.112    22880445.455   -12238546.851 4  -9536526.781 4
        26.200          26.500
  20693555.646    20693554.845    20693553.031   -24338002.764 6 -18964667.537 7
        40.700          46.000
  20444586.337    20444585.840    20444582.712   -24708415.888 7 -19253301.616 8
        43.100          49.100
 09  1  4  1  9 30.0000000  0 10G 9G21G28G19G15G 6G 3G14G18G22
  21698517.463    21698516.749    21698515.962   -17308636.140 5 -13487242.338 5
        34.100          34.300
  22490655.065    22490654.086    22490652.505   -16133516.634 4 -12571561.743 4
        27.600          26.200
  25459097.816    25459097.246    25459096.438     -595288.498 1   -463861.410
         6.500
  22908015.658    22908014.062    22908011.960   -11280633.453 5  -8790101.155 5
        32.300          31.100
  24133061.504    24133061.584    24133059.513    -3791866.043 3  -2954688.700 3
        18.600          23.400
  23388297.976    23388297.347    23388297.345    -7541218.752 3  -5876276.192 4
        21.100          24.600
  23337554.464    23337553.263    23337553.279    -5546055.857 3  -4321599.945 3
        22.100          23.800
  22861689.803    22861688.994    22861688.804   -12337114.161 4  -9613332.438 4
        25.600          26.800
  20700022.752    20700021.936    20700020.150   -24304017.944 6 -18938185.859 7
        40.700          46.000
  20439363.365    20439362.850    20439359.675   -24735863.219 7 -19274689.145 8
        43.200          49.200
 09  1  4  1 10  0.0000000  0  9G 9G21G19G15G 6G 3G14G18G22
  21689870.950    21689870.284    21689869.549   -17354073.351 5 -13522647.961 5
        34.000          34.400
  22509435.652    22509434.725    22509432.998   -16034823.682 4 -12494658.160 4
        27.600          25.300
  22907227.262    22907225.538    22907223.286   -11284776.430 5  -8793329.449 5
        32.000          30.800
  24152793.412    24152793.772    24152791.172    -3688173.025 3  -2873888.941 3
        19.300          23.400
  23402407.938    23402407.284    23402407.052    -7467070.552 3  -5818498.365 4
        22.100          24.200
  23351190.458    23351189.420    23351188.959    -5474398.888 3  -4265763.344 3
        22.600          23.400
  22842982.963    22842982.168    22842981.664   -12435420.746 4  -9689934.947 4
        26.200          27.400
  20706560.852    20706560.093    20706558.264   -24269659.929 6 -18911413.376 7
        40.700          45.900
  20434212.967    20434212.409    20434209.172   -24762929.168 7 -19295779.495 8
        43.300          49.300
 09  1  4  1 10 30.0000000  0 10G 9G21G28G19G15G 6G 3G14G18G22
  21681352.462    21681351.711    21681351.044   -17398839.726 5 -13557530.843 5
        34.400          34.800
  22528274.623    22528273.850    22528271.840   -15935824.481 4 -12417515.994 4
        27.600          24.900
  25455585.448    25455584.971    25455584.726           -.53711         -.18211
         9.000           9.000
  22906552.987    22906551.174    22906549.031   -11288320.239 5  -8796090.860 5
        31.600          30.400
  24172553.197    24172553.441    24172551.174    -3584332.510 3  -2792974.276 3
        18.600          23.000
  23416583.847    23416583.233    23416583.091    -7392575.541 3  -5760450.326 4
        22.600          24.200
  23364902.605    23364901.416    23364901.345    -5402343.431 3  -4209616.241 4
        23.000          24.600
  22824326.323    22824325.887    22824325.405   -12533460.181 4  -9766329.288 4
        26.500          27.600
  20713170.799    20713169.971    20713168.170   -24234924.611 6 -18884346.891 7
        40.700          45.700
  20429135.897    20429135.413    20429132.238   -24789608.659 7 -19316568.710 8
        43.300          49.400
 09  1  4  1 11  0.0000000  0 10G 9G21G28G19G15G 6G 3G14G18G22
  21672961.577    21672960.968    21672960.064   -17442932.571 5 -13591888.904 5
        34.300          34.300
  22547171.181    22547170.541    22547168.869   -15836520.235 4 -12340136.099 4
        27.400          24.900
  25453976.127    25453975.974    25453975.092       -8456.256 1     -6589.209 1
         6.500          11.000
  22905992.382    22905990.609    22905988.553   -11291264.272 5  -8798384.906 5
        31.500          30.400
  24192341.075    24192340.825    24192339.253    -3480346.178 3  -2711945.990 3
        18.600          23.000
  23430825.510    23430824.861    23430824.812    -7317735.762 3  -5702133.618 4
        22.100          24.200
  23378689.158    23378688.278    23378688.396    -5329891.646 3  -4153160.306 4
        22.100          24.600
  22805721.239    22805720.567    22805720.069   -12631230.273 4  -9842513.752 4
        26.200          27.400
  20719852.456    20719851.711    20719849.956   -24199811.670 6 -18856986.160 7
        40.700          45.700
  20424132.857    20424132.321    20424129.104   -24815900.268 7 -19337055.673 8
        43.300          49.500
 09  1  4  1 11 30.0000000  0  9G 9G21G28G19G15G 6G 3G14G22
  21664697.265    21664696.606    21664695.953   -17486362.352 5 -13625730.289 5
        34.400          34.600
  22566122.978    22566122.676    22566121.278   -15736925.785 4 -12262530.057 4
        26.800          25.300
  25452461.820    25452461.342    25452459.137      -16407.748      -12785.308 1
         3.000           6.500
  22905543.771    22905542.240    22905540.116   -11293621.354 5  -8800221.588 5
        31.800          30.800
  24212153.313    24212154.012    24212152.374    -3376228.768 2  -2630815.580 3
        17.000          22.600
  23445129.382    23445128.870    23445129.190    -7242566.593 3  -5643560.252 3
        21.600          23.800
  23392548.778    23392548.099    23392548.108    -5257058.276 3  -4096407.037 3
        22.100          23.800
  22787165.364    22787164.806    22787163.984   -12728742.234 4  -9918497.072 4
        26.500          27.400
  20419201.223    20419200.697    20419197.475   -24841816.108 7 -19357249.827 8
        43.400          49.500
 09  1  4  1 12  0.0000000  0 10G 9G21G28G19G15G 6G 3G14G18G22
  21656560.729    21656559.988    21656559.236   -17529120.731 5 -13659048.507 5
        34.300          34.700
  22585131.524    22585130.783    22585129.690   -15637036.928 4 -12184694.640 4
        26.800          24.900
  25451045.690    25451045.970    25451042.711      -23848.893      -18583.669
                         3.000
  22905208.397    22905206.536    22905204.626   -11295385.256 5  -8801596.055 5
        31.600          31.000
  24231992.747    24231992.656    24231990.625    -3271975.899 2  -2549579.591 3
        17.800          22.100
  23459496.827    23459496.509    23459496.504    -7167064.577 3  -5584727.508 3
        22.100          23.000
  23406481.488    23406480.937    23406481.289    -5183840.700 3  -4039354.379 4
        22.600          24.200
  22768660.477    22768659.675    22768658.839   -12825987.876 4  -9994272.882 4
        27.400          27.400
  20733425.290    20733424.444    20733422.633   -24128486.516 6 -18801408.117 7
        40.600          45.400
  20414342.241    20414341.794    20414338.633   -24867349.633 7 -19377146.078 8
        43.500          49.600
 09  1  4  1 12 30.0000000  0 10G 9G21G28G19G15G 6G 3G14G18G22
  21648551.828    21648551.191    21648550.573   -17571206.426 5 -13691842.548 5
        34.300          34.800
  22604195.769    22604194.799    22604193.480   -15536855.947 4 -12106631.571 4
        26.800          24.900
  25449726.144    25449727.483    25449726.522      -30779.270      -23983.973 1
                         9.000
  22904985.285    22904983.614    22904981.856   -11296556.396 5  -8802508.626 5
        31.800          31.300
  24251856.372    24251856.289    24251854.668    -3167590.053 2  -2468239.977 3
        17.000          21.600
  23473927.914    23473927.519    23473926.945    -7091232.617 3  -5525637.666 3
        22.100          23.000
  23420486.684    23420485.741    23420486.262    -5110242.420 3  -3982005.079 4
        21.600          24.900
  22750206.450    22750205.693    22750204.412   -12922965.797 4 -10069840.089 4
        27.600          27.600
  20740317.123    20740316.328    20740314.537   -24092269.332 6 -18773186.935 7
        40.600          45.300
  20409556.315    20409555.794    20409552.519   -24892500.557 7 -19396744.200 8
        43.600          49.600
 09  1  4  1 13  0.0000000  0 10G 9G21G28G19G15G 6G 3G14G18G22
  21640671.972    21640671.223    21640670.575   -17612616.543 5 -13724110.166 5
        34.500          34.900
  22623314.457    22623313.826    22623312.682   -15436384.242 4 -12028341.954 4
        26.500          24.600
  25448504.159    25448504.610    25448503.336      -37197.691 1    -28985.238 1
         6.500           9.000
  22904875.528    22904873.728    22904871.893   -11297134.170 5  -8802958.838 5
        31.600          31.600
  24271745.691    24271745.782    24271743.874    -3063072.431 2  -2386797.683 3
        17.000          22.100
  23488420.337    23488419.881    23488419.353    -7015072.736 3  -5466292.303 3
        21.600          22.600
  23434564.687    23434563.902    23434564.051    -5036264.422 3  -3924359.891 4
        21.600          25.300
  22731803.084    22731802.284    22731801.696   -13019673.656 4 -10145196.833 4
        27.100          28.100
  20747279.508    20747278.634    20747276.782   -24055682.557 6 -18744677.759 7
        40.600          45.200
  20404843.211    20404842.720    20404839.452   -24917267.757 7 -19416043.314 8
        43.600          49.700
 09  1  4  1 13 30.0000000  0 10G 9G21G28G19G15G 6G 3G14G18G22
  21632920.580    21632919.866    21632919.307   -17653350.119 5 -13755850.617 5
        34.700          35.100
  22642488.855    22642488.099    22642486.533   -15335624.861 4 -11949828.135 4
        26.800          24.900
  25447382.569    25447381.876    25447381.467      -43105.276 1    -33588.557 2
        11.000          13.900
  22904878.252    22904876.616    22904874.788   -11297119.569 5  -8802947.455 5
        31.600          32.100
  24291658.993    24291659.056    24291657.319    -2958426.228 2  -2305255.222 3
        17.000          21.600
  23502974.831    23502974.522    23502973.734    -6938588.498 3  -5406694.186 3
        21.100          23.000
  23448713.728    23448712.699    23448712.477    -4961910.972 3  -3866422.164 4
        22.100          24.200
  22713451.651    22713450.822    22713450.498   -13116110.519 4 -10220342.416 4
        27.400          28.400
  20754311.683    20754310.860    20754309.197   -24018727.266 6 -18715881.428 7
        40.600          45.100
  20400203.167    20400202.644    20400199.506   -24941651.414 7 -19435043.566 8
        43.600          49.900
 09  1  4  1 14  0.0000000  0 10G 9G21G28G19G15G 6G 3G14G18G22
  21625298.301    21625297.513    21625296.714   -17693406.107 5 -13787063.071 5
        34.900          34.800
  22661717.039    22661716.163    22661714.709   -15234580.670 4 -11871092.401 4
        26.500          24.600
  25446354.950    25446355.171    25446354.464      -48502.228 1    -37793.864 2
         9.000          13.900
  22904993.470    22904991.957    22904990.107   -11296513.658 5  -8802475.318 5
        32.000          31.800
  24311596.243    24311595.921    24311594.674    -2853654.134 2  -2223614.684 3
        16.100          21.600
  23517590.559    23517589.812    23517589.606    -6861783.368 3  -5346846.053 3
        21.100          23.400
  23462933.345    23462932.522    23462932.716    -4887185.499 3  -3808194.530 4
        21.600          24.200
  22695152.318    22695151.544    22695151.023   -13212275.275 4 -10295275.977 4
        27.600          28.800
  20761413.923    20761413.108    20761411.317   -23981404.845 6 -18686799.022 7
        40.600          44.900
  20395636.006    20395635.542    20395632.403   -24965651.598 7 -19453745.004 8
        43.600          50.000
 09  1  4  1 14 30.0000000  0 10G 9G21G28G19G15G 6G 3G14G18G22
  21617805.540    21617804.992    21617804.205   -17732779.645 5 -13817743.745 5
        34.800          34.900
  22680999.208    22680998.500    22680997.246   -15133250.888 4 -11792134.160 4
        26.200          24.900
  25445424.970    25445424.279    25445425.173      -53385.676      -41599.102 1
                         9.000
  22905221.754    22905220.054    22905217.862   -11295314.046 5  -8801540.545 5
        32.000          30.600
  24331558.231    24331558.417    24331556.519    -2748755.651 2  -2141875.663 3
        17.000          21.600
  23532267.048    23532266.545    23532266.501    -6784657.530 3  -5286748.010 4
        19.900          24.600
  23477223.817    23477223.271    23477222.964    -4812088.820 3  -3749677.665 3
        22.100          23.400
  22676905.321    22676904.608    22676903.731   -13308163.836 4 -10369994.326 4
        27.600          28.400
  20768586.485    20768585.702    20768583.847   -23943712.939 6 -18657428.708 7
        40.700          44.800
  20391142.489    20391141.967    20391138.829   -24989265.562 7 -19472145.492 8
        43.600          50.100
 09  1  4  1 15  0.0000000  0 10G 9G21G28G19G15G 6G 3G14G18G22
  21610443.899    21610443.314    21610442.570   -17771465.624 5 -13847888.671 5
        34.900          34.900
  22700336.436    22700335.372    22700334.119   -15031634.300 4 -11712952.448 4
        25.600          24.600
  25444596.232    25444595.059    25444595.313      -57752.327 1    -45001.612
         6.500           3.000
  22905563.914    22905562.163    22905559.934   -11293517.095 5  -8800140.325 5
        31.600          30.600
  24351544.450    24351544.932    24351542.649    -2643728.974 2  -2060036.747 3
        17.000          21.100
  23547004.726    23547004.157    23547004.717    -6707209.928 3  -5226399.261 4
        20.500          25.600
  23491584.026    23491583.538    23491584.288    -4736619.552 3  -3690870.431 3
        20.500          23.000
  22658711.952    22658711.290    22658710.160   -13403771.077 4 -10444493.450 4
        28.100          28.400
  20775829.975    20775829.121    20775827.323   -23905648.721 6 -18627768.277 7
        40.700          44.800
  20386723.285    20386722.747    20386719.532   -25012488.926 7 -19490241.614 8
        43.800          50.200
 09  1  4  1 15 30.0000000  0 10G 9G21G28G19G15G 6G 3G14G18G22
  21603211.939    21603211.231    21603210.567   -17809469.811 5 -13877502.327 5
        34.600          34.900
  22719726.427    22719725.455    22719724.034   -14929740.605 4 -11633554.815 4
        25.900          25.300
  25443861.391    25443860.403    25443861.255      -61609.255      -48007.142
         3.000           3.000
  22906018.020    22906016.335    22906014.261   -11291131.015 5  -8798281.047 5
        32.000          31.500
  24371552.898    24371552.896    24371551.394    -2538584.072 2  -1978105.701 3
        16.100          20.500
  23561801.950    23561800.918    23561801.460    -6629451.146 3  -5165808.013 4
        21.600          25.300
  23506015.995    23506014.849    23506014.519    -4660788.393 3  -3631781.237 3
        21.100          23.000
  22640571.091    22640570.301    22640569.193   -13499102.496 4 -10518777.645 4
        28.400          28.600
  20783142.666    20783141.849    20783140.074   -23867220.154 6 -18597823.937 7
        40.700          44.800
  20382377.031    20382376.514    20382373.269   -25035328.823 7 -19508038.931 8
        43.800          50.200
 09  1  4  1 16  0.0000000  0 10G 9G21G28G19G15G 6G 3G14G18G22
  21596110.533    21596109.901    21596109.387   -17846787.308 5 -13906580.893 5
        34.600          35.100
  22739169.090    22739168.170    22739166.569   -14827568.757 4 -11553940.470 4
        25.600          24.600
  25443225.023    25443224.479    25443223.551      -64953.088      -50612.751
                         3.000
  22906584.672    22906582.877    22906580.823   -11288152.755 5  -8795960.321 5
        32.000          31.500
  24391583.763    24391584.429    24391583.012    -2433319.642 2  -1896081.505 3
        16.100          20.500
  23576657.869    23576657.894    23576657.914    -6551380.565 3  -5104973.810 4
        20.500          24.600
  23520514.349    23520513.629    23520513.672    -4584594.896 3  -3572409.674 3
        21.100          22.100
  22622483.437    22622482.823    22622481.604   -13594153.316 4 -10592843.184 4
        28.600          28.800
  20790525.229    20790524.344    20790522.560   -23828424.748 6 -18567593.748 7
        40.600          44.600
  20378104.516    20378103.949    20378100.772   -25057780.952 7 -19525534.094 8
        43.700          50.300
 09  1  4  1 16 30.0000000  0 10G 9G21G28G19G15G 6G 3G14G18G22
  21589140.848    21589140.193    21589139.333   -17883414.351 5 -13935121.440 5
        34.900          35.100
  22758664.799    22758663.827    22758662.113   -14725118.599 4 -11474109.245 4
        24.900          24.600
  25442685.314    25442685.090    25442683.948      -67781.633      -52816.905

  22907264.476    22907262.732    22907260.477   -11284580.537 5  -8793176.771 5
        32.100          31.300
  24411638.010    24411638.530    24411636.898    -2327935.558 2  -1813964.085 3
        15.100          19.900
  23591574.049    23591573.332    23591573.031    -6472998.873 3  -5043897.181 4
        21.100          24.200
  23535082.541    23535082.027    23535081.831    -4508039.418 3  -3512756.070 3
        21.600          22.100
  22604450.067    22604449.253    22604448.077   -13688919.882 4 -10666687.239 4
        28.800          28.800
  20797977.808    20797976.993    20797975.194   -23789260.768 6 -18537076.360 7
        40.700          44.500
  20373905.988    20373905.444    20373902.284   -25079844.099 7 -19542726.154 8
        43.700          50.400
 09  1  4  1 17  0.0000000  0  9G 9G21G19G15G 6G 3G14G18G22
  21582300.465    21582299.809    21582298.998   -17919360.678 5 -13963131.561 5
        34.900          35.100
  22778210.615    22778209.349    22778208.137   -14622403.975 4 -11394071.946 3
        24.200          23.800
  22908054.932    22908053.462    22908051.220   -11280426.316 5  -8789939.718 5
        32.300          31.300
  24431712.733    24431712.614    24431709.953    -2222445.353 2  -1731763.938 3
        17.000          18.600
  23606545.957    23606545.335    23606545.371    -6394320.530 3  -4982589.376 3
        21.100          23.800
  23549716.772    23549715.911    23549715.888    -4431137.009 3  -3452832.129 3
        22.100          22.600
  22586468.702    22586467.926    22586466.849   -13783412.293 4 -10740317.665 4
        28.800          28.800
  20805498.259    20805497.454    20805495.633   -23749740.375 6 -18506281.248 7
        40.700          44.400
  20369779.423    20369778.899    20369775.785   -25101528.965 7 -19559623.449 8
        43.700          50.500
 09  1  4  1 17 30.0000000  0 10G 9G21G28G19G15G 6G 3G14G18G22
  21575593.422    21575592.824    21575592.157   -17954604.958 5 -13990594.631 5
        34.700          34.900
  22797809.923    22797808.983    22797807.886   -14519407.292 4 -11313814.845 3
        24.200          22.600
  25441901.196    25441899.572    25441899.688           -.34811          .21211
         6.500           9.000
  22908959.657    22908958.147    22908955.981   -11275670.907 5  -8786234.207 5
        32.100          31.100
  24451810.816    24451810.215    24451807.587    -2116831.699 2  -1649467.551 2
        17.000          17.800
  23621577.269    23621576.801    23621576.975    -6315328.570 3  -4921037.214 3
        19.900          23.000
  23564419.920    23564418.937    23564419.185    -4353870.949 3  -3392624.808 3
        22.100          23.000
  22568543.470    22568542.807    22568541.746   -13877609.047 4 -10813717.705 4
        29.000          29.000
  20813090.206    20813089.427    20813087.568   -23709844.327 6 -18475193.417 7
        40.700          44.200
  20365728.943    20365728.406    20365725.207   -25122814.830 7 -19576209.833 8
        43.800          50.500
 09  1  4  1 18  0.0000000  0 10G 9G21G28G19G15G 6G 3G14G18G22
  21569017.462    21569016.749    21569016.299   -17989162.702 5 -14017522.745 5
        34.900          35.200
  22817459.433    22817458.582    22817456.835   -14416148.223 4 -11233353.270 3
        24.900          22.100
  25441655.355    25441654.516    25441653.076       -1294.709 1     -1008.359 1
         9.000           9.000
  22909975.864    22909974.121    22909972.091   -11270331.832 5  -8782073.888 5
        31.800          31.000
  24471927.317    24471927.858    24471925.268    -2011114.118 2  -1567090.290 3
        15.100          19.300
  23636664.861    23636664.472    23636664.471    -6236043.093 3  -4859256.325 3
        18.600          21.600
  23579188.687    23579187.850    23579187.694    -4276261.456 3  -3332149.888 3
        23.000          23.000
  22550672.045    22550671.201    22550670.114   -13971525.793 4 -10886899.569 4
        29.700          29.200
  20820750.350    20820749.454    20820747.602   -23669590.454 6 -18443826.760 7
        40.600          44.100
  20361751.094    20361750.520    20361747.374   -25143718.623 7 -19592498.497 8
        43.800          50.600
 09  1  4  1 18 30.0000000  0 10G 9G21G28G19G15G 6G 3G14G18G22
  21562574.671    21562574.093    21562573.295   -18023019.932 5 -14043905.001 5
        35.100          35.100
  22837161.049    22837160.420    22837158.470   -14312616.453 4 -11152679.197 3
        24.900          23.000
  25441508.666    25441508.066    25441506.214       -2070.092 1     -1612.583
         9.000           3.000
  22911104.848    22911103.286    22911101.140   -11264397.258 5  -8777449.543 5
        31.300          30.400
  24492066.769    24492066.698    24492064.092    -1905281.427 2  -1484623.348 3
        13.900          18.600
  23651810.018    23651809.713    23651809.244    -6156454.532 3  -4797239.270 3
        18.600          21.100
  23594023.817    23594023.128    23594023.414    -4198298.897 3  -3271399.856 3
        22.600          23.400
  22532856.114    22532855.335    22532854.261   -14065148.737 4 -10959852.480 4
        29.500          29.200
  20828480.622    20828479.784    20828478.027   -23628967.235 6 -18412172.300 7
        40.600          44.000
  20357848.219    20357847.715    20357844.591   -25164227.779 7 -19608479.651 8
        43.800          50.700
 09  1  4  1 19  0.0000000  0 10G 9G21G28G19G15G 6G 3G14G18G22
  21556264.112    21556263.582    21556262.888   -18056180.799 5 -14069744.629 5
        34.900          34.900
  22856913.552    22856912.406    22856910.610   -14208819.300 4 -11071798.349 3
        24.200          23.400
  25441458.392    25441457.868    25441456.968       -2331.909 1     -1816.602 1
         6.500           6.500
  22912346.485    22912345.033    22912342.551   -11257872.746 5  -8772365.505 4
        31.500          29.900
  24512226.231    24512226.160    24512223.787    -1799341.702 2  -1402073.008 3
        13.900          19.300
  23667011.535    23667010.903    23667010.593    -6076570.854 3  -4734992.255 3
        19.300          21.100
  23608925.391    23608924.861    23608924.679    -4119991.511 3  -3210381.132 3
        22.100          23.400
  22515095.129    22515094.425    22515093.513   -14158481.505 4 -11032579.293 4
        29.200          29.000
  20836280.289    20836279.492    20836277.540   -23587980.136 6 -18380234.303 7
        40.700          43.800
  20354019.594    20354019.110    20354016.059   -25184346.902 7 -19624156.885 8
        43.800          50.700
 09  1  4  1 19 30.0000000  0 10G 9G21G28G19G15G 6G 3G14G18G22
  21550086.463    21550085.727    21550085.000   -18088645.834 5 -14095042.056 5
        35.100          34.900
  22876715.105    22876714.016    22876712.647   -14104761.111 4 -10990714.094 3
        24.200          23.800
  25441503.491    25441505.397    25441504.670       -2082.360       -1622.105
                         3.000
  22913699.868    22913698.113    22913695.863   -11250761.095 5  -8766823.961 5
        31.500          30.200
  24532404.704    24532405.371    24532403.641    -1693298.623 2  -1319442.097 3
        12.600          19.300
  23682267.937    23682267.531    23682267.778    -5996397.102 3  -4672519.200 3
        19.300          21.600
  23623892.160    23623891.321    23623891.339    -4041344.369 3  -3149097.647 3
        22.100          23.800
  22497389.830    22497388.955    22497387.818   -14251524.359 4 -11105080.182 4
        29.200          29.000
  20844148.619    20844147.740    20844145.770   -23546632.148 6 -18348015.090 7
        40.700          43.700
  20350265.078    20350264.562    20350261.360   -25204077.706 7 -19639531.532 8
        43.900          50.700
 09  1  4  1 20  0.0000000  0 10G 9G21G28G19G15G 6G 3G14G18G22
  21544041.993    21544041.425    21544040.722   -18120409.588 5 -14119793.033 5
        35.300          35.400
  22896566.192    22896565.509    22896564.173   -14000440.364 3 -10909425.218 3
        23.800          23.000
  25441648.193    25441649.213    25441643.199       -1317.631       -1025.736
                         3.000
  22915165.643    22915163.846    22915161.981   -11243058.949 5  -8760822.293 5
        31.300          31.000
  24552604.894    24552604.900    24552602.888    -1587150.368 2  -1236729.212 3
        12.600          19.900
  23697579.815    23697579.528    23697579.197    -5915932.460 3  -4609819.507 3
        19.900          22.100
  23638922.973    23638922.009    23638921.772    -3962356.429 3  -3087548.626 3
        21.600          23.400
  22479740.406    22479739.692    22479738.703   -14344272.026 4 -11177351.060 4
        29.900          29.500
  20852086.070    20852085.277    20852083.478   -23504919.747 6 -18315511.921 7
        40.700          43.700
  20346585.095    20346584.541    20346581.399   -25223416.190 7 -19654600.480 8
        43.900          50.800
 09  1  4  1 20 30.0000000  0 10G 9G21G28G19G15G 6G 3G14G18G22
  21538131.034    21538130.398    21538129.815   -18151471.367 5 -14143997.007 5
        34.900          35.300
  22916467.234    22916466.308    22916465.520   -13895860.199 3 -10827934.177 3
        23.800          23.400
  25441896.619    25441895.256    25441894.107         -38.692         -26.503
         3.000           3.000
  22916743.212    22916741.641    22916739.520   -11234768.139 5  -8754361.915 5
        31.600          31.000
  24572824.191    24572823.206    24572822.212    -1480900.125 2  -1153936.830 3
        13.900          21.100
  23712946.915    23712946.265    23712945.429    -5835180.661 3  -4546896.034 3
        21.600          22.100
  23654017.551    23654016.912    23654017.004    -3883031.565 3  -3025737.048 3
        20.500          23.800
  22462147.339    22462146.577    22462145.659   -14436724.001 4 -11249391.538 4
        29.900          29.700
  20860092.810    20860091.955    20860090.081   -23462844.578 6 -18282726.075 7
        40.600          43.600
  20342979.577    20342979.051    20342975.909   -25242363.039 7 -19669364.257 8
        43.900          50.800
 09  1  4  1 21  0.0000000  0 10G 9G21G28G19G15G 6G 3G14G18G22
  21532354.121    21532353.502    21532352.504   -18181830.506 5 -14167653.476 5
        35.400          34.900
  22936417.024    22936415.994    22936415.250   -13791023.412 3 -10746243.209 3
        23.800          23.400
  25442235.763    25442234.756    25442233.086        1753.845 1      1370.220 1
         6.500           6.500
  22918432.902    22918431.146    22918429.181   -11225889.915 5  -8747443.813 5
        32.000          31.300
  24593062.576    24593062.274    24593059.941    -1374550.185 2  -1071066.730 3
        13.900          21.600
  23728367.298    23728366.911    23728366.618    -5754145.023 3  -4483751.411 3
        22.600          23.000
  23669175.512    23669174.577    23669175.554    -3803373.730 3  -2963666.043 3
        18.600          23.800
  22444610.725    22444610.020    22444608.945   -14528879.393 4 -11321200.911 5
        29.700          30.100
  20868168.150    20868167.393    20868165.496   -23420407.809 6 -18249658.458 7
        40.600          43.400
  20339448.758    20339448.188    20339444.939   -25260918.251 7 -19683822.873 8
        44.000          50.800
 09  1  4  1 21 30.0000000  0 10G 9G21G28G19G15G 6G 3G14G18G22
  21526711.244    21526710.578    21526709.767   -18211483.754 5 -14190759.904 5
        35.500          35.200
  22956415.411    22956414.620    22956413.728   -13685930.352 3 -10664352.529 3
        23.400          22.600
  25442673.957    25442671.385    25442672.775        4061.847        3168.673 1
         3.000           9.000
  22920234.472    22920232.620    22920230.739   -11216422.122 5  -8740066.317 5
        31.100          31.300
  24613319.409    24613318.823    24613316.675    -1268100.890 2   -988119.186 3
        15.100          23.000
  23743841.409    23743840.692    23743841.167    -5672826.516 3  -4420386.337 3
        21.100          23.400
  23684398.047    23684396.858    23684396.941    -3723384.007 3  -2901336.394 3
        19.900          23.000
  22427131.245    22427130.398    22427129.639   -14620734.317 5 -11392776.153 5
        30.100          30.400
  20876312.576    20876311.766    20876310.084   -23377608.323 6 -18216308.206 7
        40.600          43.400
  20335992.723    20335992.209    20335989.062   -25279079.142 7 -19697974.221 8
        43.900          50.800
 09  1  4  1 22  0.0000000  0 10G 9G21G28G19G15G 6G 3G14G18G22
  21521202.240    21521201.438    21521200.796   -18240434.276 5 -14213318.743 5
        35.300          35.400
  22976461.778    22976460.833    22976459.697   -13580587.487 3 -10582267.196 3
        23.800          22.600
  25443210.423    25443210.457    25443209.372        6880.432        5365.014 1
                         6.500
  22922146.942    22922145.260    22922143.436   -11206370.317 5  -8732233.739 5
        31.000          31.300
  24633593.384    24633592.704    24633590.837    -1161558.866 2   -905099.463 3
        13.900          23.400
  23759369.360    23759368.415    23759368.100    -5591232.447 3  -4356806.550 3
        20.500          23.800
  23699680.464    23699679.893    23699680.037    -3643070.184 3  -2838754.215 3
        18.600          22.100
  22409708.199    22409707.479    22409706.747   -14712292.066 5 -11464119.841 5
        30.100          30.100
  20884525.247    20884524.387    20884522.644   -23334450.965 6 -18182679.096 7
        40.600          43.400
  20332610.995    20332610.501    20332607.325   -25296850.171 7 -19711821.768 8
        44.000          50.900
 09  1  4  1 22 30.0000000  0 10G 9G21G28G19G15G 6G 3G14G18G22
  21515826.087    21515825.427    21515824.771   -18268685.055 5 -14235332.334 5
        35.400          35.300
  22996554.367    22996553.200    22996552.007   -13475001.872 3 -10499992.727 3
        23.000          22.600
  25443844.560    25443843.685    25443842.688       10205.659 1      7956.103 1
         6.500           9.000
  22924170.164    22924168.478    22924166.749   -11195739.548 5  -8723950.029 5
        31.100          31.600
  24653883.630    24653882.860    24653881.383    -1054930.097 2   -822012.115 3
        13.900          23.000
  23774946.791    23774946.186    23774945.939    -5509369.930 3  -4293017.577 3
        20.500          23.400
  23715024.572    23715023.852    23715023.745    -3562438.580 3  -2775924.423 3
        19.900          21.600
  22392341.542    22392340.736    22392339.843   -14803555.173 5 -11535233.926 5
        30.200          30.200
  20892805.032    20892804.193    20892802.396   -23290940.530 6 -18148774.856 7
        40.700          43.200
  20329302.762    20329302.235    20329299.052   -25314235.203 7 -19725368.542 8
        44.000          50.900
 09  1  4  1 23  0.0000000  0 10G 9G21G28G19G15G 6G 3G14G18G22
  21510585.596    21510584.871    21510584.107   -18296224.375 5 -14256791.541 5
        35.300          35.300
  23016693.843    23016693.114    23016691.653   -13369165.145 3 -10417522.562 3
        22.100          21.100
  25444574.796    25444573.637    25444571.858       14047.206       10949.540 1
         3.000           9.000
  22926305.108    22926303.630    22926301.448   -11184520.095 5  -8715207.598 5
        32.000          31.100
  24674191.131    24674192.057    24674190.868     -948206.351 2   -738850.776 3
        13.900          21.100
  23790577.008    23790576.106    23790576.099    -5427231.632 2  -4229013.721 3
        17.800          23.000
  23730430.052    23730429.399    23730428.956    -3481482.619 3  -2712841.863 3
        20.500          21.600
  22375032.908    22375032.175    22375031.375   -14894511.970 5 -11606109.333 5
        30.200          30.400
  20901153.705    20901152.889    20901151.068   -23247067.644 6 -18114588.188 7
        40.700          43.100
  20326069.974    20326069.485    20326066.320   -25331223.583 7 -19738606.249 8
        44.000          51.000
 09  1  4  1 23 30.0000000  0 10G 9G21G28G19G15G 6G 3G14G18G22
  21505481.297    21505480.680    21505479.865   -18323047.505 5 -14277692.677 5
        35.500          35.100
  23036882.096    23036881.162    23036879.811   -13263075.594 3 -10334855.386 3
        22.100          21.100
  25445404.557    25445403.170    25445404.212       18408.784       14348.180 1
                        11.000
  22928553.178    22928551.242    22928549.036   -11172708.885 5  -8706004.055 5
        31.600          31.300
  24694519.487    24694519.128    24694517.288     -841386.029 2   -655614.223 3
        16.100          23.400
  23806259.710    23806259.397    23806259.187    -5344816.715 3  -4164794.347 3
        18.600          23.400
  23745897.060    23745896.111    23745896.611    -3400200.887 3  -2649505.466 3
        20.500          23.000
  22357783.876    22357783.092    22357782.154   -14985157.022 5 -11676741.820 5
        30.800          30.600
  20909572.076    20909571.231    20909569.455   -23202829.039 6 -18080116.546 7
        40.700          43.000
  20322913.462    20322912.949    20322909.829   -25347810.993 7 -19751531.510 8
        44.000          51.000
 09  1  4  1 24  0.0000000  0 10G 9G21G28G19G15G 6G 3G14G18G22
  21500512.164    21500511.435    21500510.715   -18349160.502 5 -14298040.466 5
        35.400          35.100
  23057116.400    23057115.683    23057114.357   -13156743.481 3 -10251999.239 3
        22.600          20.500
  25446332.713    25446331.411    25446329.090       23282.431       18145.882
         3.000
  22930911.986    22930910.150    22930908.063   -11160314.327 5  -8696345.956 5
        32.100          32.300
  24714864.150    24714864.013    24714861.711     -734478.607 2   -572309.788 4
        16.100          24.200
  23821993.449    23821992.889    23821993.622    -5262135.656 3  -4100367.546 4
        18.600          24.200
  23761423.887    23761423.406    23761424.115    -3318604.322 3  -2585923.718 3
        20.500          23.400
  22340592.669    22340592.071    22340591.275   -15075496.347 5 -11747136.074 5
        31.000          30.800
  20918058.538    20918057.696    20918055.773   -23158232.759 6 -18045366.197 7
        40.700          42.800
  20319832.006    20319831.489    20319828.258   -25364004.661 7 -19764149.948 8
        44.100          51.000
 09  1  4  1 24 30.0000000  0  9G 9G21G19G15G 6G 3G14G18G22
  21495677.258    21495676.597    21495675.792   -18374568.020 5 -14317838.532 5
        35.400          35.200
  23077395.400    23077394.491    23077393.667   -13050176.410 3 -10168960.010 3
        22.600          20.500
  22933379.840    22933378.067    22933376.308   -11147342.698 5  -8686238.205 5
        31.800          32.100
  24735223.222    24735223.465    24735220.294     -627491.783 2   -488943.524 4
        15.100          24.200
  23837775.397    23837775.279    23837776.205    -5179196.962 2  -4035740.009 3
        17.800          23.800
  23777011.006    23777009.722    23777009.302    -3236702.005 3  -2522103.760 3
        21.100          23.000
  22323459.080    22323458.326    22323457.227   -15165534.413 5 -11817295.595 5
        30.800          30.400
  20926611.713    20926610.915    20926608.847   -23113285.346 6 -18010342.237 7
        40.800          42.600
  20316824.214    20316823.712    20316820.621   -25379809.918 7 -19776465.726 8
        44.100          51.100
 09  1  4  1 25  0.0000000  0 10G 9G21G28G19G15G 6G 3G14G18G22
  21490979.531    21490978.858    21490977.807   -18399255.804 5 -14337075.763 5
        35.600          35.200
  23097720.667    23097720.108    23097719.297   -12943363.706 3 -10085729.348 3
        22.600          20.500
  25448480.396    25448479.411    25448477.853           -.56611         -.45111
         6.500          11.000
  22935960.293    22935958.658    22935956.721   -11133781.913 5  -8675671.361 5
        31.500          32.000
  24755599.389    24755599.651    24755596.237     -520414.202 2   -405506.488 3
        15.100          23.800
  23853609.583    23853609.039    23853609.522    -5095990.445 2  -3970903.766 3
        17.800          23.400
  23792656.584    23792655.421    23792654.776    -3154483.361 3  -2458037.291 3
        21.100          23.000
  22306385.502    22306384.650    22306383.772   -15255256.625 5 -11887208.994 5
        30.800          30.600
  20935233.946    20935233.126    20935231.364   -23067974.229 6 -17975034.870 7
        40.600          42.600
  20313893.009    20313892.515    20313889.391   -25395213.543 7 -19788468.545 8
        44.100          51.100
 09  1  4  1 25 30.0000000  0 10G 9G21G28G19G15G 6G 3G14G18G22
  21486417.731    21486417.130    21486416.702   -18423225.576 5 -14355753.515 5
        35.400          35.300
  23118092.440    23118091.859    23118091.000   -12836310.466 3 -10002311.261 3
        21.600          20.500
  25449697.469    25449696.214    25449697.184        6414.371        4998.254 1
                        11.000
  22938652.429    22938650.654    22938648.897   -11119635.710 5  -8664648.355 5
        31.600          32.300
  24775992.344    24775992.572    24775989.138     -413250.755 2   -322002.510 3
        15.100          23.800
  23869493.968    23869492.851    23869493.325    -5012521.944 3  -3905863.370 3
        18.600          23.400
  23808360.720    23808359.659    23808359.990    -3071954.828 3  -2393729.364 3
        19.900          23.400
  22289371.665    22289370.989    22289370.322   -15344663.984 5 -11956877.046 5
        31.100          31.300
  20943924.849    20943924.074    20943922.255   -23022303.123 6 -17939446.997 7
        40.600          42.500
  20311037.841    20311037.267    20311034.123   -25410217.960 7 -19800160.294 8
        44.100          51.100
 09  1  4  1 26  0.0000000  0 10G 9G21G28G19G15G 6G 3G14G18G22
  21481992.858    21481992.156    21481991.535   -18446479.731 5 -14373873.634 5
        35.600          35.200
  23138508.883    23138508.277    23138507.506   -12729022.457 3  -9918710.244 3
        22.100          21.100
  25451018.149    25451016.639    25451014.095       13341.560 1     10396.053 1
         6.500           6.500
  22941454.528    22941452.931    22941451.090   -11104908.233 5  -8653172.400 5
        31.300          32.100
  24796400.929    24796400.972    24796397.031     -306007.137 2   -238436.099 3
        12.600          23.000
  23885426.070    23885425.573    23885425.520    -4928797.703 3  -3840623.718 3
        18.600          23.400
  23824123.177    23824122.144    23824122.513    -2989122.763 3  -2329184.908 4
        18.600          24.200
  22272417.699    22272416.996    22272415.985   -15433758.535 5 -12026301.351 5
        31.600          31.000
  20952683.645    20952682.813    20952680.909   -22976276.122 6 -17903581.801 7
        40.700          42.300
  20308257.968    20308257.484    20308254.199   -25424826.211 7 -19811543.346 8
        44.200          51.100
 09  1  4  1 26 30.0000000  0 10G 9G21G28G19G15G 6G 3G14G18G22
  21477703.813    21477703.137    21477702.217   -18469019.411 5 -14391437.020 5
        35.900          34.800
  23158969.248    23158968.595    23158967.539   -12621504.563 3  -9834930.087 3
        22.600          21.600
  25452432.682    25452431.722    25452430.289       20778.183 1     16190.822 1
         9.000           6.500
  22944367.645    22944365.978    22944363.838   -11089602.576 5  -8641245.931 5
        31.600          32.000
  24816822.413    24816822.065    24816819.333     -198687.387 1   -154810.353 3
        11.000          22.100
  23901406.106    23901405.235    23901404.988    -4844823.397 3  -3775189.204 3
        19.900          23.400
  23839942.168    23839940.952    23839941.636    -2905992.757 3  -2264408.306 4
        18.600          24.200
  22255522.933    22255522.161    22255521.116   -15522541.484 5 -12095482.860 5
        31.600          31.000
  20961509.604    20961508.686    20961506.732   -22929896.263 6 -17867441.649 7
        40.700          42.200
  20305553.113    20305552.577    20305549.313   -25439040.561 7 -19822619.464 8
        44.300          51.100
 09  1  4  1 27  0.0000000  0 10G14G21G28G19G15G 6G 3G18G22G 9
  22238687.841    22238687.185    22238686.047   -15611010.449 5 -12164419.704 5
        31.800          31.100
  23179473.521    23179472.262    23179470.657   -12513757.993 3  -9750971.753 3
        22.600          22.100
  25453942.960    25453943.443    25453942.846       28724.872       22383.069 1
                        11.000
  22947389.842    22947388.135    22947386.423   -11073719.081 5  -8628869.179 5
        31.500          31.800
  24837258.147    24837258.184    24837256.650      -91292.785 1    -71126.284 3
         6.500          19.300
  23917432.404    23917431.750    23917431.885    -4760600.858 3  -3709561.269 3
        19.900          22.600
  23855818.180    23855816.967    23855817.229    -2822566.574 2  -2199400.902 3
        17.000          23.400
  20970402.343    20970401.574    20970399.650   -22883163.307 6 -17831026.360 7
        40.600          42.200
  20302923.377    20302922.851    20302919.658   -25452859.785 7 -19833387.697 8
        44.300          51.200
  21473550.852    21473550.210    21473549.445   -18490842.968 5 -14408442.389 5
        35.800          35.100
 09  1  4  1 27 30.0000000  0 10G 9G21G28G19G15G 6G 3G14G18G22
  21469534.545    21469533.824    21469533.160   -18511949.946 6 -14424889.388 5
        36.100          35.300
  23200019.579    23200018.904    23200017.542   -12405785.709 3  -9666837.590 3
        21.600          20.500
  25455555.167    25455554.258    25455550.735       37180.683       28972.027 1
         3.000           9.000
  22950522.139    22950520.453    22950518.169   -11057258.923 5  -8616043.089 5
        30.800          31.100
  24857705.860    24857709.119    24857704.893       16174.120 1     12614.119 2
         6.500          16.100
  23933506.065    23933505.251    23933505.319    -4676133.419 3  -3643742.505 3
        18.600          22.600
  23871748.725    23871747.728    23871748.300    -2738848.136 2  -2134165.777 3
        17.000          23.000
  22221912.732    22221911.960    22221910.855   -15699164.298 5 -12233110.999 5
        32.100          31.500
  20979362.431    20979361.593    20979359.740   -22836078.426 6 -17794336.841 7
        40.600          42.100
  20300368.845    20300368.308    20300365.144   -25466283.730 7 -19843847.913 8
        44.300          51.200
 09  1  4  1 28  0.0000000  0 10G21G28G19G15G 6G 3G14G18G22G 9
  23220609.965    23220608.735    23220607.645   -12297583.223 3  -9582524.066 3
        21.100          19.900
  25457260.066    25457259.886    25457259.844       46151.986       35962.564 1
         3.000           9.000
  22953765.499    22953763.553    22953761.413   -11040216.604 5  -8602763.366 5
        30.400          31.100
  24878171.453    24878172.268    24878170.161      123718.437       96414.893 2
         3.000          13.900
  23949627.275    23949627.021    23949626.647    -4591417.360 2  -3577730.022 3
        17.000          22.600
  23887735.891    23887735.341    23887735.532    -2654833.628 2  -2068699.964 3
        17.000          21.600
  22205199.006    22205198.306    22205197.215   -15786995.066 5 -12301550.545 5
        32.000          31.800
  20988390.484    20988389.681    20988387.798   -22788635.451 6 -17757368.293 7
        40.600          42.000
  20297890.973    20297890.417    20297887.164   -25479305.758 7 -19853994.949 8
        44.400          51.300
  21465655.701    21465655.036    21465654.325   -18532332.492 6 -14440771.893 5
        36.100          35.200
 09  1  4  1 28 30.0000000  0  9G21G28G19G 6G 3G14G18G22G 9
  23241241.945    23241240.889    23241239.825   -12189161.308 3  -9498039.549 3
        21.100          20.500
  25459065.262    25459063.539    25459063.199       55629.735       43347.926 1
                         9.000
  22957117.477    22957115.869    22957113.639   -11022601.224 5  -8589037.092 5
        31.000          30.800
  23965792.977    23965792.245    23965792.992    -4506463.937 2  -3511532.573 3
        16.100          22.100
  23903776.957    23903776.251    23903777.127    -2570534.529 2  -2003012.391 3
        15.100          20.500
  22188545.681    22188544.938    22188543.743   -15874509.802 5 -12369743.828 5
        32.400          32.000
  20997484.919    20997484.142    20997482.288   -22740843.581 6 -17720127.872 6
        40.600          41.900
  20295487.856    20295487.330    20295484.081   -25491933.989 7 -19863835.124 8
        44.400          51.300
  21461913.480    21461912.840    21461912.101   -18551998.040 6 -14456095.695 5
        36.100          35.200
 09  1  4  1 29  0.0000000  0  9G21G28G19G 6G 3G14G18G22G 9
  23261914.886    23261913.795    23261912.402   -12080524.201 3  -9413387.307 3
        20.500          19.300
  25460964.652    25460964.077    25460962.682       65611.662 1     51126.138 1
         6.500           6.500
  22960577.755    22960576.071    22960573.950   -11004416.112 5  -8574866.878 5
        30.400          30.800
  23982003.721    23982003.112    23982002.910    -4421278.393 2  -3445154.242 3
        17.000          20.500
  23919872.346    23919871.956    23919871.847    -2485955.928 2  -1937107.011 3
        17.000          19.900
  22171951.884    22171951.243    22171950.418   -15961708.886 5 -12437691.146 5
        32.300          32.300
  21006645.360    21006644.469    21006642.573   -22692705.800 6 -17682617.912 6
        40.600          41.800
  20293159.246    20293158.758    20293155.526   -25504170.431 7 -19873370.012 8
        44.400          51.300
  21458307.440    21458306.743    21458306.074   -18570947.924 6 -14470861.833 5
        36.100          35.200
 09  1  4  1 29 30.0000000  0 10G21G28G19G15G 6G 3G14G18G22G 9
  23282630.562    23282630.236    23282628.723   -11971658.622 3  -9328556.998 3
        20.500          19.300
  25462962.145    25462961.725    25462960.904       76112.495       59308.585 1
         3.000          11.000
  22964149.481    22964147.745    22964145.621   -10985646.616 5  -8560241.296 5
        30.200          30.400
  24939645.568    24939646.058    24939642.627           -.52311         -.59712
         6.500          13.900
  23998260.119    23998259.239    23998259.520    -4335848.219 2  -3378585.281 3
        17.800          19.900
  23936023.037    23936021.892    23936022.130    -2401085.549 2  -1870974.250 3
        17.800          18.600
  22155421.639    22155420.965    22155420.265   -16048575.641 5 -12505379.506 5
        32.400          32.400
  21015874.269    21015873.407    21015871.602   -22644207.196 6 -17644826.790 6
        40.400          41.800
  20290908.385    20290907.874    20290904.728   -25515998.716 7 -19882586.851 8
        44.400          51.400
  21454840.458    21454839.833    21454839.237   -18589166.011 6 -14485057.740 5
        36.000          35.200
 09  1  4  1 30  0.0000000  0 10G21G28G19G15G 6G 3G14G18G22G 9
  23303389.528    23303388.729    23303387.118   -11862573.146 3  -9243555.308 3
        21.100          19.900
  25465055.679    25465056.320    25465057.846       87125.780       67890.217 1
                        11.000
  22967831.191    22967829.436    22967827.347   -10966299.865 5  -8545165.904 5
        31.000          30.600
  24960162.247    24960162.589    24960159.145      107818.459 1     84014.219 2
         9.000          12.600
  24014561.776    24014561.264    24014561.052    -4250182.303 2  -3311832.637 3
        16.100          18.600
  23952226.398    23952225.577    23952225.525    -2315932.597 2  -1804621.331 2
        17.000          17.800
  22138953.863    22138953.184    22138952.322   -16135114.506 5 -12572812.378 5
        32.400          32.300
  21025170.607    21025169.811    21025168.141   -22595354.421 6 -17606759.694 6
        40.400          41.900
  20288734.163    20288733.619    20288730.331   -25527424.930 7 -19891490.395 8
        44.500          51.400
  21451512.312    21451511.651    21451510.551   -18606657.511 6 -14498687.477 5
        36.200          35.100
 09  1  4  1 30 30.0000000  0 10G21G28G19G15G 6G 3G14G18G22G 9
  23324187.855    23324187.203    23324185.940   -11753275.603 3  -9158388.410 3
        19.300          19.900
  25467248.873    25467248.544    25467246.409       98645.709       76866.794 1
                         6.500
  22971621.651    22971619.916    22971617.659   -10946382.137 5  -8529645.612 5
        31.100          31.000
  24980690.023    24980691.860    24980689.564      215698.580 1    168076.643 1
         9.000          11.000
  24030907.594    24030906.933    24030906.364    -4164288.896 3  -3244902.714 2
        18.600          17.000
  23968483.388    23968482.872    23968482.744    -2230505.821 3  -1738055.016 3
        18.600          18.600
  22122547.731    22122546.888    22122546.203   -16221329.452 5 -12639992.830 5
        32.400          32.600
  21034533.307    21034532.530    21034530.755   -22546153.450 6 -17568421.278 6
        40.500          41.600
  20286635.349    20286634.803    20286631.610   -25538453.920 7 -19900084.414 8
        44.400          51.400
  21448321.001    21448320.300    21448319.592   -18623426.829 6 -14511754.480 5
        36.100          34.900
 09  1  4  1 31  0.0000000  0 10G21G28G19G15G 6G 3G14G18G22G 9
  23345027.597    23345026.451    23345025.806   -11643763.143 3  -9073054.068 3
        18.600          20.500
  25469539.653    25469538.723    25469538.300      110677.090       86241.890 1
         3.000           6.500
  22975521.094    22975519.304    22975517.243   -10925889.452 5  -8513677.289 5
        30.800          30.800
  25001232.948    25001231.706    25001231.917      323643.476 1    252189.551 2
         9.000          12.600
  24047295.832    24047295.120    24047294.773    -4078165.790 3  -3177793.804 2
        19.900          17.000
  23984791.726    23984790.829    23984791.130    -2144802.442 2  -1671273.168 3
        17.800          18.600
  22106204.633    22106203.870    22106202.748   -16307214.062 5 -12706915.886 5
        33.000          32.700
  21043963.005    21043962.188    21043960.177   -22496599.965 6 -17529808.169 6
        40.300          41.300
  20284613.144    20284612.652    20284609.456   -25549080.562 7 -19908364.914 8
        44.400          51.500
  21445268.514    21445267.770    21445266.877   -18639468.170 5 -14524254.222 5
        35.900          34.900
 09  1  4  1 31 30.0000000  0 10G21G28G19G15G 6G 3G14G18G22G 9
  23365907.117    23365906.628    23365905.919   -11534038.890 3  -8987554.699 3
        19.300          21.100
  25471925.606    25471924.398    25471923.987      123218.170       96014.185 1
         3.000           9.000
  22979529.875    22979527.917    22979525.997   -10904823.978 5  -8497262.640 5
        30.600          30.600
  25021785.522    25021785.625    25021784.580      431649.846 1    336350.278 2
        11.000          13.900
  24063726.620    24063726.470    24063726.270    -3991816.930 3  -3110508.992 2
        18.600          17.000
  24001152.786    24001151.938    24001151.570    -2058827.251 2  -1604279.504 2
        17.000          17.800
  22089924.181    22089923.386    22089922.473   -16392767.740 5 -12773581.075 5
        32.800          32.800
  21053459.499    21053458.648    21053456.848   -22446695.556 6 -17490921.622 6
        40.200          41.200
  20282667.393    20282666.899    20282663.780   -25559305.165 7 -19916332.139 8
        44.400          51.500
  21442354.484    21442353.763    21442352.819   -18654781.606 6 -14536186.765 5
        36.100          35.200
 09  1  4  1 32  0.0000000  0 10G21G28G19G15G 6G 3G14G18G22G 9
  23386826.477    23386825.364    23386825.014   -11424108.112 2  -8901894.413 3
        17.000          21.100
  25474410.198    25474409.506    25474406.891      136265.597 1    106181.064 1
        11.000           6.500
  22983646.467    22983644.649    22983642.914   -10883189.604 5  -8480404.693 5
        30.600          30.800
  25042348.978    25042349.398    25042347.988      539713.271 1    420555.500 2
         9.000          15.100
  24080200.018    24080199.889    24080200.197    -3905248.175 3  -3043052.827 2
        18.600          17.800
  24017563.294    24017563.139    24017563.251    -1972585.717 2  -1537078.314 3
        17.000          18.600
  22073706.601    22073705.807    22073704.887   -16477991.989 5 -12839989.556 5
        33.000          33.000
  21063022.113    21063021.249    21063019.330   -22396443.688 6 -17451764.327 6
        40.200          41.000
  20280797.779    20280797.286    20280794.033   -25569130.424 7 -19923988.184 8
        44.500          51.500
  21439578.325    21439577.696    21439577.138   -18669369.469 6 -14547553.932 5
        36.200          35.400
 09  1  4  1 32 30.0000000  0 10G21G28G19G15G 6G 3G14G18G22G 9
  23407784.671    23407783.343    23407782.801   -11313973.829 2  -8816075.565 3
        16.100          20.500
  25476989.435    25476987.360    25476985.118      149817.744      116741.065 1
         3.000           9.000
  22987871.536    22987869.738    22987867.701   -10860988.376 5  -8463105.033 5
        31.300          31.300
  25062921.583    25062922.308    25062921.238      647830.525 1    504802.691 2
         6.500          13.900
  24096715.288    24096714.776    24096714.864    -3818463.323 2  -2975428.270 3
        17.800          19.300
  24034024.874    24034023.474    24034024.422    -1886082.091 2  -1469672.911 3
        16.100          18.600
  22057551.474    22057550.917    22057549.913   -16562886.286 5 -12906140.936 5
        33.400          33.000
  21072650.341    21072649.524    21072647.681   -22345846.500 6 -17412337.947 6
        40.100          40.800
  20279003.866    20279003.353    20279000.133   -25578557.268 7 -19931333.779 8
        44.500          51.500
  21436940.274    21436939.653    21436939.032   -18683232.177 6 -14558356.046 5
        36.100          35.300
 09  1  4  1 33  0.0000000  0 10G21G28G19G15G 6G 3G14G18G22G 9
  23428781.621    23428780.773    23428780.040   -11203632.355 2  -8730095.198 3
        17.800          19.900
  25479665.580    25479663.172    25479664.083      163880.368      127699.010 2
                        12.600
  22992204.530    22992202.978    22992201.090   -10838215.746 5  -8445360.117 5
        31.300          31.100
  25083504.389    25083509.146    25083503.788      756006.233      589095.449 1
         3.000          11.000
  24113271.610    24113271.010    24113271.115    -3731459.619 2  -2907633.193 3
        15.100          19.900
  24050535.356    24050535.036    24050535.849    -1799313.316 2  -1402060.881 3
        16.100          18.600
  22041460.818    22041460.249    22041459.079   -16647443.473 5 -12972029.634 5
        33.500          33.100
  21082345.562    21082344.718    21082342.824   -22294898.339 6 -17372638.082 6
        40.000          40.700
  20277287.105    20277286.563    20277283.331   -25587579.256 7 -19938363.895 8
        44.600          51.500
  21434441.759    21434441.082    21434440.321   -18696362.990 6 -14568587.845 5
        36.300          35.200
 09  1  4  1 33 30.0000000  0 10G21G28G19G15G 6G 3G14G18G22G 9
  23449817.975    23449817.372    23449816.661   -11093086.616 3  -8643955.646 3
        19.300          19.300
  25482439.756    25482438.088    25482437.072      178452.706 1    139054.087 1
         6.500           9.000
  22996647.194    22996645.337    22996643.398   -10814872.363 5  -8427170.473 5
        31.100          31.300
  25104100.919    25104105.778    25104105.564      864238.467      673432.192 1
                        11.000
  24129869.812    24129868.762    24129868.549    -3644239.466 2  -2839669.477 3
        15.100          20.500
  24067097.404    24067096.953    24067096.767    -1712282.321 2  -1334244.536 3
        16.100          19.300
  22025434.722    22025434.039    22025432.860   -16731662.093 5 -13037654.512 5
        33.600          33.200
  21092107.349    21092106.556    21092104.627   -22243599.852 6 -17332665.235 6
        40.000          40.600
  20275647.443    20275646.894    20275643.664   -25596195.819 7 -19945078.099 8
        44.600          51.500
  21432082.247    21432081.629    21432081.037   -18708760.919 6 -14578248.568 5
        36.100          35.100
 09  1  4  1 34  0.0000000  0 10G21G28G19G15G 6G 3G14G18G22G 9
  23470891.746    23470890.570    23470889.118   -10982348.150 3  -8557665.921 3
        20.500          18.600
  25485306.054    25485304.199    25485302.378      193524.602      150798.282
         3.000           3.000
  23001195.613    23001193.868    23001191.728   -10790969.219 5  -8408544.654 5
        31.000          31.500
  25124704.890    25124708.155    25124707.301      972515.819      757804.229 1
                        11.000
  24146505.155    24146504.835    24146504.876    -3556815.722 2  -2771547.101 3
        16.100          20.500
  24083707.875    24083706.533    24083706.016    -1625001.686 2  -1266233.674 3
        17.800          19.300
  22009471.142    22009470.420    22009469.537   -16815550.265 5 -13103021.897 5
        33.400          33.400
  21101933.815    21101932.975    21101931.155   -22191961.320 6 -17292427.416 6
        39.800          40.600
  20274082.973    20274082.477    20274079.203   -25604416.948 7 -19951484.169 8
        44.500          51.500
  21429860.972    21429860.294    21429859.387   -18720435.400 6 -14587345.565 5
        36.300          34.900
 09  1  4  1 34 30.0000000  0 10G21G28G19G15G 6G 3G14G18G22G 9
  23492002.359    23492001.541    23492000.085   -10871408.773 3  -8471219.688 2
        19.900          17.800
  25488272.113    25488269.249    25488270.272      209105.446      162939.130 1
                         6.500
  23005852.290    23005850.771    23005848.712   -10766497.435 5  -8389475.736 5
        30.600          32.000
  25145321.967    25145321.508    25145321.590     1080846.738      842217.917 1
                        11.000
  24163182.005    24163181.480    24163181.113    -3469181.076 2  -2703260.401 3
        15.100          20.500
  24100365.569    24100364.318    24100363.829    -1537464.612 2  -1198022.987 3
        17.000          19.300
  21993572.936    21993572.242    21993571.185   -16899096.425 5 -13168122.781 5
        33.900          33.400
  21111826.850    21111825.999    21111824.170   -22139973.254 6 -17251917.231 6
        39.800          40.400
  20272595.800    20272595.325    20272592.194   -25612231.584 7 -19957573.493 8
        44.600          51.600
  21427779.184    21427778.359    21427777.655   -18731375.467 6 -14595870.293 5
        36.200          35.100
 09  1  4  1 35  0.0000000  0 10G21G28G19G15G 6G 3G14G18G22G 9
  23513150.301    23513149.600    23513148.024   -10760275.203 3  -8384622.114 2
        19.900          17.000
  25491333.412    25491332.250    25491329.848      225190.835 1    175473.360 1
        11.000           9.000
  23010616.151    23010614.506    23010612.736   -10741462.052 5  -8369967.656 5
        30.100          31.600
  25165942.773    25165946.057    25165946.115     1189225.120      926668.578 1
                         9.000
  24179896.428    24179895.853    24179895.463    -3381342.472 2  -2634814.747 3
        13.900          20.500
  24117069.569    24117068.689    24117068.498    -1449678.471 2  -1129618.200 3
        17.000          19.300
  21977738.970    21977738.400    21977737.299   -16982302.939 5 -13232959.011 5
        33.800          33.400
  21121785.231    21121784.410    21121782.655   -22087640.620 6 -17211138.555 6
        39.700          40.300
  20271185.404    20271184.878    20271181.694   -25619643.718 7 -19963349.180 8
        44.600          51.600
  21425836.276    21425835.649    21425834.923   -18741584.767 6 -14603825.597 5
        36.300          35.100
 09  1  4  1 35 30.0000000  0 10G21G28G19G15G 6G 3G14G18G22G 9
  23534333.693    23534333.044    23534332.089   -10648955.849 3  -8297879.780 3
        19.300          19.300
  25494487.752    25494487.056    25494485.042      241773.363 1    188394.671 1
         9.000           9.000
  23015486.420    23015484.681    23015482.468   -10715870.895 5  -8350026.506 5
        30.200          31.300
  25186574.456    25186575.443    25186573.863     1297643.160     1011150.198 1
                         9.000
  24196648.530    24196647.497    24196648.037    -3293309.292 2  -2566217.473 3
        13.900          20.500
  24133819.535    24133819.254    24133819.881    -1361652.638 2  -1061026.674 3
        16.100          20.500
  21961968.831    21961968.181    21961967.188   -17065175.312 5 -13297534.866 5
        33.900          33.400
  21131808.014    21131807.216    21131805.477   -22034970.339 6 -17170096.774 6
        39.700          40.100
  20269850.371    20269849.828    20269846.552   -25626659.708 7 -19968816.184 8
        44.600          51.600
  21424031.520    21424030.822    21424029.994   -18751069.192 6 -14611216.053 5
        36.200          34.900
 09  1  4  1 36  0.0000000  0 10G21G28G19G15G 6G 3G14G18G22G 9
  23555553.307    23555552.728    23555551.218   -10537447.984 3  -8210990.538 3
        19.300          18.600
  25497736.609    25497735.669    25497736.774      258858.047      201707.362 1
                        11.000
  23020462.393    23020460.788    23020459.203   -10689719.602 5  -8329648.894 5
        30.200          31.500
  25207216.341    25207215.841    25207219.447     1406104.510     1095665.488 1
                        11.000
  24213439.515    24213438.313    24213438.009    -3205078.861 2  -2497466.498 3
        15.100          19.900
  24150617.566    24150616.757    24150617.263    -1273384.231 2   -992246.114 3
        17.800          20.500
  21946263.757    21946263.188    21946262.233   -17147706.429 5 -13361844.813 5
        34.100          33.600
  21141896.164    21141895.302    21141893.397   -21981957.788 6 -17128788.293 6
        39.700          40.000
  20268591.774    20268591.282    20268588.083   -25633273.177 7 -19973969.535 8
        44.600          51.600
  21422365.861    21422365.209    21422364.251   -18759822.670 6 -14618036.950 5
        36.400          34.900
 09  1  4  1 36 30.0000000  0 10G21G28G19G15G 6G 3G14G18G22G 9
  23576809.635    23576808.925    23576807.210   -10425744.361 2  -8123948.764 3
        17.000          18.600
  25501086.039    25501085.071    25501085.385      276453.556 1    215418.189 1
         6.500          11.000
  23025547.095    23025545.490    23025543.501   -10663000.664 5  -8308828.941 5
        30.600          31.100
  25227865.461    25227866.535    25227866.077     1514616.234     1180220.062 2
         3.000          13.900
  24230266.840    24230266.519    24230266.810    -3116644.942 2  -2428556.991 3
        16.100          20.500
  24167462.291    24167461.449    24167461.018    -1184867.182 2   -923271.817 3
        17.800          19.900
  21930625.765    21930625.135    21930624.017   -17229885.593 5 -13425880.512 5
        34.600          33.900
  21152050.782    21152049.910    21152048.098   -21928594.299 6 -17087206.356 6
        39.500          39.800
  20267411.553    20267411.060    20267407.889   -25639475.120 7 -19978802.218 8
        44.600          51.700
  21420840.965    21420840.296    21420839.442   -18767835.316 6 -14624280.570 5
        36.200          34.800
 09  1  4  1 37  0.0000000  0 10G21G28G19G15G 6G 3G14G18G22G 9
  23598102.088    23598101.184    23598099.834   -10313850.439 2  -8036758.777 3
        17.000          19.300
  25504530.210    25504529.101    25504531.845      294556.232      229524.287 1
                        11.000
  23030738.972    23030737.185    23030735.270   -10635717.613 5  -8287569.428 5
        30.600          31.000
  25248524.927    25248525.006    25248525.024     1623173.966     1264810.489 2
         3.000          15.100
  24247132.829    24247131.804    24247133.599    -3028013.427 2  -2359493.492 3
        16.100          21.100
  24184351.775    24184350.913    24184351.165    -1096107.437 3   -854108.382 3
        18.600          19.300
  21915054.301    21915053.551    21915052.491   -17311714.589 5 -13489643.346 5
        34.600          33.900
  21162271.649    21162270.806    21162268.978   -21874883.527 6 -17045353.807 6
        39.600          39.700
  20266309.297    20266308.712    20266305.479   -25645268.177 7 -19983316.290 8
        44.600          51.700
  21419456.828    21419456.136    21419455.117   -18775110.151 6 -14629949.277 5
        36.500          34.900
 09  1  4  1 37 30.0000000  0 10G21G28G19G15G 6G 3G14G18G22G 9
  23619427.946    23619426.864    23619426.260   -10201782.614 2  -7949433.269 3
        16.100          19.300
  25508069.081    25508068.024    25508066.769      313151.180      244013.829
                         3.000
  23036035.126    23036033.667    23036031.551   -10607886.309 5  -8265882.695 5
        31.300          31.000
  25269188.485    25269189.612    25269187.226     1731761.730 1   1349424.232 2
         9.000          15.100
  24264033.509    24264032.919    24264033.615    -2939201.398 2  -2290289.321 3
        16.100          21.100
  24201286.143    24201285.248    24201284.488    -1007122.588 3   -784769.568 3
        19.300          18.600
  21899546.802    21899546.116    21899545.164   -17393206.223 5 -13553143.301 5
        34.600          34.000
  21172555.605    21172554.829    21172553.052   -21820840.364 6 -17003242.251 6
        39.600          39.500
  20265282.053    20265281.557    20265278.378   -25650665.917 7 -19987522.318 8
        44.600          51.700
  21418210.097    21418209.406    21418208.822   -18781660.836 6 -14635053.700 5
        36.200          35.300
 09  1  4  1 38  0.0000000  0 10G21G28G19G15G 6G 3G14G18G22G 9
  23640788.162    23640786.888    23640786.580   -10089533.012 2  -7861966.125 3
        13.900          18.600
  25511703.279    25511703.039    25511699.696      332247.260      258893.847 1
         3.000           6.500
  23041437.116    23041435.630    23041433.445   -10579498.091 5  -8243762.004 5
        31.300          30.600
  25289858.848    25289859.419    25289858.804     1840387.543 1   1434067.484 2
         9.000          13.900
  24280969.891    24280969.188    24280969.048    -2850201.628 2  -2220938.864 3
        15.100          19.300
  24218263.699    24218262.670    24218261.416     -917905.689 2   -715249.899 3
        17.000          18.600
  21884105.895    21884105.185    21884104.043   -17474348.837 5 -13616371.296 5
        34.800          33.900
  21182905.000    21182904.126    21182902.054   -21766455.324 6 -16960864.295 6
        39.600          39.300
  20264331.998    20264331.526    20264328.383   -25655658.230 7 -19991412.431 8
        44.500          51.700
  21417103.480    21417102.690    21417101.791   -18787476.961 6 -14639585.742 5
        36.200          35.100
 09  1  4  1 38 30.0000000  0 10G21G28G19G15G 6G 3G14G18G22G 9
  23662181.794    23662181.055    23662181.184    -9977104.062 2  -7774359.190 2
        13.900          17.800
  25515434.004    25515432.696    25515431.218      351844.423      274164.414 1
         3.000          11.000
  23046945.064    23046943.333    23046941.502   -10550553.855 5  -8221208.061 5
        31.000          30.800
  25310537.467    25310538.624    25310537.456     1949049.914 1   1518738.967 2
         6.500          12.600
  24297941.095    24297940.081    24297939.886    -2761016.904 2  -2151444.309 3
        15.100          18.600
  24235283.495    24235282.672    24235283.355     -828459.442 2   -645551.535 3
        15.100          19.900
  21868731.340    21868730.763    21868729.876   -17555141.241 5 -13679326.398 5
        34.800          34.300
  21193318.854    21193318.023    21193316.177   -21711729.147 6 -16918220.518 6
        39.500          39.300
  20263459.238    20263458.712    20263455.520   -25660245.135 7 -19994986.643 8
        44.600          51.700
  21416136.423    21416135.805    21416134.845   -18792558.075 6 -14643545.055 5
        36.400          34.900
 09  1  4  1 39  0.0000000  0 10G21G28G19G15G 6G 3G14G18G22G 9
  23683608.834    23683609.318    23683609.263    -9864499.076 2  -7686615.045 2
        15.100          17.000
  25519256.673    25519255.562    25519254.075      371939.929 1    289823.269 1
         6.500          11.000
  23052558.364    23052556.428    23052554.748   -10521056.861 5  -8198223.391 5
        30.800          31.100
  25331220.776    25331222.789    25331221.292     2057745.989     1603436.834 2
         3.000          12.600
  24314947.019    24314946.487    24314945.810    -2671651.836 2  -2081809.191 2
        16.100          17.800
  24252347.229    24252346.467    24252347.509     -738788.299 2   -575677.908 3
        13.900          19.300
  21853423.888    21853423.175    21853422.162   -17635583.568 5 -13742008.707 5
        34.900          34.500
  21203797.457    21203796.586    21203794.705   -21656664.117 6 -16875312.705 6
        39.500          39.300
  20262663.256    20262662.801    20262659.693   -25664427.251 7 -19998245.436 8
        44.600          51.700
  21415309.542    21415308.720    21415307.633   -18796905.285 6 -14646932.488 5
        36.500          35.100
 09  1  4  1 39 30.0000000  0 10G21G28G19G15G 6G 3G14G18G22G 9
  23705071.282    23705071.094    23705071.094    -9751719.210 2  -7598734.649 2
        15.100          17.000
  25523176.213    25523175.131    25523175.465      392534.654      305871.112 1
         3.000           9.000
  23058276.392    23058274.754    23058272.941   -10491006.748 5  -8174807.722 5
        30.200          31.000
  25351910.917    25351910.067    25351912.128     2166476.284     1688161.822 1
                        11.000
  24331985.738    24331985.896    24331986.056    -2582107.554 2  -2012034.437 2
        15.100          17.000
  24269453.988    24269452.997    24269453.481     -648893.714 2   -505630.194 3
        12.600          18.600
  21838183.521    21838182.693    21838181.703   -17715672.660 5 -13804415.768 5
        34.900          34.600
  21214340.529    21214339.693    21214337.891   -21601259.518 6 -16832140.287 6
        39.500          39.100
  20261944.880    20261944.357    20261941.106   -25668203.112 7 -20001187.664 8
        44.600          51.700
  21414622.004    21414621.279    21414620.349   -18800516.712 6 -14649746.589 5
        36.300          34.800
 09  1  4  1 40  0.0000000  0 10G21G28G19G15G 6G 3G14G18G22G 9
  23726567.359    23726566.173    23726566.318    -9638762.109 2  -7510716.174 2
        15.100          16.100
  25527189.729    25527189.519    25527187.589      413632.529      322311.008 1
                         6.500
  23064100.944    23064098.982    23064096.915   -10460400.253 5  -8150958.514 5
        30.100          30.800
  25372608.195    25372606.743    25372609.604     2275242.044     1772914.089 1
                        11.000
  24349059.319    24349058.827    24349059.655    -2492382.405 1  -1942118.752 2
        11.000          17.000
  24286603.133    24286602.602    24286602.468     -558774.182 2   -435407.200 3
        13.900          19.300
  21823011.431    21823010.697    21823009.446   -17795402.663 5 -13866543.024 5
        35.200          34.500
  21224949.138    21224948.312    21224946.537   -21545510.932 6 -16788699.829 6
        39.600          39.100
  20261304.558    20261304.047    20261300.829   -25671567.589 7 -20003809.330 8
        44.600          51.700
  21414075.595    21414074.981    21414073.874   -18803387.774 6 -14651983.780 5
        36.300          34.800
 09  1  4  1 40 30.0000000  0 10G21G28G19G15G 6G 3G14G18G22G 9
  23748094.635    23748093.230    23748092.644    -9525637.716 2  -7422567.314 2
        15.100          17.000
  25531301.147    25531297.160    25531296.577      435225.100      339136.437 1
                         9.000
  23070028.950    23070027.372    23070025.377   -10429246.493 5  -8126682.867 5
        30.400          30.600
  25393311.424    25393312.683    25393312.222     2384035.756     1857688.456 2
                        12.600
  24366166.808    24366166.390    24366165.759    -2402486.857 2  -1872070.315 2
        12.600          16.100
  24303793.544    24303792.905    24303792.861     -468440.591 2   -365017.409 3
        13.900          19.900
  21807906.373    21807905.639    21807904.546   -17874780.045 5 -13928395.510 5
        35.600          34.800
  21235621.484    21235620.741    21235618.905   -21489426.961 6 -16744998.030 6
        39.600          39.000
  20260741.215    20260740.637    20260737.421   -25674528.392 7 -20006116.447 8
        44.600          51.600
  21413668.733    21413668.039    21413667.336   -18805525.947 6 -14653649.891 5
        36.200          35.300
 09  1  4  1 41  0.0000000  0  9G21G28G19G 6G 3G14G18G22G 9
  23769651.997    23769650.496    23769649.579    -9412352.362 2  -7334293.019 2
        13.900          16.100
  25535502.700    25535500.685    25535499.622      457307.287      356343.314 1
         3.000          11.000
  23076060.141    23076058.843    23076056.700   -10397551.210 5  -8101985.251 5
        30.100          30.400
  24383305.213    24383304.751    24383303.545    -2312428.283 2  -1801894.793 2
        15.100          15.100
  24321022.575    24321021.475    24321022.405     -377900.205 2   -294466.472 3
        13.900          20.500
  21792867.955    21792867.204    21792866.014   -17953807.620 5 -13989975.424 5
        35.800          35.100
  21246356.829    21246356.001    21246354.348   -21433012.449 6 -16701038.667 6
        39.400          38.900
  20260253.750    20260253.261    20260250.093   -25677089.388 7 -20008112.031 8
        44.600          51.700
  21413400.499    21413399.833    21413399.158   -18806935.154 6 -14654747.973 5
        36.200          35.400
 09  1  4  1 41 30.0000000  0  9G21G28G19G 6G 3G14G18G22G 9
  23791239.783    23791238.501    23791236.911    -9298907.903 2  -7245894.799 2
        13.900          16.100
  25539797.579    25539796.912    25539796.354      479878.959 1    373931.636 1
         6.500          11.000
  23082194.732    23082193.154    23082191.555   -10365314.995 5  -8076866.134 5
        30.200          31.000
  24400472.489    24400472.233    24400471.617    -2222208.666 2  -1731593.825 2
        12.600          16.100
  24338291.416    24338290.983    24338290.378     -287155.172 2   -223756.074 3
        16.100          20.500
  21777896.435    21777895.676    21777894.645   -18032483.190 5 -14051281.045 5
        35.700          35.300
  21257155.074    21257154.250    21257152.467   -21376267.640 6 -16656821.933 6
        39.300          38.800
  20259842.733    20259842.193    20259839.033   -25679249.370 7 -20009795.129 8
        44.500          51.600
  21413271.199    21413270.584    21413269.697   -18807614.914 6 -14655277.652 5
        36.400          35.200
 09  1  4  1 42  0.0000000  0  9G21G28G19G 6G 3G14G18G22G 9
  23812860.935    23812859.625    23812858.478    -9185284.360 2  -7157356.999 2
        12.600          13.900
  25544187.456    25544187.540    25544187.426      502961.277      391918.035 1
                         9.000
  23088436.138    23088434.494    23088432.412   -10332517.510 5  -8051309.655 5
        30.200          30.600
  24417674.522    24417674.427    24417674.512    -2131808.876 1  -1661152.465 2
        11.000          13.900
  24355600.437    24355600.494    24355600.551     -196186.474 2   -152871.402 3
        13.900          19.900
  21762996.430    21762995.611    21762994.605   -18110783.669 5 -14112294.393 5
        35.800          35.500
  21268020.254    21268019.472    21268017.574   -21319170.954 6 -16612331.008 6
        39.400          38.700
  20259512.292    20259511.766    20259508.510   -25680986.364 7 -20011148.632 8
        44.600          51.600
  21413285.009    21413284.161    21413283.431   -18807542.670 6 -14655221.365 5
        36.200          35.200
 09  1  4  1 42 30.0000000  0  9G21G28G19G 6G 3G14G18G22G 9
  23834512.035    23834511.750    23834510.033    -9071502.627 2  -7068695.884 1
        12.600          11.000
  25548673.336    25548671.490    25548673.849      526534.550      410286.726 1
                         9.000
  23094780.000    23094778.485    23094776.338   -10299178.850 5  -8025331.498 5
        30.100          30.400
  24434906.899    24434907.477    24434907.815    -2041250.646 2  -1590587.613 2
        12.600          15.100
  24372950.024    24372949.805    24372950.237     -105016.368 2    -81829.821 3
        15.100          19.900
  21748164.440    21748163.609    21748162.545   -18188726.416 5 -14173028.987 5
        35.800          35.600
  21278948.738    21278947.847    21278945.876   -21261742.223 6 -16567581.343 6
        39.300          38.600
  20259258.699    20259258.206    20259254.967   -25682318.808 7 -20012186.899 8
        44.600          51.600
  21413438.140    21413437.569    21413436.744   -18806737.334 6 -14654593.827 5
        36.200          35.300
 09  1  4  1 43  0.0000000  0  9G21G28G19G 6G 3G14G18G22G 9
  23856194.827    23856194.345    23856193.215    -8957559.736 2  -6979909.199 2
        12.600          13.900
  25553254.755    25553255.164    25553254.748      550603.287      429041.485 2
                        15.100
  23101228.098    23101226.339    23101224.323   -10265294.881 4  -7998928.423 4
        29.900          29.900
  24452171.762    24452171.186    24452170.199    -1950531.053 2  -1519897.025 2
        12.600          13.900
  24390339.005    24390337.764    24390337.916      -13641.828 2    -10628.895 3
        15.100          19.300
  21733401.698    21733401.030    21733400.033   -18266304.290 6 -14233479.265 5
        36.000          35.700
  21289941.105    21289940.311    21289938.408   -21203976.137 6 -16522568.807 6
        39.200          38.400
  20259083.355    20259082.782    20259079.552   -25683240.585 7 -20012905.165 8
        44.600          51.600
  21413732.020    21413731.310    21413730.609   -18805192.982 6 -14653390.442 5
        36.100          35.200
 09  1  4  1 43 30.0000000  0  9G21G28G19G 6G 3G14G18G22G 9
  23877907.083    23877906.357    23877905.513    -8843462.759 2  -6891002.513 2
        12.600          15.100
  25557926.439    25557926.294    25557926.887      575162.249      448178.233 2
                        13.900
  23107778.882    23107777.092    23107774.694   -10230872.070 5  -7972105.463 4
        30.100          29.500
  24469464.291    24469463.682    24469462.787    -1859657.918 2  -1449086.776 2
        13.900          16.100
  24407764.182    24407763.290    24407763.313       77929.540 2     60725.414 3
        13.900          18.600
  21718707.912    21718707.210    21718706.125   -18343520.807 6 -14293647.967 5
        36.300          35.700
  21300996.803    21300995.950    21300994.200   -21145878.298 6 -16477297.763 6
        39.100          38.600
  20258985.176    20258984.597    20258981.322   -25683756.610 7 -20013307.262 8
        44.600          51.600
  21414165.755    21414165.165    21414164.100   -18802914.338 6 -14651614.876 5
        36.400          35.200
 09  1  4  1 44  0.0000000  0  9G21G28G19G 6G 3G14G18G22G 9
  23899649.782    23899648.821    23899647.063    -8729209.998 2  -6801974.443 2
        15.100          15.100
  25562692.745    25562693.209    25562693.098      600214.173      467699.215
                         3.000
  23114432.187    23114430.516    23114428.208   -10195907.746 5  -7944860.559 4
        30.100          29.500
  24486785.587    24486784.759    24486785.516    -1768630.050 2  -1378155.989 2
        12.600          17.800
  24425226.710    24425225.595    24425226.479      169698.514 2    132233.708 3
        13.900          19.300
  21704083.764    21704083.006    21704081.893   -18420370.825 6 -14353531.088 5
        36.400          35.600
  21312116.118    21312115.298    21312113.529   -21087445.377 6 -16431765.618 6
        39.100          38.400
  20258964.963    20258964.420    20258961.198   -25683862.685 7 -20013389.922 8
        44.600          51.600
  21414739.757    21414739.095    21414738.326   -18799897.747 6 -14649264.293 5
        36.200          35.300
 09  1  4  1 44 30.0000000  0  9G21G28G19G 6G 3G14G18G22G 9
  23921420.176    23921419.126    23921417.621    -8614806.628 2  -6712828.993 2
        15.100          13.900
  25567557.023    25567556.708    25567555.266      625755.129      487601.254 1
                         9.000
  23121187.687    23121185.997    23121184.021   -10160406.619 5  -7917197.352 5
        30.400          30.100
  24504135.642    24504135.949    24504135.774    -1677453.387 2  -1307109.286 2
        12.600          17.800
  24442726.779    24442725.972    24442726.407      261658.584 2    203890.888 3
        16.100          19.300
  21689529.200    21689528.461    21689527.393   -18496856.202 6 -14413130.070 6
        36.500          36.000
  21323298.593    21323297.781    21323295.957   -21028681.193 6 -16385975.342 6
        39.100          38.200
  20259022.290    20259021.777    20259018.551   -25683561.129 7 -20013154.947 8
        44.600          51.500
  21415453.545    21415452.991    21415452.044   -18796146.067 6 -14646340.912 5
        36.200          34.900
 09  1  4  1 45  0.0000000  0  9G21G28G19G 6G 3G14G18G22G 9
  23943219.021    23943218.633    23943215.920    -8500250.226 2  -6623564.290 2
        13.900          13.900
  25572509.737    25572509.020    25572508.958      651788.872      507887.205 1
                        11.000
  23128046.306    23128044.588    23128042.497   -10124365.551 5  -7889113.421 5
        30.100          30.200
  24521515.875    24521515.508    24521514.938    -1586126.195 2  -1235945.246 2
        12.600          17.800
  24460262.105    24460261.732    24460262.421      353811.811 2    275698.597 2
        15.100          17.800
  21675045.204    21675044.357    21675043.087   -18572970.793 6 -14472440.129 6
        36.500          36.000
  21334544.869    21334544.066    21334542.231   -20969581.791 6 -16339923.858 6
        39.000          38.100
  20259158.110    20259157.559    20259154.332   -25682847.701 7 -20012599.033 8
        44.700          51.500
  21416308.311    21416307.684    21416306.861   -18791654.781 6 -14642841.209 5
        36.300          34.900
 09  1  4  1 45 30.0000000  0  8G19G21G 6G 3G14G18G22G 9
  23135004.634    23135003.095    23135001.086   -10087798.074 4  -7860619.290 5
        29.700          30.100
  23965045.079    23965044.052    23965042.655    -8385554.907 2  -6534191.327 2
        13.900          13.900
  24538919.591    24538917.962    24538918.930    -1494663.021 1  -1164675.247 2
         6.500          17.000
  24477832.162    24477831.962    24477832.952      446143.377 2    347645.270 2
        12.600          17.000
  21660629.356    21660628.616    21660627.444   -18648725.227 6 -14531469.540 6
        36.500          36.200
  21345852.365    21345851.575    21345849.866   -20910159.700 6 -16293620.933 6
        38.800          38.000
  20259370.141    20259369.620    20259366.229   -25681733.703 7 -20011730.983 8
        44.700          51.500
  21417301.513    21417300.858    21417299.941   -18786435.781 6 -14638774.465 5
        36.200          34.900
 09  1  4  1 46  0.0000000  0  9G19G21G11G 6G 3G14G18G22G 9
  23142061.701    23142060.198    23142058.159   -10050713.039 4  -7831721.888 5
        29.900          30.100
  23986895.883    23986894.972    23986893.452    -8270730.468 2  -6444717.765 2
        17.000          15.100
  24860165.864    24860165.700    24860162.424           -.4041          -.37811
                         9.000
  24556348.429    24556346.786    24556348.199    -1403074.090 1  -1093307.270 2
         6.500          15.100
  24495434.967    24495434.443    24495434.254      538642.865 2    419722.767 2
        13.900          15.100
  21646281.091    21646280.405    21646279.200   -18724125.439 6 -14590222.937 6
        36.600          36.300
  21357220.116    21357219.231    21357217.354   -20850423.123 6 -16247072.950 6
        38.900          37.700
  20259656.928    20259656.425    20259653.146   -25680226.029 7 -20010556.178 8
        44.600          51.400
  21418431.677    21418430.961    21418430.161   -18780496.614 6 -14634146.550 5
        36.200          35.100
 09  1  4  1 46 30.0000000  0  9G19G21G11G 6G 3G14G18G22G 9
  23149222.590    23149220.993    23149219.162   -10013081.842 4  -7802398.890 4
        29.700          29.900
  24008776.137    24008775.322    24008773.436    -8155748.612 2  -6355121.521 2
        16.100          15.100
  24841526.558    24841527.067    24841525.043      -97939.734      -76316.730 1
                        11.000
  24573807.380    24573806.244    24573805.816    -1311331.694 1  -1021819.718 2
        11.000          16.100
  24513073.766    24513072.782    24513073.513      631338.038 2    491952.753 2
        12.600          13.900
  21632006.232    21632005.632    21632004.589   -18799139.611 6 -14648675.520 6
        36.500          36.500
  21368653.040    21368652.261    21368650.311   -20790342.006 6 -16200256.492 6
        38.800          37.600
  20260024.685    20260024.119    20260020.866   -25678294.086 7 -20009050.767 8
        44.600          51.500
  21419704.654    21419703.945    21419703.148   -18773807.109 6 -14628933.963 5
        36.100          35.100
 09  1  4  1 47  0.0000000  0  9G19G21G11G 6G 3G14G18G22G 9
  23156485.331    23156483.608    23156481.678    -9974916.500 4  -7772659.679 4
        29.000          29.200
  24030683.698    24030682.992    24030681.289    -8040622.256 2  -6265412.687 2
        15.100          13.900
  24822934.636    24822933.574    24822934.697     -195638.624     -152445.716 1
                        11.000
  24591292.895    24591292.029    24591291.141    -1219449.561 2   -950223.308 3
        12.600          18.600
  24530748.045    24530747.756    24530747.227      724214.514 1    564324.013 2
        11.000          13.900
  21617803.335    21617802.555    21617801.478   -18873777.344 6 -14706834.772 6
        36.600          36.600
  21380149.311    21380148.515    21380146.734   -20729927.865 6 -16153180.537 6
        38.500          37.500
  20260470.965    20260470.438    20260467.215   -25675948.469 7 -20007223.013 8
        44.600          51.500
  21421118.156    21421117.625    21421116.867   -18766378.179 6 -14623145.196 5
        36.100          34.900
 09  1  4  1 47 30.0000000  0  9G19G21G11G 6G 3G14G18G22G 9
  23163848.313    23163846.607    23163844.250    -9936224.207 4  -7742509.856 4
        28.800          28.600
  24052616.631    24052615.485    24052615.434    -7925359.346 2  -6175597.524 1
        13.900          11.000
  24804388.701    24804388.688    24804390.305     -293100.001     -228389.628 2
         3.000          12.600
  24608799.597    24608799.822    24608801.410    -1127436.142 1   -878524.576 3
        11.000          19.300
  24548454.369    24548453.104    24548453.941      817264.228 1    636830.260 2
         9.000          13.900
  21603671.229    21603670.375    21603669.272   -18948042.772 6 -14764703.919 6
        36.800          36.700
  21391708.100    21391707.223    21391705.325   -20669187.022 6 -16105850.013 6
        38.500          37.500
  20260995.050    20260994.486    20260991.312   -25673194.481 7 -20005077.049 8
        44.600          51.500
  21422671.605    21422670.960    21422670.009   -18758215.460 6 -14616784.644 5
        36.200          34.700
 09  1  4  1 48  0.0000000  0  9G19G21G11G 6G 3G14G18G22G 9
  23171311.315    23171309.900    23171307.947    -9897003.409 4  -7711948.203 4
        29.000          28.800
  24074577.297    24074576.241    24074575.783    -7809958.530 2  -6085674.871 1
        13.900           9.000
  24785888.443    24785890.376    24785889.506     -390318.076 1   -304143.990 2
         6.500          12.600
  24626336.248    24626335.809    24626336.544    -1035290.767 2   -806722.964 3
        13.900          19.900
  24566195.760    24566194.540    24566194.141      910487.535 1    709471.760 2
         9.000          13.900
  21589610.425    21589609.746    21589608.808   -19021931.516 6 -14822279.553 6
        36.800          37.100
  21403329.162    21403328.371    21403326.523   -20608117.113 6 -16058263.071 6
        38.400          37.300
  20261597.421    20261596.967    20261593.715   -25670028.677 7 -20002610.188 8
        44.600          51.500
  21424365.235    21424364.624    21424363.486   -18749316.113 6 -14609850.097 5
        36.100          34.600
 09  1  4  1 48 30.0000000  0  9G19G21G11G 6G 3G14G18G22G 9
  23178874.692    23178872.947    23178870.833    -9857260.358 4  -7680979.588 4
        29.000          29.000
  24096562.144    24096561.292    24096560.676    -7694426.465 2  -5995649.878 1
        15.100          11.000
  24767435.406    24767435.173    24767436.618     -487294.755     -379710.210 1
         3.000          11.000
  24643895.214    24643894.948    24643893.874     -943020.853 2   -734824.334 2
        17.000          17.800
  24583966.978    24583965.918    24583965.516     1003877.290 1    782243.010 2
        11.000          15.100
  21575621.148    21575620.395    21575619.152   -19095446.754 6 -14879564.135 6
        36.900          37.000
  21415012.105    21415011.302    21415009.448   -20546723.126 6 -16010423.602 6
        38.400          37.200
  20262277.553    20262277.011    20262273.716   -25666455.105 7 -19999825.577 8
        44.600          51.400
  21426197.784    21426197.087    21426196.276   -18739684.450 5 -14602344.908 5
        35.700          34.600
 09  1  4  1 49  0.0000000  0  9G19G21G11G 6G 3G14G18G22G 9
  23186536.057    23186534.074    23186531.996    -9817000.819 4  -7649608.524 4
        28.800          29.500
  24118569.396    24118569.138    24118568.990    -7578770.208 2  -5905528.135 1
        15.100           9.000
  24749029.514    24749028.571    24749027.805     -584031.706     -455089.662 2
         3.000          12.600
  24661475.423    24661475.339    24661473.376     -850633.212 2   -662834.012 2
        15.100          15.100
  24601767.935    24601767.092    24601767.601     1097425.943 2    855138.104 2
        12.600          13.900
  21561702.274    21561701.499    21561700.311   -19168591.205 6 -14936559.798 6
        37.100          37.200
  21426755.924    21426755.116    21426753.084   -20485009.685 6 -15962335.207 6
        38.300          37.100
  20263034.389    20263033.857    20263030.588   -25662477.787 7 -19996726.368 8
        44.400          51.400
  21428169.636    21428168.880    21428167.998   -18729324.965 6 -14594272.588 5
        36.100          35.100
 09  1  4  1 49 30.0000000  0  9G19G21G11G 6G 3G14G18G22G 9
  23194296.825    23194295.141    23194292.995    -9776216.672 4  -7617828.691 4
        29.000          29.700
  24140603.321    24140603.064    24140602.905    -7462981.568 2  -5815303.270 1
        13.900          11.000
  24730668.102    24730667.650    24730665.179     -680516.732     -530272.810 1
         3.000          11.000
  24679078.710    24679078.466    24679078.758     -758120.888 2   -590746.483 2
        13.900          15.100
  24619601.067    24619600.543    24619601.043     1191140.340 2    928162.297 2
        15.100          13.900
  21547855.786    21547855.036    21547853.878   -19241354.150 6 -14993258.184 6
        37.200          37.200
  21438561.919    21438561.138    21438559.291   -20422967.837 6 -15913990.911 6
        38.100          36.800
  20263869.875    20263869.410    20263866.270   -25658086.398 7 -19993304.503 8
        44.400          51.500
  21430281.054    21430280.343    21430279.551   -18718228.262 6 -14585625.809 5
        36.000          34.900
 09  1  4  1 50  0.0000000  0  9G19G21G11G 6G 3G14G18G22G 9
  23202156.187    23202154.276    23202152.565    -9734915.146 4  -7585645.713 4
        28.600          29.700
  24162661.646    24162660.707    24162659.785    -7347068.528 2  -5724981.457 1
        15.100           6.500
  24712354.237    24712354.746    24712350.934     -776752.580     -605261.769 1
         3.000          11.000
  24696706.871    24696706.236    24696705.882     -665492.182 2   -518568.282 2
        12.600          17.000
  24637464.512    24637464.000    24637463.494     1285012.333 2   1001309.257 2
        13.900          13.900
  21534081.368    21534080.601    21534079.512   -19313739.373 6 -15049662.246 6
        37.400          37.500
  21450429.649    21450428.840    21450426.794   -20360603.557 6 -15865395.369 6
        38.200          36.800
  20264783.408    20264782.845    20264779.655   -25653286.513 7 -19989564.329 8
        44.400          51.400
  21432531.622    21432530.878    21432530.279   -18706400.371 5 -14576409.276 5
        35.500          34.900
 09  1  4  1 50 30.0000000  0  9G19G21G11G 6G 3G14G18G22G 9
  23210113.747    23210111.706    23210109.918    -9693099.532 4  -7553062.131 4
        28.400          29.900
  24184743.315    24184742.038    24184741.566    -7231035.016 2  -5634565.753 1
        17.800           6.500
  24694091.327    24694089.806    24694084.575     -872738.266     -680055.790 1
         3.000           9.000
  24714354.078    24714353.255    24714354.724     -572751.515 1   -446302.867 2
        11.000          17.800
  24655357.012    24655356.288    24655355.688     1379036.808 2   1074575.050 2
        12.600          12.600
  21520378.692    21520377.982    21520376.953   -19385747.220 6 -15105772.243 6
        37.600          37.700
  21462357.878    21462357.038    21462355.332   -20297919.543 6 -15816550.681 6
        37.900          36.900
  20265774.250    20265773.754    20265770.505   -25648079.371 7 -19985506.817 8
        44.400          51.400
  21434921.209    21434920.538    21434919.923   -18693843.216 5 -14566624.482 5
        35.700          35.100
 09  1  4  1 51  0.0000000  0  9G19G21G11G 6G 3G14G18G22G 9
  23218167.913    23218166.176    23218164.210    -9650772.239 4  -7520079.839 4
        28.800          29.500
  24206845.741    24206845.116    24206844.238    -7114883.522 3  -5544058.123 1
        18.600           6.500
  24675871.414    24675870.565    24675867.826     -968472.087     -754653.561 1
                         9.000
  24732024.177    24732023.792    24732023.451     -479902.348 1   -373952.905 3
         6.500          18.600
  24673277.608    24673276.735    24673276.120     1473210.660 2   1147957.273 2
        12.600          15.100
  21506747.857    21506747.103    21506746.169   -19457377.255 6 -15161587.847 6
        37.600          37.700
  21474346.898    21474346.044    21474344.301   -20234916.868 6 -15767457.687 6
        37.800          36.700
  20266842.467    20266841.973    20266838.685   -25642465.709 7 -19981132.534 8
        44.400          51.300
  21437449.831    21437449.061    21437447.990   -18680557.740 6 -14556272.162 5
        36.200          35.100
 09  1  4  1 51 30.0000000  0  9G19G21G11G 6G 3G14G18G22G 9
  23226322.128    23226320.274    23226318.206    -9607923.967 4  -7486691.595 4
        28.800          29.900
  24228973.215    24228972.140    24228971.380    -6998605.713 2  -5453452.093 1
        17.800           6.500
  24657703.510    24657702.903    24657700.607    -1063940.388     -829044.427 1
         3.000          11.000
  24749712.683    24749713.507    24749713.458     -386936.318     -301511.861 2
                        15.100
  24691227.623    24691226.957    24691227.972     1567541.781 1   1221462.029 2
        11.000          17.800
  21493191.240    21493190.559    21493189.453   -19528617.733 6 -15217099.893 6
        37.700          37.700
  21486398.346    21486397.602    21486395.880   -20171585.248 6 -15718108.373 6
        37.700          36.700
  20267990.230    20267989.702    20267986.525   -25636434.370 7 -19976432.786 8
        44.400          51.300
  21440118.229    21440117.497    21440116.781   -18666533.345 5 -14545344.057 5
        35.800          34.900
 09  1  4  1 52  0.0000000  0  9G19G14G21G11G 6G 3G18G22G 9
  23234573.189    23234571.222    23234569.426    -9564563.835 4  -7452904.502 4
        28.400          29.200
  21479707.846    21479707.052    21479706.159   -19599473.626 6 -15272312.266 6
        37.700          37.900
  24251122.871    24251121.845    24251119.839    -6882210.886 2  -5362754.870 1
        17.800           6.500
  24639587.919    24639587.408    24639585.236    -1159147.717 1   -903231.946 2
         9.000          12.600
  24767423.609    24767420.507    24767422.987     -293863.381     -228987.586 1
                        11.000
  24709206.750    24709206.207    24709206.528     1662020.246 2   1295081.595 3
        12.600          19.300
  21498511.262    21498510.417    21498508.492   -20107932.584 6 -15668508.899 6
        37.600          36.500
  20269216.245    20269215.747    20269212.505   -25629991.657 7 -19971412.488 8
        44.400          51.300
  21442926.160    21442925.450    21442924.640   -18651777.529 5 -14533846.020 5
        35.800          34.900
 09  1  4  1 52 30.0000000  0  9G19G21G11G 6G 3G14G18G22G 9
  23242920.855    23242919.402    23242917.513    -9520694.052 4  -7418720.262 4
        28.100          29.000
  24273293.083    24273292.562    24273291.000    -6765701.288 2  -5271968.201 1
        17.000          11.000
  24621521.956    24621521.540    24621518.668    -1254091.960 2   -977214.476 2
        13.900          13.900
  24785159.787    24785159.917    24785154.404     -200686.840     -156382.548 2
                        12.600
  24727213.486    24727212.469    24727211.214     1756642.567 2   1368813.260 2
        13.900          17.000
  21466297.626    21466296.888    21466295.798   -19669944.594 6 -15327224.691 6
        37.700          38.000
  21510684.872    21510683.992    21510681.924   -20043960.054 6 -15618660.172 6
        37.400          36.000
  20270520.335    20270519.819    20270516.621   -25623138.450 7 -19966072.324 8
        44.300          51.300
  21445872.855    21445872.182    21445871.519   -18636291.613 5 -14521779.069 5
        35.700          34.800
 09  1  4  1 53  0.0000000  0  9G19G14G21G11G 6G 3G18G22G 9
  23251365.199    23251363.510    23251361.399    -9476321.627 4  -7384144.372 4
        28.600          29.000
  21452959.944    21452959.170    21452958.066   -19740034.707 6 -15381840.351 6
        37.700          38.100
  24295484.160    24295483.863    24295482.740    -6649084.399 2  -5181097.959 2
        17.800          12.600
  24603504.077    24603503.538    24603500.159    -1348776.131 2  -1050994.348 2
        15.100          13.900
  24802901.990    24802907.092    24802905.814     -107414.842      -83704.739 1
                         9.000
  24745244.070    24745243.610    24745244.221     1851400.742 2   1442650.746 2
        13.900          16.100
  21522918.284    21522917.421    21522915.305   -19979673.631 6 -15568566.855 6
        37.700          36.000
  20271901.712    20271901.161    20271897.935   -25615879.534 7 -19960416.021 8
        44.300          51.200
  21448957.719    21448957.057    21448956.327   -18620081.585 5 -14509147.886 5
        35.800          34.800
 09  1  4  1 53 30.0000000  0  9G19G14G21G11G 6G 3G18G22G 9
  23259904.972    23259903.170    23259901.143    -9431444.671 4  -7349175.330 4
        28.600          29.500
  21439695.584    21439694.838    21439693.659   -19809739.345 6 -15436155.642 6
        37.900          38.100
  24317696.412    24317695.621    24317694.773    -6532359.493 3  -5090143.501 2
        18.600          15.100
  24585536.869    24585535.504    24585532.834    -1443194.174 2  -1124566.825 1
        13.900          11.000
  24820675.007    24820673.490    24820671.765      -14046.726      -10950.727 1
                        11.000
  24763302.092    24763301.945    24763301.906     1946295.344 1   1516594.579 2
        11.000          17.000
  21535211.600    21535210.765    21535208.946   -19915070.634 6 -15518226.856 6
        37.600          36.100
  20273360.964    20273360.437    20273357.086   -25608211.171 7 -19954440.671 8
        44.300          51.200
  21452180.607    21452180.097    21452179.419   -18603144.320 5 -14495950.016 5
        35.800          34.900
 09  1  4  1 54  0.0000000  0  9G19G14G21G11G 6G 3G18G22G 9
  23268542.344    23268540.676    23268538.401    -9386054.470 4  -7313806.360 4
        28.400          29.500
  21426506.958    21426506.241    21426504.988   -19879046.198 6 -15490160.968 6
        38.100          38.300
  24339931.252    24339930.168    24339928.607    -6415517.479 2  -4999097.795 2
        17.000          16.100
  24567623.592    24567622.513    24567619.633    -1537332.138 1  -1197921.063 1
        11.000           9.000
  24838462.163    24838460.828    24838460.112       79426.133       61885.251 2
         3.000          12.600
  24781386.758    24781385.545    24781387.423     2041334.357 1   1590650.926 2
         9.000          17.000
  21547567.371    21547566.547    21547564.743   -19850140.528 6 -15467631.976 5
        37.400          35.900
  20274900.250    20274899.714    20274896.500   -25600121.997 7 -19948137.423 8
        44.200          51.200
  21455544.081    21455543.463    21455542.865   -18585469.183 5 -14482177.189 5
        35.600          34.900
 09  1  4  1 54 30.0000000  0  9G19G14G18G21G11G 6G 3G22G 9
  23277274.987    23277273.260    23277271.557    -9340162.693 4  -7278046.549 4
        27.900          29.500
  21413392.259    21413391.558    21413390.364   -19947964.156 6 -15543863.262 6
        38.100          38.400
  21559983.363    21559982.469    21559980.520   -19784894.413 6 -15416790.843 5
        37.400          35.600
  24362185.246    24362183.763    24362182.946    -6298570.859 2  -4907970.614 2
        13.900          15.100
  24549759.881    24549759.294    24549757.409    -1631197.920 1  -1271063.227 1
         6.500           6.500
  24856263.815    24856263.038    24856264.709      172990.305      134792.409 1
                        11.000
  24799498.878    24799497.515    24799497.322     2136504.465 1   1664809.420 2
         9.000          17.000
  20276517.663    20276517.160    20276513.894   -25591622.345 7 -19941514.316 8
        44.300          51.200
  21459046.003    21459045.360    21459044.521   -18567067.168 5 -14467837.959 5
        35.600          34.600
 09  1  4  1 55  0.0000000  0  9G19G14G18G21G11G 6G 3G22G 9
  23286102.507    23286100.818    23286098.822    -9293775.804 4  -7241900.930 4
        28.100          29.900
  21400350.928    21400350.246    21400349.008   -20016496.657 6 -15597265.197 6
        38.100          38.500
  21572458.273    21572457.502    21572455.792   -19719337.398 6 -15365707.456 5
        37.300          35.600
  24384457.795    24384455.767    24384456.323    -6181525.968 1  -4816766.881 2
         6.500          13.900
  24531947.058    24531947.586    24531945.364    -1724793.256 1  -1343994.659 1
         6.500           6.500
  24874084.577    24874083.334    24874084.707      266639.078      207765.509 1
         3.000          11.000
  24817631.944    24817631.435    24817631.596     2231798.639 1   1739064.583 2
         9.000          17.800
  20278212.445    20278211.895    20278208.623   -25582716.457 7 -19934574.664 8
        44.200          51.100
  21462684.867    21462684.320    21462683.524   -18547943.362 5 -14452936.301 5
        35.600          34.400
 09  1  4  1 55 30.0000000  0  9G19G14G18G21G11G 6G 3G22G 9
  23295024.700    23295023.147    23295021.284    -9246887.271 4  -7205364.425 4
        27.600          29.500
  21387384.839    21387384.055    21387382.976   -20084634.016 6 -15650359.227 6
        38.100          38.700
  21584994.460    21584993.643    21584991.420   -19653461.611 6 -15314375.674 5
        37.600          35.300
  24406749.920    24406749.086    24406749.094    -6064376.964 1  -4725482.002 2
         6.500          12.600
  24514190.456    24514189.987    24514188.790    -1818107.484    -1416707.054 1
         3.000           9.000
  24891925.319    24891923.731    24891923.408      360378.014 1    280808.800 1
        11.000          11.000
  24835790.491    24835789.889    24835789.888     2327222.059 1   1813420.435 2
         9.000          16.100
  20279986.098    20279985.562    20279982.425   -25573395.448 7 -19927311.537 8
        44.100          51.100
  21466463.266    21466462.523    21466461.594   -18528090.249 5 -14437466.348 5
        35.900          34.500
 09  1  4  1 56  0.0000000  0  9G19G14G18G21G11G 6G 3G22G 9
  23304042.006    23304040.279    23304038.511    -9199502.238 4  -7168441.042 4
        27.100          29.700
  21374493.338    21374492.741    21374491.666   -20152378.152 6 -15703146.857 6
        38.200          38.900
  21597589.982    21597589.082    21597586.929   -19587270.880 6 -15262798.482 5
        37.100          35.200
  24429061.306    24429061.061    24429060.377    -5947128.981    -4634119.955 1
         3.000          11.000
  24496487.489    24496487.457    24496485.569    -1911140.863    -1489200.582 1
                         9.000
  24909776.363    24909775.991    24909776.867      454201.130 2    353917.707 1
        13.900          11.000
  24853973.027    24853972.044    24853972.438     2422769.337 1   1887872.847 2
        11.000          15.100
  20281838.232    20281837.721    20281834.534   -25563662.279 7 -19919727.250 8
        44.100          51.100
  21470379.111    21470378.558    21470377.795   -18507511.404 5 -14421430.883 5
        35.900          34.600
 09  1  4  1 56 30.0000000  0  9G19G14G18G 9G21G11G 6G 3G22
  23313152.250    23313150.755    23313149.356    -9151626.493 4  -7131135.289 5
        27.400          30.100
  21361676.329    21361675.674    21361674.690   -20219731.871 6 -15755630.259 6
        38.100          39.100
  21610244.716    21610243.885    21610241.759   -19520769.972 6 -15210979.591 5
        37.200          35.200
  21474432.342    21474431.641    21474430.901   -18486211.735 5 -14404833.746 5
        35.500          34.600
  24451392.376    24451391.822    24451389.207    -5829788.196    -4542685.600 2
         3.000          12.600
  24478836.315    24478836.942    24478836.433    -2003894.873    -1561476.433 1
                         9.000
  24927645.686    24927644.775    24927644.476      548101.597 2    427086.918
        15.100           3.000
  24872177.375    24872176.421    24872176.806     2518433.160 1   1962416.072 2
        11.000          13.900
  20283768.140    20283767.586    20283764.407   -25553520.742 7 -19911824.756 8
        44.000          51.000
 09  1  4  1 57  0.0000000  0  9G19G14G18G21G11G 6G 3G22G 9
  23322356.997    23322355.086    23322353.138    -9103257.612 4  -7093445.264 4
        27.400          29.500
  21348934.679    21348934.046    21348932.971   -20286689.623 6 -15807805.115 6
        38.100          39.100
  21622959.090    21622958.173    21622956.364   -19453955.461 6 -15158916.341 5
        37.100          35.400
  24473740.030    24473740.126    24473736.477    -5712352.675    -4451177.466 2
         3.000          12.600
  24461242.394    24461239.968    24461239.882    -2096362.652    -1633529.223 1
                        11.000
  24945528.938    24945528.484    24945528.431      642081.273 2    500317.825
        15.100           3.000
  24890403.513    24890402.698    24890403.159     2614215.472 1   2037051.614 2
        11.000          12.600
  20285776.600    20285776.075    20285772.784   -25542966.493 7 -19903600.667 8
        44.000          51.000
  21478623.248    21478622.640    21478621.822   -18464187.724 5 -14387672.194 5
        35.300          34.500
 09  1  4  1 57 30.0000000  0  9G19G14G18G21G11G 6G 3G22G 9
  23331653.255    23331651.959    23331650.094    -9054402.806 4  -7055376.601 4
        27.600          29.700
  21336267.770    21336267.063    21336265.971   -20353255.382 6 -15859674.520 6
        38.300          39.300
  21635732.031    21635731.224    21635729.406   -19386832.944 6 -15106613.082 5
        37.000          35.300
  24496103.137    24496101.269    24496100.980    -5594829.688 1  -4359601.212 2
         6.500          12.600
  24443699.626    24443699.284    24443696.965    -2188546.908    -1705361.122 1
                        11.000
  24963427.786    24963426.758    24963427.544      736132.243 2    573604.344 1
        15.100           6.500
  24908649.427    24908650.028    24908650.244     2710107.385 1   2111772.601 1
        11.000          11.000
  20287862.600    20287862.078    20287858.835   -25532004.362 7 -19895058.746 8
        44.000          51.000
  21482951.030    21482950.417    21482949.796   -18441445.163 5 -14369950.715 5
        35.200          34.700
 09  1  4  1 58  0.0000000  0  9G19G14G18G21G11G 6G 3G22G 9
  23341042.731    23341041.345    23341039.836    -9005059.174 4  -7016927.035 4
        26.800          29.200
  21323676.436    21323675.681    21323674.513   -20419423.585 6 -15911234.145 6
        38.300          39.300
  21648564.436    21648563.516    21648561.449   -19319398.678 6 -15054066.900 5
        36.900          34.700
  24518485.220    24518483.780    24518482.679    -5477216.631 1  -4267954.732 1
         6.500          11.000
  24426214.220    24426213.242    24426210.533    -2280440.202    -1776966.371 1
                        11.000
  24981338.951    24981338.096    24981339.510      830256.466 2    646947.872
        13.900           3.000
  24926918.626    24926919.119    24926920.162     2806111.721 1   2186581.203 1
         9.000          11.000
  20290026.973    20290026.535    20290023.406   -25520629.706 7 -19886195.375 8
        44.000          50.900
  21487416.386    21487415.644    21487415.100   -18417979.968 5 -14351666.138 5
        35.100          34.700
 09  1  4  1 58 30.0000000  0  9G19G14G18G21G11G 6G 3G22G 9
  23350525.821    23350524.330    23350522.220    -8955227.959 4  -6978097.520 4
        27.100          28.800
  21311161.153    21311160.382    21311159.181   -20485192.254 6 -15962482.452 6
        38.400          39.400
  21661456.041    21661455.150    21661453.290   -19251652.621 6 -15001277.765 5
        36.700          34.800
  24540881.646    24540880.990    24540880.731    -5359515.066 1  -4176239.263 1
         6.500           9.000
  24408786.401    24408785.072    24408778.931    -2372039.397    -1848342.322 1
                        11.000
  24999263.558    24999262.867    24999262.599      924451.713 2    720346.756
        12.600           3.000
  24945209.828    24945208.792    24945209.662     2902225.565 1   2261475.099 1
        11.000          11.000
  20292270.363    20292269.764    20292266.472   -25508841.820 7 -19877010.008 8
        43.900          50.800
  21492019.130    21492018.433    21492017.598   -18393792.693 5 -14332818.915 5
        35.200          34.500
 09  1  4  1 59  0.0000000  0  9G19G14G18G21G11G 6G 3G22G 9
  23360100.294    23360098.596    23360096.522    -8904915.068 4  -6938892.681 4
        27.600          28.400
  21298721.227    21298720.493    21298719.348   -20550563.728 6 -16013421.258 6
        38.300          39.500
  21674406.128    21674405.297    21674403.450   -19183599.038 6 -14948248.997 5
        36.700          34.800
  24563295.924    24563294.453    24563293.874    -5241730.724 1  -4084459.303
        11.000           3.000
  24391406.909    24391407.299    24391402.155    -2463345.510    -1919489.907 1
                         9.000
  25017199.147    25017198.506    25017199.361     1018711.920 1    793796.217 1
         9.000           6.500
  24963522.372    24963520.850    24963519.548     2998442.557 2   2336449.361 2
        13.900          12.600
  20294591.435    20294590.899    20294587.595   -25496644.261 7 -19867505.416 8
        43.900          50.800
  21496758.266    21496757.737    21496756.993   -18368887.831 5 -14313412.527 5
        35.400          34.600
 09  1  4  1 59 30.0000000  0  9G14G19G18G21G11G 6G 3G22G 9
  21286357.142    21286356.298    21286355.180   -20615538.129 6 -16064050.651 6
        38.400          39.600
  23369765.250    23369763.788    23369761.939    -8854123.492 4  -6899314.834 4
        27.400          28.400
  21687414.358    21687413.429    21687411.693   -19115239.997 6 -14894982.215 5
        36.400          34.600
  24585725.995    24585724.812    24585725.286    -5123867.151 2  -3992617.530
        16.100
  24374088.744    24374088.849    24374082.686    -2554357.003    -1990407.898 1
                         9.000
  25035149.089    25035147.486    25035147.212     1113033.045      867293.128 1
         3.000           6.500
  24981847.071    24981847.416    24981847.840     3094758.915 2   2411501.037 2
        13.900          12.600
  20296990.243    20296989.758    20296986.558   -25484037.656 7 -19857682.085 8
        43.800          50.700
  21501633.831    21501633.134    21501632.221   -18343267.466 5 -14293448.602 5
        35.300          34.400
                            4 15
RINEX FILE SPLICE                                           COMMENT
teqc  2008Oct2      WCDA Operator       20090104 03:18:21UTCCOMMENT
STATION INFORMATION EFFECTIVE FROM: 2001/01/13 18:20:00     COMMENT
                                TO: CURRENT DATE (above)    COMMENT
BIT 2 OF LLI FLAGS (+4) DATA COLLECTED UNDER 'AS' CONDITION COMMENT
L1 PHASE CENTRE 0.110m ABOVE ARP                            COMMENT
L2 PHASE CENTRE 0.128m ABOVE ARP                            COMMENT
where ARP is the Antenna Reference Point for HI measurement COMMENT
CONTACT gps@pgc.nrcan.gc.ca FOR ADDITIONAL INFORMATION      COMMENT
    P1 =    P1  TurboRogue; =    Y1  Benchmark              COMMENT
    L1 = L1(CA)                                             COMMENT
    P2 =    P2  TurboRogue; =    Y2  Benchmark              COMMENT
    L2 = L2(P2) TurboRogue; = L2(Y2) Benchmark              COMMENT
 SNR is mapped to RINEX snr flag value [0-9]                COMMENT
  L1 & L2: min(max(int(snr_dBHz/6), 0), 9)                  COMMENT
 09  1  4  2  0  0.0000000  0  8G14G19G18G11G 6G 3G22G 9
  21274068.345    21274067.676    21274066.557   -20680114.813 6 -16114370.132 6
        38.400          39.700
  23379521.130    23379519.791    23379517.863    -8802855.680 4  -6859365.915 4
        27.600          28.400
  21700480.673    21700479.855    21700477.891   -19046576.345 6 -14841478.069 5
        36.500          34.500
  24356826.734    24356826.520    24356822.278    -2645071.762    -2061094.698 1
         3.000           9.000
  25053109.132    25053108.950    25053107.964     1207412.174      940835.271 1
                        11.000
  25000192.670    25000191.420    25000192.823     3191171.091 1   2486627.411 1
         6.500          11.000
  20299467.120    20299466.592    20299463.337   -25471022.149 7 -19847540.130 8
        43.800          50.700
  21506644.881    21506644.246    21506643.496   -18316932.954 5 -14272928.206 5
        35.200          34.400
 09  1  4  2  0 30.0000000  0  8G14G19G18G11G 6G 3G22G 9
  21261858.887    21261858.115    21261856.983   -20744276.169 6 -16164365.983 6
        38.500          39.800
  23389370.779    23389369.218    23389367.091    -8751097.505 4  -6819034.887 4
        27.600          28.100
  21713608.036    21713607.155    21713605.237   -18977592.557 6 -14787724.466 5
        36.500          34.800
  24339623.952    24339622.518    24339620.474    -2735471.355 1  -2131535.946 1
         6.500           9.000
  25071083.264    25071082.863    25071081.342     1301862.737     1014433.127 1
                        11.000
  25018560.662    25018559.397    25018560.872     3287692.986 1   2561839.266 1
         6.500          11.000
  20302024.830    20302024.266    20302020.986   -25457581.391 7 -19837066.810 8
        43.800          50.600
  21511794.994    21511794.360    21511793.681   -18289868.840 5 -14251839.279 5
        34.800          34.400
 09  1  4  2  1  0.0000000  0  9G14G19G18G21G11G 6G 3G22G 9
  21249726.786    21249726.044    21249724.917   -20808031.011 6 -16214045.067 6
        38.500          39.900
  23399311.176    23399309.473    23399307.376    -8698860.464 4  -6778330.716 4
        27.100          28.400
  21726793.805    21726793.034    21726791.279   -18908299.496 6 -14733729.879 5
        36.200          34.600
  24653105.795    24653104.561    24653102.013           -.55912         -.72511
        15.100           9.000
  24322480.624    24322479.994    24322477.389    -2825562.426 1  -2201736.794 1
         6.500          11.000
  25089066.554    25089066.868    25089065.154     1396372.384     1088076.963 1
                         9.000
  25036949.002    25036948.360    25036948.851     3384311.589 2   2637126.472 2
        12.600          13.900
  20304661.666    20304661.094    20304657.704   -25443725.156 7 -19826269.743 8
        43.800          50.500
  21517082.085    21517081.412    21517080.578   -18262085.972 5 -14230190.298 5
        34.900          34.300
 09  1  4  2  1 30.0000000  0  9G14G18G19G21G11G 6G 3G22G 9
  21237669.193    21237668.479    21237667.287   -20871393.943 6 -16263418.758 6
        38.600          40.000
  21740035.755    21740034.926    21740032.975   -18838713.396 6 -14679506.945 5
        36.200          34.300
  23409339.081    23409337.313    23409335.705    -8646162.476 4  -6737267.363 4
        26.500          28.800
  24675594.052    24675592.066    24675590.209      118170.368 1     92080.445 1
         9.000          11.000
  24305391.892    24305391.783    24305388.831    -2915358.122    -2271707.445 1
         3.000          11.000
  25107062.125    25107060.064    25107059.736     1490922.615     1161751.289 1
                         6.500
  25055346.521    25055347.316    25055349.026     3481008.692     2712474.890 2
         3.000          12.600
  20307374.369    20307373.896    20307370.640   -25429469.022 7 -19815161.066 8
        43.800          50.500
  21522502.809    21522501.983    21522500.857   -18233600.977 5 -14207994.204 5
        34.900          33.800
 09  1  4  2  2  0.0000000  0  9G14G18G19G21G11G 6G 3G22G 9
  21225688.141    21225687.490    21225686.403   -20934354.296 6 -16312478.761 6
        38.800          40.200
  21753335.224    21753334.336    21753332.152   -18768824.939 6 -14625048.405 5
        36.200          34.000
  23419455.876    23419454.652    23419453.038    -8592995.813 4  -6695838.817 4
        26.200          28.800
  24698093.618    24698091.902    24698090.523      236410.280      184215.330 2
         3.000          12.600
  24288360.615    24288361.418    24288359.682    -3004846.153    -2341438.352 1
         3.000           9.000
  25125060.558    25125060.588    25125058.372     1585520.870     1235463.773 1
                         6.500
  25073766.407    25073766.396    25073764.143     3577790.760     2787889.535 1
                         9.000
  20310165.215    20310164.698    20310161.492   -25414802.955 7 -19803732.961 8
        43.700          50.500
  21528058.298    21528057.618    21528056.692   -18204405.285 5 -14185244.309 5
        34.700          33.800
 09  1  4  2  2 30.0000000  0  9G14G18G19G21G11G 6G 3G22G 9
  21213785.476    21213784.764    21213783.639   -20996903.870 6 -16361218.676 6
        39.000          40.300
  21766692.969    21766692.099    21766690.230   -18698628.360 5 -14570349.773 5
        35.900          34.000
  23429663.732    23429662.201    23429660.189    -8539355.960 4  -6654041.536 4
        26.800          28.600
  24720607.019    24720606.422    24720604.021      354723.497      276407.322 2
                        15.100
  24271391.755    24271392.360    24271390.249    -3094017.478    -2410922.504 1
         3.000           9.000
  25143073.674    25143073.075    25143071.192     1680170.620     1309217.302 1
                        11.000
  25092201.926    25092200.240    25092199.642     3674662.381     2863373.728 1
         3.000          11.000
  20313035.391    20313034.874    20313031.603   -25399720.364 7 -19791980.296 8
        43.700          50.400
  21533750.361    21533749.773    21533748.840   -18174493.414 5 -14161936.368 5
        34.800          34.100
 09  1  4  2  3  0.0000000  0  9G14G18G19G21G11G 6G 3G22G 9
  21201958.575    21201957.865    21201956.775   -21059054.363 6 -16409647.620 6
        39.000          40.500
  21780107.149    21780106.307    21780104.234   -18628136.874 5 -14515421.348 5
        35.800          33.900
  23439958.909    23439957.087    23439954.791    -8485257.623 4  -6611886.988 4
        27.400          28.400
  24743131.046    24743130.668    24743130.114      473095.140      368644.884 2
         3.000          16.100
  24254482.651    24254482.749    24254478.679    -3182882.052 1  -2480167.685 1
         6.500           9.000
  25161089.625    25161090.190    25161090.073     1774857.042     1382998.814 2
                        13.900
  25110648.527    25110648.844    25110647.391     3771607.391 1   2938915.301 1
         6.500           9.000
  20315982.333    20315981.873    20315978.691   -25384233.521 7 -19779912.624 8
        43.600          50.400
  21539576.155    21539575.527    21539574.604   -18143879.109 5 -14138081.066 5
        35.100          34.100
 09  1  4  2  3 30.0000000  0  9G14G18G19G21G11G 6G 3G22G 9
  21190209.477    21190208.713    21190207.691   -21120796.298 6 -16457758.201 6
        39.100          40.600
  21793578.816    21793577.993    21793575.823   -18557343.097 5 -14460257.366 5
        35.900          33.600
  23450341.468    23450340.040    23450337.973    -8430694.454 4  -6569370.241 4
        26.800          28.100
  24765667.732    24765669.624    24765667.447      591531.398 1    460932.806 2
         6.500          17.000
  24237632.516    24237632.792    24237629.754    -3271428.792 1  -2549165.121 2
         6.500          12.600
  25179115.708    25179116.442    25179115.894     1869585.803     1456813.412 2
                        13.900
  25129113.148    25129111.334    25129112.304     3868631.944     3014518.897 1
         3.000           9.000
  20319008.067    20319007.519    20319004.220   -25368333.898 7 -19767523.307 8
        43.500          50.200
  21545537.005    21545536.294    21545535.385   -18112554.845 5 -14113672.543 5
        34.800          34.000
 09  1  4  2  4  0.0000000  0  9G14G18G19G21G11G 6G 3G22G 9
  21178538.649    21178537.985    21178536.845   -21182126.738 6 -16505548.143 6
        39.200          40.700
  21807108.212    21807107.410    21807105.414   -18486245.577 5 -14404856.697 5
        35.700          34.000
  23460812.865    23460811.244    23460809.363    -8375666.324 4  -6526491.185 4
        26.500          27.900
  24788219.206    24788218.844    24788217.278      710032.236 1    553271.026 2
         6.500          16.100
  24220844.142    24220844.219    24220842.447    -3359653.093 1  -2617911.306 2
         6.500          15.100
  25197149.733    25197148.441    25197151.163     1964356.252     1530660.496 2
                        12.600
  25147592.672    25147591.876    25147590.249     3965735.003     3090183.654 1
                        11.000
  20322112.540    20322112.073    20322108.792   -25352019.358 7 -19754810.678 8
        43.600          50.200
  21551633.075    21551632.248    21551631.368   -18080519.819 5 -14088710.183 5
        34.600          33.800
 09  1  4  2  4 30.0000000  0  8G14G18G21G19G11G 6G22G 9
  21166946.264    21166945.541    21166944.277   -21243045.683 6 -16553017.434 6
        39.300          40.800
  21820694.851    21820694.043    21820692.150   -18414846.610 5 -14349221.144 5
        35.600          33.800
  24810781.237    24810780.114    24810778.715      828594.101 1    645656.814 2
         9.000          13.900
  23471371.911    23471370.220    23471368.799    -8320177.147 4  -6483252.877 4
        26.200          27.900
  24204117.499    24204117.140    24204115.866    -3447553.730 1  -2686405.319 2
        11.000          16.100
  25215190.566    25215187.422    25215188.446     2059164.408     1604536.901 1
                        11.000
  20325295.830    20325295.333    20325292.090   -25335291.246 7 -19741775.785 8
        43.500          50.200
  21557863.573    21557862.993    21557862.119   -18047776.725 5 -14063196.083 5
        34.600          33.800
 09  1  4  2  5  0.0000000  0  6G14G18G 9G19G11G22
  21155427.131    21155426.504    21155425.310   -21303578.018 6 -16600185.469 6
        39.300          40.800
  21834334.107    21834333.170    21834331.450   -18343172.183 5 -14293370.942 5
        35.400          33.600
  21564224.163    21564223.558    21564222.704   -18014352.292 5 -14037151.065 5
        34.600          33.800
  23482013.799    23482012.105    23482010.165    -8264254.490 4  -6439676.799 4
        26.200          27.600
  24187449.556    24187448.574    24187446.016    -3535153.916 2  -2754665.217 2
        12.600          17.000
  20328552.933    20328552.408    20328549.127   -25318175.010 7 -19728438.460 8
        43.400          50.100
 09  1  4  2  5 30.0000000  0  6G14G18G 9G19G11G22
  21143985.679    21143985.050    21143983.815   -21363703.722 6 -16647036.648 6
        39.400          41.000
  21848028.913    21848028.033    21848026.421   -18271204.089 5 -14237291.911 5
        34.900          33.400
  21570717.704    21570717.066    21570716.087   -17980229.026 5 -14010561.516 5
        34.400          33.600
  23492741.169    23492739.644    23492737.891    -8207881.537 4  -6395749.837 4
        26.500          27.900
  24170840.697    24170840.165    24170838.502    -3622432.145 2  -2822674.246 2
        16.100          17.800
  20331887.505    20331886.985    20331883.744   -25300651.588 7 -19714783.848 8
        43.400          50.000
