     2.11           OBSERVATION DATA    G (GPS)             RINEX VERSION / TYPE
teqc  2008Oct2      WCDA Operator       20090103 00:19:03UTCPGM / RUN BY / DATE
Solaris x86 5.10|AMD64|cc SC5.8 -xarch=amd64|=+|=+          COMMENT
teqc  2008Oct2      WCDA Operator       20090102 01:18:40UTCCOMMENT
flin  WCDA-ACP   965000   CFS Flin Flon SASK Canada         MARKER NAME
40135M001                                                   MARKER NUMBER
PGC-WCDA            GEOL. SURV. CANADA                      OBSERVER / AGENCY
1115                AOA BENCHMARK ACT   3.3.32.4            REC # / TYPE / VERS
231                 AOAD/M_T        SCIS                    ANT # / TYPE
  -766174.4630 -3611375.3160  5184056.2210                  APPROX POSITION XYZ
        0.1500        0.0000        0.0000                  ANTENNA: DELTA H/E/N
     1     1                                                WAVELENGTH FACT L1/2
     7    C1    P1    P2    L1    L2    S1    S2            # / TYPES OF OBSERV
STATION INFORMATION EFFECTIVE FROM: 2001/01/13 18:20:00     COMMENT
                                TO: CURRENT DATE (above)    COMMENT
BIT 2 OF LLI FLAGS (+4) DATA COLLECTED UNDER 'AS' CONDITION COMMENT
L1 PHASE CENTRE 0.110m ABOVE ARP                            COMMENT
L2 PHASE CENTRE 0.128m ABOVE ARP                            COMMENT
where ARP is the Antenna Reference Point for HI measurement COMMENT
CONTACT gps@pgc.nrcan.gc.ca FOR ADDITIONAL INFORMATION      COMMENT
    P1 =    P1  TurboRogue; =    Y1  Benchmark              COMMENT
    L1 = L1(CA)                                             COMMENT
    P2 =    P2  TurboRogue; =    Y2  Benchmark              COMMENT
    L2 = L2(P2) TurboRogue; = L2(Y2) Benchmark              COMMENT
 SNR is mapped to RINEX snr flag value [0-9]                COMMENT
  L1 & L2: min(max(int(snr_dBHz/6), 0), 9)                  COMMENT
  2009     1     2     0     0    0.0000000     GPS         TIME OF FIRST OBS
                                                            END OF HEADER
 09  1  2  0  0  0.0000000  0 10G21G26G 9G15G 6G 3G18G19G22G24
  20474327.856    20474327.045    20474325.431   -26776914.263 6 -20865118.607 7
        40.000          44.800
  22486648.921    22486648.575    22486647.697    -9565547.590 4  -7453664.051 4
        26.200          26.800
  24237699.473    24237699.230    24237701.815    -4013011.919    -3127020.834 2
         3.000          17.000
  21674254.419    21674254.275    21674252.992   -16727043.008 6 -13034049.490 6
        38.300          40.400
  22249503.548    22249502.966    22249502.800   -12656807.928 5  -9862443.868 5
        33.500          33.100
  22396068.398    22396067.457    22396067.493   -11404700.237 5  -8886774.625 5
        30.100          30.200
  20575870.592    20575869.826    20575868.017   -24857161.194 6 -19369207.691 7
        38.400          47.100
  24295937.720    24295936.098    24295933.303    -3791355.498 3  -2954300.674 3
        19.300          21.600
  22038183.439    22038182.919    22038180.423   -16269805.730 5 -12677764.058 5
        35.200          35.600
  23512567.498    23512566.643    23512567.581    -6541673.058 3  -5097400.747 3
        19.900          23.000
 09  1  2  0  0 30.0000000  0 10G21G26G 9G15G 6G 3G18G19G22G24
  20480593.397    20480592.529    20480590.962   -26743988.997 6 -20839462.559 7
        40.200          44.800
  22505239.019    22505238.620    22505237.626    -9467856.639 4  -7377541.210 4
        26.200          26.800
  24216297.238    24216296.201    24216297.179    -4125487.678 1  -3214664.190 3
         6.500          18.600
  21684528.926    21684528.883    21684527.580   -16673048.934 6 -12991976.189 6
        38.100          40.100
  22248947.479    22248946.798    22248946.465   -12659731.125 5  -9864721.679 5
        33.600          33.000
  22393523.733    22393522.980    22393523.137   -11418071.213 4  -8897193.561 5
        29.900          30.200
  20570947.276    20570946.496    20570945.488   -24883033.675 6 -19389368.056 7
        38.300          47.200
  24280087.458    24280085.000    24280083.180    -3874644.605 2  -3019201.241 3
        17.000          21.600
  22023431.515    22023431.126    22023428.594   -16347325.816 5 -12738169.306 5
        35.100          35.500
  23531395.129    23531394.179    23531395.590    -6442733.946 3  -5020305.353 3
        21.100          23.000
 09  1  2  0  1  0.0000000  0 10G21G26G 9G15G 6G 3G18G19G22G24
  20486952.916    20486952.044    20486950.308   -26710570.291 6 -20813422.009 7
        40.300          44.700
  22523907.210    22523906.726    22523905.975    -9369755.761 4  -7301098.954 4
        25.900          27.400
  24194925.974    24194924.638    24194924.358    -4237801.517 1  -3302181.431 3
         9.000          19.900
  21694897.629    21694897.687    21694896.305   -16618560.858 6 -12949517.940 6
        38.200          40.000
  22248500.736    22248500.178    22248499.742   -12662078.277 5  -9866550.624 5
        33.800          32.700
  22391096.458    22391095.911    22391095.835   -11430825.892 5  -8907132.261 5
        30.100          30.400
  20566096.720    20566095.960    20566094.145   -24908522.619 6 -19409229.561 7
        38.100          46.800
  24264304.353    24264302.962    24264302.329    -3957573.876 2  -3083821.400 3
        16.100          22.100
  22008728.620    22008728.222    22008725.840   -16424589.597 5 -12798374.839 5
        35.200          35.800
  23550254.577    23550253.898    23550254.971    -6343625.991 3  -4943078.386 3
        21.100          23.000
 09  1  2  0  1 30.0000000  0 10G21G26G 9G15G 6G 3G18G19G22G24
  20493406.405    20493405.549    20493403.943   -26676656.197 6 -20786995.439 7
        40.300          44.700
  22542653.073    22542652.441    22542651.843    -9271246.102 4  -7224338.178 4
        25.900          27.600
  24173584.085    24173582.948    24173583.233    -4349947.965 1  -3389568.223 3
         9.000          19.300
  21705360.497    21705360.421    21705359.105   -16563578.754 6 -12906674.740 6
        38.100          39.900
  22248164.051    22248163.401    22248163.168   -12663847.002 5  -9867928.840 5
        33.100          32.800
  22388787.438    22388786.481    22388786.587   -11442962.247 5  -8916589.159 5
        30.200          30.600
  20561319.833    20561319.021    20561318.173   -24933625.701 6 -19428790.392 7
        38.100          46.800
  24248592.350    24248591.859    24248590.227    -4040138.760 2  -3148157.656 3
        16.100          21.100
  21994075.605    21994075.015    21994072.153   -16501593.828 5 -12858378.108 5
        35.300          35.600
  23569147.150    23569146.129    23569147.150    -6244348.316 3  -4865719.178 3
        19.900          23.400
 09  1  2  0  2  0.0000000  0 10G21G26G 9G15G 6G 3G18G19G22G24
  20499953.921    20499952.985    20499951.242   -26642249.284 6 -20760184.855 7
        40.300          44.400
  22561475.017    22561474.844    22561474.150    -9172333.631 4  -7147263.514 4
        25.300          27.400
  24152274.296    24152273.618    24152274.636    -4461926.158 1  -3476823.862 2
         6.500          17.800
  21715916.678    21715916.350    21715914.947   -16508107.413 6 -12863450.315 6
        38.100          40.000
  22247937.013    22247936.454    22247936.311   -12665040.098 5  -9868858.525 5
        33.500          33.000
  22386594.975    22386594.243    22386594.307   -11454481.850 5  -8925565.466 5
        30.100          30.600
  20556615.903    20556615.139    20556613.233   -24958345.039 6 -19448052.205 7
        38.100          46.900
  24232950.979    24232950.284    24232948.850    -4122339.137 2  -3212209.892 3
        17.800          23.400
  21979471.078    21979470.665    21979467.948   -16578340.083 5 -12918180.352 6
        35.400          36.100
  23588069.805    23588069.453    23588070.724    -6144905.099 3  -4788230.988 3
        19.900          23.800
 09  1  2  0  2 30.0000000  0 10G21G26G 9G15G 6G 3G18G19G22G24
  20506596.049    20506595.200    20506593.508   -26607343.816 6 -20732985.787 7
        40.200          44.300
  22580374.666    22580374.527    22580373.702    -9073015.198 4  -7069872.518 4
        25.600          26.800
  24130999.971    24130999.972    24131000.248    -4573725.738 2  -3563940.370 2
        12.600          17.800
  21726566.121    21726566.092    21726564.794   -16452142.302 6 -12819841.134 6
        37.900          39.900
  22247820.704    22247820.165    22247819.954   -12665651.041 5  -9869334.572 5
        33.400          32.800
  22384521.810    22384520.938    22384520.807   -11465378.370 5  -8934056.254 5
        30.200          30.200
  20551986.289    20551985.508    20551984.568   -24982674.179 6 -19467009.961 7
        38.100          47.000
  24217380.604    24217379.639    24217376.776    -4204166.445 3  -3275971.414 3
        19.300          23.800
  21964917.367    21964916.848    21964914.004   -16654821.093 5 -12977775.917 6
        35.500          36.000
  23607026.664    23607025.536    23607026.319    -6045291.083 3  -4710609.704 3
        19.300          23.400
 09  1  2  0  3  0.0000000  0 10G21G26G 9G15G 6G 3G18G19G22G24
  20513332.876    20513332.013    20513330.361   -26571941.633 6 -20705399.673 7
        40.300          44.200
  22599351.342    22599350.978    22599349.265    -8973295.678 4  -6992168.985 4
        25.900          26.200
  24109760.329    24109759.888    24109759.904    -4685344.849 2  -3650916.252 2
        12.600          16.100
  21737309.190    21737309.226    21737307.878   -16395686.906 6 -12775849.904 6
        37.800          40.000
  22247814.808    22247814.315    22247814.039   -12665681.473 5  -9869358.286 5
        33.100          32.800
  22382566.573    22382565.727    22382565.429   -11475653.001 5  -8942062.460 5
        30.600          30.400
  20547430.571    20547429.832    20547427.905   -25006614.198 6 -19485664.511 7
        38.100          46.800
  24201880.703    24201879.213    24201877.363    -4285619.719 3  -3339441.490 4
        19.900          24.200
  21950413.726    21950413.196    21950410.441   -16731037.631 5 -13037165.405 6
        35.500          36.300
  23626014.987    23626013.420    23626014.124    -5945509.082 3  -4632857.520 3
        18.600          22.600
 09  1  2  0  3 30.0000000  0 10G21G26G 9G15G 6G 3G18G19G22G24
  20520162.362    20520161.555    20520159.824   -26536052.425 6 -20677434.051 7
        40.400          44.100
  22618401.048    22618400.572    22618399.232    -8873187.875 4  -6914162.881 4
        25.900          26.500
  24088552.498    24088552.334    24088552.203    -4796789.499 1  -3737756.176 2
        11.000          12.600
  21748143.662    21748143.446    21748141.996   -16338752.943 6 -12731485.775 6
        37.700          39.700
  22247917.732    22247917.149    22247917.072   -12665141.263 5  -9868937.328 5
        33.400          33.200
  22380728.006    22380727.184    22380727.031   -11485315.328 5  -8949591.537 5
        30.800          30.600
  20542947.276    20542946.449    20542945.432   -25030174.636 6 -19504023.281 7
        38.100          46.800
  24186449.512    24186447.737    24186447.501    -4366706.007 3  -3402625.599 4
        20.500          25.300
  21935958.844    21935958.321    21935955.735   -16806998.238 5 -13096355.463 6
        35.600          36.500
  23645031.764    23645031.117    23645031.931    -5845570.558 2  -4554983.362 3
        17.800          22.600
 09  1  2  0  4  0.0000000  0 10G21G26G 9G15G 6G 3G18G19G22G24
  20527085.834    20527084.964    20527083.346   -26499669.255 6 -20649083.523 7
        40.300          44.000
  22637525.086    22637524.495    22637523.875    -8772687.732 4  -6835851.085 4
        24.600          26.800
  24067379.801    24067379.687    24067379.052    -4908048.752 1  -3824451.646 2
        11.000          13.900
  21759069.824    21759069.620    21759068.303   -16281335.205 6 -12686744.678 6
        37.700          39.800
  22248130.611    22248130.058    22248129.666   -12664023.004 5  -9868065.952 5
        33.200          33.000
  22379006.952    22379006.131    22379006.105   -11494357.819 5  -8956637.629 5
        30.400          30.800
  20538537.436    20538536.620    20538534.696   -25053347.785 6 -19522080.269 7
        38.100          46.700
  24171091.426    24171090.331    24171088.884    -4447415.400 3  -3465516.029 4
        20.500          24.900
  21921554.299    21921553.735    21921551.045   -16882694.709 5 -13155339.705 6
        35.800          36.500
  23664079.715    23664078.987    23664080.680    -5745469.182 2  -4476982.312 3
        17.000          22.100
 09  1  2  0  4 30.0000000  0 10G21G26G 9G15G 6G 3G18G19G22G24
  20534103.502    20534102.719    20534101.127   -26462790.981 6 -20620347.205 7
        40.400          44.000
  22656723.774    22656723.476    22656723.068    -8671797.272 4  -6757235.136 4
        24.200          27.400
  24046244.246    24046243.823    24046243.831    -5019117.944 2  -3910999.023 2
        13.900          16.100
  21770087.689    21770087.648    21770086.396   -16223434.376 6 -12641627.147 6
        37.600          39.800
  22248453.348    22248452.765    22248452.772   -12662325.321 5  -9866743.073 5
        33.000          33.000
  22377404.772    22377403.886    22377403.804   -11502778.425 5  -8963199.126 5
        30.600          31.000
  20534201.957    20534201.114    20534200.191   -25076131.839 6 -19539834.062 7
        38.100          47.000
  24155805.742    24155804.483    24155803.181    -4527744.321 3  -3528110.000 4
        21.100          24.600
  21907200.352    21907199.927    21907197.228   -16958124.478 5 -13214116.125 6
        35.800          36.500
  23683159.663    23683159.253    23683160.383    -5645204.808 2  -4398854.262 3
        17.000          21.600
 09  1  2  0  5  0.0000000  0 10G21G26G 9G15G 6G 3G18G19G22G24
  20541215.575    20541214.790    20541213.073   -26425417.207 6 -20591224.781 7
        40.600          43.900
  22675996.791    22675996.591    22675995.732    -8570518.827 4  -6678316.868 4
        24.600          27.100
  24025146.058    24025145.199    24025145.590    -5129992.350 2  -3997394.599 2
        16.100          17.800
  21781197.590    21781197.509    21781196.174   -16165051.923 6 -12596134.318 6
        37.500          39.800
  22248886.775    22248886.403    22248886.410   -12660047.670 5  -9864968.270 5
        33.100          33.400
  22375920.702    22375919.869    22375919.774   -11510577.036 5  -8969275.948 5
        30.800          30.600
  20529940.380    20529939.554    20529937.432   -25098525.796 6 -19557283.885 7
        38.000          46.600
  24140593.358    24140591.828    24140589.682    -4607689.425 3  -3590404.896 4
        20.500          24.200
  21892897.566    21892897.127    21892894.488   -17033285.762 6 -13272683.337 6
        36.100          36.500
  23702270.091    23702269.391    23702270.942    -5544778.255 2  -4320599.818 3
        17.800          21.600
 09  1  2  0  5 30.0000000  0 10G21G26G 9G15G 6G 3G18G19G22G24
  20548422.015    20548421.124    20548419.332   -26387547.870 6 -20561716.205 7
        40.600          43.800
  22695343.092    22695342.469    22695341.527    -8468855.394 4  -6599098.593 4
        24.600          26.800
  24004084.747    24004084.664    24004084.959    -5240668.488 3  -4083635.732 3
        18.600          18.600
  21792398.930    21792398.704    21792397.448   -16106189.340 6 -12550267.367 6
        37.200          39.700
  22249430.727    22249430.127    22249430.168   -12657189.788 5  -9862741.345 5
        33.000          33.400
  22374555.207    22374554.516    22374554.137   -11517752.862 5  -8974867.497 5
        31.300          30.600
  20525753.399    20525752.527    20525751.560   -25120528.937 6 -19574429.176 7
        38.000          46.600
  24125453.614    24125452.195    24125449.814    -4687247.781 3  -3652398.424 3
        21.100          23.800
  21878646.180    21878645.761    21878643.214   -17108177.450 6 -13331040.477 6
        36.100          36.800
  23721412.348    23721411.128    23721412.189    -5444190.065 2  -4242219.428 3
        17.800          21.100
 09  1  2  0  6  0.0000000  0 10G21G26G 9G15G 6G 3G18G19G22G24
  20555722.184    20555721.397    20555719.594   -26349184.402 6 -20531822.591 7
        40.500          43.600
  22714761.124    22714760.679    22714759.793    -8366811.175 4  -6519583.614 4
        24.600          27.100
  23983062.858    23983061.581    23983061.893    -5351143.620 2  -4169720.216 3
        17.800          19.900
  21803690.780    21803690.699    21803689.456   -16046849.679 6 -12504028.665 6
        37.200          39.700
  22250084.698    22250084.178    22250084.113   -12653752.831 5  -9860063.190 5
        33.200          33.200
  22373308.016    22373307.242    22373307.214   -11524306.563 5  -8979974.270 5
        31.300          30.800
  20521640.468    20521639.696    20521637.550   -25142142.263 6 -19591270.720 7
        37.900          46.600
  24110386.349    24110385.279    24110384.209    -4766418.125 3  -3714089.594 3
        19.900          23.800
  21864446.071    21864445.613    21864442.934   -17182799.436 6 -13389187.462 6
        36.000          36.700
  23740584.394    23740583.192    23740583.060    -5343442.898 3  -4163715.172 3
        18.600          19.900
 09  1  2  0  6 30.0000000  0 10G21G26G 9G15G 6G 3G18G19G22G24
  20563115.760    20563114.943    20563113.246   -26310330.758 6 -20501547.018 7
        40.500          43.600
  22734250.329    22734250.130    22734249.514    -8264393.071 4  -6439777.296 4
        24.200          27.400
  23962076.728    23962076.421    23962077.157    -5461417.663 2  -4255648.000 3
        16.100          20.500
  21815072.186    21815072.217    21815070.934   -15987038.638 6 -12457422.641 6
        37.100          39.400
  22250848.474    22250847.786    22250847.503   -12649740.752 5  -9856936.898 5
        33.500          33.000
  22372178.647    22372177.834    22372177.686   -11530241.666 5  -8984599.012 5
        31.300          31.000
  20517601.115    20517600.315    20517599.308   -25163369.057 6 -19607811.069 7
        37.900          46.500
  24095395.374    24095393.836    24095393.042    -4845201.532 3  -3775479.243 4
        19.900          24.200
  21850296.668    21850296.290    21850293.670   -17257154.364 6 -13447126.343 6
        36.200          36.800
  23759784.864    23759783.969    23759784.173    -5242541.561 3  -4085090.760 3
        19.900          19.300
 09  1  2  0  7  0.0000000  0 10G21G26G 9G15G 6G 3G18G19G22G24
  20570603.477    20570602.618    20570600.856   -26270982.775 6 -20470886.252 7
        40.500          43.300
  22753811.731    22753811.204    22753810.465    -8161599.643 4  -6359678.535 4
        24.200          27.600
  23941132.897    23941132.067    23941132.608    -5571482.444 2  -4341412.686 3
        16.100          22.100
  21826543.996    21826543.964    21826542.786   -15926753.997 6 -12410447.578 6
        36.900          39.500
  22251722.122    22251721.485    22251721.101   -12645149.062 5  -9853358.955 5
        33.500          33.100
  22371167.861    22371166.937    22371166.846   -11535554.075 5  -8988738.550 5
        31.600          31.100
  20513636.257    20513635.417    20513633.242   -25184204.631 6 -19624046.583 7
        37.900          46.500
  24080480.289    24080478.083    24080475.889    -4923590.807 3  -3836561.785 4
        21.100          24.200
  21836199.631    21836199.020    21836196.246   -17331236.692 6 -13504852.814 6
        36.500          37.000
  23779014.856    23779014.016    23779015.172    -5141482.826 3  -4006343.695 3
        19.300          19.300
 09  1  2  0  7 30.0000000  0 10G21G26G 9G15G 6G 3G18G19G22G24
  20578183.831    20578182.979    20578181.087   -26231147.907 6 -20439846.090 7
        40.500          43.100
  22773442.056    22773441.859    22773440.815    -8058441.700 4  -6279295.733 4
        24.600          27.100
  23920227.988    23920226.993    23920227.147    -5681341.781 2  -4427017.285 3
        15.100          23.000
  21838104.260    21838104.154    21838102.840   -15866005.145 6 -12363110.809 6
        36.900          39.300
  22252704.876    22252704.186    22252704.064   -12639985.275 5  -9849335.226 5
        33.500          33.400
  22370274.072    22370273.235    22370273.146   -11540250.528 5  -8992398.118 5
        31.800          31.100
  20509744.485    20509743.718    20509742.686   -25204655.953 6 -19639982.675 7
        37.900          46.500
  24065636.023    24065634.521    24065632.448    -5001591.041 3  -3897341.161 4
        21.600          24.200
  21822152.640    21822152.254    21822149.632   -17405052.491 6 -13562371.603 6
        36.600          37.000
  23798274.086    23798273.246    23798274.235    -5040275.311 2  -3927480.707 3
        17.800          19.900
 09  1  2  0  8  0.0000000  0 10G21G26G 9G15G 6G 3G18G19G22G24
  20585858.235    20585857.422    20585855.759   -26190817.497 6 -20408419.795 7
        40.300          43.000
  22793142.792    22793142.432    22793141.450    -7954913.273 3  -6198624.216 4
        23.800          25.900
  23899362.182    23899362.559    23899363.058    -5790983.207 2  -4512452.104 3
        13.900          23.000
  21849754.169    21849754.045    21849752.659   -15804784.756 6 -12315406.605 6
        36.900          39.100
  22253798.020    22253797.352    22253797.247   -12634240.721 5  -9844858.942 5
        33.500          33.100
  22369499.501    22369498.627    22369498.245   -11544321.954 5  -8995570.653 5
        31.800          31.300
  20505927.709    20505926.904    20505924.646   -25224713.392 6 -19655611.843 7
        37.800          46.400
  24050868.648    24050866.955    24050865.330    -5079190.729 3  -3957808.442 3
        20.500          23.400
  21808158.794    21808158.311    21808155.382   -17478591.943 6 -13619675.060 6
        36.800          36.900
  23817563.593    23817562.607    23817563.154    -4938911.352 2  -3848495.823 3
        17.000          19.900
 09  1  2  0  8 30.0000000  0 10G21G26G 9G15G 6G 3G18G19G22G24
  20593626.724    20593625.977    20593624.201   -26149994.053 6 -20376609.309 7
        40.500          43.000
  22812912.633    22812912.284    22812911.852    -7851019.227 3  -6117667.803 4
        23.000          25.600
  23878541.473    23878540.509    23878540.472    -5900404.438 2  -4597715.329 3
        13.900          22.600
  21861493.003    21861492.899    21861491.500   -15743097.006 6 -12267338.225 6
        37.100          39.000
  22255001.223    22255000.514    22255000.368   -12627917.247 5  -9839931.560 5
        33.100          33.100
  22368842.945    22368842.235    22368842.244   -11547769.997 5  -8998257.419 5
        31.300          31.500
  20502185.482    20502184.663    20502183.703   -25244378.508 6 -19670935.302 7
        37.800          46.200
  24036178.250    24036177.010    24036174.880    -5156389.012 3  -4017962.904 3
        18.600          23.000
  21794217.280    21794216.649    21794213.651   -17551856.043 6 -13676763.948 6
        36.800          37.000
  23836881.805    23836880.514    23836881.737    -4837394.108 2  -3769391.513 3
        16.100          21.100
 09  1  2  0  9  0.0000000  0 10G21G26G 9G15G 6G 3G18G19G22G24
  20601488.114    20601487.312    20601485.611   -26108682.678 6 -20344418.623 7
        40.600          43.000
  22832751.066    22832750.616    22832749.980    -7746767.809 3  -6036432.915 4
        22.600          25.600
  23857761.311    23857760.399    23857759.814    -6009606.905 2  -4682808.080 3
        16.100          23.400
  21873319.221    21873319.225    21873317.897   -15680949.078 6 -12218911.258 6
        37.100          39.100
  22256313.730    22256313.153    22256312.864   -12621020.090 5  -9834557.147 5
        33.200          33.200
  22368304.772    22368303.878    22368303.674   -11550600.133 5  -9000462.718 5
        31.500          31.300
  20498517.088    20498516.338    20498513.993   -25263656.091 6 -19685956.784 7
        37.700          46.300
  24021564.628    24021562.489    24021560.710    -5233188.550 3  -4077806.662 3
        19.900          23.000
  21780326.965    21780326.389    21780323.815   -17624848.808 6 -13733641.402 6
        36.900          37.400
  23856227.364    23856226.781    23856227.552    -4735729.771 2  -3690172.565 3
        17.000          21.600
 09  1  2  0  9 30.0000000  0 10G21G26G 9G15G 6G 3G18G19G22G24
  20609441.996    20609441.174    20609439.371   -26066885.207 6 -20311849.158 7
        40.700          42.900
  22852656.786    22852656.720    22852655.478    -7642163.746 3  -5954923.269 4
        23.000          25.900
  23837022.438    23837021.346    23837022.032    -6118588.254 2  -4767728.542 3
        17.000          23.400
  21885232.706    21885232.573    21885231.116   -15618344.335 6 -12170128.339 6
        37.000          39.000
  22257735.041    22257734.518    22257734.216   -12613550.908 5  -9828737.006 5
        33.200          33.100
  22367883.134    22367882.290    22367882.232   -11552813.848 5  -9002187.686 5
        31.300          31.000
  20494922.039    20494921.280    20494920.345   -25282547.317 6 -19700677.205 7
        37.700          45.900
  24007025.675    24007024.043    24007022.615    -5309588.150 3  -4137338.783 3
        21.600          23.800
  21766488.348    21766487.948    21766485.277   -17697570.171 6 -13790307.375 6
        37.200          37.400
  23875600.807    23875600.106    23875601.453    -4633921.054 2  -3610841.124 3
        16.100          21.600
 09  1  2  0 10  0.0000000  0 10G21G26G 9G15G 6G 3G18G19G22G24
  20617488.730    20617487.888    20617486.120   -26024599.582 6 -20278899.321 7
        40.500          42.700
  22872629.751    22872629.126    22872628.494    -7537207.430 3  -5873139.120 4
        23.000          26.200
  23816327.331    23816326.036    23816326.376    -6227342.244 2  -4852471.830 3
        15.100          22.100
  21897233.067    21897232.864    21897231.447   -15555282.185 6 -12120988.998 6
        36.800          39.100
  22259265.686    22259265.171    22259264.989   -12605507.589 5  -9822469.483 5
        33.200          33.100
  22367579.807    22367578.901    22367578.882   -11554408.426 5  -9003430.208 5
        31.300          31.100
  20491401.395    20491400.563    20491398.234   -25301049.337 6 -19715094.352 7
        37.700          46.200
  23992564.695    23992563.192    23992561.276    -5385582.980 3  -4196555.494 4
        22.100          24.200
  21752702.296    21752701.776    21752698.957   -17770016.863 6 -13846759.327 6
        37.300          37.200
  23895002.986    23895002.377    23895002.844    -4531966.731 2  -3531396.235 3
        16.100          21.100
 09  1  2  0 10 30.0000000  0 10G21G26G 9G15G 6G 3G18G19G22G24
  20625628.038    20625627.247    20625625.628   -25981826.305 6 -20245569.496 7
        40.500          42.700
  22892668.517    22892668.004    22892667.216    -7431902.495 3  -5791083.304 4
        23.400          26.200
  23795674.692    23795673.681    23795674.603    -6335865.801 2  -4937035.587 3
        12.600          20.500
  21909319.959    21909319.894    21909318.458   -15491764.792 6 -12071494.919 6
        36.900          38.900
  22260905.367    22260904.885    22260904.521   -12596890.516 5  -9815754.874 5
        33.000          33.100
  22367394.246    22367393.393    22367393.257   -11555383.828 5  -9004190.265 5
        31.300          31.000
  20487954.591    20487953.770    20487952.711   -25319162.092 6 -19729208.171 7
        37.700          46.100
  23978180.359    23978179.276    23978177.371    -5461170.615 3  -4255454.923 4
        22.100          24.600
  21738968.661    21738968.039    21738965.283   -17842187.959 6 -13902996.514 6
        37.300          37.500
  23914431.667    23914430.429    23914431.478    -4429868.299 2  -3451839.060 3
        13.900          20.500
 09  1  2  0 11  0.0000000  0 10G21G26G 9G15G 6G 3G18G19G22G24
  20633860.501    20633859.650    20633857.872   -25938565.195 6 -20211859.538 7
        40.600          42.600
  22912773.025    22912772.408    22912771.990    -7326251.582 3  -5708757.920 4
        22.600          26.200
  23775069.109    23775067.885    23775068.072    -6444154.633 2  -5021416.422 3
        13.900          21.600
  21921493.160    21921493.107    21921491.520   -15427794.050 6 -12021647.581 6
        36.900          38.600
  22262654.301    22262653.605    22262653.499   -12587699.574 5  -9808593.099 5
        32.800          33.000
  22367326.562    22367325.817    22367325.722   -11555739.784 5  -9004467.633 5
        31.100          31.300
  20484582.100    20484581.214    20484578.952   -25336884.999 6 -19743018.221 7
        37.700          46.200
  23963875.318    23963873.703    23963871.393    -5536348.302 3  -4314034.931 4
        22.600          24.200
  21725287.362    21725286.945    21725284.226   -17914082.017 6 -13959017.828 6
        37.200          37.700
  23933887.164    23933886.060    23933887.557    -4327626.681 2  -3372170.311 3
        15.100          20.500
 09  1  2  0 11 30.0000000  0 10G21G26G 9G15G 6G 3G18G19G22G24
  20642185.808    20642184.924    20642183.247   -25894814.908 6 -20177768.406 7
        40.600          42.400
  22932942.925    22932942.713    22932942.123    -7220255.640 3  -5626163.677 4
        22.100          25.900
  23754507.585    23754507.095    23754508.012    -6552202.698 2  -5105609.672 3
        17.800          23.000
  21933752.521    21933752.433    21933750.772   -15363370.218 6 -11971447.186 6
        36.700          38.200
  22264513.092    22264512.453    22264512.032   -12577933.060 5  -9800982.830 5
        33.400          32.800
  22367376.533    22367375.811    22367376.238   -11555474.433 5  -9004260.858 5
        30.600          31.500
  20481284.197    20481283.391    20481282.345   -25354215.539 6 -19756522.530 7
        37.700          46.200
  23949647.393    23949646.098    23949644.536    -5611111.481 3  -4372291.939 4
        22.100          24.200
  21711659.938    21711659.348    21711656.638   -17985695.957 6 -14014820.881 6
        37.200          37.800
  23953370.996    23953370.077    23953370.598    -4225240.978 2  -3292389.280 3
        17.000          19.300
 09  1  2  0 12  0.0000000  0 10G21G26G 9G15G 6G 3G18G19G22G24
  20650603.523    20650602.660    20650601.027   -25850579.327 6 -20143299.119 7
        40.500          42.200
  22953177.680    22953177.275    22953176.806    -7113921.756 3  -5543306.101 4
        21.100          25.900
  23733992.963    23733992.290    23733992.456    -6660010.184 3  -5189615.453 3
        19.300          21.600
  21946097.253    21946097.050    21946095.441   -15298498.960 6 -11920898.147 6
        36.600          38.300
  22266480.211    22266479.550    22266479.172   -12567595.158 5  -9792927.327 5
        33.200          32.800
  22367544.990    22367544.071    22367543.978   -11554591.929 5  -9003573.192 5
        30.800          31.100
  20478060.277    20478059.523    20478057.143   -25371157.119 6 -19769723.754 7
        37.700          46.200
  23935498.699    23935497.402    23935496.345    -5685461.408 3  -4430226.921 3
        21.600          23.800
  21698085.101    21698084.482    21698081.698   -18057032.720 6 -14070407.941 6
        37.500          37.800
  23972880.620    23972879.821    23972880.406    -4122716.423 2  -3212500.028 3
        17.800          18.600
 09  1  2  0 12 30.0000000  0 10G21G26G 9G15G 6G 3G18G19G22G24
  20659113.568    20659112.740    20659111.099   -25805858.479 6 -20108451.703 7
        40.400          42.100
  22973476.235    22973475.823    22973475.427    -7007252.098 3  -5460186.891 4
        21.600          25.300
  23713523.786    23713523.450    23713523.171    -6767572.625 3  -5273430.315 3
        19.900          19.300
  21958526.648    21958526.610    21958525.134   -15233181.383 6 -11870001.325 6
        36.700          38.400
  22268556.505    22268555.739    22268555.417   -12556685.215 5  -9784426.076 5
        33.100          33.000
  22367830.176    22367829.540    22367829.545   -11553091.325 5  -9002403.888 5
        30.600          31.300
  20474910.723    20474909.888    20474908.866   -25387708.323 6 -19782620.790 7
        37.600          46.100
  23921430.857    23921428.886    23921426.610    -5759394.920 3  -4487837.428 3
        23.000          23.000
  21684563.309    21684562.787    21684559.912   -18128090.290 6 -14125777.454 6
        37.900          38.000
  23992417.160    23992416.157    23992416.819    -4020053.313 2  -3132502.802 3
        17.800          19.300
 09  1  2  0 13  0.0000000  0 10G21G26G 9G15G 6G 3G18G19G22G24
  20667716.717    20667715.897    20667714.239   -25760648.659 6 -20073223.274 7
        40.500          42.000
  22993838.844    22993838.631    22993837.783    -6900245.870 3  -5376805.425 4
        21.600          24.900
  23693104.550    23693103.255    23693102.830    -6874882.268 3  -5357048.207 3
        18.600          19.300
  21971041.331    21971041.360    21971039.752   -15167415.709 6 -11818755.329 6
        36.500          38.100
  22270741.752    22270741.194    22270741.195   -12545199.785 5  -9775476.396 5
        32.700          33.200
  22368234.367    22368233.424    22368233.695   -11550968.386 5  -9000749.651 5
        30.400          31.500
  20471836.013    20471835.232    20471832.794   -25403865.157 6 -19795210.522 7
        37.700          45.900
  23907441.307    23907440.105    23907437.879    -5832905.337 3  -4545118.272 3
        22.600          22.600
  21671095.492    21671094.963    21671092.068   -18198863.506 6 -14180925.397 6
        37.900          37.900
  24011980.140    24011979.326    24011979.907    -3917248.705 2  -3052395.325 3
        17.000          20.500
 09  1  2  0 13 30.0000000  0 10G21G26G 9G15G 6G 3G18G19G22G24
  20676412.946    20676412.093    20676410.357   -25714950.276 6 -20037614.139 6
        40.700          41.900
  23014265.153    23014264.659    23014263.794    -6792906.301 3  -5293164.212 4
        21.100          24.600
  23672732.606    23672731.208    23672731.318    -6981935.378 2  -5440466.175 3
        17.000          19.300
  21983640.979    21983640.973    21983639.416   -15101204.453 6 -11767162.140 6
        36.400          38.300
  22273036.697    22273036.162    22273035.981   -12533139.363 5  -9766078.673 5
        32.800          33.100
  22368756.318    22368755.608    22368755.713   -11548223.744 5  -8998610.972 5
        30.600          31.500
  20468836.545    20468835.812    20468834.770   -25419627.787 6 -19807493.087 7
        37.700          46.000
  23893533.379    23893531.516    23893530.872    -5905990.437 3  -4602067.682 3
        20.500          22.600
  21657682.059    21657681.644    21657678.717   -18269351.455 6 -14235851.054 6
        38.100          38.200
  24031569.896    24031568.793    24031569.774    -3814304.253 2  -2972178.905 3
        16.100          21.100
 09  1  2  0 14  0.0000000  0 10G21G26G 9G15G 6G 3G18G19G22G24
  20685200.410    20685199.602    20685197.745   -25668772.228 6 -20001631.238 6
        40.700          41.900
  23034752.347    23034751.804    23034750.731    -6685245.102 3  -5209272.380 3
        21.100          23.400
  23652408.187    23652407.674    23652407.764    -7088737.056 2  -5523688.208 3
        17.800          19.300
  21996323.401    21996323.235    21996321.805   -15034557.976 6 -11715229.817 6
        36.200          38.100
  22275439.765    22275439.063    22275438.954   -12520512.739 5  -9756239.750 5
        32.800          33.100
  22369395.808    22369395.056    22369394.660   -11544866.300 5  -8995994.783 5
        31.300          31.300
  20465910.558    20465909.726    20465907.205   -25435004.194 6 -19819474.698 7
        37.600          45.900
  23879706.208    23879704.399    23879702.667    -5978656.430 3  -4658690.497 3
        21.100          22.600
  21644321.377    21644320.846    21644318.097   -18339561.996 6 -14290560.540 6
        38.000          38.400
  24051183.778    24051183.011    24051184.434    -3711229.857 2  -2891861.220 3
        13.900          21.100
 09  1  2  0 14 30.0000000  0 10G21G26G 9G15G 6G 3G18G19G22G24
  20694080.092    20694079.310    20694077.572   -25622108.198 6 -19965269.649 6
        40.700          41.800
  23055301.877    23055301.438    23055300.365    -6577257.990 3  -5125126.563 3
        22.600          23.400
  23632135.058    23632134.137    23632133.888    -7195275.955 2  -5606705.509 3
        17.800          21.100
  22009089.684    22009089.566    22009088.051   -14967471.068 6 -11662954.299 6
        36.000          37.900
  22277951.598    22277950.953    22277950.633   -12507313.279 5  -9745954.455 5
        32.800          33.000
  22370152.389    22370151.537    22370151.521   -11540889.010 5  -8992895.591 5
        30.600          31.300
  20463059.451    20463058.651    20463057.578   -25449986.438 6 -19831149.168 7
        37.500          45.700
  23865959.790    23865958.327    23865956.645    -6050893.486 3  -4714979.104 3
        22.600          23.000
  21631015.144    21631014.643    21631011.894   -18409486.433 6 -14345047.082 6
        37.900          38.500
  24070824.041    24070823.192    24070824.419    -3608019.273 2  -2811437.417 3
        12.600          21.100
 09  1  2  0 15  0.0000000  0 10G21G26G 9G15G 6G 3G18G19G22G24
  20703052.339    20703051.481    20703049.713   -25574959.818 6 -19928530.648 6
        40.900          41.900
  23075912.329    23075911.883    23075910.810    -6468949.711 3  -5040730.471 3
        22.600          23.800
  23611911.452    23611911.040    23611911.119    -7301549.906 2  -5689516.352 3
        16.100          22.600
  22021939.106    22021938.935    22021937.377   -14899947.292 6 -11610338.360 6
        36.000          38.000
  22280571.681    22280571.186    22280571.176   -12493542.763 5  -9735224.182 5
        32.700          33.000
  22371026.978    22371026.107    22371026.128   -11536293.266 5  -8989314.487 5
        30.800          31.100
  20460283.196    20460282.362    20460279.897   -25464576.082 6 -19842517.721 7
        37.500          45.900
  23852295.553    23852293.941    23852292.207    -6122700.623 3  -4770932.708 4
        22.600          24.200
  21617763.301    21617762.783    21617760.103   -18479125.011 6 -14399310.883 6
        37.900          38.600
  24090489.919    24090488.503    24090489.904    -3504675.161 2  -2730909.556 3
        12.600          21.100
 09  1  2  0 15 30.0000000  0 10G21G26G 9G15G 6G 3G18G19G22G24
  20712116.271    20712115.344    20712113.537   -25527328.852 6 -19891415.612 6
        40.800          41.600
  23096582.254    23096582.146    23096581.378    -6360324.465 3  -4956087.403 4
        22.100          24.200
  23591738.448    23591737.709    23591738.797    -7407556.465 2  -5772118.780 3
        15.100          23.800
  22034870.683    22034870.542    22034869.188   -14831990.280 5 -11557384.839 6
        35.800          37.900
  22283300.435    22283299.821    22283299.886   -12479203.014 5  -9724050.351 5
        32.700          33.000
  22372018.793    22372017.972    22372018.044   -11531080.890 5  -8985252.892 5
        30.600          31.500
  20457581.480    20457580.640    20457579.547   -25478774.149 6 -19853581.150 7
        37.600          46.000
  23838713.732    23838712.197    23838709.900    -6194076.734 3  -4826550.426 4
        23.000          24.600
  21604565.893    21604565.323    21604562.606   -18548478.296 6 -14453352.373 6
        37.800          38.600
  24110179.832    24110178.805    24110180.903    -3401200.086 2  -2650279.668 3
        12.600          21.600
 09  1  2  0 16  0.0000000  0 10G21G26G 9G15G 6G 3G18G19G22G24
  20721271.533    20721270.745    20721269.066   -25479216.334 6 -19853925.340 6
        40.600          41.500
  23117312.723    23117312.590    23117311.806    -6251385.635 3  -4871199.989 4
        21.100          24.200
  23571618.243    23571617.182    23571617.570    -7513292.134 2  -5854510.156 3
        17.000          23.400
  22047884.303    22047884.374    22047882.881   -14763602.632 5 -11504095.762 6
        35.700          37.700
  22286137.532    22286136.948    22286136.761   -12464294.859 5  -9712433.607 5
        32.700          33.000
  22373127.737    22373126.958    22373127.282   -11525252.395 5  -8980711.204 5
        30.200          31.500
  20454954.054    20454953.298    20454950.684   -25492580.740 6 -19864339.536 7
        37.500          45.800
  23825212.824    23825211.281    23825209.849    -6265019.768 3  -4881830.702 4
        23.400          24.600
  21591422.901    21591422.415    21591419.389   -18617545.429 6 -14507170.893 6
        38.200          38.600
  24129895.229    24129894.255    24129896.451    -3297595.808 1  -2569549.099 3
        11.000          21.600
 09  1  2  0 16 30.0000000  0 10G21G26G 9G15G 6G 3G18G19G22G24
  20730518.920    20730518.102    20730516.411   -25430621.365 6 -19816059.130 6
        40.700          41.400
  23138102.634    23138102.249    23138101.132    -6142135.153 3  -4786069.742 3
        21.100          23.400
  23551549.985    23551549.216    23551548.886    -7618751.834 3  -5936686.516 3
        18.600          22.600
  22060980.056    22060979.922    22060978.517   -14694784.563 5 -11450471.283 6
        35.500          37.700
  22289082.881    22289082.412    22289081.974   -12448817.585 5  -9700373.400 5
        33.000          33.000
  22374354.346    22374353.500    22374353.586   -11518806.584 5  -8975688.488 5
        30.400          31.100
  20452401.574    20452400.779    20452399.692   -25505994.185 6 -19874791.574 7
        37.500          45.700
  23811795.252    23811794.522    23811792.752    -6335525.869 3  -4936770.495 4
        22.100          24.900
  21578334.612    21578334.152    21578331.235   -18686323.969 6 -14560764.537 6
        38.100          38.700
  24149635.731    24149634.588    24149635.645    -3193862.094 2  -2488717.671 3
        12.600          20.500
 09  1  2  0 17  0.0000000  0 10G21G26G 9G15G 6G 3G18G19G22G24
  20739856.063    20739855.188    20739853.387   -25381554.847 6 -19777825.478 6
        40.700          41.300
  23158949.502    23158949.111    23158947.365    -6032586.549 3  -4700707.181 3
        21.100          23.400
  23531532.577    23531531.553    23531531.806    -7723942.514 3  -6018653.233 3
        18.600          22.600
  22074155.003    22074154.983    22074153.647   -14625549.306 5 -11396521.729 6
        35.400          37.700
  22292134.418    22292133.859    22292133.546   -12432781.988 5  -9687878.130 5
        32.800          33.100
  22375696.200    22375695.520    22375695.514   -11511755.009 5  -8970193.739 5
        31.000          31.000
  20449922.037    20449921.190    20449918.669   -25519024.564 6 -19884945.121 7
        37.400          45.800
  23798460.846    23798459.115    23798457.934    -6405603.292 3  -4991376.261 4
        22.600          25.300
  21565299.628    21565299.087    21565296.079   -18754823.639 6 -14614140.876 6
        38.300          38.700
  24169397.575    24169397.120    24169398.112    -3090010.962 2  -2407794.736 3
        12.600          19.900
 09  1  2  0 17 30.0000000  0 10G21G26G 9G15G 6G 3G18G19G22G24
  20749287.074    20749286.198    20749284.362   -25331994.791 6 -19739207.251 6
        40.700          41.200
  23179856.549    23179855.756    23179854.166    -5922719.959 3  -4615096.831 3
        20.500          23.000
  23511571.733    23511570.937    23511570.995    -7828837.492 3  -6100389.526 3
        19.300          23.400
  22087413.703    22087413.483    22087412.098   -14555875.740 5 -11342230.633 6
        35.500          37.700
  22295296.136    22295295.423    22295295.434   -12416165.879 5  -9674930.513 5
        32.400          33.000
  22377157.834    22377157.104    22377157.119   -11504074.371 5  -8964208.819 5
        31.100          31.100
  20447519.640    20447518.794    20447517.640   -25531648.710 6 -19894782.116 7
        37.400          45.600
  23785211.579    23785209.728    23785208.804    -6475226.934 3  -5045628.428 4
        21.600          25.300
  21552322.164    21552321.711    21552318.737   -18823020.104 6 -14667280.957 6
        38.500          38.800
  24189188.046    24189186.503    24189186.697    -2986020.544 2  -2326763.269 3
        13.900          19.300
 09  1  2  0 18  0.0000000  0 10G21G26G 9G15G 6G 3G18G19G22G24
  20758808.285    20758807.449    20758805.731   -25281959.620 6 -19700218.807 6
        40.600          41.000
  23200819.308    23200818.880    23200817.829    -5812556.506 3  -4529255.188 3
        20.500          23.400
  23491664.462    23491664.177    23491663.818    -7933450.907 3  -6181906.435 3
        19.300          23.800
  22100751.634    22100751.490    22100749.934   -14485784.245 5 -11287613.879 6
        35.500          37.400
  22298564.968    22298564.380    22298564.137   -12398988.157 5  -9661545.277 5
        32.400          33.000
  22378735.805    22378734.978    22378734.873   -11495783.110 5  -8957748.087 5
        31.300          30.800
  20445191.265    20445190.464    20445187.797   -25543884.636 6 -19904316.606 7
        37.400          45.800
  23772045.965    23772044.293    23772042.383    -6544412.160 3  -5099538.969 4
        21.600          24.600
  21539399.270    21539398.788    21539395.783   -18890930.511 6 -14720198.135 6
        38.600          38.900
  24208998.663    24208997.789    24208998.013    -2881910.388 2  -2245638.505 3
        15.100          19.300
 09  1  2  0 18 30.0000000  0 10G21G26G 9G15G 6G 3G18G19G22G24
  20768420.470    20768419.680    20768417.925   -25231446.789 6 -19660858.158 6
        40.500          40.700
  23221839.099    23221839.085    23221837.806    -5702096.141 3  -4443182.177 3
        20.500          23.400
  23471812.651    23471811.879    23471811.838    -8037775.973 3  -6263198.644 4
        19.900          24.200
  22114169.019    22114168.957    22114167.502   -14415273.680 5 -11232670.574 6
        35.100          37.200
  22301941.163    22301940.652    22301940.388   -12381245.936 5  -9647720.172 5
        32.300          32.800
  22380430.090    22380429.172    22380429.177   -11486878.947 5  -8950809.759 5
        31.000          30.600
  20442937.321    20442936.584    20442935.507   -25555728.706 6 -19913545.748 7
        37.400          45.500
  23758965.651    23758964.089    23758961.434    -6613153.353 3  -5153103.487 4
        22.100          24.900
  21526531.743    21526531.224    21526528.124   -18958550.665 6 -14772889.143 6
        38.700          38.900
  24228832.776    24228831.779    24228832.688    -2777678.431 2  -2164418.805 2
        16.100          17.800
 09  1  2  0 19  0.0000000  0 10G21G26G 9G15G 6G 3G18G19G22G24
  20778123.217    20778122.423    20778120.687   -25180458.993 6 -19621127.410 6
        40.500          40.700
  23242914.387    23242914.683    23242913.737    -5591343.871 3  -4356881.697 3
        19.900          23.400
  23452015.035    23452014.329    23452014.341    -8141810.759 3  -6344264.691 3
        21.100          23.400
  22127665.914    22127665.784    22127664.356   -14344348.498 5 -11177404.196 6
        35.300          37.200
  22305424.433    22305423.738    22305423.507   -12362941.950 5  -9633457.316 5
        32.100          32.700
  22382240.626    22382239.978    22382239.835   -11477364.132 5  -8943395.610 5
        31.500          30.400
  20440757.691    20440756.936    20440754.196   -25567183.183 6 -19922471.322 7
        37.400          45.600
  23745968.600    23745966.974    23745965.136    -6681450.500 3  -5206322.011 4
        22.100          24.900
  21513718.949    21513718.413    21513715.436   -19025882.043 6 -14825355.135 6
        38.600          39.100
  24248690.008    24248689.161    24248689.571    -2673327.967 2  -2083106.757 2
        15.100          17.000
 09  1  2  0 19 30.0000000  0 10G21G26G 9G15G 6G 3G18G19G22G24
  20787918.222    20787917.329    20787915.654   -25128986.226 6 -19581018.763 6
        40.500          40.700
  23264047.408    23264047.156    23264046.339    -5480292.410 3  -4270348.076 3
        19.900          23.400
  23432275.643    23432275.017    23432274.808    -8245541.165 3  -6425093.564 3
        19.900          22.100
  22141242.862    22141242.971    22141241.434   -14273000.381 5 -11121808.258 6
        35.300          37.200
  22309016.205    22309015.571    22309015.611   -12344066.310 5  -9618749.027 5
        32.000          33.000
  22384169.382    22384168.632    22384168.301   -11467228.557 5  -8935497.744 5
        31.500          30.200
  20438654.263    20438653.500    20438652.205   -25578236.690 6 -19931084.442 7
        37.400          45.600
  23733058.706    23733057.242    23733056.020    -6749290.675 3  -5259184.454 4
        22.100          25.600
  21500963.276    21500962.784    21500960.008   -19092912.650 6 -14877586.750 6
        38.600          39.300
  24268571.504    24268569.852    24268571.268    -2568849.784 2  -2001695.187 2
        13.900          15.100
 09  1  2  0 20  0.0000000  0 11G21G26G 9G15G14G 6G 3G18G19G22G24
  20797805.500    20797804.645    20797802.922   -25077028.053 6 -19540531.868 6
        40.400          40.600
  23285236.673    23285236.330    23285234.694    -5368943.670 3  -4183582.837 3
        19.300          22.600
  23412594.550    23412594.382    23412594.396    -8348962.597 3  -6505681.686 3
        19.300          21.600
  22154900.520    22154900.443    22154898.812   -14201229.918 5 -11065883.215 6
        35.400          37.100
  25270697.900    25270696.723    25270694.418          -1.0281          -.99011
         3.000          11.000
  22312717.041    22312716.395    22312716.120   -12324618.908 5  -9603595.191 5
        32.300          33.000
  22386216.534    22386215.643    22386215.304   -11456472.031 5  -8927116.031 5
        31.300          30.600
  20436627.421    20436626.616    20436623.865   -25588888.067 6 -19939384.215 7
        37.400          45.700
  23720237.256    23720235.506    23720233.899    -6816670.531 3  -5311688.214 4
        23.400          25.300
  21488265.265    21488264.780    21488262.080   -19159640.584 6 -14929582.517 6
        38.600          39.400
  24288476.970    24288476.150    24288476.507    -2464244.050 2  -1920184.247 2
        12.600          13.900
 09  1  2  0 20 30.0000000  0 11G21G26G 9G15G14G 6G 3G18G19G22G24
  20807780.278    20807779.470    20807777.720   -25024610.249 6 -19499686.823 6
        40.400          40.500
  23306476.806    23306476.468    23306474.801    -5257325.806 3  -4096607.868 3
        19.300          22.100
  23392969.332    23392968.789    23392968.481    -8452096.271 3  -6586045.583 3
        19.300          22.100
  22168632.947    22168632.893    22168631.411   -14129064.697 5 -11009650.576 6
        35.300          36.900
  25248641.560    25248641.201    25248639.959     -115902.748 1    -90313.963 2
         6.500          13.900
  22316521.467    22316520.920    22316520.746   -12304625.395 5  -9588015.832 5
        32.100          33.000
  22388376.391    22388375.745    22388375.523   -11445119.832 5  -8918270.153 5
        31.300          30.600
  20434672.284    20434671.476    20434670.172   -25599162.311 6 -19947390.109 7
        37.400          45.700
  23707498.880    23707496.947    23707495.132    -6883612.678 3  -5363850.902 4
        23.400          25.900
  21475620.593    21475620.026    21475617.061   -19226089.909 6 -14981361.190 6
        38.900          39.400
  24308401.968    24308401.551    24308401.878    -2359537.518 1  -1838594.760 2
        11.000          13.900
 09  1  2  0 21  0.0000000  0 11G22G21G26G 9G15G14G 6G 3G18G19G24
  21463032.262    21463031.824    21463028.980   -19292240.963 6 -15032907.446 6
        39.100          39.600
  20817845.734    20817844.889    20817843.257   -24971715.211 6 -19458469.906 6
        40.300          40.400
  23327770.589    23327770.085    23327769.425    -5145423.383 3  -4009411.175 3
        18.600          22.100
  23373402.402    23373401.998    23373402.057    -8554920.011 3  -6666167.954 3
        18.600          23.400
  22182443.757    22182443.605    22182442.162   -14056488.573 5 -10953097.752 6
        34.900          36.800
  25226592.288    25226593.011    25226593.039     -231762.216 1   -180594.045 2
         9.000          16.100
  22320433.828    22320433.087    22320432.814   -12284067.813 5  -9571996.933 5
        32.300          32.800
  22390653.542    22390652.841    22390652.763   -11433154.105 5  -8908946.210 5
        31.100          30.600
  20432792.433    20432791.657    20432788.883   -25609040.754 6 -19955087.585 7
        37.400          45.700
  23694847.304    23694845.673    23694843.275    -6950096.547 4  -5415656.486 4
        24.600          25.900
  24328349.050    24328349.346    24328349.432    -2254712.723 1  -1756913.154 2
         9.000          13.900
 09  1  2  0 21 30.0000000  0 11G22G21G26G 9G15G14G 6G 3G18G19G24
  21450500.291    21450499.846    21450496.930   -19358096.946 6 -15084223.779 6
        39.100          39.700
  20828001.341    20828000.489    20827998.817   -24918347.797 6 -19416884.906 6
        40.200          40.300
  23349117.505    23349117.276    23349116.180    -5033243.675 3  -3921998.405 3
        19.300          21.600
  23353895.020    23353894.350    23353894.913    -8657434.034 3  -6746048.971 4
        20.500          24.600
  22196331.470    22196331.462    22196329.901   -13983507.917 5 -10896229.707 6
        34.800          36.500
  25204549.881    25204549.833    25204552.807     -347581.473     -270842.775 2
         3.000          13.900
  22324451.955    22324451.407    22324450.976   -12262951.457 5  -9555542.615 5
        32.400          32.600
  22393046.420    22393045.558    22393045.397   -11420580.065 5  -8899148.251 5
        31.000          30.600
  20430987.272    20430986.424    20430985.181   -25618527.201 6 -19962479.603 7
        37.400          45.600
  23682282.989    23682281.178    23682278.665    -7016123.953 3  -5467106.379 4
        23.800          25.300
  24348319.890    24348318.909    24348318.191    -2149775.295 1  -1675143.773 2
         9.000          12.600
 09  1  2  0 22  0.0000000  0 11G22G21G26G 9G15G14G 6G 3G18G19G24
  21438024.904    21438024.378    21438021.349   -19423655.982 6 -15135308.722 6
        39.200          39.600
  20838246.520    20838245.827    20838244.236   -24864507.719 6 -19374931.599 6
        40.200          40.200
  23370516.780    23370516.280    23370515.906    -4920788.884 2  -3834371.278 3
        17.800          21.600
  23334446.913    23334446.121    23334446.497    -8759633.707 3  -6825685.054 4
        20.500          24.600
  22210295.812    22210295.816    22210294.220   -13910124.339 5 -10839047.694 6
        34.800          36.500
  25182517.423    25182517.798    25182521.265     -463357.576     -361057.886 1
         3.000          11.000
  22328576.653    22328576.095    22328575.924   -12241276.094 5  -9538652.717 5
        32.400          32.700
  22395555.123    22395554.185    22395554.020   -11407396.997 5  -8888875.724 5
        30.800          30.800
  20429256.782    20429255.904    20429253.096   -25627620.926 6 -19969565.608 7
        37.300          45.800
  23669805.511    23669803.678    23669801.605    -7081691.759 3  -5518198.159 4
        23.000          24.900
  24368309.951    24368309.108    24368308.586    -2044725.390 1  -1593286.739 2
        11.000          12.600
 09  1  2  0 22 30.0000000  0 11G22G21G26G 9G15G14G 6G 3G18G19G24
  21425606.393    21425605.863    21425602.812   -19488916.271 6 -15186160.881 6
        39.500          39.700
  20848582.156    20848581.284    20848579.664   -24810194.943 6 -19332609.954 6
        40.200          40.200
  23391968.625    23391967.907    23391967.257    -4808060.992 2  -3746531.371 3
        17.800          21.600
  23315059.435    23315058.922    23315059.122    -8861514.405 3  -6905072.599 3
        20.500          23.400
  22224337.000    22224336.907    22224335.129   -13836338.633 5 -10781552.332 6
        34.800          36.300
  25160498.138    25160495.448    25160498.339     -579087.671     -451237.145 1
         3.000           9.000
  22332807.655    22332807.106    22332806.891   -12219041.445 5  -9521327.013 5
        32.300          32.600
  22398179.790    22398178.911    22398178.848   -11393604.225 5  -8878128.106 5
        30.800          31.100
  20427601.175    20427600.390    20427598.955   -25636320.718 6 -19976344.651 7
        37.300          45.500
  23657415.890    23657414.143    23657412.873    -7146796.589 3  -5568929.183 4
        23.400          25.900
  24388321.639    24388320.784    24388319.913    -1939563.615 1  -1511342.531 2
        11.000          12.600
 09  1  2  0 23  0.0000000  0 11G22G21G26G 9G15G14G 6G 3G18G19G24
  21413244.813    21413244.346    21413241.390   -19553875.469 6 -15236778.420 6
        39.300          39.800
  20859007.567    20859006.755    20859005.027   -24755408.532 6 -19289919.254 6
        40.000          39.800
  23413471.531    23413471.456    23413470.409    -4695061.689 2  -3658479.977 3
        17.000          22.100
  23295734.096    23295733.437    23295733.384    -8963070.999 3  -6984207.593 4
        20.500          24.200
  22238454.477    22238454.320    22238452.615   -13762151.723 5 -10723744.345 6
        34.900          36.500
  25138483.743    25138482.569    25138484.311     -694767.784 1   -541377.501 1
         6.500           9.000
  22337145.284    22337144.746    22337144.501   -12196247.080 5  -9503565.164 5
        32.300          32.600
  22400920.126    22400919.425    22400919.577   -11379201.641 5  -8866905.304 5
        31.000          31.100
  20426020.997    20426020.163    20426017.312   -25644624.750 6 -19982815.315 7
        37.300          45.600
  23645115.922    23645114.317    23645112.576    -7211434.924 3  -5619296.704 4
        23.800          26.800
  24408354.261    24408353.773    24408353.106    -1834289.920 1  -1429311.126 2
         9.000          13.900
 09  1  2  0 23 30.0000000  0 11G22G21G26G 9G15G14G 6G 3G18G19G24
  21400940.220    21400939.702    21400936.765   -19618537.089 6 -15287164.084 6
        39.300          39.900
  20869522.260    20869521.470    20869519.654   -24700153.862 6 -19246863.670 6
        40.200          39.600
  23435025.557    23435024.917    23435023.248    -4581798.623 3  -3570223.053 3
        18.600          21.100
  23276469.473    23276468.778    23276469.252    -9064304.433 3  -7063090.763 4
        20.500          25.300
  22252646.834    22252646.596    22252644.806   -13687570.695 5 -10665629.256 6
        34.800          36.200
  25116481.483    25116480.335    25116479.585     -810400.893 1   -631481.162 1
         6.500           9.000
  22341588.440    22341587.784    22341587.555   -12172898.424 5  -9485371.398 5
        32.100          32.600
  22403776.411    22403775.636    22403775.289   -11364194.477 5  -8855211.405 5
        31.000          31.000
  20424515.066    20424514.308    20424512.911   -25652537.544 6 -19988981.115 7
        37.300          45.300
  23632904.330    23632902.459    23632900.372    -7275609.317 4  -5669302.712 4
        24.900          26.500
  24428407.194    24428406.465    24428406.577    -1728910.125 1  -1347197.060 2
         6.500          15.100
 09  1  2  0 24  0.0000000  0 11G22G21G26G 9G15G14G 6G 3G18G19G24
  21388693.056    21388692.495    21388689.486   -19682896.661 6 -15337314.382 6
        39.500          39.800
  20880126.420    20880125.595    20880123.835   -24644428.523 6 -19203441.337 6
        40.000          39.400
  23456627.883    23456628.104    23456626.490    -4468271.576 2  -3481760.407 3
        17.800          21.100
  23257269.079    23257268.399    23257268.263    -9165207.784 3  -7141716.700 4
        22.100          26.200
  22266914.266    22266914.171    22266912.383   -13612594.306 5 -10607206.088 6
        34.600          36.200
  25094488.407    25094486.776    25094486.590     -925981.500 1   -721543.935 1
         6.500          11.000
  22346137.541    22346136.951    22346136.449   -12148993.058 5  -9466743.838 5
        32.300          32.400
  22406747.689    22406746.715    22406746.434   -11348580.108 5  -8843044.354 5
        30.800          30.600
  20423084.675    20423083.869    20423081.102   -25660055.261 6 -19994839.067 7
        37.300          45.700
  23620781.115    23620779.624    23620777.880    -7339314.059 4  -5718942.761 4
        24.600          26.200
  24448480.145    24448479.205    24448479.858    -1623422.089    -1264998.646 2
         3.000          15.100
 09  1  2  0 24 30.0000000  0 11G22G21G26G 9G15G14G 6G 3G18G19G24
  21376503.127    21376502.577    21376499.572   -19746954.611 6 -15387229.655 6
        39.500          39.800
  20890819.746    20890818.905    20890817.235   -24588234.403 6 -19159653.718 6
        40.000          39.300
  23478280.956    23478281.011    23478279.792    -4354484.617 2  -3393095.244 3
        17.800          22.600
  23238130.683    23238130.217    23238129.987    -9265778.452 3  -7220083.399 4
        21.600          25.600
  22281256.241    22281256.153    22281254.631   -13537225.717 5 -10548477.317 6
        34.400          36.400
  25072503.230    25072503.115    25072503.326    -1041508.437 1   -811564.910 1
         9.000           9.000
  22350791.984    22350791.509    22350791.109   -12124533.102 5  -9447684.131 5
        32.600          32.700
  22409833.862    22409833.120    22409833.085   -11332359.939 5  -8830405.255 5
        30.400          30.800
  20421728.921    20421728.099    20421726.817   -25667179.774 6 -20000390.628 7
        37.300          45.600
  23608747.957    23608746.724    23608744.645    -7402548.155 4  -5768216.068 4
        24.200          26.200
  24468574.438    24468575.172    24468574.806    -1517828.454    -1182717.950 2
         3.000          16.100
 09  1  2  0 25  0.0000000  0 11G22G21G26G 9G15G14G 6G 3G18G19G24
  21364370.954    21364370.440    21364367.541   -19810709.669 6 -15436908.898 6
        39.600          40.200
  20901602.167    20901601.402    20901599.673   -24531572.245 6 -19115501.382 6
        40.200          39.300
  23499982.984    23499982.812    23499982.167    -4240440.650 2  -3304229.825 3
        17.000          23.000
  23219055.929    23219055.765    23219055.945    -9366012.230 3  -7298187.608 4
        21.100          24.900
  22295672.496    22295672.364    22295670.738   -13461467.285 5 -10489444.768 5
        34.100          35.900
  25050530.180    25050529.869    25050530.437    -1156979.408     -901542.282 1
         3.000           9.000
  22355551.948    22355551.450    22355551.359   -12099519.164 5  -9428192.744 5
        32.300          33.000
  22413035.707    22413034.837    22413034.961   -11315534.772 5  -8817294.739 5
        30.400          31.100
  20420448.166    20420447.367    20420444.551   -25673910.040 6 -20005634.984 7
        37.400          45.700
  23596804.569    23596803.380    23596801.403    -7465309.175 4  -5817120.749 4
        24.200          26.200
  24488688.443    24488687.654    24488686.965    -1412130.299    -1100355.772 2
                        16.100
 09  1  2  0 25 30.0000000  0 11G22G21G26G 9G15G14G 6G 3G18G19G24
  21352296.017    21352295.465    21352292.440   -19874164.388 6 -15486354.111 6
        39.700          40.300
  20912473.025    20912472.209    20912470.367   -24474446.149 6 -19070987.543 6
        40.200          39.000
  23521733.083    23521732.275    23521731.332    -4126145.972 2  -3215169.056 3
        17.000          22.600
  23200047.202    23200046.431    23200046.436    -9465909.389 3  -7376029.519 4
        21.600          25.600
  22310161.538    22310161.692    22310160.136   -13385324.759 5 -10430112.929 5
        34.000          35.700
  25028566.640    25028564.951    25028566.062    -1272396.081     -991477.306 1
                         9.000
  22360416.470    22360415.901    22360415.883   -12073955.696 5  -9408273.161 5
        31.800          33.100
  22416351.897    22416351.169    22416350.935   -11298108.787 5  -8803716.038 5
        31.000          31.300
  20419241.743    20419240.959    20419239.669   -25680249.690 6 -20010574.965 7
        37.400          45.600
  23584952.049    23584950.257    23584948.005    -7527598.567 4  -5865657.933 4
        24.200          26.200
  24508817.517    24508816.660    24508814.805    -1306332.385    -1017915.930 1
                        11.000
 09  1  2  0 26  0.0000000  0 11G22G21G26G 9G15G14G 6G 3G18G19G24
  21340278.691    21340278.218    21340275.224   -19937314.932 6 -15535562.303 6
        39.800          40.400
  20923432.217    20923431.475    20923429.735   -24416854.595 6 -19026111.002 6
        40.000          38.900
  23543530.485    23543530.035    23543528.500    -4011601.325 2  -3125913.498 3
        17.800          21.600
  23181102.677    23181101.735    23181102.019    -9565463.595 3  -7453604.189 4
        21.600          25.600
  22324724.594    22324724.669    22324722.903   -13308797.680 5 -10370481.444 5
        34.300          35.800
  25006613.308    25006613.026    25006613.210    -1387753.705    -1081366.297 1
                         9.000
  22365386.182    22365385.570    22365385.370   -12047841.127 5  -9387924.147 5
        32.000          33.000
  22419782.468    22419781.663    22419781.619   -11280080.683 5  -8789668.147 5
        30.800          31.100
  20418110.208    20418109.398    20418106.404   -25686195.674 6 -20015208.197 7
        37.400          45.600
  23573189.431    23573187.444    23573185.790    -7589411.474 4  -5913823.842 4
        24.600          26.500
  24528971.492    24528973.435    24528971.361    -1200433.553     -935396.361 2
                        13.900
 09  1  2  0 26 30.0000000  0 11G22G21G26G 9G15G14G 6G 3G18G19G24
  21328319.418    21328318.967    21328316.012   -20000161.386 6 -15584533.545 6
        39.800          40.500
  20934479.864    20934479.096    20934477.341   -24358799.233 6 -18980873.057 6
        40.100          38.800
  23565374.922    23565374.218    23565372.366    -3896810.447 2  -3036466.058 3
        17.000          21.600
  23162223.620    23162222.938    23162222.970    -9664671.913 3  -7530909.341 4
        22.600          26.200
  22339360.026    22339359.813    22339358.227   -13231889.225 5 -10310552.770 5
        34.100          35.900
  24984674.712    24984673.399    24984671.553    -1503050.983    -1171208.283 1
                         9.000
  22370459.975    22370459.379    22370459.269   -12021177.310 5  -9367147.148 5
        31.800          32.800
  22423327.052    22423326.404    22423326.420   -11261452.197 5  -8775152.437 5
        30.400          30.800
  20417053.624    20417052.832    20417051.438   -25691748.814 6 -20019535.315 7
        37.500          45.800
  23561517.637    23561516.118    23561514.319    -7650746.710 4  -5961617.536 4
        25.300          27.100
  24549143.686    24549142.937    24549143.729    -1094435.833     -852800.809 2
                        17.000
 09  1  2  0 27  0.0000000  0 11G22G21G26G 9G15G14G 6G 3G18G19G24
  21316418.209    21316417.750    21316414.960   -20062701.764 6 -15633266.281 6
        39.700          40.600
  20945615.868    20945614.988    20945613.138   -24300279.688 6 -18935273.414 6
        40.000          38.600
  23587264.586    23587264.034    23587262.837    -3781775.213 2  -2946828.208 3
        17.000          21.100
  23143411.345    23143411.017    23143411.284    -9763529.191 3  -7607940.953 4
        22.100          26.500
  22354067.370    22354067.358    22354065.750   -13154600.629 5 -10250327.889 5
        33.900          35.800
  24962746.538    24962745.633    24962742.248    -1618284.838    -1261000.850 1
                         9.000
  22375638.819    22375638.056    22375637.861   -11993964.042 5  -9345942.008 5
        32.000          33.000
  22426986.295    22426985.508    22426985.466   -11242222.813 5  -8760168.493 5
        30.400          30.800
  20416071.848    20416071.026    20416068.213   -25696907.948 6 -20023555.418 7
        37.500          45.900
  23549938.134    23549936.059    23549934.161    -7711600.915 4  -6009036.399 4
        24.200          27.400
  24569333.478    24569332.360    24569333.825     -988339.801 1   -770128.611 2
         6.500          17.800
 09  1  2  0 27 30.0000000  0 11G22G21G26G 9G15G14G 6G 3G18G19G24
  21304576.169    21304575.637    21304572.583   -20124933.240 6 -15681758.324 6
        39.800          40.500
  20956840.167    20956839.321    20956837.547   -24241295.186 6 -18889311.468 6
        39.800          38.400
  23609200.613    23609201.178    23609199.798    -3666496.804 2  -2857000.864 3
        16.100          21.100
  23124667.864    23124667.003    23124667.166    -9862030.311 3  -7684695.009 4
        22.600          26.500
  22368847.397    22368847.173    22368845.628   -13076932.499 5 -10189807.268 5
        33.600          35.900
  24940830.760    24940830.588    24940829.447    -1733451.530    -1350741.094 2
                        12.600
  22380921.775    22380921.174    22380921.007   -11966200.772 5  -9324308.294 5
        32.000          32.700
  22430760.606    22430759.745    22430759.307   -11222391.326 5  -8744715.380 5
        30.800          30.600
  20415165.348    20415164.575    20415163.155   -25701671.117 6 -20027266.974 7
        37.500          45.600
  23538449.175    23538447.677    23538446.292    -7771970.477 3  -6056077.608 4
        23.400          27.100
  24589541.846    24589541.339    24589542.332     -882144.804 1   -687379.257 2
         9.000          16.100
 09  1  2  0 28  0.0000000  0 11G22G21G26G 9G15G14G 6G 3G18G19G24
  21292793.168    21292792.592    21292789.548   -20186853.146 6 -15730007.583 6
        39.800          40.600
  20968153.202    20968152.348    20968150.702   -24181844.850 6 -18842986.538 6
        39.800          38.400
  23631183.768    23631183.358    23631182.194    -3550976.419 2  -2766984.983 3
        16.100          21.600
  23105992.241    23105991.746    23105991.631    -9960169.682 3  -7761167.226 4
        23.400          25.900
  22383699.315    22383698.971    22383697.485   -12998885.036 5 -10128991.067 5
        33.400          35.900
  24918927.866    24918927.190    24918927.334    -1848546.619    -1440425.542 2
                        12.600
  22386309.663    22386309.141    22386309.083   -11937886.736 5  -9302245.411 5
        32.000          32.800
  22434648.892    22434648.043    22434647.877   -11201957.258 5  -8728792.727 5
        30.800          30.400
  20414334.717    20414333.885    20414331.037   -25706036.647 6 -20030668.687 7
        37.500          45.800
  23527054.148    23527052.694    23527051.505    -7831850.824 3  -6102737.608 4
        23.800          27.400
  24609768.871    24609768.508    24609768.923     -775850.261 1   -604552.377 2
        11.000          16.100
 09  1  2  0 28 30.0000000  0 11G21G26G 9G15G14G 6G 3G18G19G22G24
  20979553.911    20979553.022    20979551.179   -24121934.232 6 -18796302.943 6
        39.800          38.200
  23653211.658    23653211.339    23653209.498    -3435221.920 2  -2676786.679 3
        16.100          21.100
  23087385.649    23087384.958    23087384.903   -10057948.468 3  -7837358.472 4
        23.400          25.600
  22398621.900    22398621.741    22398620.307   -12920465.341 5 -10067884.814 5
        33.400          35.500
  24897039.982    24897038.061    24897038.844    -1963573.459    -1530056.813 2
         3.000          15.100
  22391800.983    22391800.435    22391800.592   -11909027.945 5  -9279758.043 5
        31.300          32.700
  22438650.987    22438650.097    22438649.942   -11180926.726 5  -8712405.290 5
        30.600          30.400
  20413578.759    20413577.953    20413576.450   -25710009.154 6 -20033764.135 7
        37.700          45.800
  23515752.352    23515750.810    23515748.620    -7891245.279 4  -6149018.982 4
        24.900          26.500
  21281068.561    21281068.142    21281065.223   -20248465.375 6 -15778017.090 6
        39.800          40.800
  24630013.201    24630012.540    24630013.959     -669462.538 1   -521652.873 2
         6.500          15.100
 09  1  2  0 29  0.0000000  0 11G21G26G 9G15G14G 6G 3G18G19G22G24
  20991041.597    20991040.752    20991038.905   -24061565.761 6 -18749262.576 6
        39.700          37.900
  23675282.489    23675282.506    23675280.645    -3319237.654 2  -2586409.324 3
        17.000          21.600
  23068847.949    23068847.309    23068847.288   -10155364.452 3  -7913266.994 4
        23.000          25.900
  22413614.889    22413614.694    22413613.216   -12841677.011 5 -10006491.309 5
        33.100          35.300
  24875163.513    24875163.793    24875163.659    -2078530.971    -1619634.103 2
         3.000          16.100
  22397396.292    22397395.691    22397395.449   -11879626.591 5  -9256847.908 5
        31.600          32.700
  22442765.811    22442765.173    22442764.838   -11159301.457 5  -8695554.438 5
        30.400          30.200
  20412897.342    20412896.543    20412893.726   -25713589.859 6 -20036554.290 7
        37.700          45.900
  23504542.412    23504540.748    23504538.788    -7950152.839 4  -6194920.972 4
        25.600          26.500
  21269402.677    21269402.160    21269399.326   -20309769.965 6 -15825786.874 6
        39.800          41.000
  24650275.518    24650273.524    24650275.850     -562984.358     -438682.868 2
         3.000          13.900
 09  1  2  0 29 30.0000000  0 11G21G26G 9G15G14G 6G 3G18G19G22G24
  21002616.844    21002616.046    21002614.259   -24000737.385 6 -18701863.841 6
        39.900          38.000
  23697397.727    23697397.097    23697395.886    -3203023.918 2  -2495853.172 3
        17.000          21.100
  23050380.481    23050379.630    23050380.003   -10252410.963 3  -7988887.605 4
        22.600          26.200
  22428677.810    22428677.642    22428676.251   -12762519.849 5  -9944810.392 5
        32.800          34.800
  24853303.755    24853302.257    24853301.148    -2193414.528    -1709153.740 2
         3.000          15.100
  22403094.846    22403094.151    22403094.232   -11849681.280 5  -9233513.904 5
        31.800          32.800
  22446994.570    22446993.663    22446993.481   -11137080.311 5  -8678239.262 5
        30.400          30.400
  20412291.130    20412290.343    20412289.001   -25716775.506 6 -20039036.602 7
        37.700          45.900
  23493426.176    23493424.403    23493423.061    -8008569.078 4  -6240440.109 4
        25.600          27.400
  21257795.913    21257795.445    21257792.475   -20370763.668 6 -15873314.419 6
        39.800          41.000
  24670554.645    24670554.694    24670554.991     -456414.358     -355641.322 2
                        12.600
 09  1  2  0 30  0.0000000  0 11G21G26G 9G15G14G 6G 3G18G19G22G24
  21014278.745    21014277.858    21014275.932   -23939454.637 6 -18654111.053 6
        39.900          37.800
  23719554.381    23719553.771    23719552.967    -3086587.894 2  -2405123.809 3
        17.000          20.500
  23031983.550    23031982.647    23031982.620   -10349088.798 3  -8064220.936 4
        23.000          25.600
  22443809.891    22443809.727    22443808.309   -12683000.240 5  -9882847.051 5
        33.000          34.700
  24831453.807    24831454.261    24831453.821    -2308226.121 1  -1798617.324 2
         6.500          16.100
  22408895.486    22408894.902    22408894.797   -11819197.284 5  -9209760.139 5
        31.600          32.400
  22451335.586    22451334.775    22451334.720   -11114267.856 5  -8660463.320 5
        30.400          30.800
  20411759.213    20411758.386    20411755.570   -25719570.691 6 -20041214.660 7
        37.700          45.900
  23482403.260    23482401.625    23482399.938    -8066496.202 4  -6285578.093 4
        25.900          27.100
  21246247.816    21246247.308    21246244.273   -20431449.998 6 -15920602.452 6
        39.800          41.100
  24690851.364    24690849.108    24690851.783     -349757.850     -272532.379 2
                        15.100
 09  1  2  0 30 30.0000000  0 11G21G26G 9G15G14G 6G 3G18G19G22G24
  21026028.437    21026027.524    21026025.799   -23877708.978 6 -18605997.553 6
        39.700          37.700
  23741753.926    23741753.584    23741753.757    -2969922.781 2  -2314215.926 3
        16.100          19.900
  23013658.436    23013658.006    23013657.943   -10445384.506 3  -8139256.534 4
        22.600          24.900
  22459012.279    22459012.208    22459010.792   -12603110.922 5  -9820595.628 5
        33.100          34.800
  24809619.862    24809620.176    24809621.087    -2422954.217    -1888015.835 2
         3.000          13.900
  22414800.651    22414800.066    22414799.716   -11788166.180 5  -9185580.055 5
        31.600          32.300
  22455791.080    22455789.996    22455789.923   -11090855.811 5  -8642220.163 5
        30.600          31.100
  20411303.324    20411302.615    20411301.179   -25721965.834 6 -20043080.994 7
        37.700          45.700
  23471475.848    23471474.099    23471471.584    -8123922.250 4  -6330325.655 4
        26.800          26.200
  21234760.048    21234759.599    21234756.699   -20491817.731 6 -15967642.226 6
        39.900          41.200
  24711166.163    24711164.864    24711166.591     -243006.545     -189349.600 2
                        13.900
 09  1  2  0 31  0.0000000  0 11G21G26G 9G15G14G 6G 3G18G19G22G24
  21037864.207    21037863.329    21037861.451   -23815511.624 6 -18557532.091 6
        39.700          37.400
  23763995.049    23763995.622    23763995.560    -2853042.123 2  -2223140.089 3
        15.100          19.900
  22995405.857    22995405.013    22995404.692   -10541305.063 3  -8213999.796 4
        22.600          24.900
  22474282.500    22474282.556    22474281.239   -12522864.640 5  -9758066.058 5
        32.800          34.900
  24787804.737    24787803.672    24787803.739    -2537607.115 1  -1977355.739 2
         9.000          15.100
  22420807.601    22420806.965    22420806.791   -11756599.568 5  -9160982.697 5
        31.600          32.400
  22460357.822    22460356.923    22460356.835   -11066856.009 5  -8623519.015 5
        30.400          31.000
  20410921.869    20410921.141    20410918.414   -25723970.722 6 -20044643.237 7
        37.700          46.000
  23460641.258    23460639.963    23460637.614    -8180855.823 4  -6374689.467 4
        27.600          26.200
  21223331.312    21223330.819    21223327.933   -20551876.596 6 -16014441.323 6
        40.000          41.300
  24731496.006    24731495.521    24731497.803     -136172.510     -106102.341 2
                        13.900
 09  1  2  0 31 30.0000000  0 11G21G26G 9G15G14G 6G 3G18G19G22G24
  21049786.177    21049785.270    21049783.304   -23752861.836 6 -18508714.083 6
        39.700          37.300
  23786277.519    23786278.432    23786277.916    -2735946.988 2  -2131897.127 3
        15.100          20.500
  22977225.358    22977224.650    22977224.202   -10636844.789 3  -8288446.314 4
        23.800          25.300
  22489620.811    22489620.765    22489619.270   -12442261.969 5  -9695258.790 5
        32.400          34.800
  24766001.945    24766001.391    24766001.532    -2652180.867 2  -2066634.011 2
        12.600          15.100
  22426916.438    22426915.755    22426915.573   -11724496.804 5  -9135967.559 5
        31.500          32.100
  22465036.928    22465036.078    22465035.845   -11042267.426 5  -8604359.074 5
        30.800          30.600
  20410614.855    20410614.038    20410612.679   -25725584.059 6 -20045900.372 7
        37.600          45.800
  23449901.462    23449899.782    23449897.848    -8237293.014 4  -6418666.486 4
        27.600          26.200
  21211961.591    21211961.174    21211958.214   -20611623.897 6 -16060997.640 6
        40.000          41.300
  24751843.706    24751842.477    24751842.081      -29255.267      -22790.233 2
         3.000          13.900
 09  1  2  0 32  0.0000000  0 11G21G26G 9G15G14G 6G 3G18G19G22G24
  21061795.177    21061794.432    21061792.724   -23689752.541 6 -18459538.017 6
        39.400          37.400
  23808603.590    23808603.125    23808601.776    -2618632.267 2  -2040483.072 3
        16.100          19.300
  22959119.196    22959118.661    22959118.248   -10731992.271 4  -8362587.176 4
        24.200          24.900
  22505027.575    22505027.752    22505026.083   -12361297.259 5  -9632169.402 5
        32.100          34.400
  24744216.276    24744215.893    24744215.711    -2766665.520 2  -2155842.857 2
        13.900          16.100
  22433128.577    22433127.942    22433127.784   -11691851.338 5  -9110529.526 5
        31.100          32.000
  22469829.428    22469828.379    22469828.230   -11017083.561 5  -8584735.280 5
        30.600          30.400
  20410384.001    20410383.184    20410380.416   -25726797.550 6 -20046845.941 7
        37.700          46.100
  23439258.102    23439256.585    23439254.628    -8293223.675 4  -6462248.792 4
        27.600          26.500
  21200653.370    21200652.797    21200649.732   -20671050.791 6 -16107304.296 6
        40.000          41.400
  24772204.490    24772203.361    24772204.424       77751.749       60591.819 2
         3.000          12.600
 09  1  2  0 32 30.0000000  0 11G21G26G 9G15G14G 6G 3G18G19G22G24
  21073890.345    21073889.602    21073887.836   -23626192.228 6 -18410010.506 6
        39.500          37.400
  23830968.374    23830967.679    23830965.126    -2501108.550 2  -1948906.159 3
        16.100          19.300
  22941086.894    22941086.534    22941086.123   -10826751.252 3  -8436425.322 4
        23.000          24.900
  22520501.911    22520501.855    22520500.407   -12279979.849 5  -9568805.186 5
        32.100          34.400
  24722445.033    24722444.975    24722446.058    -2881065.985 2  -2244986.066 2
        12.600          13.900
  22439442.631    22439442.042    22439441.824   -11658671.541 5  -9084675.137 5
        31.100          32.100
  22474733.429    22474732.472    22474732.122   -10991312.261 5  -8564653.746 5
        30.200          30.200
  20410227.713    20410226.899    20410225.523   -25727618.560 6 -20047485.679 7
        37.700          45.900
  23428710.706    23428709.034    23428707.067    -8348653.564 4  -6505440.899 4
        27.600          26.800
  21189404.448    21189403.931    21189400.913   -20730163.785 6 -16153366.352 6
        40.000          41.600
  24792581.682    24792580.953    24792581.402      184839.930 1    144037.106 1
         6.500          11.000
 09  1  2  0 33  0.0000000  0 11G21G26G 9G15G14G 6G 3G18G19G22G24
  21086071.366    21086070.593    21086069.074   -23562180.846 6 -18360131.518 6
        39.400          37.500
  23853371.173    23853371.275    23853368.681    -2383377.150 2  -1857167.439 3
        12.600          19.300
  22923129.447    22923128.845    22923128.742   -10921116.895 3  -8509956.956 4
        22.600          25.300
  22536043.400    22536043.048    22536041.530   -12198311.303 5  -9505167.355 5
        32.600          34.400
  24700693.393    24700692.765    24700692.315    -2995379.397 1  -2334061.431 2
        11.000          13.900
  22445858.058    22445857.450    22445857.330   -11624957.600 5  -9058404.532 5
        31.000          32.100
  22479748.796    22479748.031    22479748.277   -10964953.805 4  -8544114.698 5
        29.700          30.200
  20410146.432    20410145.603    20410142.806   -25728045.736 6 -20047818.537 7
        37.800          46.100
  23418258.140    23418256.352    23418254.754    -8403579.215 4  -6548240.098 4
        26.200          26.800
  21178215.771    21178215.298    21178212.212   -20788960.493 6 -16199181.952 6
        40.200          41.700
  24812975.452    24812974.759    24812976.076      292009.184 1    227545.557 1
         6.500          11.000
 09  1  2  0 33 30.0000000  0 11G21G26G 9G15G14G 6G 3G18G19G22G24
  21098337.368    21098336.590    21098334.865   -23497722.487 6 -18309904.236 6
        39.200          37.200
  23875812.367    23875811.709    23875811.192    -2265444.566 2  -1765271.955 3
        12.600          18.600
  22905247.904    22905247.191    22905246.374   -11015089.038 3  -8583181.989 4
        23.800          25.600
  22551649.714    22551649.857    22551648.288   -12116296.936 5  -9441260.042 5
        32.300          34.500
  24678957.537    24678956.032    24678955.102    -3109607.082 1  -2423069.981 2
         9.000          12.600
  22452374.504    22452373.810    22452373.642   -11590714.299 5  -9031721.440 5
        31.100          32.300
  22484875.854    22484874.921    22484874.778   -10938012.883 4  -8523121.772 5
        29.900          30.200
  20410139.559    20410138.680    20410137.355   -25728082.395 6 -20047847.092 7
        37.800          46.200
  23407901.790    23407900.000    23407898.356    -8458002.586 4  -6590647.904 4
        26.500          26.800
  21167086.703    21167086.248    21167083.179   -20847443.664 6 -16244753.237 6
        40.300          41.800
  24833383.743    24833383.394    24833385.363      399254.605      311113.382 1
         3.000          11.000
 09  1  2  0 34  0.0000000  0 11G21G26G 9G15G14G 6G 3G18G19G22G24
  21110689.541    21110688.697    21110687.084   -23432811.593 6 -18259324.318 6
        39.100          37.100
  23898293.041    23898292.064    23898292.057    -2147306.857 1  -1673216.612 3
        11.000          18.600
  22887442.146    22887441.643    22887441.332   -11108656.915 3  -8656092.005 4
        23.800          26.500
  22567323.099    22567323.088    22567321.688   -12033932.330 5  -9377079.822 5
        31.800          34.100
  24657237.245    24657237.161    24657236.199    -3223739.771 1  -2512004.494 1
         6.500          11.000
  22458992.470    22458991.784    22458991.612   -11555935.990 5  -9004621.457 5
        30.800          32.100
  22490114.430    22490113.611    22490113.170   -10910483.568 4  -8501670.365 4
        29.700          29.700
  20410208.064    20410207.269    20410204.424   -25727721.912 6 -20047566.188 7
        37.900          46.200
  23397642.643    23397641.100    23397638.978    -8511914.449 4  -6632657.145 4
        27.600          27.100
  21156018.706    21156018.264    21156015.473   -20905605.243 6 -16290073.931 7
        40.000          42.000
  24853806.864    24853805.599    24853807.493      506581.688      394744.825 1
                        11.000
 09  1  2  0 34 30.0000000  0 11G21G26G 9G15G14G 6G 3G18G19G22G24
  21123127.335    21123126.541    21123124.999   -23367449.777 6 -18208393.033 6
        39.000          37.000
  23920811.179    23920810.987    23920811.356    -2028967.536 1  -1581004.175 3
        11.000          18.600
  22869714.041    22869713.473    22869713.572   -11201817.617 4  -8728684.729 4
        24.600          27.400
  22583062.888    22583062.880    22583061.265   -11951220.324 5  -9312628.909 5
        31.800          34.100
  24635536.059    24635534.168    24635536.148    -3337776.338    -2600864.077 1
         3.000           9.000
  22465712.122    22465711.446    22465711.155   -11520624.677 5  -8977106.149 5
        30.800          32.100
  22495464.453    22495463.870    22495463.478   -10882368.101 4  -8479762.208 4
        29.900          29.900
  20410352.149    20410351.350    20410350.016   -25726964.642 6 -20046976.099 7
        37.900          46.200
  23387480.985    23387479.439    23387477.750    -8565313.841 4  -6674267.045 4
        27.400          27.900
  21145012.227    21145011.714    21145008.856   -20963445.132 6 -16335143.956 7
        40.200          42.000
  24874244.535    24874244.767    24874246.508      613988.309      478438.242 1
                         9.000
 09  1  2  0 35  0.0000000  0 11G21G26G 9G15G14G 6G 3G18G19G22G24
  21135650.546    21135649.685    21135647.837   -23301641.339 6 -18157113.727 6
        38.900          36.800
  23943366.808    23943367.527    23943368.393    -1910432.397 1  -1488639.145 3
         9.000          18.600
  22852063.928    22852063.433    22852063.025   -11294570.399 4  -8800959.594 4
        24.600          27.100
  22598867.900    22598867.750    22598865.858   -11868166.392 5  -9247911.548 5
        32.400          34.000
  24613853.520    24613852.309    24613853.643    -3451717.570    -2689649.421 1
         3.000           9.000
  22472532.447    22472531.675    22472531.539   -11484784.659 5  -8949178.861 5
        31.000          32.300
  22500925.834    22500925.033    22500924.610   -10853670.353 5  -8457400.334 5
        30.200          30.100
  20410571.308    20410570.511    20410567.755   -25725813.391 6 -20046079.014 7
        37.900          46.400
  23377416.887    23377415.362    23377413.551    -8618201.755 4  -6715478.388 4
        27.400          27.900
  21134066.669    21134066.126    21134063.092   -21020965.504 6 -16379965.014 7
        40.400          42.100
  24894698.667    24894697.329    24894697.374      721470.007      562190.192 1
                         6.500
 09  1  2  0 35 30.0000000  0 11G21G26G 9G15G14G 6G 3G18G19G22G24
  21148257.891    21148257.070    21148255.309   -23235389.075 6 -18105488.589 6
        39.000          36.800
  23965960.299    23965960.619    23965961.490    -1791706.521 1  -1396125.476 3
        11.000          18.600
  22834491.234    22834490.782    22834490.626   -11386913.922 3  -8872915.540 4
        23.800          27.400
  22614736.643    22614736.515    22614734.854   -11784774.924 5  -9182931.168 5
        32.100          34.400
  24592190.136    24592189.431    24592189.496    -3565563.603    -2778360.529 1
                         6.500
  22479452.523    22479451.701    22479451.504   -11448419.450 5  -8920842.341 5
        31.000          32.100
  22506496.814    22506495.909    22506495.640   -10824394.026 4  -8434587.605 5
        29.700          30.100
  20410864.890    20410864.087    20410862.731   -25724270.386 6 -20044876.663 7
        38.000          46.300
  23367449.805    23367448.556    23367446.678    -8670578.312 4  -6756291.275 4
        27.900          28.400
  21123181.428    21123180.919    21123177.908   -21078167.411 6 -16424537.912 7
        40.300          42.100
  24915167.975    24915167.214    24915166.486      829023.691      645998.192 1
         3.000           9.000
 09  1  2  0 36  0.0000000  0 11G21G26G 9G15G14G 6G 3G18G19G22G24
  21160949.740    21160948.922    21160947.285   -23168692.396 6 -18053517.168 6
        38.700          36.800
  23988590.479    23988590.296    23988590.552    -1672790.773 1  -1303463.849 3
        11.000          18.600
  22816998.046    22816997.343    22816997.227   -11478842.336 4  -8944548.026 4
        24.600          27.400
  22630669.852    22630669.578    22630667.961   -11701046.060 5  -9117687.897 5
        31.800          34.500
  24570545.457    24570544.804    24570545.110    -3679310.238    -2866994.246 1
         3.000          11.000
  22486472.517    22486471.719    22486471.331   -11411528.373 5  -8892096.048 5
        31.100          31.600
  22512178.091    22512177.045    22512177.236   -10794538.274 4  -8411323.391 5
        29.500          30.200
  20411233.554    20411232.745    20411230.028   -25722333.128 6 -20043367.109 7
        38.000          46.400
  23357581.453    23357579.944    23357577.590    -8722439.555 4  -6796702.632 4
        27.600          27.900
  21112357.440    21112356.964    21112353.828   -21135047.881 6 -16468860.346 7
        40.400          42.100
  24935649.217    24935647.879    24935645.478      936649.857 1    729862.733 1
         6.500          11.000
 09  1  2  0 36 30.0000000  0 11G21G26G 9G15G14G 6G 3G18G19G22G24
  21173725.997    21173725.161    21173723.481   -23101552.813 6 -18001200.625 6
        38.700          36.500
  24011255.305    24011255.172    24011254.536    -1553688.156 1  -1210656.617 2
        11.000          17.000
  22799584.115    22799583.668    22799583.086   -11570352.537 4  -9015854.640 4
        24.900          26.800
  22646666.643    22646666.351    22646664.851   -11616982.601 5  -9052183.905 5
        31.600          34.500
  24548919.553    24548918.544    24548918.978    -3792955.505 1  -2955548.943 2
         6.500          12.600
  22493592.111    22493591.559    22493591.319   -11374113.219 5  -8862941.378 5
        30.800          31.500
  22517969.602    22517968.655    22517968.395   -10764104.386 4  -8387608.686 5
        29.700          30.100
  20411677.049    20411676.237    20411674.938   -25720002.412 6 -20041550.962 7
        38.000          46.400
  23347810.350    23347808.943    23347806.696    -8773784.231 4  -6836711.464 4
        27.100          27.400
  21101594.617    21101594.127    21101591.181   -21191606.356 6 -16512931.867 7
        40.500          42.300
  24956140.652    24956140.862    24956140.378     1044346.858      813782.460 1
         3.000           9.000
 09  1  2  0 37  0.0000000  0 11G21G26G 9G15G14G 6G 3G18G19G22G24
  21186586.615    21186585.792    21186583.958   -23033970.295 6 -17948538.935 6
        38.700          36.400
  24033954.656    24033955.189    24033953.873    -1434400.533 1  -1117705.227 2
        11.000          16.100
  22782251.074    22782250.388    22782249.532   -11661440.131 4  -9086831.964 4
        26.200          26.500
  22662726.574    22662726.511    22662724.961   -11532585.704 5  -8986420.088 5
        31.600          34.100
  24527311.894    24527311.319    24527312.495    -3906496.723 1  -3044022.560 2
         6.500          13.900
  22500811.608    22500811.110    22500810.854   -11336174.345 5  -8833378.613 5
        30.800          31.600
  22523870.707    22523869.684    22523869.755   -10733093.185 4  -8363444.112 5
        29.700          30.100
  20412195.564    20412194.790    20412192.054   -25717277.302 6 -20039427.499 7
        38.000          46.300
  23338138.411    23338137.239    23338135.330    -8824609.134 4  -6876315.268 4
        27.100          28.100
  21090893.673    21090893.173    21090890.166   -21247840.860 6 -16556750.948 7
        40.700          42.400
  24976647.844    24976648.231    24976648.850     1152114.437      897757.201 1
         3.000           9.000
 09  1  2  0 37 30.0000000  0 11G21G26G 9G15G14G 6G 3G18G19G22G24
  21199530.720    21199529.895    21199528.114   -22965948.073 6 -17895534.609 6
        38.500          36.300
  24056688.902    24056688.763    24056686.931    -1314933.121 2  -1024613.743 2
        12.600          16.100
  22764998.578    22764997.759    22764996.994   -11752103.409 4  -9157478.653 4
        25.900          26.800
  22678849.424    22678849.357    22678847.510   -11447859.997 5  -8920400.055 5
        31.500          33.900
  24505724.530    24505724.495    24505726.490    -4019933.845 1  -3132415.040 2
         6.500          15.100
  22508130.043    22508129.558    22508129.532   -11297715.416 5  -8803410.617 5
        30.400          31.500
  22529881.091    22529880.353    22529880.345   -10701508.226 5  -8338832.467 5
        30.100          30.200
  20412788.706    20412787.906    20412786.640   -25714159.899 6 -20036998.347 7
        37.900          46.100
  23328565.701    23328564.310    23328562.751    -8874914.710 4  -6915514.412 4
        26.800          28.100
  21080253.996    21080253.478    21080250.429   -21303752.625 6 -16600318.549 7
        40.700          42.500
  24997168.406    24997167.899    24997169.887     1259949.069      981784.122 1
                        11.000
 09  1  2  0 38  0.0000000  0 11G21G26G 9G15G14G 6G 3G18G19G22G24
  21212558.989    21212558.238    21212556.571   -22897483.819 6 -17842185.844 6
        38.500          36.200
  24079457.474    24079457.483    24079455.628    -1195284.827 2   -931381.310 2
        13.900          16.100
  22747827.870    22747827.190    22747826.692   -11842335.177 4  -9227789.091 4
        25.300          27.400
  22695035.225    22695035.062    22695032.985   -11362803.824 5  -8854122.522 5
        31.300          33.500
  24484159.442    24484159.502    24484160.558    -4133260.954 1  -3220721.769 2
         6.500          16.100
  22515547.909    22515547.411    22515547.306   -11258734.218 5  -8773035.654 5
        30.200          31.500
  22536001.481    22536000.576    22536000.151   -10669347.263 5  -8313771.986 4
        30.100          29.900
  20413457.450    20413456.599    20413453.967   -25710646.179 6 -20034260.383 7
        37.900          46.200
  23319092.732    23319091.385    23319089.432    -8924695.949 4  -6954304.992 4
        26.500          28.100
  21069676.412    21069675.968    21069672.944   -21359337.108 6 -16643631.124 7
        40.700          42.500
  25017702.759    25017701.283    25017704.735     1367852.808     1065864.921 1
         3.000          11.000
 09  1  2  0 38 30.0000000  0 11G21G26G 9G15G14G 6G 3G18G19G22G24
  21225671.430    21225670.667    21225668.865   -22828578.071 6 -17788493.063 6
        38.400          36.100
  24102259.374    24102259.681    24102257.718    -1075458.171 2   -838009.897 2
        13.900          16.100
  22730739.914    22730739.326    22730739.037   -11932131.657 4  -9297760.348 4
        24.600          27.900
  22711282.932    22711283.084    22711281.198   -11277419.118 5  -8787588.987 5
        31.100          33.400
  24462616.704    24462616.148    24462616.586    -4246475.673 1  -3308940.945 2
        11.000          17.800
  22523065.149    22523064.481    22523064.312   -11219231.714 5  -8742254.482 5
        30.100          31.500
  22542231.010    22542230.006    22542229.464   -10636610.919 4  -8288263.153 4
        29.700          29.500
  20414201.595    20414200.812    20414199.506   -25706735.704 6 -20031213.257 7
        38.000          46.400
  23309719.891    23309718.526    23309716.472    -8973950.104 4  -6992684.856 4
        26.200          28.400
  21059161.742    21059161.252    21059158.164   -21414592.904 6 -16686687.583 7
        40.800          42.600
  25038248.878    25038247.104    25038248.882     1475824.850     1149998.922 1
         3.000          11.000
 09  1  2  0 39  0.0000000  0 11G21G26G 9G15G14G 6G 3G18G19G22G24
  21238866.496    21238865.658    21238863.775   -22759238.214 6 -17734462.007 5
        38.300          35.900
  24125093.903    24125094.449    24125092.687     -955461.747 2   -744506.206 2
        13.900          17.000
  22713734.549    22713733.814    22713733.597   -12021494.984 4  -9367394.075 4
        24.600          28.100
  22727592.229    22727592.245    22727590.588   -11191714.109 5  -8720805.861 5
        31.300          33.200
  24441093.265    24441092.110    24441093.717    -4359581.704 2  -3397075.465 3
        13.900          18.600
  22530680.016    22530679.467    22530679.002   -11179215.247 5  -8711072.824 5
        30.200          31.100
  22548568.339    22548567.534    22548567.253   -10603306.533 4  -8262311.685 4
        29.900          29.500
  20415020.027    20415019.226    20415016.634   -25702434.461 6 -20027861.640 7
        38.000          46.300
  23300446.695    23300445.247    23300443.265    -9022681.227 4  -7030657.135 4
        27.100          28.400
  21048708.630    21048708.059    21048705.065   -21469524.976 6 -16729491.788 7
        40.700          42.800
  25058807.784    25058806.420    25058806.231     1583858.065     1234180.606 1
         3.000          11.000
 09  1  2  0 39 30.0000000  0 11G21G26G 9G15G14G 6G 3G18G19G22G24
  21252143.236    21252142.554    21252140.949   -22689466.007 6 -17680094.060 5
        38.000          35.800
  24147961.199    24147960.580    24147959.197     -835299.195 2   -650873.085 2
        12.600          17.800
  22696811.986    22696811.489    22696811.305   -12110422.193 4  -9436687.977 4
        24.900          28.400
  22743962.025    22743961.807    22743959.839   -11105691.977 5  -8653775.620 5
        31.300          32.800
  24419590.218    24419589.989    24419590.650    -4472577.994 2  -3485124.448 3
        13.900          19.300
  22538392.260    22538391.844    22538391.383   -11138687.029 5  -8679492.399 5
        30.200          31.500
  22555013.742    22555012.899    22555012.537   -10569436.080 4  -8235919.126 4
        29.900          29.500
  20415912.830    20415911.981    20415910.845   -25697743.315 6 -20024206.201 7
        38.100          46.500
  23291273.335    23291271.746    23291269.852    -9070888.583 4  -7068221.302 4
        27.100          28.800
  21038317.017    21038316.502    21038313.337   -21524133.238 6 -16772043.668 7
        40.800          42.700
  25079375.260    25079374.731    25079376.849     1691950.001     1318408.061 1
                         9.000
 09  1  2  0 40  0.0000000  0 11G21G26G 9G15G14G 6G 3G18G19G22G24
  21265503.981    21265503.062    21265501.500   -22619256.723 6 -17625385.537 5
        38.100          35.800
  24170860.393    24170859.380    24170857.542     -714967.504 2   -557108.167 2
        13.900          17.000
  22679974.819    22679974.117    22679973.851   -12198903.869 4  -9505634.711 4
        25.600          28.600
  22760392.282    22760392.144    22760390.322   -11019349.123 5  -8586495.471 5
        30.800          32.700
  24398110.730    24398110.102    24398110.520    -4585456.402 2  -3573081.584 3
        16.100          19.300
  22546202.760    22546202.110    22546201.879   -11097643.124 5  -8647510.135 5
        30.400          31.600
  22561567.227    22561566.253    22561566.402   -10534996.034 4  -8209082.739 4
        29.000          29.700
  20416880.950    20416880.040    20416877.527   -25692656.115 6 -20020242.152 7
        38.100          46.500
  23282200.473    23282198.805    23282197.474    -9118564.770 4  -7105371.530 4
        26.800          29.500
  21027988.087    21027987.692    21027984.548   -21578411.079 6 -16814338.085 7
        41.000          42.700
  25099956.803    25099957.022    25099958.785     1800105.313     1402684.859 1
                         6.500
 09  1  2  0 40 30.0000000  0 11G21G26G 9G15G14G 6G 3G18G19G22G24
  21278947.588    21278946.749    21278945.020   -22548610.331 6 -17570336.406 5
        38.100          35.600
  24193789.923    24193789.306    24193788.076     -594468.166 2   -463212.585 2
        13.900          16.100
  22663222.821    22663222.103    22663222.005   -12286935.338 4  -9574230.645 4
        25.600          29.000
  22776883.398    22776883.167    22776881.717   -10932686.924 5  -8518966.488 5
        30.400          33.100
  24376653.955    24376652.804    24376652.912    -4698213.787 2  -3660944.419 3
        16.100          19.300
  22554111.176    22554110.651    22554110.535   -11056083.499 5  -8615126.013 5
        30.200          31.600
  22568229.859    22568228.910    22568228.773   -10499986.103 4  -8181802.270 4
        29.000          29.900
  20417924.333    20417923.482    20417922.328   -25687172.179 6 -20015968.950 7
        38.100          46.300
  23273229.888    23273228.252    23273226.766    -9165706.717 4  -7142105.507 4
        27.900          29.900
  21017722.728    21017722.214    21017719.144   -21632356.287 6 -16856373.309 7
        40.900          42.800
  25120553.189    25120547.887    25120550.641     1908323.753     1487010.906 1
                         6.500
 09  1  2  0 41  0.0000000  0 10G21G22G26G 9G15G14G 6G 3G18G19
  21292472.473    21292471.615    21292469.922   -22477536.120 6 -17514953.915 5
        37.800          35.400
  21007519.400    21007518.930    21007515.754   -21685975.585 6 -16898154.575 7
        41.100          42.900
  24216749.370    24216748.759    24216748.330     -473811.548 1   -369194.434 2
        11.000          16.100
  22646555.656    22646554.792    22646555.039   -12374520.964 4  -9642479.153 4
        25.600          29.000
  22793433.462    22793433.399    22793431.973   -10845714.779 5  -8451195.980 5
        30.200          33.000
  24355219.198    24355218.907    24355217.995    -4810855.520 2  -3748717.124 3
        16.100          19.300
  22562116.082    22562115.440    22562115.004   -11014017.546 5  -8582347.355 5
        30.100          31.100
  22574998.042    22574997.291    22574997.248   -10464415.655 4  -8154085.048 4
        28.800          29.500
  20419042.121    20419041.302    20419038.738   -25681298.536 6 -20011392.080 7
        38.100          46.500
  23264359.652    23264358.250    23264356.487    -9212320.304 4  -7178427.778 5
        28.100          30.200
 09  1  2  0 41 30.0000000  0 10G21G22G26G 9G15G14G 6G 3G18G19
  21306077.080    21306076.339    21306074.565   -22406043.524 6 -17459245.403 5
        38.000          35.200
  20997376.732    20997376.186    20997372.886   -21739276.295 6 -16939687.593 7
        41.100          43.000
  24239737.319    24239736.389    24239736.373     -353008.980 1   -275062.571 2
        11.000          16.100
  22629973.185    22629972.319    22629971.986   -12461665.449 4  -9710383.930 4
        26.500          29.000
  22810040.887    22810040.645    22810039.151   -10758443.657 5  -8383192.506 5
        30.200          33.000
  24333805.666    24333804.820    24333804.053    -4923388.047 2  -3836404.745 3
        15.100          19.300
  22570215.347    22570214.816    22570214.600   -10971455.345 4  -8549182.006 5
        29.900          31.300
  22581871.593    22581870.984    22581870.925   -10428294.540 4  -8125938.722 4
        28.800          29.500
  20420232.296    20420231.476    20420230.188   -25675044.104 6 -20006518.487 7
        38.100          46.500
  23255588.984    23255587.280    23255585.427    -9258412.322 4  -7214343.628 4
        27.600          29.900
 09  1  2  0 42  0.0000000  0 10G21G26G 9G15G14G 6G 3G18G19G22
  21319764.492    21319763.774    21319762.087   -22334114.704 6 -17403196.974 5
        37.600          35.100
  24262756.426    24262756.268    24262755.505     -232044.057 2   -180804.170 2
        12.600          16.100
  22613477.688    22613477.089    22613477.253   -12548346.481 4  -9777927.562 4
        26.200          29.500
  22826708.062    22826707.793    22826706.547   -10670857.151 5  -8314943.277 5
        30.400          33.000
  24312415.655    24312414.468    24312413.822    -5035790.381 2  -3923990.896 3
        15.100          18.600
  22578412.959    22578412.249    22578411.806   -10928379.324 5  -8515616.280 5
        30.400          31.500
  22588853.580    22588852.728    22588852.877   -10391605.225 4  -8097349.646 4
        28.800          29.900
  20421498.522    20421497.755    20421495.189   -25668389.851 6 -20001333.351 7
        38.300          46.600
  23246921.281    23246919.673    23246917.232    -9303962.034 4  -7249836.894 4
        28.400          29.700
  20987297.891    20987297.439    20987294.447   -21792238.917 6 -16980957.165 7
        40.700          43.100
 09  1  2  0 42 30.0000000  0 10G21G26G 9G15G14G 6G 3G18G19G22
  21333534.070    21333533.299    21333531.661   -22261756.010 6 -17346813.582 5
        37.600          35.100
  24285804.456    24285803.553    24285803.658     -110924.670 1    -86425.436 2
         9.000          17.000
  22597071.038    22597070.448    22597070.064   -12634565.631 4  -9845111.281 4
        26.500          29.500
  22843433.998    22843433.802    22843432.083   -10582962.286 5  -8246453.777 5
        30.200          32.300
  24291049.940    24291048.710    24291049.474    -5148065.428 2  -4011477.871 3
        13.900          19.900
  22586706.274    22586705.563    22586705.469   -10884796.265 5  -8481655.457 5
        30.100          31.500
  22595942.072    22595941.295    22595941.262   -10354354.427 4  -8068323.055 4
        28.400          29.900
  20422839.970    20422839.192    20422838.035   -25661340.418 6 -19995840.275 7
        38.300          46.600
  23238355.872    23238354.261    23238352.088    -9348972.820 4  -7284910.225 5
        29.000          30.100
  20977283.054    20977282.558    20977279.564   -21844867.485 6 -17021966.430 7
        40.800          43.100
 09  1  2  0 43  0.0000000  0 10G21G26G 9G15G14G 6G 3G18G19G22
  21347385.920    21347385.098    21347383.366   -22188964.364 6 -17290092.828 5
        37.600          34.800
  24308881.965    24308881.046    24308881.435       10351.111 1      8075.144 2
         9.000          17.800
  22580753.668    22580752.994    22580752.424   -12720314.635 4  -9911928.656 4
        25.900          29.000
  22860218.795    22860218.587    22860217.054   -10494756.713 4  -8177722.158 5
        29.700          32.000
  24269709.992    24269708.656    24269709.208    -5260206.619 2  -4098860.541 3
        12.600          19.300
  22595096.983    22595096.484    22595096.104   -10840703.270 5  -8447297.279 5
        30.100          31.300
  22603138.476    22603137.556    22603137.631   -10316539.322 4  -8038856.751 5
        28.600          30.200
  20424257.535    20424256.650    20424254.267   -25653891.630 6 -19990036.019 7
        38.400          46.900
  23229894.413    23229892.679    23229890.799    -9393438.631 4  -7319558.891 5
        28.800          30.400
  20967332.930    20967332.440    20967329.381   -21897156.390 6 -17062711.021 7
        41.000          43.200
 09  1  2  0 43 30.0000000  0 10G21G26G 9G15G14G 6G 3G18G19G22
  21361320.190    21361319.320    21361317.349   -22115740.300 6 -17233035.128 5
        37.500          34.500
  24331989.012    24331988.114    24331988.477      131781.066 1    102695.856 3
         9.000          19.900
  22564526.573    22564526.087    22564525.061   -12805589.287 4  -9978376.412 4
        27.400          28.600
  22877062.557    22877062.326    22877060.630   -10406242.058 4  -8108749.700 5
        29.000          31.500
  24248396.388    24248395.789    24248394.731    -5372211.272 2  -4186136.857 2
        13.900          17.800
  22603584.156    22603583.393    22603583.380   -10796101.241 4  -8412542.459 5
        29.200          31.000
  22610441.865    22610440.869    22610440.681   -10278160.724 4  -8008951.344 5
        28.600          30.100
  20425750.964    20425750.183    20425749.001   -25646042.848 6 -19983920.081 7
        38.400          46.700
  23221536.814    23221535.049    23221533.413    -9437357.182 4  -7353781.128 5
        28.400          30.600
  20957447.593    20957447.087    20957444.069   -21949104.014 6 -17103189.681 7
        41.000          43.300
 09  1  2  0 44  0.0000000  0 11G21G26G 9G15G14G 6G 3G18G24G19G22
  21375333.812    21375332.942    21375330.991   -22042098.294 6 -17175651.753 5
        37.500          34.100
  24355123.022    24355121.786    24355121.907      253349.237 1    197424.250 3
         9.000          19.900
  22548387.558    22548386.739    22548386.286   -12890399.411 4 -10044462.200 4
        26.800          28.800
  22893962.089    22893961.870    22893960.262   -10317434.033 4  -8039548.641 5
        28.800          31.600
  24227105.726    24227104.300    24227104.995    -5484090.412 2  -4273315.342 2
        12.600          17.800
  22612165.792    22612165.105    22612164.848   -10751005.234 4  -8377402.706 5
        29.700          31.000
  22617849.156    22617848.448    22617848.113   -10239233.197 4  -7978618.212 4
        29.000          29.500
  20427318.040    20427317.255    20427314.931   -25637807.354 6 -19977502.807 7
        38.300          46.600
  25264995.125    25264994.831    25264994.465           -.5891          -.2141

  23213281.110    23213279.413    23213277.785    -9480740.050 4  -7387585.954 5
        28.600          30.400
  20947624.788    20947624.342    20947621.281   -22000722.952 6 -17143412.222 7
        41.000          43.400
 09  1  2  0 44 30.0000000  0 10G21G26G 9G15G14G 6G 3G18G19G22
  21389424.906    21389424.160    21389422.262   -21968047.621 6 -17117949.934 5
        37.200          34.100
  24378281.411    24378280.958    24378279.977      375045.033 1    292252.103 3
        11.000          19.900
  22532336.115    22532335.488    22532335.240   -12974749.434 4 -10110189.457 4
        26.500          29.200
  22910915.931    22910915.570    22910913.951   -10228342.763 4  -7970126.866 5
        29.000          32.000
  24205838.416    24205838.251    24205837.571    -5595849.948 1  -4360400.627 2
        11.000          16.100
  22620839.545    22620838.700    22620838.734   -10705424.748 4  -8341885.452 5
        29.200          31.000
  22625359.391    22625358.565    22625358.269   -10199767.135 4  -7947865.424 4
        28.800          29.200
  20428957.425    20428956.614    20428955.457   -25629193.035 6 -19970790.347 7
        38.400          46.800
  23205126.129    23205124.567    23205122.865    -9523593.536 4  -7420978.268 5
        28.400          30.200
  20937863.230    20937862.787    20937859.763   -22052020.223 6 -17183384.113 7
        41.000          43.500
 09  1  2  0 45  0.0000000  0 10G21G26G 9G15G14G 6G 3G18G19G22
  21403596.206    21403595.350    21403593.625   -21893577.009 6 -17059920.893 5
        37.000          33.900
  24401465.858    24401465.363    24401463.835      496878.695 2    387187.409 3
        15.100          19.900
  22516375.557    22516375.159    22516374.396   -13058623.140 4 -10175545.554 4
        27.400          29.700
  22927925.024    22927924.868    22927923.193   -10138957.844 4  -7900476.279 5
        28.400          32.100
  24184596.813    24184596.475    24184596.183    -5707475.236 2  -4447381.291 2
        12.600          16.100
  22629607.308    22629606.660    22629606.364   -10659348.753 4  -8305982.080 5
        29.000          30.600
  22632973.832    22632973.141    22632973.023   -10159750.668 4  -7916683.762 4
        28.400          29.000
  20430671.085    20430670.271    20430667.964   -25620187.337 6 -19963772.920 7
        38.300          46.800
  23197075.020    23197073.222    23197071.779    -9565903.593 4  -7453947.130 5
        28.100          30.400
  20928165.575    20928165.039    20928161.992   -22102982.037 6 -17223094.607 7
        40.900          43.600
 09  1  2  0 45 30.0000000  0 10G21G26G 9G15G14G 6G 3G18G19G22
  21417849.404    21417848.694    21417846.830   -21818675.789 6 -17001556.315 5
        37.200          33.900
  24424677.797    24424677.825    24424676.328      618859.179 2    482237.130 3
        15.100          19.900
  22500508.363    22500507.769    22500507.184   -13142005.778 4 -10240519.009 4
        27.600          29.500
  22944991.902    22944991.764    22944990.256   -10049270.153 4  -7830589.775 5
        28.400          32.000
  24163384.909    24163383.421    24163382.393    -5818952.399 2  -4534246.540 2
        13.900          15.100
  22638471.456    22638471.062    22638470.588   -10612767.467 4  -8269684.980 5
        29.500          30.600
  22640695.736    22640694.978    22640694.587   -10119173.932 4  -7885065.522 4
        28.800          29.000
  20432461.554    20432460.752    20432459.646   -25610778.453 6 -19956441.315 7
        38.400          46.900
  23189130.129    23189128.359    23189126.407    -9607656.724 4  -7486482.029 5
        28.400          30.400
  20918534.040    20918533.526    20918530.417   -22153595.914 6 -17262533.986 7
        40.900          43.600
 09  1  2  0 46  0.0000000  0 10G21G26G 9G15G14G 6G 3G18G19G22
  21432182.481    21432181.498    21432179.665   -21743356.704 6 -16942866.126 5
        37.000          33.800
  24447915.009    24447914.134    24447913.800      740972.317 2    577390.177 3
        15.100          19.300
  22484733.323    22484732.439    22484731.953   -13224904.799 4 -10305115.615 4
        27.900          29.700
  22962114.472    22962114.083    22962112.318    -9959292.942 4  -7760477.664 5
        28.600          31.500
  24142196.929    24142196.229    24142195.532    -5930290.593 2  -4621003.520 2
        13.900          16.100
  22647429.161    22647428.657    22647428.721   -10565693.871 4  -8233004.247 5
        29.200          31.100
  22648521.449    22648520.653    22648520.279   -10078050.397 4  -7853021.215 4
        29.000          29.200
  20434326.595    20434325.835    20434323.491   -25600977.596 6 -19948804.281 7
        38.400          47.000
  23181288.149    23181286.441    23181284.889    -9648862.920 4  -7518590.755 5
        27.600          30.100
  20908966.493    20908966.066    20908963.055   -22203872.898 6 -17301710.851 7
        40.900          43.700
 09  1  2  0 46 30.0000000  0 10G21G26G 9G15G14G 6G 3G18G19G22
  21446594.661    21446593.863    21446591.894   -21667619.632 6 -16883850.230 5
        37.000          33.500
  24471176.984    24471176.214    24471176.271      863217.186 2    672645.889 2
        12.600          17.000
  22469050.991    22469050.298    22469049.753   -13307315.208 4 -10369331.482 4
        28.100          29.700
  22979291.166    22979291.040    22979289.392    -9869026.765 4  -7690140.379 5
        28.600          30.800
  24121037.077    24121036.198    24121036.621    -6041486.363 2  -4707649.539 2
        16.100          16.100
  22656480.642    22656479.983    22656479.963   -10518127.971 4  -8195939.911 5
        28.800          31.000
  22656450.897    22656450.125    22656449.701   -10036379.668 4  -7820550.512 4
        28.600          29.000
  20436266.465    20436265.648    20436264.552   -25590783.445 6 -19940860.783 7
        38.500          47.000
  23173551.714    23173549.958    23173548.231    -9689518.813 4  -7550270.663 5
        27.900          30.200
  20899463.915    20899463.426    20899460.479   -22253809.715 6 -17340622.649 7
        40.900          43.900
 09  1  2  0 47  0.0000000  0 10G21G26G 9G15G14G 6G 3G18G19G22
  21461084.566    21461083.836    21461082.035   -21591473.539 6 -16824515.622 5
        36.500          33.400
  24494461.811    24494462.174    24494462.233      985583.624 1    767996.345 2
        11.000          15.100
  22453460.753    22453459.980    22453459.419   -13389241.380 4 -10433170.038 4
        27.400          29.200
  22996521.609    22996521.371    22996519.753    -9778481.994 4  -7619586.002 5
        29.500          31.000
  24099903.767    24099903.054    24099902.806    -6152545.065 2  -4794188.743 2
        16.100          16.100
  22665624.183    22665623.519    22665623.487   -10470079.239 4  -8158499.348 5
        28.600          30.600
  22664482.726    22664481.992    22664481.710    -9994171.748 4  -7787661.228 4
        28.400          28.800
  20438279.733    20438278.932    20438276.639   -25580203.725 6 -19932616.846 7
        38.600          47.100
  23165918.889    23165917.222    23165915.374    -9729630.607 4  -7581526.604 4
        28.400          29.900
  20890024.565    20890024.102    20890021.229   -22303413.621 6 -17379275.032 7
        40.900          44.100
 09  1  2  0 47 30.0000000  0 10G21G26G 9G15G14G 6G 3G18G19G22
  21475653.899    21475653.159    21475651.324   -21514911.466 6 -16764856.877 5
        36.500          33.400
  24517770.579    24517770.860    24517772.003     1108077.164 1    863445.835 2
         6.500          12.600
  22437964.999    22437964.395    22437963.983   -13470671.350 4 -10496621.935 4
        27.400          29.200
  23013806.133    23013805.797    23013803.935    -9687652.376 4  -7548809.665 5
        29.500          31.100
  24078798.029    24078796.764    24078796.651    -6263456.342 2  -4880613.087 2
        16.100          15.100
  22674860.554    22674859.957    22674859.770   -10421540.961 4  -8120677.303 5
        28.600          30.200
  22672618.643    22672617.619    22672617.423    -9951419.242 4  -7754347.586 4
        28.800          29.000
  20440367.992    20440367.166    20440365.996   -25569230.118 6 -19924065.980 7
        38.500          47.200
  23158391.483    23158389.773    23158387.739    -9769188.492 4  -7612350.913 4
        29.200          29.700
  20880650.615    20880650.080    20880647.010   -22352674.955 6 -17417660.483 7
        41.000          44.100
 09  1  2  0 48  0.0000000  0 10G21G26G 9G15G14G 6G 3G18G19G22
  21490302.090    21490301.152    21490299.381   -21437935.211 6 -16704875.384 5
        36.200          33.200
  24541104.308    24541104.383    24541103.964     1230694.760      958991.999 1
         3.000           9.000
  22422564.850    22422564.119    22422563.447   -13551602.091 4 -10559684.830 4
        28.600          29.700
  23031144.129    23031144.042    23031141.990    -9596540.176 4  -7477813.154 5
        28.600          31.100
  24057719.819    24057719.282    24057719.829    -6374218.552 2  -4966921.269 2
        17.000          17.000
  22684189.840    22684189.306    22684189.184   -10372515.685 4  -8082475.792 5
        28.400          30.200
  22680857.204    22680856.328    22680855.945    -9908125.079 4  -7720611.872 4
        29.000          29.500
  20442530.974    20442530.193    20442528.011   -25557862.892 6 -19915208.403 7
        38.600          47.000
  23150968.721    23150967.555    23150965.531    -9808191.693 4  -7642743.015 4
        29.000          29.000
  20871341.597    20871341.093    20871337.967   -22401593.607 6 -17455778.909 7
        40.900          44.000
 09  1  2  0 48 30.0000000  0 10G21G26G 9G15G14G 6G 3G18G19G22
  21505028.211    21505027.366    21505025.595   -21360548.596 6 -16644574.142 5
        36.200          33.100
  24564461.759    24564461.380    24564460.718     1353431.384     1054630.919 1
         3.000           6.500
  22407258.989    22407258.422    22407257.974   -13632033.053 4 -10622358.283 5
        28.600          30.100
  23048535.284    23048534.814    23048533.017    -9505150.459 4  -7406600.386 5
        28.100          31.100
  24036671.020    24036670.447    24036670.405    -6484832.070 2  -5053113.590 2
        17.000          17.000
  22693611.082    22693610.420    22693610.141   -10323007.660 4  -8043898.113 5
        28.400          30.200
  22689197.619    22689196.782    22689197.055    -9864293.122 4  -7686457.102 4
        28.400          29.500
  20444768.548    20444767.726    20444766.618   -25546104.811 6 -19906046.260 7
        38.600          47.200
  23143651.845    23143650.568    23143648.693    -9846641.119 4  -7672703.599 4
        28.600          28.800
  20862097.507    20862097.046    20862094.027   -22450171.274 6 -17493631.630 7
        41.000          44.200
 09  1  2  0 49  0.0000000  0 10G21G26G 9G15G14G 6G 3G18G19G22
  21519831.199    21519830.348    21519828.319   -21282759.310 6 -16583959.124 5
        36.300          32.700
  24587839.611    24587838.164    24587838.694     1476278.329     1150355.828 1
         3.000           6.500
  22392048.070    22392047.585    22392047.063   -13711966.925 4 -10684644.390 5
        28.800          30.200
  23065976.709    23065976.588    23065975.132    -9413491.822 4  -7335178.075 5
        27.600          31.000
  24015650.195    24015649.354    24015647.935    -6595301.036 2  -5139193.283 2
        17.000          17.800
  22703122.128    22703121.598    22703121.610   -10273024.646 4  -8004950.307 5
        27.900          30.200
  22697640.172    22697639.204    22697638.592    -9819931.240 4  -7651889.404 4
        28.600          29.200
  20447079.301    20447078.514    20447076.256   -25533961.890 6 -19896584.246 7
        38.700          47.400
  23136440.332    23136438.830    23136436.599    -9884541.128 4  -7702236.060 4
        28.800          29.000
  20852917.641    20852917.079    20852913.999   -22498412.685 6 -17531222.336 7
        41.000          44.300
 09  1  2  0 49 30.0000000  0 10G21G26G 9G15G14G 6G 3G18G19G22
  21534711.417    21534710.630    21534708.826   -21204561.857 6 -16523026.066 5
        36.000          32.800
  24611239.674    24611238.186    24611237.472     1599239.982     1246170.089 1
         3.000           9.000
  22376933.842    22376933.001    22376932.630   -13791393.503 4 -10746535.208 5
        28.100          30.400
  23083470.826    23083470.528    23083468.978    -9321559.386 4  -7263542.408 5
        27.600          30.600
  23994657.968    23994656.863    23994655.436    -6705616.679 2  -5225153.463 3
        17.800          18.600
  22712724.925    22712724.355    22712724.463   -10222561.764 4  -7965628.583 5
        28.400          30.100
  22706183.196    22706182.382    22706182.243    -9775034.715 4  -7616905.106 4
        28.100          29.700
  20449464.536    20449463.731    20449462.506   -25521427.628 6 -19886817.287 7
        38.800          47.500
  23129334.204    23129332.607    23129330.183    -9921883.906 4  -7731334.322 4
        29.200          28.800
  20843802.883    20843802.381    20843799.301   -22546310.505 6 -17568545.305 7
        41.000          44.400
 09  1  2  0 50  0.0000000  0 10G21G26G 9G15G14G 6G 3G18G19G22
  21549669.296    21549668.528    21549666.787   -21125957.879 5 -16461776.226 5
        35.900          32.800
  24634660.948    24634659.378    24634658.528     1722313.471 1   1342071.485 1
         6.500           6.500
  22361916.472    22361915.883    22361915.288   -13870309.165 4 -10808027.905 5
        27.900          30.200
  23101016.647    23101016.454    23101014.723    -9229355.358 4  -7191695.118 5
        27.600          30.200
  23973695.252    23973694.466    23973692.565    -6815776.852 3  -5310992.529 3
        18.600          19.300
  22722418.811    22722418.359    22722417.957   -10171620.828 4  -7925934.345 5
        28.400          30.100
  22714828.121    22714827.338    22714827.505    -9729605.106 4  -7581505.411 4
        28.100          29.500
  20451924.133    20451923.336    20451921.184   -25508501.646 6 -19876745.092 7
        38.700          47.400
  23122334.412    23122332.773    23122330.901    -9958667.803 4  -7759997.095 4
        29.500          29.200
  20834753.859    20834753.332    20834750.188   -22593864.004 6 -17605599.977 7
        41.200          44.500
 09  1  2  0 50 30.0000000  0 10G21G26G 9G15G14G 6G 3G18G19G22
  21564704.501    21564703.670    21564701.755   -21046947.669 5 -16400209.832 5
        35.700          32.600
  24658101.491    24658100.030    24658099.538     1845497.265 1   1438058.837 1
         9.000           6.500
  22346996.986    22346996.214    22346996.363   -13948709.940 4 -10869119.402 5
        27.600          30.400
  23118614.059    23118613.892    23118611.592    -9136881.455 4  -7119637.523 4
        28.100          29.900
  23952762.421    23952761.686    23952760.377    -6925778.777 2  -5396708.275 3
        17.800          19.900
  22732203.460    22732202.915    22732202.582   -10120203.083 4  -7885868.567 5
        28.600          30.200
  22723574.268    22723573.284    22723573.574    -9683643.964 4  -7545691.536 4
        27.600          29.500
  20454458.559    20454457.768    20454456.654   -25495183.539 6 -19866367.339 7
        38.800          47.500
  23115441.140    23115439.572    23115437.660    -9994891.098 4  -7788223.037 4
        29.000          29.200
  20825770.505    20825770.013    20825767.028   -22641071.389 6 -17642384.947 7
        41.100          44.800
 09  1  2  0 51  0.0000000  0 10G21G26G 9G15G14G 6G 3G18G19G22
  21579815.971    21579815.149    21579813.642   -20967535.671 5 -16338330.362 5
        35.500          32.600
  24681561.802    24681560.774    24681561.624     1968785.684 1   1534127.738 1
         9.000           6.500
  22332175.845    22332175.400    22332175.178   -14026595.519 4 -10929809.439 5
        28.100          30.600
  23136261.802    23136261.293    23136259.199    -9044142.956 4  -7047373.748 4
        28.100          29.700
  23931859.523    23931858.170    23931857.557    -7035623.440 2  -5482301.454 3
        16.100          20.500
  22742077.853    22742077.106    22742076.822   -10068313.450 4  -7845435.089 5
        28.400          30.200
  22732420.594    22732419.750    22732419.753    -9637156.309 4  -7509467.399 4
        27.900          28.800
  20457066.886    20457066.114    20457063.955   -25481476.682 6 -19855686.666 7
        38.900          47.500
  23108654.284    23108652.727    23108651.256   -10030555.323 4  -7816013.338 4
        28.800          29.700
  20816852.679    20816852.181    20816849.220   -22687934.801 6 -17678901.888 7
        41.100          44.800
 09  1  2  0 51 30.0000000  0 10G21G26G 9G15G14G 6G 3G18G19G22
  21595004.038    21595003.167    21595001.235   -20887723.078 5 -16276138.740 5
        35.400          32.400
  24705041.841    24705040.539    24705041.178     2092176.679 1   1630276.553 1
         6.500           9.000
  22317453.861    22317453.108    22317452.562   -14103962.183 4 -10990095.130 5
        28.600          30.400
  23153958.515    23153958.565    23153956.888    -8951141.621 4  -6974905.171 4
        27.100          29.700
  23910986.899    23910986.045    23910984.952    -7145308.386 2  -5567770.191 3
        15.100          19.900
  22752041.474    22752040.754    22752040.807   -10015953.287 4  -7804634.966 5
        27.900          30.600
  22741366.788    22741365.851    22741365.694    -9590143.161 4  -7472833.774 4
        28.100          28.600
  20459749.325    20459748.524    20459747.286   -25467380.517 6 -19844702.633 7
        38.900          47.500
  23101974.880    23101973.188    23101971.413   -10065658.537 4  -7843366.489 4
        29.500          29.700
  20808000.674    20808000.098    20807997.110   -22734452.616 6 -17715149.532 7
        41.100          44.900
 09  1  2  0 52  0.0000000  0 10G21G26G 9G15G14G 6G 3G18G19G22
  21610267.663    21610267.025    21610265.338   -20807510.679 5 -16213635.575 5
        35.400          32.600
  24728540.792    24728539.449    24728540.888     2215668.314 1   1726503.776 1
         6.500           9.000
  22302830.901    22302830.317    22302829.956   -14180805.701 4 -11049973.173 5
        28.800          30.600
  23171706.057    23171706.084    23171704.463    -8857878.780 4  -6902232.832 4
        26.800          29.900
  23890145.300    23890143.605    23890143.651    -7254830.392 2  -5653111.963 3
        15.100          20.500
  22762094.837    22762094.126    22762093.901    -9963123.733 4  -7763469.078 5
        28.400          30.400
  22750412.936    22750412.153    22750411.839    -9542605.558 4  -7435791.482 4
        28.400          28.600
  20462505.924    20462505.113    20462502.929   -25452894.490 6 -19833414.817 7
        38.900          47.600
  23095402.304    23095400.623    23095398.393   -10100198.531 4  -7870280.767 4
        29.700          29.200
  20799214.579    20799214.052    20799211.041   -22780623.851 6 -17751127.115 7
        41.200          45.100
 09  1  2  0 52 30.0000000  0 10G21G26G 9G15G14G 6G 3G18G19G22
  21625607.671    21625606.886    21625605.223   -20726899.237 5 -16150821.480 5
        35.200          32.400
  24752058.614    24752056.949    24752058.089     2339259.031     1822808.206 1
         3.000          11.000
  22288308.364    22288307.535    22288307.125   -14257122.353 4 -11109440.678 5
        29.000          30.200
  23189502.922    23189502.867    23189501.519    -8764356.112 4  -6829358.033 5
        27.100          30.200
  23869335.248    23869334.508    23869334.275    -7364187.003 2  -5738324.848 3
        16.100          22.100
  22772236.690    22772236.156    22772236.014    -9909826.106 4  -7721938.462 5
        28.100          30.200
  22759558.822    22759557.917    22759557.647    -9494544.966 4  -7398341.684 4
        27.600          28.800
  20465336.814    20465335.941    20465334.841   -25438017.812 6 -19821822.595 7
        38.800          47.600
  23088936.897    23088935.302    23088933.390   -10134173.475 4  -7896754.745 4
        29.000          29.500
  20790494.767    20790494.238    20790491.207   -22826446.653 6 -17786833.189 7
        41.300          45.100
 09  1  2  0 53  0.0000000  0 10G21G26G 9G15G14G 6G 3G18G19G22
  21641024.208    21641023.333    21641021.420   -20645885.711 5 -16087694.074 5
        35.200          32.000
  24775595.296    24775595.547    24775596.336     2462950.878 1   1919191.433 2
         6.500          12.600
  22273887.732    22273887.006    22273886.127   -14332904.182 4 -11168491.443 5
        29.200          30.100
  23207349.775    23207349.677    23207348.089    -8670571.164 4  -6756278.850 5
        27.400          30.600
  23848557.743    23848557.099    23848556.838    -7473371.680 2  -5823403.775 3
        17.800          21.600
  22782468.752    22782468.034    22782467.873    -9856057.736 4  -7680041.042 5
        27.900          30.200
  22768804.471    22768803.616    22768803.332    -9445958.977 4  -7360482.468 4
        27.900          28.800
  20468242.930    20468242.093    20468240.022   -25422745.960 6 -19809922.448 7
        38.900          47.700
  23082580.339    23082578.747    23082576.540   -10167577.643 4  -7922783.966 5
        29.500          30.100
  20781842.350    20781841.868    20781838.753   -22871915.615 6 -17822263.547 7
        41.400          45.200
 09  1  2  0 53 30.0000000  0 10G21G26G 9G15G14G 6G 3G18G19G22
  21656515.390    21656514.556    21656512.790   -20564478.470 5 -16024259.867 5
        34.900          32.100
  24799150.716    24799151.843    24799151.974     2586734.525 1   2015646.188 2
         6.500          12.600
  22259567.974    22259567.270    22259566.537   -14408154.598 4 -11227128.106 5
        29.200          30.600
  23225245.211    23225244.960    23225243.081    -8576533.143 4  -6683002.475 5
        27.600          30.600
  23827812.589    23827811.610    23827811.702    -7582389.263 2  -5908352.491 3
        17.800          21.600
  22792787.942    22792787.469    22792787.501    -9801827.367 4  -7637783.617 5
        27.600          30.100
  22778148.234    22778147.556    22778147.185    -9396856.250 4  -7322220.610 4
        28.100          28.800
  20471222.999    20471222.199    20471220.948   -25407085.755 6 -19797719.687 7
        38.900          47.700
  23076330.898    23076329.483    23076327.476   -10200416.624 4  -7948372.782 5
        29.000          30.100
  20773256.243    20773255.700    20773252.582   -22917036.148 6 -17857422.403 7
        41.500          45.300
 09  1  2  0 54  0.0000000  0 10G21G26G 9G15G14G 6G 3G18G19G22
  21672081.116    21672080.335    21672078.724   -20482679.546 5 -15960520.458 5
        34.800          32.100
  24822723.302    24822723.835    24822724.136     2710606.247 1   2112169.580 2
         6.500          13.900
  22245349.494    22245348.839    22245348.471   -14482871.420 4 -11285348.990 5
        28.800          30.600
  23243187.461    23243187.266    23243185.416    -8482245.028 4  -6609531.220 5
        27.400          30.100
  23807099.143    23807098.457    23807098.053    -7691238.399 2  -5993169.957 3
        17.800          21.600
  22803195.299    22803194.587    22803194.358    -9747138.120 4  -7595168.629 4
        27.100          29.900
  22787589.947    22787589.114    22787588.899    -9347239.738 4  -7283558.393 4
        27.600          29.000
  20474276.701    20474275.870    20474273.809   -25391038.422 6 -19785215.268 7
        39.000          47.800
  23070189.691    23070188.056    23070185.861   -10232690.114 4  -7973520.952 5
        29.700          30.100
  20764736.414    20764735.895    20764732.738   -22961808.030 6 -17892309.581 7
        41.500          45.400
 09  1  2  0 54 30.0000000  0 10G21G26G 9G15G14G 6G 3G18G19G22
  21687722.043    21687721.226    21687719.376   -20400487.133 5 -15896474.438 5
        34.900          31.800
  24846311.912    24846310.855    24846313.683     2834567.484 1   2208762.734 2
         6.500          13.900
  22231234.219    22231233.738    22231233.240   -14557047.963 4 -11343148.877 5
        29.500          31.100
  23261177.512    23261177.452    23261175.687    -8387705.509 4  -6535864.059 4
        26.800          29.700
  23786418.953    23786417.896    23786418.269    -7799913.606 2  -6077851.886 3
        17.800          21.100
  22813689.366    22813689.059    22813689.202    -9691988.331 4  -7552194.777 4
        26.800          29.900
  22797129.685    22797129.047    22797128.789    -9297107.811 4  -7244494.556 4
        27.400          29.000
  20477404.598    20477403.851    20477402.718   -25374600.469 6 -19772406.469 7
        38.900          47.700
  23064157.009    23064155.295    23064153.089   -10264393.453 5  -7998224.859 5
        30.600          30.400
  20756283.347    20756282.847    20756279.722   -23006228.708 6 -17926923.096 7
        41.500          45.500
 09  1  2  0 55  0.0000000  0 10G21G26G 9G15G14G 6G 3G18G19G22
  21703436.774    21703435.863    21703433.977   -20317906.071 5 -15832125.562 5
        34.500          31.500
  24869917.411    24869917.229    24869918.368     2958612.692 1   2305421.339 2
         6.500          13.900
  22217221.997    22217221.289    22217220.954   -14630684.057 4 -11400527.628 5
        29.500          32.000
  23279214.774    23279214.533    23279212.836    -8292920.132 4  -6462005.335 5
        26.200          30.100
  23765771.844    23765770.899    23765770.382    -7908415.787 3  -6162399.010 3
        18.600          21.100
  22824270.907    22824270.516    22824270.423    -9636383.032 4  -7508865.975 4
        27.400          29.200
  22806766.813    22806766.145    22806765.809    -9246465.238 4  -7205032.819 4
        27.400          29.000
  20480606.441    20480605.638    20480603.625   -25357775.208 6 -19759295.873 7
        39.000          47.800
  23058232.152    23058230.532    23058228.600   -10295528.277 5  -8022485.757 5
        30.800          31.000
  20747896.946    20747896.451    20747893.486   -23050299.330 6 -17961263.841 7
        41.500          45.600
 09  1  2  0 55 30.0000000  0 10G21G26G 9G15G14G 6G 3G18G19G22
  21719223.717    21719223.032    21719221.383   -20234943.512 5 -15767479.425 5
        34.500          31.800
  24893537.835    24893538.679    24893536.790     3082733.282     2402138.678 2
         3.000          12.600
  22203311.855    22203311.126    22203310.590   -14703782.192 4 -11457487.196 5
        29.500          31.600
  23297296.455    23297296.296    23297295.043    -8197896.746 4  -6387961.146 4
        25.300          29.500
  23745156.712    23745155.591    23745155.160    -8016748.842 3  -6246814.342 3
        18.600          21.100
  22834937.903    22834937.259    22834936.893    -9580330.194 4  -7465188.435 4
        27.600          29.000
  22816499.255    22816498.416    22816498.366    -9195320.378 4  -7165179.690 4
        27.400          29.000
  20483880.831    20483880.049    20483878.767   -25340568.357 6 -19745887.934 8
        39.100          48.000
  23052414.568    23052412.758    23052411.017   -10326099.561 5  -8046307.520 5
        30.400          31.000
  20739576.332    20739575.829    20739572.793   -23094024.863 6 -17995335.685 7
        41.500          45.700
 09  1  2  0 56  0.0000000  0 11G21G26G 9G15G14G 6G 3G18G28G19G22
  21735085.819    21735084.990    21735083.489   -20151587.666 5 -15702526.823 5
        34.100          31.800
  24917174.599    24917174.077    24917172.542     3206940.488     2498923.506 2
                        13.900
  22189507.376    22189506.544    22189505.948   -14776325.969 4 -11514014.804 5
        29.700          31.500
  23315426.040    23315426.166    23315424.998    -8102623.979 4  -6313722.630 4
        24.600          29.700
  23724575.951    23724575.189    23724575.017    -8124897.452 3  -6331085.946 3
        18.600          20.500
  22845692.049    22845691.402    22845690.920    -9523818.403 4  -7421153.272 4
        27.900          29.200
  22826329.359    22826328.560    22826328.608    -9143661.859 4  -7124926.301 4
        27.100          28.600
  20487230.297    20487229.474    20487227.440   -25322967.058 6 -19732172.634 8
        39.100          48.200
  25628975.114    25628973.133    25628971.429            .1311          -.1681
                         3.000
  23046707.352    23046705.458    23046703.368   -10356092.311 5  -8069678.490 5
        30.200          31.000
  20731324.016    20731323.513    20731320.403   -23137391.243 6 -18029127.666 7
        41.600          45.800
 09  1  2  0 56 30.0000000  0 11G21G26G 9G15G14G 6G 3G18G28G19G22
  21751020.095    21751019.344    21751017.826   -20067852.145 5 -15637278.382 5
        34.000          31.300
  24940824.543    24940824.211    24940821.754     3331219.618     2595764.390 2
                        12.600
  22175806.086    22175805.471    22175804.930   -14848324.171 4 -11570117.285 5
        29.900          31.500
  23333600.426    23333600.275    23333599.353    -8007116.654 4  -6239301.350 4
        24.600          29.700
  23704028.915    23704028.960    23704028.356    -8232871.558 2  -6415221.584 3
        17.800          21.100
  22856530.495    22856529.823    22856529.435    -9466861.918 4  -7376771.614 4
        27.600          29.500
  22836254.913    22836254.113    22836253.924    -9091503.731 4  -7084283.611 4
        27.400          28.400
  20490652.475    20490651.656    20490650.343   -25304983.284 6 -19718159.297 8
        39.100          48.100
  25623077.400    25623076.326    25623074.261      -30998.129      -24154.731
         3.000           3.000
  23041107.470    23041105.819    23041104.084   -10385517.819 5  -8092607.459 5
        30.200          31.300
  20723137.759    20723137.297    20723134.202   -23180410.014 6 -18062648.787 7
        41.700          45.900
 09  1  2  0 57  0.0000000  0 11G21G26G 9G15G14G 6G 3G18G28G19G22
  21767027.828    21767026.985    21767025.239   -19983733.131 5 -15571731.114 5
        34.300          31.300
  24964489.994    24964488.093    24964485.457     3455573.734     2692663.715 2
                        12.600
  22162210.712    22162210.155    22162209.441   -14919768.139 4 -11625787.894 5
        29.500          31.300
  23351820.476    23351820.232    23351818.808    -7911371.345 4  -6164694.615 4
        24.900          29.200
  23683517.224    23683517.057    23683516.143    -8340663.747 2  -6499215.486 3
        17.800          21.600
  22867453.692    22867453.214    22867453.112    -9409457.127 4  -7332040.613 4
        26.800          29.200
  22846275.962    22846275.001    22846275.007    -9038843.064 4  -7043249.323 4
        27.400          28.400
  20494148.191    20494147.470    20494145.625   -25286611.997 6 -19703844.002 7
        39.100          47.900
  25617267.907    25617264.697    25617268.819      -61521.343      -47939.083 1
                         6.500
  23035617.322    23035615.786    23035613.959   -10414369.735 5  -8115089.461 5
        31.100          31.300
  20715018.984    20715018.505    20715015.447   -23223074.236 6 -18095893.634 7
        41.700          45.900
 09  1  2  0 57 30.0000000  0 11G21G26G 9G15G14G 6G 3G18G28G19G22
  21783107.476    21783106.643    21783104.900   -19899233.938 5 -15505887.598 5
        33.900          31.100
  24988169.096    24988167.958    24988163.136     3579998.906     2789618.386 1
                        11.000
  22148721.091    22148720.551    22148720.023   -14990656.618 4 -11681025.644 5
        29.700          31.100
  23370084.360    23370084.697    23370083.188    -7815391.337 4  -6089905.000 4
        25.300          29.000
  23663039.851    23663039.174    23663038.538    -8448273.809 2  -6583067.444 3
        17.800          21.100
  22878462.175    22878461.549    22878461.532    -9351607.935 4  -7286963.329 4
        26.800          29.500
  22856391.825    22856390.937    22856390.505    -8985683.398 4  -7001826.207 4
        26.800          27.600
  20497717.819    20497717.009    20497715.649   -25267854.506 6 -19689227.770 8
        39.200          48.200
  25611551.682    25611549.418    25611548.536      -91570.019      -71354.627 1
                         6.500
  23030236.395    23030234.533    23030232.288   -10442648.217 5  -8137124.641 5
        31.100          31.000
  20706967.595    20706967.051    20706964.013   -23265384.748 6 -18128862.859 7
        41.500          46.000
 09  1  2  0 58  0.0000000  0 10G21G26G 9G15G14G 6G 3G18G19G22
  21799260.037    21799259.223    21799257.468   -19814351.504 5 -15439745.454 5
        33.500          31.000
  25011857.025    25011857.788    25011853.714     3704497.179     2886630.011 1
                        11.000
  22135338.933    22135338.264    22135337.351   -15060982.079 5 -11735824.687 5
        30.200          31.000
  23388393.843    23388394.371    23388392.656    -7719174.767 4  -6014931.053 4
        24.900          28.600
  23642598.265    23642597.281    23642597.352    -8555694.921 2  -6666772.175 3
        17.800          22.100
  22889555.233    22889554.764    22889554.852    -9293311.961 4  -7241537.910 4
        26.500          29.200
  22866603.523    22866602.555    22866602.222    -8932021.814 4  -6960011.984 4
        26.800          27.600
  20501361.454    20501360.663    20501358.753   -25248706.781 6 -19674307.461 8
        39.200          48.200
  23024965.214    23024963.446    23024961.360   -10470348.002 5  -8158708.879 5
        30.800          31.300
  20698984.514    20698984.000    20698980.886   -23307336.395 6 -18161552.450 7
        41.600          46.100
 09  1  2  0 58 30.0000000  0 10G21G26G 9G15G14G 6G 3G18G19G22
  21815483.152    21815482.188    21815480.327   -19729098.960 5 -15373314.921 5
        33.500          30.800
  25035557.144    25035558.111    25035554.802     3829055.021     2983688.008 1
                         9.000
  22122061.947    22122061.209    22122060.544   -15130752.287 5 -11790191.077 5
        30.100          31.500
  23406745.334    23406746.069    23406744.301    -7622735.360 4  -5939783.461 4
        24.900          27.900
  23622191.085    23622190.076    23622189.907    -8662936.385 3  -6750336.913 3
        19.300          22.600
  22900731.696    22900730.839    22900730.777    -9234582.385 4  -7195774.616 4
        26.200          29.200
  22876907.686    22876906.906    22876906.803    -8877872.075 4  -6917817.386 4
        27.400          27.900
  20505077.308    20505076.488    20505075.149   -25229179.924 6 -19659091.724 8
        39.300          48.200
  23019802.105    23019800.292    23019798.558   -10497479.240 5  -8179850.085 5
        30.600          31.500
  20691067.502    20691067.018    20691063.917   -23348940.059 6 -18193970.886 7
        41.600          46.200
 09  1  2  0 59  0.0000000  0 10G21G26G 9G15G14G 6G 3G18G19G22
  21831778.725    21831777.942    21831776.116   -19643464.369 5 -15306586.688 5
        33.600          30.800
  25059273.813    25059276.473    25059274.032     3953682.828     3080800.614 1
                         9.000
  22108893.593    22108893.050    22108892.549   -15199951.274 4 -11844112.344 5
        29.900          32.300
  23425142.254    23425142.263    23425140.601    -7526061.883 4  -5864453.468 4
        24.600          27.400
  23601821.193    23601820.453    23601819.478    -8769983.090 3  -6833749.913 3
        20.500          22.100
  22911991.580    22911991.121    22911991.284    -9175408.483 4  -7149665.094 4
        25.900          29.000
  22887307.246    22887306.418    22887305.629    -8823223.241 4  -6875233.868 4
        27.400          27.600
  20508867.622    20508866.891    20508864.987   -25209261.375 6 -19643570.775 8
        39.300          48.400
  23014749.921    23014748.249    23014746.395   -10524027.915 5  -8200537.354 5
        30.600          31.100
  20683219.523    20683218.985    20683215.931   -23390181.852 6 -18226107.344 7
        41.700          46.300
 09  1  2  0 59 30.0000000  0 10G21G26G 9G15G14G 6G 3G18G19G22
  21848145.853    21848145.203    21848143.565   -19557453.813 5 -15239565.485 5
        33.500          30.800
  25083002.803    25083001.733    25083000.274     4078374.203     3177962.731 1
                         9.000
  22095834.341    22095833.531    22095832.837   -15268580.826 5 -11897589.895 5
        30.600          32.300
  23443582.721    23443582.011    23443580.587    -7429161.055 4  -5788946.314 4
        24.600          28.100
  23581487.272    23581486.512    23581485.990    -8876837.452 3  -6917013.042 3
        20.500          22.600
  22923335.371    22923334.758    22923334.921    -9115796.575 4  -7103214.265 4
        26.200          28.800
  22897799.616    22897799.026    22897799.014    -8768082.136 4  -6832266.780 4
        26.500          27.600
  20512731.786    20512730.891    20512729.631   -25188955.397 6 -19627747.931 8
        39.200          48.300
  23009808.240    23009806.493    23009804.430   -10549997.224 5  -8220773.170 5
        30.400          31.000
  20675439.819    20675439.251    20675436.168   -23431064.899 6 -18257964.261 7
        41.700          46.300
                            4 15
RINEX FILE SPLICE                                           COMMENT
teqc  2008Oct2      WCDA Operator       20090102 02:18:25UTCCOMMENT
STATION INFORMATION EFFECTIVE FROM: 2001/01/13 18:20:00     COMMENT
                                TO: CURRENT DATE (above)    COMMENT
BIT 2 OF LLI FLAGS (+4) DATA COLLECTED UNDER 'AS' CONDITION COMMENT
L1 PHASE CENTRE 0.110m ABOVE ARP                            COMMENT
L2 PHASE CENTRE 0.128m ABOVE ARP                            COMMENT
where ARP is the Antenna Reference Point for HI measurement COMMENT
CONTACT gps@pgc.nrcan.gc.ca FOR ADDITIONAL INFORMATION      COMMENT
    P1 =    P1  TurboRogue; =    Y1  Benchmark              COMMENT
    L1 = L1(CA)                                             COMMENT
    P2 =    P2  TurboRogue; =    Y2  Benchmark              COMMENT
    L2 = L2(P2) TurboRogue; = L2(Y2) Benchmark              COMMENT
 SNR is mapped to RINEX snr flag value [0-9]                COMMENT
  L1 & L2: min(max(int(snr_dBHz/6), 0), 9)                  COMMENT
 09  1  2  1  0  0.0000000  0 11G21G26G 9G15G14G 6G 3G18G28G19G22
  21864585.979    21864585.122    21864583.492   -19471060.892 5 -15172246.345 5
        33.000          30.400
  25106743.877    25106743.404    25106741.833     4203135.115     3275179.034 1
                         6.500
  22082884.929    22082884.281    22082883.659   -15336628.852 5 -11950614.317 5
        30.400          32.300
  23462066.975    23462066.434    23462064.666    -7332026.324 4  -5713256.911 4
        24.900          27.900
  23561191.756    23561191.275    23561190.727    -8983489.291 3  -7000118.345 3
        20.500          23.000
  22934763.953    22934763.419    22934763.171    -9055740.509 4  -7056417.326 4
        26.800          28.600
  22908387.933    22908386.992    22908387.023    -8712442.234 4  -6788911.019 4
        26.500          27.900
  20516671.146    20516670.318    20516668.500   -25168253.837 6 -19611616.844 8
        39.200          48.200
  25584326.185    25584324.498    25584323.097           -.6451          -.0981
                         3.000
  23004978.569    23004976.944    23004974.845   -10575377.852 5  -8240550.279 5
        31.000          31.100
  20667729.805    20667729.336    20667726.349   -23471580.148 6 -18289534.580 7
        41.600          46.400
 09  1  2  1  0 30.0000000  0 10G21G 9G15G14G 6G 3G18G28G19G22
  21881094.172    21881093.319    21881091.734   -19384309.134 5 -15104647.582 4
        32.800          29.900
  22070042.619    22070042.050    22070041.505   -15404114.539 5 -12003200.544 5
        30.400          32.400
  23480590.291    23480590.174    23480588.452    -7234682.246 4  -5637404.371 4
        24.600          27.600
  23540931.328    23540930.726    23540930.165    -9089958.363 3  -7083081.221 3
        21.100          22.600
  22946272.277    22946271.773    22946271.242    -8995264.647 4  -7009293.279 4
        27.400          28.100
  22919066.002    22919065.299    22919065.050    -8656327.929 4  -6745185.598 4
        26.500          27.600
  20520681.468    20520680.640    20520679.244   -25147179.240 6 -19595195.075 8
        39.300          48.400
  25579159.700    25579158.907    25579157.285      -27169.516 1    -21170.699 1
         6.500          11.000
  23000256.723    23000254.958    23000252.939   -10600191.028 5  -8259885.223 5
        30.800          31.300
  20660086.055    20660085.574    20660082.474   -23511748.707 6 -18320834.749 7
        41.600          46.400
 09  1  2  1  1  0.0000000  0 10G21G 9G15G14G 6G 3G18G28G19G22
  21897670.578    21897669.669    21897668.056   -19297200.416 5 -15036770.675 4
        32.700          29.700
  22057308.248    22057307.551    22057306.822   -15471035.283 5 -12055346.557 5
        31.000          32.400
  23499153.317    23499153.367    23499152.067    -7137131.148 3  -5561390.522 4
        23.400          28.100
  23520706.351    23520705.577    23520704.624    -9196243.096 3  -7165900.467 3
        20.500          22.100
  22957859.539    22957859.130    22957858.642    -8934371.317 4  -6961843.936 4
        27.100          27.100
  22929833.932    22929833.199    22929832.898    -8599741.903 4  -6701092.592 4
        26.200          27.900
  20524762.785    20524761.994    20524760.190   -25125731.653 6 -19578482.670 8
        39.300          48.400
  25574078.298    25574077.494    25574076.237      -53866.811 1    -41973.782 2
         6.500          12.600
  22995642.964    22995641.340    22995639.409   -10624436.247 5  -8278777.590 5
        31.000          31.100
  20652508.261    20652507.717    20652504.661   -23551570.207 6 -18351864.483 7
        41.600          46.400
 09  1  2  1  1 30.0000000  0 10G21G 9G15G14G 6G 3G18G28G19G22
  21914320.013    21914319.155    21914317.483   -19209707.618 5 -14968594.486 4
        32.600          29.900
  22044687.120    22044686.460    22044685.646   -15537359.542 5 -12107027.791 5
        31.300          32.400
  23517761.193    23517761.405    23517759.850    -7039346.632 3  -5485194.811 4
        23.400          28.600
  23500521.796    23500521.293    23500520.123    -9302312.609 3  -7248552.015 3
        21.100          22.100
  22969532.200    22969531.341    22969530.768    -8873034.072 4  -6914048.674 4
        26.800          27.100
  22940696.915    22940696.020    22940695.673    -8542657.872 4  -6656611.542 4
        26.800          27.600
  20528920.562    20528919.774    20528918.220   -25103882.576 6 -19561457.415 8
        39.400          48.400
  25569089.918    25569090.416    25569087.912      -80062.900      -62386.289
                         3.000
  22991142.720    22991141.070    22991139.370   -10648083.804 5  -8297204.255 5
        30.600          31.300
  20645002.158    20645001.621    20644998.438   -23591015.474 6 -18382601.051 7
        41.600          46.600
 09  1  2  1  2  0.0000000  0 10G21G 9G15G14G 6G 3G18G28G19G22
  21931039.522    21931038.761    21931036.948   -19121845.868 5 -14900130.798 4
        32.600          29.900
  22032177.744    22032176.976    22032176.269   -15603097.438 5 -12158252.115 5
        31.300          32.700
  23536411.018    23536410.643    23536408.729    -6941344.167 3  -5408829.267 4
        23.800          27.600
  23480376.680    23480375.975    23480374.465    -9408178.492 3  -7331044.915 3
        21.600          21.600
  22981285.751    22981284.899    22981284.443    -8811268.466 4  -6865919.637 4
        26.800          26.800
  22951651.526    22951650.624    22951650.642    -8485090.759 4  -6611754.050 4
        26.500          27.900
  20533152.105    20533151.294    20533149.470   -25081645.977 6 -19544130.193 8
        39.500          48.400
  25564202.669    25564202.089    25564200.360     -105769.533      -82417.498 1
         3.000           9.000
  22986754.267    22986752.649    22986750.831   -10671146.091 5  -8315174.861 5
        30.400          31.100
  20637565.168    20637564.654    20637561.609   -23630096.656 6 -18413053.920 7
        41.600          46.700
 09  1  2  1  2 30.0000000  0 10G21G 9G15G14G 6G 3G18G28G19G22
  21947828.254    21947827.324    21947825.449   -19033621.542 5 -14831384.591 4
        32.700          29.700
  22019779.586    22019778.871    22019778.154   -15668250.617 5 -12209020.805 5
        31.800          33.100
  23555100.753    23555100.295    23555098.300    -6843130.443 4  -5332299.098 4
        24.900          26.800
  23460269.302    23460268.530    23460266.746    -9513843.268 3  -7413381.092 3
        21.600          21.600
  22993119.137    22993118.609    22993118.477    -8749081.178 4  -6817462.015 4
        26.200          27.100
  22962696.659    22962695.872    22962696.083    -8427047.591 4  -6566525.623 4
        26.500          28.400
  20537456.605    20537455.722    20537453.976   -25059026.281 6 -19526504.453 8
        39.500          48.500
  25559401.465    25559401.131    25559399.330     -130990.472     -102070.176 1
                         9.000
  22982476.615    22982474.648    22982472.576   -10693626.702 5  -8332692.220 5
        30.200          30.800
  20630196.814    20630196.330    20630193.353   -23668817.515 6 -18443226.014 7
        41.600          46.800
 09  1  2  1  3  0.0000000  0 10G21G 9G15G14G 6G 3G18G28G19G22
  21964685.269    21964684.413    21964682.454   -18945037.078 5 -14762357.749 4
        32.600          29.500
  22007492.898    22007492.210    22007491.508   -15732817.059 5 -12259332.307 5
        31.800          33.100
  23573829.914    23573829.500    23573827.684    -6744708.411 4  -5255606.602 4
        24.900          26.500
  23440199.488    23440199.044    23440198.231    -9619305.535 3  -7495559.476 3
        20.500          21.600
  23005032.924    23005032.219    23005031.933    -8686475.085 4  -6768678.057 4
        26.200          27.400
  22973831.767    22973831.106    22973830.801    -8368531.804 4  -6520928.912 4
        25.900          27.900
  20541833.628    20541832.818    20541831.135   -25036024.401 6 -19508580.911 8
        39.600          48.500
  25554694.158    25554694.511    25554691.934     -155724.958     -121343.774 1
         3.000           6.500
  22978309.522    22978307.721    22978305.284   -10715525.723 5  -8349756.388 5
        30.800          30.400
  20622897.216    20622896.660    20622893.427   -23707178.079 6 -18473117.359 7
        41.800          46.700
 09  1  2  1  3 30.0000000  0 10G21G 9G15G14G 6G 3G18G28G19G22
  21981610.551    21981609.680    21981607.660   -18856094.053 5 -14693051.512 4
        32.100          29.200
  21995318.185    21995317.630    21995317.234   -15796793.764 5 -12309184.272 5
        31.500          33.400
  23592598.263    23592597.656    23592596.209    -6646080.272 4  -5178753.505 4
        24.600          27.400
  23420169.560    23420168.946    23420168.431    -9724563.743 3  -7577578.820 3
        19.900          22.100
  23017025.554    23017024.997    23017024.439    -8623452.934 4  -6719569.883 4
        25.600          26.800
  22985056.603    22985055.573    22985055.587    -8309545.721 4  -6474965.735 4
        25.600          27.900
  20546283.372    20546282.607    20546281.010   -25012640.557 6 -19490359.734 8
        39.600          48.400
  25550082.350    25550081.562    25550078.820     -179972.566     -140237.986 1
         3.000          11.000
  22974252.765    22974251.042    22974249.001   -10736842.541 5  -8366366.886 5
        30.600          30.600
  20615666.085    20615665.555    20615662.370   -23745177.537 6 -18502727.325 7
        41.700          46.800
 09  1  2  1  4  0.0000000  0 10G21G 9G15G14G 6G 3G18G28G19G22
  21998603.254    21998602.678    21998600.849   -18766794.507 5 -14623467.470 4
        31.600          29.000
  21983256.824    21983256.195    21983255.563   -15860178.097 5 -12358574.644 5
        31.800          33.400
  23611405.063    23611404.563    23611403.474    -6547248.624 3  -5101741.849 4
        23.800          27.600
  23400179.146    23400178.291    23400177.527    -9829616.042 3  -7659437.718 3
        20.500          22.100
  23029097.188    23029096.385    23029096.281    -8560016.978 4  -6670139.276 4
        24.900          27.900
  22996369.776    22996369.117    22996369.768    -8250091.283 4  -6428637.596 4
        25.600          28.100
  20550805.809    20550804.967    20550803.247   -24988875.438 6 -19471841.462 8
        39.700          48.400
  25545557.596    25545558.194    25545556.459     -203732.144     -158751.836 2
                        12.600
  22970307.177    22970305.229    22970303.385   -10757576.550 5  -8382523.249 5
        30.200          30.600
  20608503.551    20608503.089    20608500.154   -23782815.740 6 -18532055.797 7
        41.600          47.000
 09  1  2  1  4 30.0000000  0 10G21G 9G15G14G 6G 3G18G28G19G22
  22015665.715    22015664.914    22015662.927   -18677132.741 5 -14553601.170 4
        31.800          29.000
  21971309.744    21971308.930    21971308.257   -15922960.052 5 -12407495.636 5
        31.600          33.100
  23630251.257    23630251.350    23630249.973    -6448207.889 3  -5024567.262 4
        23.800          27.400
  23380229.334    23380228.961    23380227.532    -9934452.623 3  -7741128.544 3
        21.600          22.600
  23041248.279    23041247.577    23041247.560    -8496162.009 4  -6620382.165 4
        25.300          28.100
  23007774.444    23007773.731    23007773.298    -8190163.970 4  -6381940.996 4
        26.500          28.400
  20555402.080    20555401.287    20555399.648   -24964721.592 6 -19453020.284 8
        39.700          48.300
  25541134.999    25541134.113    25541131.261     -226995.187 1   -176878.911 2
         6.500          17.000
  22966474.189    22966472.517    22966470.387   -10777719.544 5  -8398219.089 5
        30.100          31.000
  20601411.733    20601411.221    20601408.196   -23820084.032 6 -18561096.022 7
        41.700          47.000
 09  1  2  1  5  0.0000000  0 10G21G 9G15G14G 6G 3G18G28G19G22
  22032796.735    22032795.834    22032793.661   -18587110.106 5 -14483453.668 4
        32.100          28.600
  21959477.805    21959477.156    21959476.517   -15985136.164 5 -12455944.544 5
        31.500          33.100
  23649137.740    23649137.668    23649136.006    -6348959.604 3  -4947230.938 4
        23.800          26.800
  23360321.202    23360320.397    23360319.383   -10039071.057 3  -7822649.387 3
        21.600          23.000
  23053479.228    23053478.571    23053478.195    -8431889.777 4  -6570299.913 4
        26.200          28.400
  23019267.672    23019266.872    23019266.646    -8129765.567 4  -6334877.313 4
        25.900          27.600
  20560072.453    20560071.615    20560069.956   -24940178.737 6 -19433895.979 8
        39.700          48.300
  25536799.921    25536800.190    25536799.151     -249760.058     -194617.811 2
         3.000          15.100
  22962753.562    22962752.012    22962750.132   -10797270.063 5  -8413453.252 5
        30.200          31.500
  20594390.304    20594389.804    20594386.831   -23856981.601 6 -18589847.376 7
        41.600          47.100
 09  1  2  1  5 30.0000000  0 10G21G 9G15G14G 6G 3G18G28G19G22
  22049993.366    22049992.501    22049990.609   -18496740.514 5 -14413035.810 4
        31.800          28.800
  21947759.718    21947759.164    21947758.537   -16046715.718 5 -12503928.599 5
        32.000          33.600
  23668060.597    23668060.825    23668058.922    -6249518.668 3  -4869744.477 4
        23.800          26.800
  23340452.393    23340451.671    23340450.766   -10143481.986 3  -7904008.538 3
        22.100          23.400
  23065785.974    23065785.556    23065785.300    -8367215.178 4  -6519904.131 4
        25.900          28.100
  23030847.938    23030847.251    23030846.950    -8068910.729 4  -6287457.955 4
        26.500          27.400
  20564814.479    20564813.673    20564811.873   -24915259.622 6 -19414478.486 8
        39.700          48.100
  25532561.227    25532559.192    25532560.043     -272038.208     -211977.391 2
                        12.600
  22959143.736    22959142.021    22959140.342   -10816240.125 5  -8428235.125 5
        30.200          31.100
  20587437.426    20587436.915    20587433.845   -23893519.898 6 -18618318.775 7
        41.800          47.200
 09  1  2  1  6  0.0000000  0 10G21G 9G15G14G 6G 3G18G28G19G22
  22067256.081    22067255.288    22067253.785   -18406022.960 5 -14342346.822 4
        31.100          29.500
  21936155.953    21936155.424    21936154.958   -16107693.573 5 -12551443.795 5
        32.000          33.600
  23687020.911    23687020.958    23687018.661    -6149884.601 3  -4792107.541 4
        22.600          26.800
  23320623.936    23320623.268    23320622.635   -10247681.206 3  -7985202.724 3
        22.100          23.800
  23078169.611    23078169.479    23078168.834    -8302137.823 4  -6469194.513 4
        25.600          27.900
  23042515.154    23042514.373    23042514.376    -8007599.294 4  -6239682.814 4
        26.200          27.900
  20569628.420    20569627.657    20569625.883   -24889961.813 6 -19394765.904 8
        39.800          48.000
  25528417.348    25528416.648    25528413.702     -293825.597 1   -228954.551 1
         9.000          11.000
  22955644.846    22955643.217    22955641.499   -10834626.340 5  -8442562.040 5
        30.400          31.000
  20580553.570    20580553.052    20580549.853   -23929695.326 6 -18646507.421 7
        41.900          47.200
 09  1  2  1  6 30.0000000  0 10G21G 9G15G14G 6G 3G18G28G19G22
  22084585.243    22084584.365    22084582.857   -18314958.209 5 -14271387.300 4
        31.100          29.500
  21924667.557    21924667.106    21924666.387   -16168065.459 5 -12598486.811 5
        32.300          33.500
  23706017.699    23706017.195    23706014.857    -6050057.868 3  -4714320.476 4
        22.100          26.500
  23300836.561    23300835.527    23300835.277   -10351665.031 3  -8066229.048 4
        22.100          24.200
  23090630.053    23090629.398    23090629.170    -8236658.796 4  -6418171.893 4
        25.600          27.400
  23054268.979    23054268.024    23054268.445    -7945832.360 4  -6191552.743 4
        25.900          28.400
  20574514.724    20574513.869    20574512.106   -24864284.331 6 -19374757.473 7
        39.800          47.900
  25524361.525    25524361.148    25524359.264     -315120.689 1   -245548.131 1
         6.500           9.000
  22952257.705    22952256.084    22952253.918   -10852426.590 5  -8456432.374 5
        30.800          30.800
  20573738.792    20573738.282    20573735.239   -23965506.160 6 -18674411.966 7
        41.800          47.200
 09  1  2  1  7  0.0000000  0 10G21G 9G15G14G 6G 3G18G28G19G22
  22101980.376    22101979.698    22101978.284   -18223544.701 5 -14200156.011 4
        30.800          29.000
  21913295.688    21913295.059    21913294.638   -16227825.260 5 -12645052.876 5
        32.100          33.900
  23725051.021    23725050.465    23725048.061    -5950037.673 3  -4636382.683 4
        21.100          25.900
  23281091.267    23281090.338    23281089.703   -10455428.380 3  -8147083.573 4
        22.100          24.600
  23103166.503    23103165.920    23103166.112    -8170777.222 4  -6366835.606 4
        24.600          26.800
  23066109.674    23066108.922    23066108.815    -7883609.395 4  -6143067.329 4
        25.900          27.900
  20579473.650    20579472.872    20579471.192   -24838224.296 6 -19354450.948 7
        39.800          47.900
  25520404.530    25520403.869    25520404.201     -335919.127     -261754.732 2
         3.000          12.600
  22948982.579    22948980.654    22948979.190   -10869637.244 5  -8469843.270 5
        30.100          31.100
  20566994.404    20566993.927    20566990.838   -24000948.427 6 -18702029.315 7
        41.800          47.300
 09  1  2  1  7 30.0000000  0 10G21G 9G15G14G 6G 3G18G28G19G22
  22119442.738    22119441.868    22119440.400   -18131780.488 5 -14128651.447 4
        30.600          28.600
  21902041.542    21902040.919    21902040.193   -16286966.758 5 -12691137.148 5
        32.300          33.600
  23744121.241    23744120.929    23744118.545    -5849822.015 3  -4558292.573 4
        21.100          25.300
  23261388.475    23261387.721    23261387.036   -10558965.462 3  -8227761.786 4
        22.600          24.600
  23115780.409    23115779.924    23115779.766    -8104491.455 4  -6315184.350 4
        24.600          26.500
  23078037.650    23078036.972    23078036.335    -7820928.520 4  -6094225.102 4
        25.900          27.400
  20584506.260    20584505.468    20584503.774   -24811778.019 6 -19333843.457 7
        39.800          47.800
  25516545.544    25516543.723    25516541.166     -356215.834 2   -277570.335 2
        13.900          12.600
  22945820.732    22945818.903    22945816.985   -10886253.664 5  -8482791.110 5
        30.200          31.100
  20560320.958    20560320.440    20560317.282   -24036017.474 6 -18729355.843 7
        41.900          47.300
 09  1  2  1  8  0.0000000  0 10G21G 9G15G14G 6G 3G18G28G19G22
  22136970.893    22136970.053    22136968.201   -18039670.923 5 -14056877.776 4
        31.100          28.400
  21890904.485    21890903.937    21890903.372   -16345490.819 5 -12736740.304 5
        32.100          33.600
  23763227.658    23763227.055    23763224.882    -5749416.868 3  -4480054.787 4
        20.500          24.600
  23241728.668    23241727.785    23241726.824   -10662277.993 3  -8308265.018 3
        22.600          23.800
  23128470.168    23128469.590    23128469.730    -8037807.591 4  -6263222.903 4
        24.200          27.100
  23090051.331    23090050.589    23090050.268    -7757795.824 4  -6045030.793 4
        25.600          27.100
  20589611.671    20589610.835    20589609.161   -24784949.243 6 -19312937.914 7
        39.900          47.800
  25512774.186    25512773.766    25512773.120     -376013.534 1   -292997.132 2
         9.000          12.600
  22942771.076    22942769.460    22942767.502   -10902278.913 5  -8495278.309 5
        31.000          31.100
  20553718.087    20553717.561    20553714.408   -24070716.055 6 -18756393.697 7
        41.900          47.400
 09  1  2  1  8 30.0000000  0 10G21G 9G15G14G 6G 3G18G28G19G22
  22154562.470    22154561.399    22154559.565   -17947226.940 5 -13984843.510 4
        30.800          28.100
  21879883.943    21879883.298    21879882.954   -16403403.961 5 -12781867.417 5
        32.100          33.600
  23782367.461    23782367.558    23782365.195    -5648833.380 3  -4401678.039 4
        21.100          24.200
  23222110.268    23222109.287    23222108.536   -10765373.215 3  -8388598.918 4
        22.600          24.200
  23141233.747    23141232.848    23141232.162    -7970737.012 4  -6210960.117 4
        24.200          26.800
  23102148.696    23102148.052    23102147.409    -7694223.214 4  -5995493.703 4
        25.600          26.500
  20594787.882    20594787.108    20594785.468   -24757747.469 6 -19291741.722 7
        39.900          47.700
  25509098.916    25509100.037    25509099.901     -395320.350 1   -308041.422 2
         9.000          12.600
  22939832.348    22939830.591    22939828.703   -10917721.708 5  -8507311.655 5
        31.300          31.100
  20547184.031    20547183.509    20547180.437   -24105052.476 6 -18783149.346 7
        41.900          47.500
 09  1  2  1  9  0.0000000  0 10G21G 9G15G14G 6G 3G18G28G19G22
  22172218.413    22172217.560    22172215.942   -17854442.823 5 -13912544.211 4
        30.200          28.100
  21868981.913    21868981.266    21868980.552   -16460695.946 5 -12826510.509 5
        32.400          33.500
  23801542.602    23801542.850    23801540.726    -5548066.268 3  -4323158.206 4
        21.100          24.900
  23202535.059    23202534.339    23202533.648   -10868241.815 3  -8468756.226 4
        23.000          25.600
  23154070.602    23154070.187    23154070.187    -7903274.681 4  -6158392.066 4
        24.600          27.400
  23114330.950    23114330.004    23114329.782    -7630205.116 4  -5945609.480 4
        25.300          26.800
  20600036.645    20600035.817    20600034.108   -24730165.404 6 -19270249.204 7
        39.900          47.600
  25505522.378    25505522.558    25505520.657     -414128.247 1   -322696.868 2
         9.000          12.600
  22937006.004    22937004.592    22937002.483   -10932574.020 5  -8518884.878 5
        31.500          31.000
  20540720.521    20540719.988    20540716.895   -24139018.685 6 -18809616.518 7
        41.900          47.600
 09  1  2  1  9 30.0000000  0 10G21G 9G15G14G 6G 3G18G28G19G22
  22189939.050    22189938.525    22189937.231   -17761317.744 5 -13839979.232 4
        30.100          28.400
  21858198.527    21858197.934    21858197.721   -16517361.490 5 -12870665.475 5
        32.300          33.800
  23820753.003    23820753.000    23820751.176    -5447115.170 3  -4244495.037 4
        22.100          25.300
  23183003.783    23183003.116    23183002.632   -10970878.860 3  -8548733.116 4
        23.400          25.600
  23166983.136    23166982.284    23166982.614    -7835420.436 3  -6105518.642 4
        23.800          27.600
  23126597.797    23126597.079    23126596.717    -7565741.752 4  -5895378.301 4
        25.300          27.400
  20605358.157    20605357.379    20605355.578   -24702200.620 6 -19248458.459 7
        40.000          47.400
  25502042.031    25502040.647    25502037.225     -432433.286 1   -336960.585 1
         6.500          11.000
  22934292.707    22934291.197    22934289.224   -10946832.814 5  -8529995.628 5
        31.500          31.100
  20534328.037    20534327.512    20534324.455   -24172611.194 6 -18835792.498 7
        41.900          47.600
 09  1  2  1 10  0.0000000  0 10G21G 9G15G14G 6G 3G18G28G19G22
  22207723.638    22207722.856    22207721.425   -17667860.990 5 -13767155.796 4
        30.100          28.100
  21847533.843    21847533.329    21847532.933   -16573405.544 5 -12914336.154 5
        32.700          34.100
  23839996.385    23839996.712    23839994.771    -5345989.365 3  -4165695.715 4
        22.100          25.600
  23163515.257    23163514.814    23163514.265   -11073290.272 3  -8628534.184 4
        23.000          25.600
  23179968.621    23179967.757    23179967.540    -7767184.090 4  -6052347.464 4
        24.600          28.100
  23138947.908    23138946.970    23138946.997    -7500843.134 4  -5844807.942 4
        25.300          27.900
  20610750.998    20610750.128    20610748.486   -24673861.185 6 -19226375.777 7
        40.000          47.400
  25498649.409    25498648.865    25498647.405     -450242.637     -350838.053 1
                         9.000
  22931691.148    22931689.573    22931687.522   -10960504.589 5  -8540648.952 5
        31.500          31.000
  20528005.443    20528004.941    20528001.823   -24205836.770 7 -18861682.554 7
        42.000          47.700
 09  1  2  1 10 30.0000000  0 10G21G 9G15G14G 6G 3G18G28G19G22
  22225570.622    22225569.873    22225568.241   -17574074.840 4 -13694075.694 4
        29.900          27.900
  21836987.864    21836987.162    21836986.401   -16628825.581 5 -12957520.590 5
        32.700          33.500
  23859272.837    23859273.001    23859271.064    -5244691.855 3  -4086762.594 4
        21.600          25.900
  23144070.226    23144069.477    23144069.446   -11175474.440 3  -8708158.167 4
        23.400          25.900
  23193025.133    23193024.604    23193024.665    -7698568.576 4  -5998880.832 4
        24.600          28.400
  23151379.584    23151378.756    23151379.160    -7435511.704 4  -5793900.352 4
        24.600          27.600
  20616214.979    20616214.153    20616212.530   -24645147.538 6 -19204001.507 7
        40.000          47.400
  25495356.418    25495356.074    25495353.474     -467555.611     -364328.584 2
                        12.600
  22929201.501    22929199.731    22929197.507   -10973589.586 5  -8550845.054 5
        31.800          30.800
  20521752.622    20521752.101    20521749.028   -24238695.346 6 -18887286.643 7
        41.900          47.800
 09  1  2  1 11  0.0000000  0 10G21G 9G15G14G 6G 3G18G28G19G22
  22243480.972    22243480.258    22243478.753   -17479954.730 4 -13620735.365 4
        29.700          27.600
  21826562.094    21826561.520    21826560.807   -16683612.983 5 -13000212.066 5
        32.700          33.800
  23878583.017    23878583.041    23878580.918    -5143217.329 3  -4007691.548 4
        20.500          25.900
  23124670.126    23124669.713    23124669.141   -11277422.995 4  -8787598.571 4
        24.600          26.200
  23206154.849    23206154.400    23206154.494    -7629569.815 3  -5945115.575 4
        23.800          27.900
  23163894.113    23163893.785    23163894.045    -7369744.024 3  -5742652.796 4
        23.800          27.400
  20621751.337    20621750.515    20621748.937   -24616053.445 6 -19181330.782 7
        40.000          47.300
  25492156.248    25492155.757    25492155.270     -484365.145     -377426.909 1
         3.000          11.000
  22926823.870    22926822.540    22926820.439   -10986081.156 5  -8560578.737 5
        32.000          30.600
  20515570.975    20515570.501    20515567.488   -24271179.755 7 -18912599.166 8
        42.000          48.000
 09  1  2  1 11 30.0000000  0 10G21G 9G15G14G 6G 3G18G28G19G22
  22261454.527    22261453.589    22261451.951   -17385503.512 4 -13547137.030 4
        29.200          27.100
  21816257.213    21816256.412    21816255.967   -16737766.078 5 -13042409.274 5
        33.100          34.300
  23897926.438    23897925.780    23897923.587    -5041569.464 3  -3928485.429 4
        20.500          24.900
  23105315.343    23105314.559    23105313.723   -11379134.928 4  -8866854.601 4
        24.200          25.900
  23219357.537    23219357.265    23219357.207    -7560191.212 3  -5891054.336 4
        23.400          28.100
  23176491.788    23176491.338    23176491.634    -7303543.502 3  -5691067.996 4
        23.800          27.400
  20627359.981    20627359.163    20627357.382   -24586580.228 6 -19158364.637 7
        40.100          47.100
  25489054.972    25489053.007    25489051.699     -500671.183     -390132.904 1
         3.000           9.000
  22924559.980    22924558.298    22924555.915   -10997979.572 5  -8569850.218 5
        31.800          30.200
  20509460.696    20509460.155    20509457.095   -24303290.124 7 -18937620.231 8
        42.000          48.100
 09  1  2  1 12  0.0000000  0 10G21G 9G15G14G 6G 3G18G28G19G22
  22279490.785    22279490.039    22279488.459   -17290721.268 4 -13473280.747 4
        28.800          27.100
  21806073.616    21806073.002    21806072.275   -16791280.741 5 -13084109.002 5
        33.100          34.000
  23917302.400    23917301.924    23917299.741    -4939748.493 3  -3849144.416 4
        20.500          24.900
  23086005.384    23086004.812    23086003.983   -11480606.801 3  -8945923.567 4
        23.800          25.600
  23232631.926    23232631.496    23232631.441    -7490433.506 3  -5836697.697 4
        23.000          27.400
  23189171.755    23189171.003    23189171.491    -7236910.914 3  -5639146.492 4
        23.400          26.800
  20633040.981    20633040.177    20633038.312   -24556726.478 6 -19135101.973 7
        40.200          47.000
  25486046.694    25486047.387    25486046.867     -516471.171     -402444.571
                         3.000
  22922409.199    22922407.245    22922404.874   -11009282.819 5  -8578657.933 5
        31.300          30.100
  20503421.720    20503421.269    20503418.189   -24335024.327 7 -18962348.179 8
        42.100          48.100
 09  1  2  1 12 30.0000000  0 10G21G 9G15G14G 6G 3G18G28G19G22
  22297590.179    22297589.345    22297587.939   -17195609.141 4 -13399167.429 4
        28.600          27.100
  21796012.262    21796011.577    21796010.852   -16844153.753 5 -13125308.740 5
        33.100          33.900
  23936711.140    23936710.414    23936708.537    -4837756.019 3  -3769669.770 4
        21.100          24.900
  23066742.083    23066741.368    23066740.351   -11581836.063 4  -9024803.481 4
        24.200          24.900
  23245978.121    23245977.660    23245977.729    -7420298.548 3  -5782047.081 4
        22.600          27.100
  23201934.022    23201933.085    23201932.959    -7169848.438 3  -5586890.033 4
        23.800          26.500
  20638794.485    20638793.635    20638791.892   -24526492.070 6 -19111542.690 7
        40.200          47.000
  25483137.602    25483137.039    25483137.354     -531763.871     -414361.017 1
         3.000           6.500
  22920371.416    22920369.821    22920367.690   -11019989.869 5  -8587001.088 5
        31.100          30.200
  20497454.887    20497454.402    20497451.310   -24366380.814 7 -18986781.801 8
        42.100          48.200
 09  1  2  1 13  0.0000000  0 10G21G 9G15G14G 6G 3G18G28G19G22
  22315751.198    22315750.520    22315748.651   -17100173.650 4 -13324802.129 4
        29.000          26.500
  21786072.708    21786072.052    21786071.268   -16896387.215 5 -13166010.140 5
        33.200          34.400
  23956150.518    23956150.607    23956148.646    -4735598.692 3  -3690066.671 4
        20.500          24.900
  23047524.850    23047524.186    23047523.131   -11682825.149 4  -9103496.256 4
        24.600          25.600
  23259395.084    23259394.486    23259394.310    -7349793.456 3  -5727108.057 4
        23.800          26.800
  23214775.825    23214774.827    23214775.022    -7102363.014 4  -5534303.984 4
        24.200          26.500
  20644619.366    20644618.565    20644616.852   -24495881.613 6 -19087690.387 7
        40.200          47.000
  25480322.739    25480321.943    25480320.676     -546553.101 1   -425885.084 1
         6.500           9.000
  22918446.615    22918444.942    22918442.837   -11030104.834 5  -8594882.874 5
        31.500          30.100
  20491559.021    20491558.524    20491555.438   -24397363.774 7 -19010924.361 8
        42.200          48.400
 09  1  2  1 13 30.0000000  0 10G21G 9G15G14G 6G 3G18G28G19G22
  22333972.827    22333972.046    22333970.372   -17004418.308 4 -13250187.595 4
        29.000          27.100
  21776254.827    21776254.277    21776253.613   -16947980.152 5 -13206212.419 5
        33.400          34.400
  23975620.061    23975620.703    23975619.475    -4633280.025 3  -3610337.834 4
        18.600          24.900
  23028353.152    23028352.150    23028351.428   -11783573.789 4  -9182001.659 4
        24.900          26.200
  23272881.435    23272880.819    23272880.596    -7278922.213 3  -5671883.702 4
        23.800          26.500
  23227697.686    23227696.679    23227696.802    -7034458.382 4  -5481391.308 4
        24.200          26.500
  20650515.544    20650514.728    20650512.983   -24464897.007 6 -19063546.534 7
        40.200          46.800
  25477603.541    25477602.022    25477604.612     -560839.717     -437017.493 2
                        13.900
  22916634.193    22916632.677    22916630.161   -11039629.096 5  -8602304.377 4
        31.500          29.900
  20485734.210    20485733.689    20485730.630   -24427973.445 7 -19034776.047 8
        42.200          48.400
 09  1  2  1 14  0.0000000  0 10G21G 9G15G14G 6G 3G18G28G19G22
  22352255.524    22352254.851    22352253.235   -16908342.420 4 -13175323.292 4
        28.800          27.400
  21766559.913    21766559.220    21766558.388   -16998927.956 5 -13245911.999 5
        33.200          34.000
  23995121.480    23995121.812    23995120.978    -4530800.062 3  -3530483.331 4
        18.600          25.600
  23009227.928    23009227.091    23009226.163   -11884077.937 4  -9260316.555 4
        24.900          25.900
  23286437.297    23286436.814    23286436.684    -7207684.863 3  -5616374.085 4
        23.800          26.500
  23240699.101    23240698.322    23240698.407    -6966134.843 4  -5428152.179 4
        24.600          25.900
  20656483.267    20656482.461    20656480.705   -24433536.463 6 -19039109.748 7
        40.300          46.700
  25474982.359    25474981.485    25474980.660     -574620.822     -447755.973 1
                         9.000
  22914934.552    22914932.948    22914931.066   -11048560.052 5  -8609263.555 5
        31.000          30.600
  20479980.960    20479980.418    20479977.386   -24458207.132 7 -19058334.760 8
        42.300          48.500
 09  1  2  1 14 30.0000000  0 10G21G 9G15G14G 6G 3G18G28G19G22
  22370598.947    22370597.936    22370596.504   -16811948.221 4 -13100210.961 4
        28.600          27.400
  21756987.793    21756987.150    21756986.689   -17049228.170 5 -13285106.967 5
        33.400          34.100
  24014653.818    24014653.459    24014652.289    -4428160.263 3  -3450504.279 4
        18.600          25.300
  22990149.688    22990148.685    22990147.799   -11984335.664 4  -9338439.444 4
        25.300          25.600
  23300062.638    23300061.952    23300061.955    -7136083.941 4  -5560581.158 4
        24.200          26.500
  23253779.955    23253779.320    23253779.023    -6897395.220 4  -5374588.847 4
        24.600          25.600
  20662522.462    20662521.657    20662519.934   -24401800.235 6 -19014380.217 7
        40.300          46.600
  25472457.168    25472455.726    25472453.148     -587895.244     -458099.648 1
         3.000           6.500
  22913347.967    22913346.421    22913344.481   -11056897.309 5  -8615760.115 5
        31.100          30.200
  20474299.417    20474298.899    20474295.744   -24488063.988 7 -19081599.835 8
        42.400          48.500
 09  1  2  1 15  0.0000000  0 10G21G 9G15G14G 6G 3G18G28G19G22
  22389001.719    22389000.917    22388999.320   -16715240.337 4 -13024854.189 4
        28.600          26.500
  21747539.236    21747538.546    21747537.661   -17098881.194 5 -13323797.618 5
        33.500          33.900
  24034215.067    24034215.112    24034213.689    -4325365.751 2  -3370404.665 4
        17.800          25.300
  22971117.532    22971116.797    22971115.864   -12084348.023 4  -9416371.133 4
        25.300          25.600
  23313756.010    23313755.497    23313755.329    -7064124.832 3  -5504509.127 4
        23.400          26.500
  23266938.678    23266937.858    23266937.947    -6828245.472 3  -5320705.939 4
        23.400          25.300
  20668632.532    20668631.711    20668629.998   -24369691.392 6 -18989360.339 7
        40.200          46.500
  25470024.162    25470024.486    25470025.193     -600665.914     -468050.817
                         3.000
  22911873.939    22911872.357    22911870.300   -11064643.748 5  -8621796.294 5
        31.300          30.200
  20468689.118    20468688.633    20468685.495   -24517545.897 7 -19104572.745 8
        42.400          48.600
 09  1  2  1 15 30.0000000  0 10G21G 9G15G14G 6G 3G18G28G19G22
  22407462.983    22407462.336    22407460.635   -16618224.436 4 -12949257.396 4
        28.400          26.200
  21738213.379    21738212.877    21738211.696   -17147888.638 5 -13361985.237 5
        33.600          33.600
  24053804.850    24053804.764    24053803.114    -4222422.404 3  -3290189.069 4
        18.600          24.600
  22952132.177    22952131.332    22952130.592   -12184116.952 4  -9494113.135 4
        24.900          25.900
  23327516.244    23327515.601    23327515.429    -6991813.840 3  -5448162.905 4
        23.000          26.200
  23280174.080    23280173.558    23280173.615    -6758691.564 3  -5266508.097 4
        23.400          24.900
  20674812.802    20674811.962    20674810.282   -24337213.911 6 -18964053.208 7
        40.300          46.400
  25467691.099    25467690.435    25467686.674     -612935.538     -477611.683
         3.000           3.000
  22910511.375    22910509.861    22910507.954   -11071802.662 5  -8627374.673 4
        31.100          29.900
  20463149.462    20463148.996    20463145.839   -24546656.832 7 -19127256.585 8
        42.500          48.700
 09  1  2  1 16  0.0000000  0 10G 9G21G15G14G 6G 3G18G28G19G22
  21729011.834    21729011.174    21729010.608   -17196242.763 5 -13399663.762 5
        33.500          34.100
  22425983.893    22425982.992    22425981.575   -16520896.859 4 -12873417.749 4
        28.100          26.200
  24073423.698    24073423.315    24073421.913    -4119326.742 3  -3209854.782 4
        18.600          24.900
  22933194.174    22933193.412    22933192.581   -12283634.903 4  -9571659.570 4
        25.300          25.900
  23341344.172    23341343.344    23341343.492    -6919147.991 3  -5391540.168 4
        22.600          25.900
  23293487.872    23293486.899    23293486.743    -6688730.209 3  -5211992.755 3
        23.800          23.800
  20681064.255    20681063.452    20681061.709   -24304362.334 6 -18938454.576 7
        40.300          46.400
  25465454.715    25465452.932    25465450.342     -624698.020     -486777.161 1
                         9.000
  22909262.460    22909260.759    22909258.495   -11078368.226 5  -8632490.687 4
        31.300          29.900
  20457681.740    20457681.260    20457678.056   -24575390.268 7 -19149646.273 8
        42.700          48.800
 09  1  2  1 16 30.0000000  0 10G21G 9G15G14G 6G 3G18G28G19G22
  22444563.689    22444562.875    22444561.255   -16423259.532 4 -12797336.726 4
        28.100          25.900
  21719934.967    21719934.449    21719933.826   -17243941.153 5 -13436831.332 5
        33.800          34.100
  24093071.034    24093070.455    24093068.648    -4016080.750 2  -3129403.368 4
        17.800          24.200
  22914304.406    22914303.760    22914303.167   -12382899.990 4  -9649008.969 4
        25.300          25.900
  23355238.671    23355238.123    23355238.625    -6846129.786 3  -5334642.879 4
        21.600          26.800
  23306877.636    23306876.782    23306876.951    -6618364.530 3  -5157162.349 3
        23.000          23.800
  20687386.702    20687385.942    20687384.094   -24271137.704 6 -18912565.255 7
        40.300          46.100
  25463310.512    25463310.113    25463309.304     -635953.011 1   -495547.335 1
         6.500           9.000
  22908126.136    22908124.577    22908121.922   -11084340.434 5  -8637144.355 5
        31.600          30.100
  20452285.913    20452285.445    20452282.306   -24603745.289 7 -19171741.092 8
        42.700          48.900
 09  1  2  1 17  0.0000000  0 10G 9G21G15G14G 6G 3G18G28G19G22
  21710983.097    21710982.349    21710981.662   -17290985.603 5 -13473489.343 5
        33.900          34.400
  22463201.227    22463200.634    22463198.878   -16325318.976 4 -12721019.422 4
        28.100          25.900
  24112744.912    24112744.433    24112742.887    -3912691.142 3  -3048840.032 3
        18.600          23.400
  22895462.936    22895462.387    22895461.338   -12481914.965 4  -9726163.479 4
        26.200          26.200
  23369199.228    23369198.834    23369199.307    -6772766.208 3  -5277476.469 4
        21.100          26.800
  23320343.833    23320342.810    23320342.711    -6547601.430 3  -5102022.265 4
        23.400          24.600
  20693779.204    20693778.442    20693776.600   -24237544.630 6 -18886388.831 7
        40.300          46.000
  25461262.632    25461264.028    25461265.033     -646704.147     -503924.775 1
         3.000           9.000
  22907101.721    22907100.005    22907097.837   -11089723.604 5  -8641339.034 5
        32.000          30.600
  20446961.495    20446960.976    20446957.805   -24631725.619 7 -19193543.943 8
        42.700          49.000
 09  1  2  1 17 30.0000000  0 10G 9G21G15G14G 6G 3G18G28G19G22
  21702160.554    21702159.874    21702159.203   -17337347.744 5 -13509615.671 5
        34.000          34.600
  22481901.327    22481900.365    22481898.820   -16227050.546 4 -12644446.638 4
        27.600          26.200
  24132451.186    24132451.354    24132448.941    -3809133.028 3  -2968145.411 3
        18.600          23.400
  22876674.248    22876673.454    22876672.556   -12580651.379 4  -9803100.928 4
        25.900          26.800
  23383230.391    23383229.702    23383229.582    -6699033.417 3  -5220022.371 4
        21.100          25.600
  23333889.450    23333888.206    23333888.073    -6476417.464 3  -5046554.252 3
        22.600          23.800
  20700246.937    20700246.099    20700244.319   -24203556.787 6 -18859904.797 7
        40.300          45.900
  25459320.799    25459320.271    25459317.929     -656924.438 1   -511888.662
         9.000           3.000
  22906194.540    22906192.971    22906190.772   -11094491.213 5  -8645054.052 5
        32.300          31.000
  20441713.431    20441712.949    20441709.847   -24659303.899 7 -19215033.506 8
        42.800          49.100
 09  1  2  1 18  0.0000000  0 10G 9G21G15G14G 6G 3G18G28G19G22
  21693461.978    21693461.357    21693460.495   -17383058.632 5 -13545234.547 5
        34.000          34.400
  22500656.992    22500655.853    22500654.287   -16128489.535 4 -12567645.878 4
        27.600          25.900
  24152182.441    24152182.799    24152180.496    -3705442.276 3  -2887347.425 3
        18.600          23.400
  22857931.641    22857931.201    22857930.502   -12679141.061 4  -9879846.106 4
        25.600          26.800
  23397324.420    23397323.942    23397323.782    -6624967.357 3  -5162308.548 4
        22.100          24.600
  23347508.597    23347507.424    23347507.057    -6404848.363 3  -4990786.121 3
        22.600          23.400
  20706783.271    20706782.500    20706780.650   -24169208.006 6 -18833139.513 7
        40.400          45.800
  25457469.209    25457469.780    25457468.320     -666646.757     -519464.584
         3.000           3.000
  22905398.071    22905396.383    22905394.023   -11098676.561 5  -8648315.367 5
        32.000          30.600
  20436535.691    20436535.211    20436531.961   -24686513.815 7 -19236236.039 8
        42.900          49.200
 09  1  2  1 18 30.0000000  0 10G 9G21G15G14G 6G 3G18G28G19G22
  21684889.243    21684888.532    21684887.974   -17428109.361 5 -13580339.005 5
        34.000          34.800
  22519469.135    22519468.270    22519466.256   -16029631.148 4 -12490613.392 4
        27.600          24.900
  24171939.875    24171939.935    24171937.957    -3601613.613 3  -2806441.983 3
        18.600          23.000
  22839238.492    22839237.753    22839237.166   -12777375.181 4  -9956392.153 4
        26.500          27.400
  23411483.267    23411482.724    23411482.717    -6550563.409 3  -5104331.459 4
        22.600          24.600
  23361202.238    23361201.185    23361200.826    -6332889.601 3  -4934714.363 4
        23.400          24.200
  20713389.591    20713388.794    20713386.993   -24134491.598 6 -18806087.763 7
        40.400          45.700
  25455714.693    25455713.696    25455715.642     -675863.799     -526646.718 1
         3.000           6.500
  22904713.911    22904712.054    22904710.000   -11102272.378 5  -8651117.302 5
        31.500          30.600
  20431429.447    20431428.909    20431425.706   -24713347.253 7 -19257145.209 8
        42.900          49.200
 09  1  2  1 19  0.0000000  0 10G 9G21G15G14G 6G 3G18G28G19G22
  21676444.193    21676443.444    21676442.656   -17472488.742 5 -13614920.333 5
        34.300          34.700
  22538338.855    22538338.325    22538336.257   -15930468.082 4 -12413343.487 4
        27.400          24.900
  24191725.722    24191725.342    24191723.580    -3497639.865 3  -2725423.499 3
        18.600          23.000
  22820596.139    22820595.236    22820594.515   -12875342.348 4 -10032730.188 4
        26.200          27.600
  23425707.271    23425706.525    23425706.541    -6475815.301 3  -5046086.180 4
        22.600          24.600
  23374970.423    23374969.413    23374969.640    -6260535.131 3  -4878334.257 4
        22.600          24.600
  20720067.395    20720066.601    20720064.883   -24099399.067 6 -18778742.935 7
        40.400          45.600
  25454060.102    25454059.705    25454060.540     -684566.164 1   -533427.722 1
         9.000           9.000
  22904143.168    22904141.305    22904139.427   -11105269.577 5  -8653452.776 5
        31.300          30.400
  20426396.629    20426396.124    20426392.928   -24739794.616 7 -19277753.540 8
        42.900          49.300
 09  1  2  1 19 30.0000000  0 10G 9G21G15G14G 6G 3G18G28G19G22
  21668125.909    21668125.376    21668124.634   -17516199.796 5 -13648980.893 5
        34.300          34.400
  22557265.045    22557264.779    22557263.264   -15831007.570 4 -12335841.812 4
        26.800          25.300
  24211537.219    24211537.369    24211535.409    -3393528.323 2  -2644297.620 3
        17.800          23.000
  22802003.724    22802002.848    22802001.945   -12973046.176 4 -10108863.015 4
        26.200          27.600
  23439995.632    23439994.793    23439994.882    -6400730.846 3  -4987578.814 3
        22.100          23.800
  23388812.767    23388812.207    23388811.943    -6187792.557 3  -4821651.747 4
        22.100          24.200
  20726815.964    20726815.177    20726813.354   -24063935.685 6 -18751109.130 7
        40.400          45.600
  25452500.614    25452500.934    25452498.826     -692757.887 1   -539810.921 1
         6.500           6.500
  22903685.729    22903684.282    22903682.079   -11107673.296 5  -8655325.802 5
        31.500          30.600
  20421436.543    20421436.055    20421432.807   -24765860.123 7 -19298064.321 8
        43.000          49.400
 09  1  2  1 20  0.0000000  0 10G 9G21G15G14G 6G 3G18G28G19G22
  21659935.479    21659934.684    21659933.995   -17559242.652 5 -13682520.773 5
        34.300          34.700
  22576247.685    22576247.140    22576245.708   -15731253.966 4 -12258111.754 4
        26.500          25.300
  24231374.329    24231373.970    24231372.461    -3289283.754 2  -2563068.086 3
        17.000          22.100
  22783461.384    22783460.548    22783459.412   -13070487.720 4 -10184791.474 4
        27.100          27.400
  23454346.248    23454345.950    23454346.034    -6325315.144 3  -4928813.337 3
        22.100          23.000
  23402728.020    23402727.312    23402727.301    -6114667.639 3  -4764671.296 4
        23.000          24.200
  20733634.307    20733633.516    20733631.741   -24028104.624 6 -18723188.823 7
        40.300          45.400
  25451039.099    25451039.527    25451035.191     -700441.656     -545798.243 1
         3.000           6.500
  22903341.019    22903339.006    22903337.135   -11109486.425 5  -8656738.625 5
        31.500          31.000
  20416548.682    20416548.191    20416545.033   -24791545.887 7 -19318079.197 8
        43.100          49.500
 09  1  2  1 20 30.0000000  0 10G 9G21G15G14G 6G 3G18G28G19G22
  21651873.062    21651872.409    21651871.670   -17601609.568 5 -13715533.948 5
        34.000          34.700
  22595287.093    22595286.294    22595284.864   -15631203.490 4 -12180150.374 4
        26.500          25.300
  24251237.198    24251237.168    24251235.650    -3184902.347 2  -2481731.920 3
        17.000          22.100
  22764970.168    22764969.441    22764968.221   -13167659.214 4 -10260509.515 4
        27.400          27.900
  23468761.641    23468761.241    23468760.697    -6249564.965 3  -4869787.214 3
        22.100          23.000
  23416716.413    23416715.628    23416716.067    -6041156.739 3  -4707390.085 4
        22.600          24.900
  20740523.735    20740522.979    20740521.155   -23991900.339 6 -18694977.690 7
        40.300          45.300
  25449672.202    25449674.509    25449672.074     -707610.863     -551384.595 1
         3.000           6.500
  22903109.314    22903107.651    22903105.875   -11110702.622 5  -8657686.315 5
        31.600          31.100
  20411734.293    20411733.839    20411730.620   -24816845.601 7 -19337793.259 8
        43.100          49.600
 09  1  2  1 21  0.0000000  0 10G 9G21G15G14G 6G 3G18G28G19G22
  21643940.567    21643939.865    21643939.253   -17643295.649 5 -13748016.597 5
        34.300          34.900
  22614382.640    22614382.002    22614380.663   -15530855.139 4 -12101956.871 4
        26.800          24.900
  24271126.862    24271126.710    24271124.987    -3080382.659 2  -2400288.019 3
        16.100          22.100
  22746531.284    22746530.443    22746529.533   -13264555.602 4 -10336013.185 4
        27.400          27.900
  23483240.031    23483239.724    23483238.947    -6173479.889 3  -4810500.155 3
        21.600          23.000
  23430778.903    23430778.094    23430778.219    -5967260.014 3  -4649808.219 4
        21.600          24.900
  20747484.861    20747484.029    20747482.159   -23955320.230 6 -18666473.706 7
        40.300          45.200
  25448407.148    25448406.693    25448407.308     -714262.420     -556567.616 1
         3.000           9.000
  22902992.098    22902990.443    22902988.518   -11111319.562 5  -8658167.050 5
        31.600          31.500
  20406994.079    20406993.565    20406990.320   -24841755.688 7 -19357203.713 8
        43.100          49.600
 09  1  2  1 21 30.0000000  0 10G 9G21G15G14G 6G 3G18G28G19G22
  21636136.321    21636135.651    21636135.022   -17684307.355 5 -13779973.767 5
        34.500          35.100
  22633532.995    22633532.458    22633530.861   -15430219.706 4 -12023539.675 4
        26.800          24.600
  24291040.668    24291040.336    24291038.633    -2975735.380 2  -2318744.676 3
        17.000          21.600
  22728142.976    22728142.502    22728141.985   -13361183.794 4 -10411307.863 4
        27.100          28.100
  23497780.045    23497779.779    23497778.979    -6097071.108 3  -4750960.837 3
        21.600          23.000
  23444912.467    23444911.664    23444911.404    -5892988.369 3  -4591934.231 4
        22.100          24.600
  20754515.466    20754514.701    20754512.970   -23918373.144 6 -18637683.768 7
        40.300          45.100
  25447238.471    25447238.488    25447236.657     -720404.404 1   -561353.601 1
         6.500           9.000
  22902986.930    22902985.358    22902983.636   -11111345.832 5  -8658187.520 5
        31.600          32.000
  20402326.525    20402326.029    20402322.836   -24866283.965 7 -19376316.654 8
        43.300          49.700
 09  1  2  1 22  0.0000000  0 10G 9G21G15G14G 6G 3G18G28G19G22
  21628461.004    21628460.337    21628459.605   -17724641.467 5 -13811402.939 5
        34.700          34.900
  22652738.159    22652737.282    22652735.845   -15329297.619 4 -11944899.104 4
        26.500          24.600
  24310978.574    24310978.140    24310976.233    -2870961.257 2  -2237102.506 3
        15.100          21.600
  22709807.283    22709806.803    22709805.949   -13457540.554 4 -10486391.039 4
        27.400          28.600
  23512381.810    23512380.975    23512380.650    -6020339.824 3  -4691170.244 3
        21.100          23.400
  23459116.740    23459115.612    23459115.745    -5818343.076 3  -4533769.054 3
        21.600          23.800
  20761616.351    20761615.514    20761613.730   -23881058.163 6 -18608607.158 7
        40.300          44.900
  25446169.287    25446168.592    25446168.883     -726035.266 1   -565741.285 2
        11.000          15.100
  22903094.703    22903093.154    22903091.248   -11110779.676 5  -8657746.363 5
        32.100          31.600
  20397731.899    20397731.453    20397728.339   -24890428.275 7 -19395130.400 8
        43.200          49.900
 09  1  2  1 22 30.0000000  0 10G 9G21G15G14G 6G 3G18G28G19G22
  21620914.308    21620913.679    21620912.894   -17764299.138 5 -13842305.017 5
        34.700          34.800
  22671996.582    22671995.727    22671994.198   -15228094.173 4 -11866039.297 4
        26.200          24.900
  24330939.608    24330939.970    24330937.774    -2766065.499 2  -2155365.573 3
        16.100          21.600
  22691522.810    22691521.848    22691521.112   -13553627.448 4 -10561263.929 4
        27.600          28.600
  23527043.472    23527042.962    23527042.659    -5943291.903 3  -4631132.912 4
        19.900          24.200
  23473391.295    23473390.662    23473390.457    -5743330.380 3  -4475317.615 3
        21.600          23.800
  20768786.401    20768785.645    20768783.827   -23843379.061 6 -18579246.816 7
        40.400          44.800
  25445192.478    25445191.451    25445193.284     -731157.672     -569732.682 1
         3.000          11.000
  22903314.505    22903312.875    22903310.561   -11109624.619 5  -8656846.319 5
        31.800          30.600
  20393210.041    20393209.517    20393206.384   -24914191.248 7 -19413647.002 8
        43.300          49.900
 09  1  2  1 23  0.0000000  0 10G 9G21G15G14G 6G 3G18G28G19G22
  21613496.272    21613495.702    21613495.098   -17803280.778 5 -13872680.323 5
        34.700          35.100
  22691307.551    22691306.829    22691305.543   -15126613.519 4 -11786963.490 4
        25.600          24.600
  24350922.797    24350923.480    24350921.148    -2661052.004 2  -2073536.876 3
        16.100          21.100
  22673289.405    22673288.524    22673287.507   -13649444.933 4 -10635926.890 4
        27.600          28.400
  23541764.400    23541763.804    23541764.285    -5865932.317 3  -4570852.747 4
        20.500          25.300
  23487733.429    23487733.066    23487733.512    -5667955.622 3  -4416584.018 3
        20.500          23.000
  20776025.392    20776024.599    20776022.785   -23805338.364 6 -18549604.714 7
        40.500          44.800
  25444315.506    25444314.813    25444314.375     -735773.629     -573329.512 1
         3.000           6.500
  22903646.103    22903644.274    22903642.197   -11107883.178 5  -8655489.349 5
        31.600          30.800
  20388760.383    20388759.842    20388756.721   -24937574.567 7 -19431867.766 8
        43.300          50.000
 09  1  2  1 23 30.0000000  0 10G 9G21G15G14G 6G 3G18G28G19G22
  21606209.362    21606208.655    21606207.891   -17841574.865 5 -13902519.868 5
        34.700          34.900
  22710673.289    22710672.330    22710670.649   -15024848.229 4 -11707665.883 4
        25.900          24.900
  24370930.755    24370931.075    24370928.569    -2555913.388 2  -1991610.685 3
        16.100          20.500
  22655109.460    22655108.817    22655107.372   -13744981.478 4 -10710370.940 4
        27.900          28.400
  23556546.155    23556545.634    23556545.856    -5788254.130 3  -4510324.301 4
        21.600          25.600
  23502148.787    23502147.478    23502147.459    -5592211.114 3  -4357562.339 3
        20.500          23.000
  20783334.833    20783334.044    20783332.337   -23766926.918 6 -18519673.714 7
        40.500          44.800
  25443536.517    25443535.586    25443533.700     -739873.126     -576523.991
         3.000           3.000
  22904090.921    22904089.196    22904087.126   -11105545.655 5  -8653667.905 5
        32.000          31.500
  20384384.926    20384384.406    20384381.125   -24960568.239 7 -19449784.912 8
        43.400          50.100
 09  1  2  1 24  0.0000000  0 10G 9G21G15G14G 6G 3G18G28G19G22
  21599053.032    21599052.352    21599051.877   -17879180.091 5 -13931822.634 5
        34.400          34.900
  22730092.149    22730091.208    22730089.636   -14922801.006 4 -11628148.600 4
        25.600          24.900
  24390961.452    24390961.171    24390959.330    -2450652.631 2  -1909589.340 3
        16.100          20.500
  22636982.960    22636982.231    22636981.022   -13840236.390 4 -10784595.535 4
        28.400          28.800
  23571387.524    23571386.827    23571387.412    -5710260.738 3  -4449550.242 4
        21.100          24.900
  23516631.582    23516630.504    23516630.601    -5516101.475 3  -4298256.121 3
        20.500          22.100
  20790714.733    20790713.852    20790712.078   -23728145.696 6 -18489454.579 7
        40.300          44.600
  25442853.837    25442853.066    25442853.044     -743456.663     -579316.424
         3.000           3.000
  22904648.918    22904647.070    22904645.049   -11102613.213 5  -8651382.881 5
        32.000          31.500
  20380083.444    20380082.847    20380079.700   -24983172.496 7 -19467398.617 8
        43.400          50.100
 09  1  2  1 24 30.0000000  0 10G 9G21G15G14G 6G 3G18G28G19G22
  21592027.523    21592026.823    21592026.157   -17916100.365 5 -13960591.669 5
        34.700          35.100
  22749563.227    22749562.309    22749560.701   -14820479.707 4 -11548417.750 4
        24.900          24.900
  24411013.713    24411013.917    24411011.765    -2345276.723 2  -1827478.269 3
        16.100          19.900
  22618908.934    22618908.391    22618907.592   -13935213.186 4 -10858603.413 4
        28.400          29.000
  23586288.352    23586287.578    23586287.168    -5631960.403 3  -4388537.009 4
        21.100          24.200
  23531182.727    23531182.022    23531181.882    -5439634.272 3  -4238671.290 3
        21.100          22.100
  20798163.653    20798162.848    20798161.049   -23689000.957 6 -18458952.181 7
        40.300          44.500
  25442267.115    25442267.301    25442266.862     -746530.112     -581711.272
                         3.000
  22905319.025    22905317.384    22905314.965   -11099091.831 5  -8648638.941 5
        32.300          31.300
  20375855.125    20375854.599    20375851.446   -25005392.158 7 -19484712.640 8
        43.300          50.200
 09  1  2  1 25  0.0000000  0 10G 9G21G15G14G 6G 3G18G28G19G22
  21585132.759    21585132.077    21585131.131   -17952333.118 5 -13988824.980 5
        34.900          35.100
  22769086.507    22769085.367    22769083.916   -14717885.116 4 -11468473.943 3
        24.200          23.800
  24431087.770    24431087.781    24431085.228    -2239786.744 2  -1745278.287 3
        17.000          18.600
  22600889.080    22600888.323    22600887.497   -14029909.382 4 -10932392.635 4
        28.400          29.000
  23601246.143    23601245.448    23601245.423    -5553354.766 3  -4327285.867 4
        21.100          24.200
  23545802.012    23545801.032    23545800.730    -5362811.647 3  -4178809.504 3
        22.100          22.600
  20805681.853    20805681.087    20805679.375   -23649491.947 6 -18428165.938 7
        40.300          44.400
  25441781.913    25441780.794    25441779.444     -749091.653     -583707.296
         3.000           3.000
  22906101.307    22906099.757    22906097.548   -11094980.779 5  -8645435.522 5
        32.400          31.500
  20371700.332    20371699.820    20371696.644   -25027225.560 7 -19501725.677 8
        43.300          50.300
 09  1  2  1 25 30.0000000  0 10G 9G21G15G14G 6G 3G18G28G19G22
  21578368.376    21578367.731    21578367.110   -17987878.826 5 -14016522.919 5
        34.600          34.900
  22788660.041    22788659.174    22788657.950   -14615021.964 3 -11388320.869 3
        23.800          23.400
  24451182.764    24451182.364    24451179.522    -2134187.593 2  -1662993.217 2
        17.000          17.800
  22582922.285    22582921.590    22582920.555   -14124325.760 4 -11005963.820 4
        28.600          29.000
  23616261.313    23616260.937    23616260.805    -5474449.316 3  -4265801.117 3
        20.500          23.000
  23560487.045    23560486.156    23560486.073    -5285639.335 3  -4118675.217 3
        22.100          22.600
  20813268.979    20813268.166    20813266.320   -23609622.055 6 -18397098.489 7
        40.400          44.200
  25441390.315    25441389.051    25441387.672     -751143.883 1   -585306.436 1
         6.500           6.500
  22906995.108    22906993.537    22906991.284   -11090283.014 5  -8641774.931 5
        32.300          31.300
  20367618.642    20367618.113    20367614.997   -25048674.919 7 -19518439.458 8
        43.400          50.400
 09  1  2  1 26  0.0000000  0 10G 9G21G15G14G 6G 3G18G28G19G22
  21571736.192    21571735.506    21571734.930   -18022731.393 5 -14043680.762 5
        34.700          34.900
  22808285.869    22808285.164    22808283.349   -14511887.427 4 -11307956.329 3
        24.200          22.600
  24471298.458    24471298.814    24471296.017    -2028475.888 2  -1580620.467 3
        15.100          18.600
  22565010.226    22565009.394    22565008.305   -14218455.650 4 -11079311.769 4
        29.000          29.200
  23631334.095    23631333.430    23631333.459    -5395241.520 3  -4204080.749 3
        18.600          22.100
  23575239.919    23575239.090    23575238.312    -5208114.786 3  -4058266.486 3
        22.600          23.000
  20820925.540    20820924.717    20820922.849   -23569386.399 6 -18365746.028 7
        40.400          44.100
  25441097.180    25441096.896    25441096.142     -752681.790 1   -586504.802 1
         6.500           9.000
  22908001.821    22908000.161    22907998.061   -11084993.194 5  -8637652.989 5
        31.800          31.100
  20363611.174    20363610.614    20363607.454   -25069734.859 7 -19534849.800 8
        43.400          50.500
 09  1  2  1 26 30.0000000  0 10G 9G21G15G14G 6G 3G18G28G19G22
  21565236.536    21565235.897    21565235.234   -18056888.076 5 -14070296.359 5
        35.100          35.200
  22827963.258    22827962.651    22827960.834   -14408482.717 4 -11227381.249 3
        24.900          22.600
  24491436.288    24491435.892    24491433.300    -1922652.921 2  -1498161.037 3
        13.900          18.600
  22547153.111    22547152.222    22547151.116   -14312296.478 4 -11152434.479 4
        29.700          29.500
  23646463.561    23646463.430    23646463.057    -5315733.621 3  -4142126.560 3
        18.600          21.100
  23590058.225    23590057.560    23590057.375    -5130240.053 3  -3997584.883 3
        23.000          23.400
  20828651.738    20828650.905    20828649.137   -23528784.948 6 -18334108.534 7
        40.300          44.000
  25440904.863    25440903.766    25440900.844     -753704.431 1   -587301.665 1
         9.000           6.500
  22909120.689    22909119.222    22909117.014   -11079111.518 5  -8633069.863 5
        31.300          30.400
  20359677.871    20359677.322    20359674.200   -25090403.937 7 -19550955.572 8
        43.400          50.600
 09  1  2  1 27  0.0000000  0 10G 9G21G15G14G 6G 3G18G28G19G22
  21558869.246    21558868.730    21558868.047   -18090346.556 5 -14096367.888 5
        34.800          34.900
  22847691.952    22847690.939    22847689.108   -14304809.828 4 -11146597.189 3
        24.600          23.000
  24511593.790    24511594.320    24511591.681    -1816720.185 2  -1415616.039 3
        12.600          19.300
  22529350.688    22529350.115    22529349.114   -14405846.435 4 -11225330.533 4
        29.500          29.500
  23661650.471    23661649.953    23661649.349    -5235927.840 3  -4079940.251 3
        18.600          21.100
  23604943.521    23604942.894    23604942.588    -5052017.683 3  -3936632.403 3
        23.000          23.400
  20836447.660    20836446.789    20836444.872   -23487817.896 6 -18302186.159 7
        40.500          43.900
  25440807.462    25440806.415    25440805.271     -754211.256 1   -587696.627
         6.500           3.000
  22910352.696    22910351.143    22910348.710   -11072637.981 5  -8628025.545 4
        31.600          29.900
  20355819.070    20355818.580    20355815.517   -25110681.623 7 -19566756.364 8
        43.400          50.600
 09  1  2  1 27 30.0000000  0 10G 9G21G15G14G 6G 3G18G28G19G22
  21552635.172    21552634.533    21552633.770   -18123107.512 5 -14121895.898 5
        34.700          34.800
  22867470.756    22867469.626    22867468.067   -14200872.632 3 -11065607.203 3
        23.800          23.800
  24531771.666    24531772.140    24531769.932    -1710682.112 2  -1332988.992 3
        13.900          19.900
  22511603.999    22511603.204    22511602.374   -14499105.875 4 -11298000.210 4
        29.000          29.200
  23676892.364    23676892.272    23676892.097    -5155828.992 3  -4017525.577 3
        18.600          22.100
  23619894.450    23619893.650    23619893.512    -4973452.902 3  -3875413.086 3
        22.600          23.800
  20844312.461    20844311.630    20844309.684   -23446487.638 6 -18269980.761 7
        40.500          43.700
  25440806.007    25440807.792    25440808.372     -754204.401     -587691.271 1
                         6.500
  22911696.676    22911695.046    22911692.771   -11065575.338 5  -8622522.187 5
        31.500          30.200
  20352034.669    20352034.125    20352031.035   -25130569.136 7 -19582253.123 8
        43.400          50.600
 09  1  2  1 28  0.0000000  0 10G 9G21G15G14G 6G 3G18G28G19G22
  21546534.484    21546533.967    21546533.179   -18155167.015 5 -14146877.330 5
        35.100          35.100
  22887299.318    22887298.418    22887296.985   -14096670.922 3 -10984411.103 3
        23.800          23.400
  24551971.112    24551970.704    24551968.728    -1604537.636 2  -1250279.043 3
        12.600          19.300
  22493913.271    22493912.595    22493911.552   -14592070.611 4 -11370440.243 4
        29.200          29.500
  23692190.680    23692190.187    23692189.709    -5075437.243 3  -3954882.684 3
        19.300          22.100
  23634910.105    23634909.022    23634908.673    -4894545.340 3  -3813926.697 3
        22.100          23.400
  20852246.675    20852245.986    20852244.147   -23404792.111 6 -18237490.738 7
        40.500          43.700
  25440906.908    25440904.896    25440905.172     -753681.396     -587283.825 1
                         6.500
  22913153.360    22913151.547    22913149.710   -11057921.087 5  -8616557.837 5
        31.500          31.100
  20348325.000    20348324.530    20348321.380   -25150063.501 7 -19597443.536 8
        43.500          50.700
 09  1  2  1 28 30.0000000  0 10G 9G21G15G14G 6G 3G18G28G19G22
  21540567.635    21540566.951    21540566.274   -18186523.797 5 -14171311.180 5
        34.900          35.400
  22907178.034    22907177.244    22907175.887   -13992207.713 3 -10903011.223 3
        23.400          23.000
  24572190.634    24572189.997    24572187.528    -1498289.310 2  -1167488.160 3
        12.600          20.500
  22476279.029    22476278.436    22476277.424   -14684739.245 4 -11442649.553 4
        29.700          29.900
  23707544.214    23707543.655    23707542.831    -4994756.037 3  -3892014.224 3
        20.500          22.100
  23649989.665    23649989.024    23649989.010    -4815299.224 3  -3752176.483 3
        20.500          23.800
  20860250.439    20860249.652    20860247.829   -23362732.429 6 -18204716.962 7
        40.400          43.600
  25441103.686    25441100.673    25441101.359     -752642.251     -586472.984
                         3.000
  22914722.407    22914720.780    22914718.452   -11049676.311 5  -8610133.331 5
        31.800          31.000
  20344690.164    20344689.633    20344686.524   -25169164.702 7 -19612327.587 8
        43.400          50.700
 09  1  2  1 29  0.0000000  0 10G 9G21G15G14G 6G 3G18G28G19G22
  21534735.506    21534734.925    21534734.076   -18217171.046 5 -14195192.148 5
        35.100          35.100
  22927107.209    22927106.209    22927105.382   -13887478.757 3 -10821404.270 3
        23.400          23.800
  24592429.183    24592428.877    24592426.361    -1391933.935 2  -1084613.852 3
        13.900          21.100
  22458702.672    22458701.751    22458700.794   -14777104.852 4 -11514622.734 5
        29.700          30.100
  23722953.133    23722952.353    23722951.891    -4913782.667 3  -3828918.118 3
        22.600          23.000
  23665134.173    23665133.294    23665134.249    -4735711.732 3  -3690160.284 3
        18.600          23.800
  20868324.297    20868323.558    20868321.717   -23320303.824 6 -18171655.707 7
        40.400          43.500
  25441403.198    25441403.279    25441400.528     -751082.287 1   -585257.464
         6.500           3.000
  22916404.769    22916402.960    22916400.890   -11040835.936 5  -8603244.725 5
        32.000          31.100
  20341131.394    20341130.850    20341127.595   -25187866.805 7 -19626900.651 8
        43.600          50.700
 09  1  2  1 29 30.0000000  0 10G 9G21G15G14G 6G 3G18G28G19G22
  21529036.884    21529036.244    21529035.211   -18247118.987 5 -14218528.205 5
        35.500          35.100
  22947084.136    22947083.377    22947082.319   -13782498.605 3 -10739601.591 3
        23.400          23.400
  24612686.093    24612685.721    24612683.218    -1285484.741 2  -1001666.417 3
        15.100          22.100
  22441181.681    22441180.884    22441179.927   -14869177.902 4 -11586367.946 5
        29.700          30.100
  23738413.930    23738413.377    23738413.830    -4832531.536 3  -3765605.553 3
        21.600          23.800
  23680342.236    23680341.030    23680341.060    -4655797.348 3  -3627889.341 3
        19.300          23.400
  20876466.099    20876465.296    20876463.594   -23277518.416 6 -18138316.428 7
        40.300          43.400
  25441797.963    25441797.014    25441794.377     -749012.326 1   -583644.501 1
         6.500           6.500
  22918197.665    22918195.890    22918194.045   -11031412.483 5  -8595901.783 5
        31.000          31.100
  20337646.237    20337645.745    20337642.520   -25206180.892 7 -19641171.366 8
        43.600          50.700
 09  1  2  1 30  0.0000000  0 10G 9G21G15G14G 6G 3G18G28G19G22
  21523470.904    21523470.136    21523469.422   -18276368.365 5 -14241319.921 5
        35.300          35.400
  22967108.344    22967107.616    22967106.167   -13677271.930 3 -10657606.811 3
        23.400          22.600
  24632959.879    24632959.332    24632956.860    -1178946.094 2   -918649.307 3
        13.900          23.400
  22423716.067    22423715.467    22423714.717   -14960958.427 5 -11657885.209 5
        30.100          30.400
  23753928.482    23753927.596    23753927.201    -4751007.759 3  -3702080.545 3
        20.500          23.800
  23695610.237    23695609.344    23695609.291    -4575561.184 3  -3565367.659 3
        18.600          22.100
  20884675.333    20884674.515    20884672.812   -23234378.786 6 -18104701.132 7
        40.300          43.400
  25442285.169    25442283.240    25442287.946     -746435.406     -581636.678 1
                         6.500
  22920101.216    22920099.571    22920097.713   -11021408.577 5  -8588106.536 5
        30.800          31.100
  20334234.615    20334234.102    20334230.951   -25224108.945 7 -19655141.277 8
        43.600          50.800
 09  1  2  1 30 30.0000000  0 10G 9G21G15G14G 6G 3G18G28G19G22
  21518039.122    21518038.338    21518037.665   -18304912.241 5 -14263561.895 5
        35.200          35.400
  22987180.183    22987178.987    22987177.842   -13571795.027 3 -10575417.047 3
        23.000          23.000
  24653250.722    24653250.232    24653248.115    -1072314.277 2   -835559.613 3
        13.900          23.800
  22406307.761    22406307.086    22406306.409   -15052439.394 4 -11729169.051 5
        29.900          30.400
  23769494.163    23769493.403    23769493.033    -4669208.583 3  -3638340.948 3
        20.500          23.800
  23710940.478    23710939.718    23710939.602    -4495000.674 3  -3502593.265 3
        18.600          22.100
  20892952.944    20892952.128    20892950.350   -23190879.937 6 -18070805.923 7
        40.500          43.200
  25442875.302    25442874.203    25442873.902     -743345.611 1   -579229.040 1
         6.500           9.000
  22922116.450    22922114.725    22922113.043   -11010819.142 5  -8579855.040 5
        31.100          31.500
  20330897.563    20330897.083    20330893.890   -25241645.102 7 -19668805.812 8
        43.600          50.800
 09  1  2  1 31  0.0000000  0 10G 9G21G15G14G 6G 3G18G28G19G22
  21512742.386    21512741.660    21512741.135   -18332745.753 5 -14285250.349 5
        35.200          35.400
  23007299.656    23007298.697    23007297.440   -13466066.114 3 -10493030.913 3
        22.600          22.100
  24673558.993    24673559.714    24673558.221     -965587.634 2   -752396.021 3
        13.900          23.800
  22388957.695    22388957.000    22388956.070   -15143615.567 5 -11800215.400 5
        30.200          30.400
  23785112.291    23785111.655    23785111.089    -4587133.290 3  -3574386.191 3
        18.600          23.000
  23726332.525    23726331.827    23726331.452    -4414115.327 3  -3439565.722 3
        19.900          22.100
  20901299.351    20901298.545    20901296.748   -23147019.006 6 -18036628.571 7
        40.500          43.100
  25443562.257    25443561.387    25443557.550     -739739.528 1   -576419.082 1
         6.500           9.000
  22924243.523    22924241.967    22924239.783   -10999641.520 5  -8571145.208 5
        31.600          31.000
  20327636.001    20327635.504    20327632.328   -25258784.989 7 -19682161.564 8
        43.600          50.900
 09  1  2  1 31 30.0000000  0 10G 9G21G15G14G 6G 3G18G28G19G22
  21507581.823    21507581.068    21507580.244   -18359865.722 5 -14306382.782 5
        35.400          35.200
  23027466.469    23027465.637    23027464.588   -13360085.980 3 -10410449.014 3
        21.600          21.100
  24693886.752    24693887.692    24693885.090     -858766.532 2   -669158.812 3
        17.000          23.800
  22371665.995    22371665.381    22371664.339   -15234483.604 5 -11871021.638 5
        30.400          30.800
  23800782.877    23800782.225    23800782.158    -4504782.788 2  -3510217.022 3
        17.800          23.400
  23741786.040    23741785.311    23741785.294    -4332906.162 3  -3376285.867 3
        19.900          22.100
  20909714.966    20909714.202    20909712.361   -23102794.730 6 -18002168.095 7
        40.500          43.000
  25444345.547    25444343.808    25444343.730     -735615.639     -573205.707 1
         3.000          11.000
  22926483.229    22926481.226    22926479.033   -10987874.646 5  -8561976.215 5
        31.600          31.500
  20324450.177    20324449.610    20324446.481   -25275526.573 7 -19695206.953 8
        43.600          50.900
 09  1  2  1 32  0.0000000  0 10G 9G21G15G14G 6G 3G18G28G19G22
  21502555.395    21502554.776    21502554.163   -18386278.592 5 -14326964.243 5
        35.400          35.200
  23047680.191    23047679.359    23047677.733   -13253864.305 3 -10327678.919 3
        21.600          21.100
  24714231.592    24714230.808    24714228.753     -751860.387 2   -585855.340 4
        16.100          24.900
  22354432.094    22354431.210    22354430.212   -15325049.770 5 -11941592.654 5
        30.800          30.800
  23816504.026    23816503.607    23816503.995    -4422167.685 2  -3445841.629 4
        17.800          24.600
  23757298.355    23757297.883    23757298.604    -4251384.287 3  -3312762.304 3
        19.900          23.400
  20918198.242    20918197.423    20918195.494   -23058215.440 6 -17967430.987 7
        40.500          42.800
  25445228.192    25445226.855    25445225.673     -730981.769     -569594.951 1
         3.000           6.500
  22928832.925    22928831.265    22928829.177   -10975526.580 5  -8552354.347 5
        32.000          32.300
  20321338.827    20321338.289    20321335.068   -25291877.116 7 -19707947.633 8
        43.600          50.900
 09  1  2  1 32 30.0000000  0 10G 9G21G15G14G 6G 3G18G28G19G22
  21497664.508    21497663.808    21497663.009   -18411981.312 5 -14346992.341 5
        35.300          35.100
  23067938.926    23067938.015    23067936.943   -13147401.884 3 -10244721.202 3
        22.100          20.500
  24734590.822    24734590.655    24734588.021     -644869.863 2   -502486.145 4
        16.100          24.200
  22337255.801    22337255.149    22337254.082   -15415311.073 5 -12011926.112 5
        30.800          31.000
  23832274.733    23832274.751    23832275.189    -4339289.078 2  -3381260.914 4
        17.000          24.600
  23772872.328    23772871.131    23772870.501    -4169550.990 3  -3248996.113 3
        21.100          23.000
  20926749.110    20926748.315    20926746.287   -23013280.026 6 -17932416.377 7
        40.500          42.600
  25446206.840    25446205.888    25446204.280     -725836.612     -565585.696

  22931293.006    22931291.251    22931289.526   -10962596.511 5  -8542278.980 5
        31.800          32.100
  20318302.128    20318301.658    20318298.519   -25307834.341 7 -19720381.832 8
        43.700          51.000
 09  1  2  1 33  0.0000000  0  9G 9G21G15G14G 6G 3G18G19G22
  21492908.014    21492907.404    21492906.605   -18436975.920 5 -14366468.654 5
        35.500          35.200
  23088242.926    23088242.062    23088241.101   -13040704.177 3 -10161580.155 3
        22.100          20.500
  24754965.453    24754965.734    24754962.085     -537799.612 2   -419054.804 3
        16.100          23.000
  22320137.397    22320136.490    22320135.299   -15505269.134 5 -12082023.285 5
        30.600          30.600
  23848095.230    23848094.822    23848095.038    -4256153.264 2  -3316479.774 3
        17.800          23.800
  23788502.995    23788501.546    23788500.816    -4087411.917 3  -3184991.638 3
        21.100          23.000
  20935366.878    20935366.090    20935364.311   -22967992.418 6 -17897127.328 7
        40.300          42.600
  22933863.521    22933861.960    22933859.935   -10949088.381 5  -8531753.167 5
        31.500          32.000
  20315339.855    20315339.343    20315336.215   -25323401.378 7 -19732511.989 8
        43.700          51.000
 09  1  2  1 33 30.0000000  0 10G 9G21G28G15G14G 6G 3G18G19G22
  21488289.212    21488288.507    21488287.713   -18461248.620 5 -14385382.453 5
        35.500          35.300
  23108593.425    23108592.838    23108592.044   -12933760.327 3 -10078247.313 3
        21.600          20.500
  25448456.625    25448455.046    25448457.127           -.2301           .34411
                        11.000
  24775357.937    24775358.035    24775354.785     -430638.507 2   -335552.673 3
        15.100          22.600
  22303079.281    22303078.625    22303077.546   -15594909.320 5 -12151872.758 5
        30.800          31.000
  23863967.162    23863966.265    23863966.455    -4172750.008 2  -3251490.232 3
        17.800          23.800
  23804192.800    23804192.110    23804192.093    -4004957.075 3  -3120741.124 3
        19.900          23.800
  20944054.239    20944053.439    20944051.674   -22922340.059 6 -17861554.063 7
        40.300          42.500
  22936546.504    22936544.693    22936542.950   -10934989.896 5  -8520767.346 5
        31.500          32.300
  20312454.422    20312453.852    20312450.707   -25338564.757 7 -19744327.606 8
        43.700          51.000
 09  1  2  1 34  0.0000000  0 10G 9G21G28G15G14G 6G 3G18G19G22
  21483806.392    21483805.870    21483805.313   -18484804.471 5 -14403737.660 5
        35.400          35.300
  23128989.137    23128988.922    23128987.980   -12826578.892 3  -9994729.339 3
        21.600          21.100
  25449729.757    25449728.650    25449728.792        6688.042        5212.127 1
         3.000           9.000
  24795766.700    24795766.524    24795762.772     -323395.361 2   -251986.623 3
        15.100          23.800
  22286080.792    22286080.087    22286079.275   -15684236.098 5 -12221478.013 5
        31.100          31.300
  23879887.296    23879886.443    23879886.708    -4089088.440 3  -3186299.424 3
        18.600          23.400
  23819941.838    23819940.905    23819941.056    -3922196.523 3  -3056252.385 4
        19.300          24.600
  20952809.819    20952808.988    20952807.076   -22876329.972 6 -17825702.046 7
        40.500          42.300
  22939339.834    22939338.483    22939336.706   -10920308.252 5  -8509327.107 5
        31.600          32.100
  20309644.518    20309644.004    20309640.784   -25353330.733 7 -19755833.558 8
        43.800          51.000
 09  1  2  1 34 30.0000000  0 10G21G28G 9G15G14G 6G 3G18G19G22
  23149429.958    23149429.060    23149427.813   -12719167.014 3  -9911031.793 3
        22.600          21.600
  25451100.691    25451100.327    25451096.821       13885.622 1     10820.617
         9.000           3.000
  21479459.836    21479459.186    21479458.296   -18507647.148 5 -14421537.145 5
        35.800          35.100
  24816188.947    24816188.614    24816185.234     -216076.420 2   -168361.480 3
        12.600          22.600
  22269141.627    22269140.992    22269139.825   -15773253.051 5 -12290841.855 5
        31.600          31.100
  23895855.418    23895854.604    23895854.311    -4005176.487 3  -3120913.493 3
        19.300          23.400
  23835747.338    23835746.502    23835746.617    -3839137.650 3  -2991531.213 4
        18.600          24.600
  20961632.310    20961631.482    20961629.563   -22829967.474 6 -17789575.422 7
        40.500          42.200
  22942244.265    22942242.511    22942240.450   -10905048.867 5  -8497436.691 5
        31.800          32.000
  20306909.420    20306908.950    20306905.691   -25367703.617 7 -19767033.208 8
        43.800          51.000
 09  1  2  1 35  0.0000000  0 10G 9G21G28G15G14G 6G 3G18G19G22
  21475249.041    21475248.436    21475247.613   -18529774.966 5 -14438779.598 5
        35.900          35.100
  23169913.410    23169912.467    23169911.190   -12611526.342 3  -9827155.972 3
        23.000          22.100
  25452565.041    25452564.350    25452564.488       21592.735       16826.154 1
         3.000          11.000
  24836624.763    24836624.554    24836621.325     -108683.150 1    -84678.437 3
        11.000          20.500
  22252261.767    22252260.972    22252259.726   -15861958.150 5 -12359962.699 5
        31.800          31.100
  23911870.154    23911869.383    23911869.355    -3921016.155 3  -3055334.030 3
        19.900          23.000
  23851609.580    23851608.435    23851608.478    -3755782.811 3  -2926579.392 3
        18.600          23.800
  20970521.722    20970520.925    20970519.059   -22783252.830 6 -17753174.399 7
        40.400          42.200
  22945257.467    22945255.832    22945254.025   -10889212.378 5  -8485096.566 5
        31.500          31.800
  20304249.376    20304248.886    20304245.678   -25381682.279 7 -19777925.667 8
        43.900          51.100
 09  1  2  1 35 30.0000000  0 10G 9G21G28G15G14G 6G 3G18G19G22
  21471175.617    21471174.907    21471174.264   -18551181.245 5 -14455459.808 5
        35.900          35.300
  23190441.246    23190440.206    23190438.926   -12503653.755 3  -9743099.442 3
        21.600          21.100
  25454131.293    25454131.277    25454128.861       29814.079       23232.495 1
                         6.500
  24857073.402    24857074.218    24857071.232       -1212.194 1      -934.871 2
         9.000          13.900
  22235442.357    22235441.669    22235440.506   -15950344.261 5 -12428834.973 5
        31.800          31.500
  23927932.699    23927931.772    23927932.211    -3836604.995 3  -2989559.116 3
        18.600          23.000
  23867527.993    23867526.981    23867527.084    -3672129.574 2  -2861395.062 3
        17.000          22.600
  20979479.307    20979478.443    20979476.534   -22736181.254 6 -17716495.249 7
        40.400          42.100
  22948381.947    22948380.133    22948378.010   -10872794.000 5  -8472303.029 5
        31.000          31.300
  20301665.490    20301664.918    20301661.757   -25395260.978 7 -19788506.470 8
        43.900          51.100
 09  1  2  1 36  0.0000000  0 10G21G28G 9G15G14G 6G 3G18G19G22
  23211010.859    23211009.855    23211008.471   -12395558.737 3  -9658869.591 3
        20.500          19.900
  25455792.416    25455791.934    25455790.681       38541.917       30033.243 1
         3.000           9.000
  21467238.236    21467237.543    21467236.889   -18571872.814 6 -14471583.114 5
        36.000          35.400
  24877536.227    24877539.315    24877534.471      106327.285       82862.112 2
         3.000          12.600
  22218682.379    22218681.819    22218680.679   -16038417.467 5 -12497463.424 5
        32.000          31.600
  23944041.925    23944041.274    23944040.795    -3751953.605 2  -2923597.018 3
        17.800          23.000
  23883501.099    23883500.677    23883500.450    -3588188.627 2  -2795986.564 3
        17.800          22.100
  20988502.950    20988502.180    20988500.339   -22688760.799 6 -17679544.246 7
        40.300          42.000
  22951615.518    22951613.659    22951611.547   -10855802.205 5  -8459062.666 5
        30.600          31.300
  20299156.242    20299155.703    20299152.512   -25408446.974 7 -19798781.270 8
        44.000          51.200
 09  1  2  1 36 30.0000000  0 10G21G28G 9G15G14G 6G 3G18G19G22
  23231624.051    23231623.342    23231621.754   -12287233.758 3  -9574460.541 3
        20.500          19.900
  25457549.231    25457549.325    25457549.111       47786.335       37236.611 1
                         9.000
  21463438.823    21463438.124    21463437.383   -18591838.418 6 -14487140.729 5
        36.000          35.200
  24898015.579    24898015.332    24898015.963      213943.487      166718.838 2
                        13.900
  22201984.414    22201983.630    22201982.540   -16126166.155 5 -12565839.002 5
        31.800          32.000
  23960197.090    23960196.216    23960197.133    -3667054.474 2  -2857441.892 3
        17.000          22.600
  23899530.062    23899529.268    23899529.966    -3503953.108 2  -2730348.521 3
        15.100          21.100
  20997595.093    20997594.277    20997592.372   -22640981.819 6 -17642313.869 6
        40.400          41.900
  22954959.810    22954958.055    22954955.954   -10838227.935 5  -8445368.436 5
        30.800          31.000
  20296723.861    20296723.301    20296720.052   -25421229.852 7 -19808741.954 8
        44.000          51.200
 09  1  2  1 37  0.0000000  0 10G21G28G 9G15G14G 6G 3G18G19G22
  23252281.227    23252279.953    23252278.398   -12178682.479 3  -9489875.149 3
        19.900          19.900
  25459409.105    25459408.351    25459406.287       57545.231 1     44841.064 1
         6.500           6.500
  21459777.577    21459776.848    21459776.204   -18611078.450 6 -14502132.960 5
        36.000          35.300
  24918511.140    24918510.020    24918506.916      321632.944      250632.667 2
         3.000          15.100
  22185348.330    22185347.525    22185346.247   -16213590.538 5 -12633961.882 5
        32.300          32.100
  23976399.866    23976399.307    23976399.008    -3581912.105 2  -2791097.215 3
        17.000          21.600
  23915615.204    23915614.306    23915614.832    -3419426.986 2  -2664484.032 3
        17.000          19.900
  21006754.873    21006754.114    21006752.193   -22592846.661 6 -17604805.952 6
        40.400          41.800
  22958414.160    22958412.350    22958410.422   -10820073.625 5  -8431222.231 5
        30.200          30.800
  20294367.734    20294367.258    20294364.020   -25433610.543 7 -19818389.245 8
        44.000          51.200
 09  1  2  1 37 30.0000000  0 10G21G28G 9G15G14G 6G 3G18G19G22
  23272978.961    23272978.280    23272976.931   -12069910.672 3  -9405117.927 3
        19.900          19.300
  25461362.783    25461361.699    25461360.873       67814.981 1     52843.466 1
         6.500           9.000
  21456253.674    21456253.049    21456252.389   -18629595.736 5 -14516562.012 5
        35.900          35.300
  24939016.826    24939016.743    24939013.035      429390.094 1    334599.240 2
         6.500          13.900
  22168773.078    22168772.233    22168771.412   -16300692.513 5 -12701833.530 5
        32.300          32.300
  23992646.690    23992645.975    23992646.047    -3496532.972 2  -2724568.031 3
        17.000          20.500
  23931754.592    23931753.852    23931753.733    -3334617.212 2  -2598398.487 3
        17.000          19.300
  21015981.640    21015980.816    21015979.038   -22544359.513 6 -17567023.753 6
        40.200          41.700
  22961978.398    22961976.586    22961974.523   -10801343.560 5  -8416627.375 5
        30.200          30.400
  20292087.740    20292087.246    20292084.077   -25445591.988 7 -19827725.436 8
        44.000          51.300
 09  1  2  1 38  0.0000000  0 10G21G28G 9G15G14G 6G 3G18G19G22
  23293718.427    23293717.536    23293716.335   -11960924.829 3  -9320193.907 3
        20.500          19.900
  25463411.634    25463411.064    25463412.894       78590.709       61240.142 2
         3.000          12.600
  21452866.941    21452866.364    21452865.553   -18647393.310 6 -14530430.249 5
        36.000          35.200
  24959533.081    24959533.086    24959530.409      537209.475 1    418614.304 1
         6.500          11.000
  22152258.688    22152258.033    22152257.423   -16387474.635 5 -12769455.939 5
        32.300          32.600
  24008937.235    24008936.527    24008936.206    -3410924.149 2  -2657859.894 3
        17.000          19.300
  23947945.072    23947944.506    23947944.284    -3249530.939 2  -2532097.509 2
        17.000          17.800
  21025274.499    21025273.711    21025272.034   -22495525.118 6 -17528970.979 6
        40.200          41.800
  22965651.389    22965649.689    22965647.570   -10782042.854 5  -8401587.865 5
        31.000          30.600
  20289883.084    20289882.507    20289879.273   -25457178.215 7 -19836753.664 8
        44.100          51.300
 09  1  2  1 38 30.0000000  0 10G21G28G 9G15G14G 6G 3G18G19G22
  23314499.506    23314498.899    23314497.425   -11851719.717 3  -9235099.033 3
        19.900          19.900
  25465559.274    25465560.758    25465559.688       89879.524       70036.586 1
                         9.000
  21449618.892    21449618.218    21449617.248   -18664463.128 6 -14543731.408 5
        36.200          34.900
  24980062.791    24980062.730    24980060.884      645096.207 1    502681.906 1
         6.500          11.000
  22135807.370    22135806.491    22135805.743   -16473928.096 5 -12836822.259 5
        32.400          32.300
  24025273.543    24025272.775    24025272.141    -3325080.952 3  -2590969.110 2
        18.600          17.800
  23964190.955    23964190.337    23964189.687    -3164163.961 3  -2465577.777 2
        18.600          17.800
  21034634.821    21034634.025    21034632.278   -22446336.792 6 -17490642.412 6
        40.200          41.700
  22969434.285    22969432.542    22969430.240   -10762165.030 5  -8386098.656 5
        31.100          31.000
  20287754.871    20287754.353    20287751.123   -25468361.618 7 -19845468.006 8
        44.000          51.300
 09  1  2  1 39  0.0000000  0 10G21G28G 9G15G14G 6G 3G18G19G22
  23335321.328    23335320.180    23335319.135   -11742302.299 3  -9149838.725 3
        19.300          19.900
  25467805.314    25467804.488    25467800.484      101675.893       79228.586
         3.000           3.000
  21446508.352    21446507.625    21446506.886   -18680808.834 5 -14556468.320 5
        35.800          35.200
  25000605.382    25000604.881    25000603.785      753043.929 1    586796.992 2
         9.000          12.600
  22119417.501    22119416.751    22119416.053   -16560056.651 5 -12903935.400 5
        32.400          32.700
  24041651.500    24041650.891    24041650.554    -3239011.060 3  -2523901.655 2
        19.900          17.000
  23980487.153    23980486.356    23980486.708    -3078523.390 3  -2398844.868 3
        18.600          18.600
  21044061.386    21044060.550    21044058.547   -22396799.869 6 -17452042.212 6
        40.000          41.200
  22973325.270    22973323.662    22973321.366   -10741716.072 5  -8370164.394 5
        31.000          30.800
  20285702.613    20285702.096    20285698.917   -25479146.306 7 -19853871.659 8
        44.000          51.300
 09  1  2  1 39 30.0000000  0 10G21G28G 9G15G14G 6G 3G18G19G22
  23356181.886    23356180.891    23356180.478   -11632677.356 3  -9064416.734 3
        19.300          21.100
  25470146.245    25470146.116    25470145.758      113977.339 1     88814.115 1
         6.500           9.000
  21443535.287    21443534.556    21443533.650   -18696432.289 5 -14568642.436 5
        35.800          35.200
  25021158.614    25021158.308    25021156.708      861048.055 1    670956.022 2
        11.000          13.900
  22103089.705    22103089.007    22103087.982   -16645860.730 5 -12970795.703 5
        32.800          32.800
  24058071.937    24058071.606    24058071.085    -3152719.825 3  -2456661.746 2
        19.300          17.000
  23996835.332    23996834.410    23996833.789    -2992615.166 2  -2331903.388 2
        17.000          17.800
  21053553.524    21053552.791    21053550.972   -22346917.506 6 -17413172.840 6
        40.000          41.200
  22977324.812    22977322.868    22977320.866   -10720699.456 5  -8353787.810 5
        30.800          30.800
  20283725.633    20283725.164    20283722.053   -25489534.761 7 -19861966.560 8
        44.000          51.400
 09  1  2  1 40  0.0000000  0 10G21G28G 9G15G14G 6G 3G18G19G22
  23377082.658    23377081.923    23377081.182   -11522843.377 3  -8978831.852 3
        18.600          21.600
  25472583.704    25472583.094    25472581.138      126786.872 1     98795.616 1
         6.500           6.500
  21440700.442    21440699.796    21440699.059   -18711329.442 6 -14580250.611 5
        36.000          35.500
  25041720.743    25041721.110    25041719.992      969110.737 1    755160.679 2
         9.000          13.900
  22086824.362    22086823.698    22086822.722   -16731335.096 5 -13037399.088 5
        32.700          33.000
  24074534.598    24074534.172    24074534.330    -3066206.672 3  -2389248.909 2
        18.600          17.800
  24013233.580    24013233.173    24013233.593    -2906438.591 2  -2264752.810 3
        17.000          18.600
  21063112.309    21063111.462    21063109.540   -22296686.415 6 -17374031.726 6
        40.000          41.000
  22981432.328    22981430.682    22981428.811   -10699112.248 5  -8336966.621 5
        30.800          30.800
  20281825.099    20281824.543    20281821.351   -25499522.833 7 -19869749.475 8
        44.000          51.400
 09  1  2  1 40 30.0000000  0 10G21G28G 9G15G14G 6G 3G18G19G22
  23398023.320    23398022.688    23398021.603   -11412800.292 2  -8893084.032 3
        17.000          21.100
  25475120.268    25475119.113    25475116.865      140106.063 1    109174.214 1
        11.000           9.000
  21438004.147    21438003.614    21438003.014   -18725496.943 5 -14591290.226 5
        35.900          35.400
  25062295.250    25062294.995    25062295.027     1077232.292 1    839411.215 2
         6.500          15.100
  22070622.405    22070621.732    22070620.949   -16816476.303 5 -13103742.861 5
        32.800          33.200
  24091039.885    24091039.396    24091039.802    -2979472.048 2  -2321663.480 3
        17.800          18.600
  24029683.802    24029682.712    24029683.049    -2819994.703 2  -2197393.950 3
        16.100          18.600
  21072737.478    21072736.712    21072734.868   -22246104.981 6 -17334617.621 6
        39.800          40.700
  22985649.134    22985647.616    22985645.603   -10676953.653 5  -8319700.183 5
        31.300          31.300
  20280001.079    20280000.581    20279997.370   -25509107.772 7 -19877218.265 8
        44.100          51.300
 09  1  2  1 41  0.0000000  0 10G21G28G 9G15G14G 6G 3G18G19G22
  23419003.163    23419001.980    23419001.203   -11302550.306 2  -8807174.997 3
        17.800          20.500
  25477752.122    25477750.275    25477749.464      153935.266      119950.106 1
                        11.000
  21435447.478    21435446.817    21435446.109   -18738933.606 6 -14601760.355 5
        36.000          35.200
  25082878.538    25082881.013    25082880.362     1185411.666      923706.799 2
         3.000          12.600
  22054484.220    22054483.522    22054482.698   -16901282.402 5 -13169825.522 5
        33.100          33.100
  24107586.438    24107585.948    24107586.476    -2892518.338 2  -2253907.355 3
        15.100          19.900
  24046183.022    24046182.437    24046183.027    -2733285.819 2  -2129828.601 3
        15.100          18.600
  21082429.596    21082428.720    21082426.808   -22195173.656 6 -17294930.874 6
        39.700          40.700
  22989974.227    22989972.725    22989970.793   -10654224.127 5  -8301988.863 5
        31.300          31.000
  20278254.009    20278253.500    20278250.310   -25518288.677 7 -19884372.222 8
        44.100          51.300
 09  1  2  1 41 30.0000000  0 10G21G28G 9G15G14G 6G 3G18G19G22
  23440022.347    23440021.579    23440020.325   -11192095.038 3  -8721105.988 3
        18.600          19.900
  25480480.738    25480478.676    25480479.269      168273.616      131122.978 1
                        11.000
  21433029.630    21433029.123    21433028.265   -18751638.694 6 -14611660.422 5
        36.200          35.200
  25103474.746    25103478.527    25103479.038     1293647.242     1008047.008 1
                        11.000
  22038410.523    22038409.797    22038408.803   -16985751.581 5 -13235645.642 5
        33.200          33.200
  24124175.511    24124174.205    24124174.516    -2805348.141 2  -2185982.557 3
        13.900          20.500
  24062733.229    24062733.304    24062732.801    -2646314.738 2  -2062058.956 3
        16.100          18.600
  21092188.051    21092187.191    21092185.247   -22143892.689 6 -17254971.681 6
        39.800          40.600
  22994408.521    22994406.630    22994404.686   -10630924.491 5  -8283833.312 5
        31.100          31.300
  20276583.823    20276583.333    20276580.108   -25527065.806 7 -19891211.549 8
        44.100          51.300
 09  1  2  1 42  0.0000000  0 10G21G28G 9G15G14G 6G 3G18G19G22
  23461079.520    23461078.756    23461077.531   -11081440.331 3  -8634881.577 3
        19.300          19.300
  25483305.089    25483302.271    25483301.331      183118.113 1    142690.112 1
         6.500           6.500
  21430750.753    21430750.181    21430749.398   -18763614.578 6 -14620992.277 5
        36.000          35.100
  25124081.243    25124084.504    25124083.563     1401933.909     1092426.418 1
                        11.000
  22022400.170    22022399.604    22022398.559   -17069885.600 5 -13301204.605 5
        33.400          33.400
  24140802.798    24140802.601    24140802.091    -2717967.662 2  -2117893.902 3
        15.100          20.500
  24079333.710    24079332.459    24079331.857    -2559087.311 2  -1994089.568 3
        17.000          19.300
  21102012.230    21102011.372    21102009.581   -22092266.011 6 -17214743.101 6
        39.600          40.600
  22998949.817    22998948.090    22998945.906   -10607059.199 5  -8265236.993 5
        31.100          31.600
  20274989.966    20274989.456    20274986.206   -25535441.582 7 -19897738.118 8
        44.100          51.400
 09  1  2  1 42 30.0000000  0 10G21G28G 9G15G14G 6G 3G18G19G22
  23482172.445    23482171.438    23482170.252   -10970598.136 3  -8548511.057 3
        19.900          18.600
  25486225.011    25486222.165    25486220.540      198457.576      154642.867
         3.000           3.000
  21428609.076    21428608.288    21428607.361   -18774870.695 6 -14629763.278 5
        36.200          35.100
  25144695.973    25144698.750    25144696.326     1510259.726     1176836.138 2
                        12.600
  22006451.916    22006451.448    22006450.476   -17153693.410 5 -13366509.375 5
        33.400          33.400
  24157468.582    24157468.226    24157467.816    -2630389.908 2  -2049651.529 3
        15.100          20.500
  24095978.993    24095977.272    24095976.794    -2471617.121 2  -1925931.005 3
        17.000          19.300
  21111900.211    21111899.338    21111897.530   -22040304.474 6 -17174253.598 6
        39.500          40.300
  23003596.369    23003594.844    23003592.938   -10582639.728 5  -8246208.841 5
        30.600          32.000
  20273470.709    20273470.193    20273466.993   -25543425.318 7 -19903959.204 8
        44.100          51.400
 09  1  2  1 43  0.0000000  0 10G21G28G 9G15G14G 6G 3G18G19G22
  23503302.518    23503301.489    23503300.010   -10859558.470 3  -8461986.674 2
        19.300          17.800
  25489238.893    25489236.325    25489237.801      214304.131      166990.937 1
         3.000           6.500
  21426606.379    21426605.692    21426604.950   -18785393.937 6 -14637963.208 5
        36.100          35.200
  25165318.215    25165315.048    25165317.558     1618635.761     1261284.674 1
                         9.000
  21990568.956    21990568.277    21990567.078   -17237160.747 5 -13431548.841 5
        33.900          33.500
  24174172.632    24174172.598    24174171.953    -2542604.991 2  -1981247.712 3
        13.900          20.500
  24112670.981    24112669.775    24112669.449    -2383894.438 2  -1857575.681 3
        16.100          19.300
  21121854.010    21121853.227    21121851.490   -21987995.731 6 -17133493.538 6
        39.500          40.200
  23008350.898    23008349.299    23008347.511   -10557653.963 5  -8226739.419 5
        30.100          31.600
  20272028.347    20272027.838    20272024.730   -25551004.567 7 -19909865.107 8
        44.000          51.500
 09  1  2  1 43 30.0000000  0 10G21G28G 9G15G14G 6G 3G18G19G22
  23524470.230    23524469.917    23524468.894   -10748319.132 3  -8375306.693 3
        19.300          18.600
  25492353.447    25492351.799    25492349.759      230661.449 2    179737.017 1
        12.600           9.000
  21424744.260    21424743.593    21424742.777   -18795179.540 6 -14645588.348 5
        36.100          35.100
  25185950.352    25185951.398    25185954.861     1727064.314     1345775.692 1
                         6.500
  21974751.430    21974750.560    21974749.520   -17320282.053 5 -13496318.681 5
        33.800          33.400
  24190917.136    24190916.538    24190916.821    -2454611.656 2  -1912681.491 3
        13.900          20.500
  24129411.582    24129411.200    24129411.552    -2295917.993 2  -1789022.639 3
        16.100          20.500
  21131874.720    21131873.914    21131872.160   -21935336.487 6 -17092460.361 6
        39.400          40.100
  23013214.262    23013212.492    23013210.273   -10532099.162 5  -8206826.598 5
        30.200          31.300
  20270664.092    20270663.564    20270660.283   -25558174.427 7 -19915452.007 8
        44.100          51.500
 09  1  2  1 44  0.0000000  0 10G21G28G 9G15G14G 6G 3G18G19G22
  23545676.657    23545676.029    23545674.539   -10636882.272 3  -8288472.813 3
        19.300          19.300
  25495559.978    25495558.491    25495558.159      247528.978 1    192880.480 1
         6.500           9.000
  21423022.714    21423021.996    21423021.109   -18804226.701 6 -14652638.079 5
        36.100          35.100
  25206594.574    25206596.846    25206596.801     1835544.038     1430305.414 2
                        12.600
  21959000.036    21958999.295    21958998.233   -17403055.598 5 -13560817.530 5
        33.900          33.400
  24207701.762    24207701.034    24207700.766    -2366412.655 2  -1843955.005 3
        15.100          21.100
  24146201.670    24146200.575    24146200.838    -2207690.849 2  -1720274.219 3
        17.000          21.100
  21141962.255    21141961.388    21141959.510   -21882327.108 6 -17051154.352 6
        39.400          39.900
  23018184.805    23018183.085    23018181.615   -10505976.535 5  -8186471.319 5
        30.200          31.600
  20269377.566    20269377.072    20269373.871   -25564934.642 7 -19920719.704 8
        44.100          51.500
 09  1  2  1 44 30.0000000  0 10G21G28G 9G15G14G 6G 3G18G19G22
  23566916.086    23566915.313    23566913.554   -10525267.800 2  -8201500.520 3
        17.800          18.600
  25498863.264    25498862.477    25498862.820      264888.609      206407.553 1
         3.000          11.000
  21421438.297    21421437.661    21421436.770   -18812552.595 6 -14659125.788 5
        36.100          35.100
  25227245.476    25227246.877    25227248.969     1944055.727     1514859.955 2
                        12.600
  21943311.910    21943311.185    21943310.219   -17485497.604 5 -13625058.042 5
        34.000          33.800
  24224520.578    24224519.685    24224520.043    -2278028.254 2  -1775084.082 3
        15.100          21.100
  24163035.013    24163033.811    24163033.452    -2119233.709 3  -1651346.595 3
        18.600          19.900
  21152112.585    21152111.752    21152109.966   -21828985.903 6 -17009589.776 6
        39.300          39.800
  23023260.223    23023258.808    23023256.881   -10479304.774 5  -8165688.125 5
        30.600          31.300
  20268165.771    20268165.299    20268162.148   -25571302.404 7 -19925681.594 8
        44.100          51.500
 09  1  2  1 45  0.0000000  0 10G21G28G 9G15G14G 6G 3G18G19G22
  23588190.482    23588189.952    23588188.731   -10413466.918 2  -8114382.991 3
        16.100          18.600
  25502261.510    25502260.890    25502263.261      282750.564      220326.083 2
         3.000          12.600
  21419993.361    21419992.762    21419991.759   -18820145.715 6 -14665042.501 5
        36.200          34.900
  25247903.069    25247903.413    25247903.292     2052608.380 1   1599446.405 2
         6.500          15.100
  21927689.306    21927688.470    21927687.476   -17567595.581 5 -13689030.481 5
        34.400          33.900
  24241375.686    24241375.189    24241376.483    -2189450.513 2  -1706062.485 3
        16.100          21.100
  24179911.845    24179911.384    24179911.372    -2030538.330 3  -1582233.313 3
        18.600          19.300
  21162328.171    21162327.429    21162325.552   -21775302.726 6 -16967758.728 6
        39.400          39.700
  23028442.180    23028440.531    23028438.652   -10452074.264 5  -8144469.546 5
        30.400          31.000
  20267030.894    20267030.390    20267027.219   -25577266.343 7 -19930328.819 8
        44.000          51.500
 09  1  2  1 45 30.0000000  0 10G21G28G 9G15G14G 6G 3G18G19G22
  23609500.847    23609500.049    23609498.940   -10301481.887 2  -8027121.963 3
        16.100          19.900
  25505757.932    25505758.563    25505756.007      301114.190      234635.351 1
                         6.500
  21418688.053    21418687.322    21418686.520   -18827005.705 6 -14670387.948 5
        36.200          35.200
  25268568.550    25268569.035    25268567.555     2161200.189 1   1684063.343 2
         9.000          13.900
  21912132.150    21912131.497    21912130.366   -17649348.248 5 -13752733.839 5
        34.400          33.900
  24258268.297    24258267.959    24258268.007    -2100682.436 2  -1636892.577 3
        16.100          21.100
  24196836.035    24196835.246    24196834.174    -1941607.911 3  -1512936.907 3
        19.300          18.600
  21172608.750    21172607.954    21172606.200   -21721277.983 6 -16925661.526 6
        39.300          39.500
  23033730.435    23033728.810    23033726.690   -10424286.096 5  -8122816.436 5
        31.500          31.000
  20265972.985    20265972.436    20265969.217   -25582826.248 7 -19934661.208 8
        44.100          51.500
 09  1  2  1 46  0.0000000  0 10G21G28G 9G15G14G 6G 3G18G19G22
  23630846.836    23630845.597    23630845.377   -10189307.375 2  -7939713.294 3
        15.100          19.300
  25509347.514    25509347.091    25509345.819      319986.544      249341.086
                         3.000
  21417523.803    21417523.087    21417522.299   -18833124.227 6 -14675155.621 5
        36.100          35.300
  25289240.568    25289240.859    25289240.168     2269837.466 1   1768715.718 2
         9.000          12.600
  21896642.652    21896641.886    21896640.885   -17730746.279 5 -13816160.860 5
        34.400          33.900
  24275198.043    24275196.867    24275197.123    -2011718.684 2  -1567570.183 3
        16.100          19.900
  24213804.800    24213803.430    24213802.679    -1852437.631 2  -1443453.561 3
        17.000          18.600
  21182955.784    21182954.952    21182952.969   -21666904.645 6 -16883292.692 6
        39.400          39.300
  23039125.599    23039123.884    23039121.817   -10395933.750 5  -8100723.702 5
        31.300          30.600
  20264993.268    20264992.769    20264989.646   -25587974.128 7 -19938672.543 8
        44.100          51.600
 09  1  2  1 46 30.0000000  0 10G21G28G 9G15G14G 6G 3G18G19G22
  23652226.249    23652224.674    23652225.397   -10076954.754 2  -7852165.841 2
        13.900          17.800
  25513035.851    25513034.099    25513032.230      339357.659      264435.379 1
         3.000           9.000
  21416498.697    21416497.945    21416496.958   -18838510.548 6 -14679352.757 5
        36.100          35.100
  25309919.247    25309920.752    25309920.409     2378509.414 1   1853395.099 2
         9.000          12.600
  21881218.907    21881218.257    21881217.129   -17811797.627 5 -13879317.743 5
        34.600          34.000
  24292161.866    24292161.126    24292160.925    -1922571.731 2  -1498105.055 3
        16.100          18.600
  24230815.603    24230814.621    24230815.310    -1763039.641 2  -1373792.786 3
        15.100          19.300
  21193366.882    21193366.180    21193364.299   -21612193.014 6 -16840660.250 6
        39.300          39.300
  23044626.029    23044624.462    23044622.618   -10367027.959 5  -8078199.720 5
        31.000          31.000
  20264090.484    20264089.947    20264086.756   -25592718.787 7 -19942369.680 8
        44.100          51.600
 09  1  2  1 47  0.0000000  0 10G21G28G 9G15G14G 6G 3G18G19G22
  23673638.041    23673638.867    23673638.468    -9964427.365 2  -7764482.194 2
        13.900          17.800
  25516816.001    25516814.199    25516814.380      359225.770 1    279917.118 1
         6.500           9.000
  21415613.133    21415612.363    21415611.369   -18843165.206 6 -14682979.760 5
        36.300          35.200
  25330605.508    25330606.086    25330606.502     2487213.157 1   1938099.248 2
         6.500          12.600
  21865861.480    21865860.751    21865859.719   -17892502.033 5 -13942204.277 5
        34.700          34.400
  24309160.515    24309159.877    24309159.310    -1833245.651 2  -1428500.331 2
        16.100          17.800
  24247869.955    24247869.083    24247869.704    -1673418.095 2  -1303957.823 3
        15.100          19.300
  21203842.509    21203841.594    21203839.729   -21557144.315 6 -16797765.160 6
        39.300          39.300
  23050231.756    23050229.950    23050228.088   -10337571.172 5  -8055246.381 5
        31.000          31.100
  20263263.968    20263263.510    20263260.439   -25597061.213 7 -19945753.386 8
        44.100          51.600
 09  1  2  1 47 30.0000000  0 10G21G28G 9G15G14G 6G 3G18G19G22
  23695085.025    23695084.782    23695084.340    -9851727.097 2  -7676663.828 2
        15.100          17.000
  25520691.346    25520689.970    25520689.552      379590.410 1    295785.596 1
         9.000           9.000
  21414866.665    21414865.878    21414864.920   -18847087.575 6 -14686036.156 5
        36.200          34.900
  25351295.951    25351297.693    25351296.027     2595947.069     2022826.977 1
         3.000          11.000
  21850570.668    21850569.750    21850568.558   -17972857.780 5 -14004819.131 5
        34.900          34.600
  24326191.769    24326191.057    24326191.180    -1743742.700 2  -1358757.785 2
        15.100          17.800
  24264966.689    24264965.564    24264965.747    -1583575.960 2  -1233950.980 2
        13.900          17.800
  21214381.894    21214381.054    21214379.208   -21501759.023 6 -16754607.789 6
        39.300          39.200
  23055941.527    23055939.792    23055938.072   -10307564.370 5  -8031864.463 5
        30.400          31.100
  20262514.462    20262513.938    20262510.731   -25601000.529 7 -19948822.986 8
        44.100          51.600
 09  1  2  1 48  0.0000000  0 10G21G28G 9G15G14G 6G 3G18G19G22
  23716565.695    23716564.574    23716564.003    -9738852.487 2  -7588709.621 2
        13.900          17.000
  25524661.097    25524659.875    25524659.428      400454.879      312043.576 1
                         9.000
  21414260.244    21414259.588    21414258.513   -18850273.453 6 -14688518.656 5
        36.100          34.800
  25371993.217    25371992.891    25371993.856     2704713.890     2107580.353 1
                        11.000
  21835346.617    21835345.772    21835344.612   -18052859.684 5 -14067158.259 5
        34.800          34.500
  24343255.948    24343255.623    24343256.899    -1654062.038 1  -1288876.750 2
        11.000          17.000
  24282105.091    24282104.692    24282104.209    -1493511.718 2  -1163771.083 3
        15.100          18.600
  21224986.001    21224985.209    21224983.356   -21446033.950 6 -16711185.655 6
        39.300          39.100
  23061757.159    23061755.278    23061752.944   -10277005.010 5  -8008051.983 5
        30.200          30.600
  20261842.336    20261841.812    20261838.588   -25604532.579 7 -19951575.229 8
        44.100          51.500
 09  1  2  1 48 30.0000000  0  9G21G28G 9G14G 6G 3G18G19G22
  23738078.267    23738076.921    23738075.900    -9625806.913 2  -7500622.187 2
        15.100          16.100
  25528727.236    25528724.877    25528724.861      421817.366      328689.725 1
                         6.500
  21413793.918    21413793.312    21413792.437   -18852723.666 6 -14690427.918 5
        36.000          35.100
  21820190.106    21820189.395    21820188.034   -18132507.355 5 -14129221.365 5
        35.100          34.500
  24360356.071    24360354.799    24360354.860    -1564207.560 1  -1218860.309 2
        11.000          16.100
  24299285.776    24299284.827    24299284.763    -1403230.051 2  -1093421.755 3
        15.100          19.300
  21235654.352    21235653.711    21235651.840   -21389970.964 6 -16667500.211 6
        39.300          38.900
  23067676.630    23067675.143    23067673.123   -10245895.715 5  -7983810.988 5
        30.400          30.400
  20261247.523    20261247.004    20261243.794   -25607658.162 7 -19954010.747 8
        44.000          51.400
 09  1  2  1 49  0.0000000  0  9G21G28G 9G14G 6G 3G18G19G22
  23759620.535    23759619.497    23759617.745    -9512600.359 2  -7412409.291 2
        13.900          16.100
  25532886.423    25532885.656    25532882.196      443669.027      345717.084 1
                         9.000
  21413466.239    21413465.606    21413464.935   -18854445.956 5 -14691769.955 5
        35.900          35.400
  21805099.866    21805099.088    21805097.910   -18211807.212 5 -14191013.450 5
        35.300          34.800
  24377486.440    24377485.786    24377484.924    -1474190.080 2  -1148716.818 2
        12.600          16.100
  24316504.449    24316503.854    24316504.572    -1312741.784 2  -1022911.437 3
        15.100          19.900
  21246385.574    21246384.720    21246383.024   -21333578.494 6 -16623558.024 6
        39.100          38.900
  23073699.317    23073697.874    23073695.858   -10214245.411 5  -7959148.417 5
        30.100          30.200
  20260728.568    20260728.065    20260724.865   -25610385.224 7 -19956135.730 8
        44.000          51.400
 09  1  2  1 49 30.0000000  0  9G21G28G 9G14G 6G 3G18G19G22
  23781195.946    23781194.068    23781192.992    -9399220.968 2  -7324061.761 2
        13.900          16.100
  25537140.016    25537139.116    25537137.684      466022.977 1    363135.724 1
         6.500          11.000
  21413279.604    21413278.935    21413278.259   -18855425.962 5 -14692533.594 5
        35.900          35.200
  21790078.519    21790077.751    21790076.779   -18290744.068 5 -14252522.671 5
        35.400          35.100
  24394649.212    24394648.114    24394647.947    -1383998.133 2  -1078437.410 2
        12.600          15.100
  24333766.249    24333765.424    24333764.988    -1222035.505 2   -952231.244 3
        16.100          20.500
  21257181.941    21257181.116    21257179.360   -21276843.151 6 -16579348.669 6
        39.100          38.900
  23079827.801    23079826.385    23079824.438   -10182041.610 5  -7934054.561 5
        30.200          30.800
  20260288.253    20260287.750    20260284.565   -25612699.011 7 -19957938.677 8
        44.000          51.500
 09  1  2  1 50  0.0000000  0  9G21G28G 9G14G 6G 3G18G19G22
  23802802.212    23802801.832    23802799.546    -9285676.435 2  -7235585.546 2
        13.900          15.100
  25541485.759    25541483.434    25541484.957      488873.113      380941.110 1
         3.000           9.000
  21413233.782    21413232.873    21413231.960   -18855668.990 6 -14692722.972 5
        36.200          35.200
  21775125.740    21775125.007    21775124.011   -18369321.436 5 -14313751.773 5
        35.500          35.300
  24411842.732    24411841.348    24411842.616    -1293640.090 1  -1008028.581 2
        11.000          15.100
  24351065.301    24351064.576    24351065.355    -1131120.123 2   -881388.108 3
        15.100          19.300
  21268042.520    21268041.674    21268039.779   -21219771.110 6 -16534876.947 6
        39.100          38.700
  23086060.160    23086058.552    23086056.334   -10149291.346 5  -7908534.881 5
        30.400          30.800
  20259925.513    20259925.025    20259921.874   -25614604.939 7 -19959423.816 8
        44.000          51.500
 09  1  2  1 50 30.0000000  0  9G21G28G 9G14G 6G 3G18G19G22
  23824440.603    23824439.072    23824437.856    -9171962.981 2  -7146977.671 2
        12.600          12.600
  25545930.151    25545929.453    25545927.587      512224.748      399137.318 1
                         6.500
  21413328.602    21413327.840    21413327.186   -18855169.123 5 -14692333.461 5
        35.900          35.300
  21760242.671    21760241.941    21760241.056   -18447532.362 5 -14374695.338 5
        35.600          35.600
  24429069.664    24429069.130    24429070.037    -1203112.954 1   -937487.960 2
        11.000          15.100
  24368406.686    24368405.579    24368406.797    -1039992.237 2   -810379.420 3
        15.100          19.900
  21278968.220    21278967.308    21278965.333   -21162356.883 6 -16490138.587 6
        39.000          38.600
  23092397.011    23092395.457    23092393.380   -10115989.767 5  -7882585.621 5
        30.100          30.400
  20259641.829    20259641.288    20259638.006   -25616096.734 7 -19960586.252 8
        44.100          51.400
 09  1  2  1 51  0.0000000  0  9G21G28G 9G14G 6G 3G18G19G22
  23846109.674    23846109.248    23846107.663    -9058088.836 2  -7058244.586 2
        12.600          12.600
  25550466.547    25550465.805    25550466.115      536070.953      417718.665 1
                        11.000
  21413564.006    21413563.392    21413562.583   -18853931.829 6 -14691369.336 5
        36.100          35.200
  21745428.561    21745427.720    21745426.781   -18525381.332 5 -14435356.856 5
        35.500          35.600
  24446327.827    24446327.476    24446326.298    -1112425.110 2   -866822.113 2
        12.600          13.900
  24385787.375    24385786.552    24385786.338     -948660.868 2   -739212.142 3
        15.100          19.300
  21289957.522    21289956.691    21289954.822   -21104606.979 6 -16445138.662 6
        38.900          38.400
  23098837.871    23098835.974    23098834.013   -10082144.136 4  -7856212.414 4
        29.900          29.900
  20259435.640    20259435.096    20259431.906   -25617179.849 7 -19961430.237 8
        44.100          51.400
 09  1  2  1 51 30.0000000  0  9G21G28G 9G14G 6G 3G18G19G22
  23867809.904    23867808.921    23867807.886    -8944054.978 1  -6969387.046 2
        11.000          13.900
  25555098.497    25555098.552    25555099.161      560412.121      436685.788 2
                        13.900
  21413939.969    21413939.296    21413938.454   -18851956.086 6 -14689829.796 5
        36.000          35.200
  21730683.648    21730682.923    21730681.896   -18602866.032 5 -14495734.527 5
        35.900          35.800
  24463615.806    24463615.143    24463613.965    -1021578.618 2   -796032.623 2
        12.600          15.100
  24403205.590    24403204.852    24403204.096     -857127.542 2   -667887.485 3
        12.600          19.300
  21301010.900    21301010.047    21301008.346   -21046521.029 6 -16399876.881 6
        38.900          38.600
  23105382.041    23105380.182    23105377.992   -10047755.099 4  -7829415.773 4
        29.900          29.700
  20259307.618    20259307.070    20259303.806   -25617852.823 7 -19961954.632 8
        44.100          51.400
 09  1  2  1 52  0.0000000  0  9G21G28G 9G14G 6G 3G18G19G22
  23889539.444    23889538.282    23889536.246    -8829871.399 2  -6880412.869 2
        12.600          13.900
  25559821.634    25559824.599    25559821.489      585239.470      456031.706 1
                        11.000
  21414455.264    21414454.603    21414453.583   -18849249.624 6 -14687720.858 5
        36.100          35.300
  21716007.014    21716006.239    21716005.084   -18679992.609 6 -14555833.143 5
        36.000          35.700
  24480930.163    24480929.323    24480930.667     -930583.919 2   -725127.679 2
        12.600          17.000
  24420659.580    24420658.510    24420659.181     -765403.058 2   -596413.862 3
        15.100          19.300
  21312126.654    21312125.808    21312124.060   -20988107.178 6 -16354359.599 6
        38.900          38.400
  23112027.603    23112025.829    23112023.677   -10012831.688 5  -7802202.742 4
        30.100          29.700
  20259256.127    20259255.629    20259252.434   -25618123.088 7 -19962165.227 8
        44.100          51.400
 09  1  2  1 52 30.0000000  0  9G21G28G 9G14G 6G 3G18G19G22
  23911296.012    23911294.874    23911293.107    -8715539.555 2  -6791323.125 2
        15.100          13.900
  25564640.712    25564641.081    25564637.673      610553.337      475756.917 1
                         6.500
  21415109.215    21415108.569    21415107.759   -18845811.245 5 -14685041.599 5
        35.900          35.100
  21701398.733    21701398.036    21701396.993   -18756758.682 6 -14615650.854 5
        36.000          35.700
  24498273.695    24498273.592    24498273.784     -839442.821 2   -654108.696 2
        12.600          17.000
  24438150.797    24438150.090    24438149.915     -673489.700 2   -524793.084 3
        15.100          19.300
  21323304.791    21323304.045    21323302.205   -20929365.202 6 -16308586.632 6
        38.900          38.200
  23118774.768    23118773.186    23118771.083    -9977374.602 5  -7774573.845 4
        30.200          29.900
  20259281.663    20259281.112    20259277.847   -25617989.366 7 -19962061.028 8
        44.100          51.400
 09  1  2  1 53  0.0000000  0  8G21G 9G14G 6G 3G18G19G22
  23933079.252    23933078.609    23933076.665    -8601067.453 2  -6702124.111 2
        12.600          12.600
  21415901.764    21415901.113    21415900.300   -18841646.878 6 -14681796.642 5
        36.100          35.100
  21686858.694    21686857.894    21686856.749   -18833168.689 6 -14675191.104 6
        36.300          36.100
  24515645.037    24515643.788    24515643.976     -748163.922 2   -582982.286 2
        12.600          17.800
  24455674.455    24455674.360    24455674.659     -581396.320 2   -453032.016 2
        15.100          17.800
  21334544.214    21334543.433    21334541.565   -20870302.131 6 -16262563.459 6
        38.900          38.200
  23125622.283    23125620.549    23125618.509    -9941391.293 5  -7746534.912 5
        30.100          30.200
  20259382.806    20259382.313    20259379.115   -25617457.254 7 -19961646.395 8
        44.200          51.400
 09  1  2  1 53 30.0000000  0  8G21G 9G14G 6G 3G18G19G22
  23954890.467    23954890.168    23954888.588    -8486446.937 2  -6612809.449 2
        12.600          13.900
  21416834.398    21416833.745    21416832.904   -18836746.271 6 -14677977.983 5
        36.100          35.100
  21672388.318    21672387.431    21672386.204   -18909211.160 6 -14734444.967 6
        36.200          36.100
  24533041.164    24533039.419    24533041.114     -656739.796 1   -511742.715 2
         6.500          17.000
  24473234.887    24473234.134    24473235.638     -489115.461 2   -381124.860 2
        12.600          17.000
  21345846.363    21345845.613    21345843.833   -20810907.962 6 -16216282.292 6
        38.600          38.100
  23132571.333    23132569.913    23132567.860    -9904872.650 4  -7718078.832 5
        29.900          30.100
  20259562.016    20259561.482    20259558.166   -25616516.173 7 -19960913.083 8
        44.100          51.300
 09  1  2  1 54  0.0000000  0  8G21G 9G14G 6G 3G18G19G22
  23976734.791    23976734.168    23976732.136    -8371657.453 2  -6523363.135 2
        15.100          15.100
  21417911.291    21417910.600    21417909.736   -18831086.802 6 -14673568.007 5
        36.000          34.800
  21657992.112    21657991.527    21657990.290   -18984861.886 6 -14793393.572 6
        36.300          36.200
  24550470.342    24550467.635    24550469.125     -565150.322 1   -440374.301 2
         6.500          16.100
  24490835.960    24490835.084    24490834.719     -396627.096 2   -309056.040 2
        13.900          16.100
  21357216.109    21357215.285    21357213.459   -20751160.360 6 -16169725.722 6
        38.600          37.900
  23139626.605    23139625.010    23139623.151    -9867797.552 4  -7689189.164 5
        29.900          30.100
  20259823.244    20259822.751    20259819.426   -25615142.916 7 -19959843.013 8
        44.200          51.300
 09  1  2  1 54 30.0000000  0  9G 9G21G11G14G 6G 3G18G19G22
  21419128.652    21419127.969    21419127.290   -18824689.436 5 -14668583.049 5
        35.900          35.200
  23998606.629    23998605.759    23998603.580    -8256721.900 2  -6433802.984 2
        16.100          15.100
  24850581.804    24850580.094    24850578.586           -.0161           .02911
                         9.000
  21643666.981    21643666.337    21643665.199   -19060140.584 6 -14852052.287 6
        36.400          36.400
  24567926.143    24567925.176    24567925.816     -473419.342 1   -368895.642 2
        11.000          15.100
  24508470.455    24508469.816    24508469.576     -303954.975 2   -236844.020 2
        12.600          15.100
  21368648.851    21368648.015    21368646.122   -20691081.003 6 -16122910.639 6
        38.600          37.700
  23146783.271    23146781.683    23146779.672    -9830188.653 4  -7659883.529 4
        29.700          29.900
  20260162.871    20260162.342    20260159.094   -25613358.341 7 -19958452.433 8
        44.100          51.300
 09  1  2  1 55  0.0000000  0  9G 9G21G11G14G 6G 3G18G19G22
  21420483.012    21420482.477    21420481.603   -18817572.123 6 -14663037.090 5
        36.000          35.200
  24020501.512    24020501.195    24020499.363    -8141660.652 2  -6344144.911 2
        15.100          15.100
  24831968.110    24831968.113    24831966.006      -97805.337      -76211.847 1
                         9.000
  21629409.533    21629408.936    21629407.866   -19135063.976 6 -14910434.134 6
        36.400          36.600
  24585406.436    24585405.156    24585404.325     -381567.840 2   -297323.119 2
        13.900          17.800
  24526135.816    24526135.537    24526135.322     -211120.747 1   -164505.699 2
        11.000          15.100
  21380140.901    21380140.112    21380138.360   -20630689.034 6 -16075851.959 6
        38.300          37.600
  23154038.052    23154036.115    23154034.158    -9792065.652 4  -7630177.303 4
        29.200          29.200
  20260577.302    20260576.819    20260573.587   -25611180.309 7 -19956755.266 8
        44.100          51.300
 09  1  2  1 55 30.0000000  0  9G 9G21G11G14G 6G 3G18G19G22
  21421976.152    21421975.577    21421974.673   -18809725.320 5 -14656922.701 5
        35.900          34.800
  24042422.043    24042421.229    24042419.931    -8026466.157 2  -6254382.992 2
        13.900          13.900
  24813400.305    24813399.808    24813401.364     -195378.715     -152243.024 1
         3.000          11.000
  21615222.192    21615221.369    21615220.075   -19209620.667 6 -14968530.243 6
        36.500          36.600
  24602906.502    24602906.594    24602908.966     -289588.483 1   -225650.930 3
        11.000          18.600
  24543834.178    24543833.818    24543832.039     -118116.898 1    -92035.204 2
         6.500          13.900
  21391694.535    21391693.730    21391691.860   -20569974.856 6 -16028542.216 6
        38.400          37.600
  23161391.877    23161390.065    23161388.051    -9753419.942 4  -7600063.785 4
        28.800          28.800
  20261068.650    20261068.115    20261064.933   -25608598.319 7 -19954743.325 8
        44.100          51.300
 09  1  2  1 56  0.0000000  0  9G 9G21G11G14G 6G 3G18G19G22
  21423610.665    21423610.038    21423608.882   -18801136.711 5 -14650230.274 5
        35.900          34.600
  24064370.111    24064369.070    24064368.818    -7911128.124 2  -6164509.251 1
        12.600          11.000
  24794880.098    24794880.301    24794880.572     -292704.978 1   -228081.665 1
         6.500          11.000
  21601106.722    21601106.083    21601104.841   -19283796.766 6 -15026329.788 6
        36.600          36.700
  24620437.626    24620436.926    24620437.991     -197471.612 2   -153871.522 3
        13.900          19.300
  24561567.848    24561566.808    24561565.888      -24934.098 1    -19425.260 2
         6.500          15.100
  21403311.630    21403310.787    21403308.946   -20508926.551 6 -15980972.109 6
        38.200          37.400
  23168847.331    23168845.594    23168843.895    -9714240.805 4  -7569534.604 4
        29.000          29.000
  20261639.290    20261638.764    20261635.594   -25605599.469 7 -19952406.559 8
        44.100          51.300
 09  1  2  1 56 30.0000000  0  9G 9G21G11G14G 6G 3G18G19G22
  21425384.157    21425383.576    21425382.608   -18791815.698 5 -14642967.151 5
        35.600          34.500
  24086343.710    24086342.816    24086341.881    -7795657.879 2  -6074532.453 1
        13.900           9.000
  24776405.449    24776403.234    24776405.957     -389790.994 1   -303733.101 2
         6.500          12.600
  21587062.411    21587061.725    21587060.686   -19357599.913 6 -15083838.722 6
        36.600          37.200
  24637991.667    24637991.482    24637990.471     -105229.065 2    -81994.212 2
        17.000          17.800
  24579331.392    24579330.666    24579330.036       68415.955 1     53315.033 2
         9.000          15.100
  21414990.515    21414989.654    21414987.771   -20447553.867 6 -15933149.236 6
        38.100          37.200
  23176402.689    23176400.955    23176398.855    -9674538.939 4  -7538598.083 4
        29.000          29.200
  20262287.559    20262287.026    20262283.766   -25602193.073 7 -19949752.223 8
        44.100          51.300
 09  1  2  1 57  0.0000000  0  9G 9G21G11G14G 6G 3G18G19G22
  21427297.756    21427296.981    21427296.024   -18781761.390 5 -14635132.626 5
        35.800          34.700
  24108340.192    24108339.691    24108339.437    -7680056.577 2  -5984453.552 1
        15.100           9.000
  24757978.850    24757978.410    24757978.925     -486632.916 1   -379194.327 2
         6.500          12.600
  21573089.780    21573088.977    21573087.664   -19431028.178 6 -15141055.540 6
        36.800          37.100
  24655567.895    24655566.679    24655566.561      -12862.539 2    -10020.336 2
        15.100          16.100
  24597125.711    24597124.652    24597125.310      161931.366 1    126184.228 2
        11.000          15.100
  21426731.192    21426730.359    21426728.378   -20385856.469 6 -15885073.343 6
        38.100          37.100
  23184057.047    23184055.267    23184053.072    -9634314.890 4  -7507254.665 4
        29.000          29.200
  20263013.669    20263013.112    20263009.868   -25598377.444 7 -19946779.005 8
        44.000          51.300
 09  1  2  1 57 30.0000000  0  9G 9G21G11G14G 6G 3G18G19G22
  21429350.520    21429349.720    21429348.882   -18770974.802 5 -14626727.494 5
        35.900          35.100
  24130362.644    24130362.589    24130361.874    -7564327.291 2  -5894274.926 1
        13.900          11.000
  24739597.656    24739596.638    24739596.341     -583229.135     -454464.091 1
         3.000          11.000
  21559188.143    21559187.345    21559186.236   -19504081.004 6 -15197979.816 6
        36.900          37.200
  24673166.399    24673166.003    24673166.147       79624.106 2     62047.153 2
        12.600          15.100
  24614952.166    24614951.134    24614951.731      255608.179 2    199179.133 2
        13.900          12.600
  21438533.138    21438532.349    21438530.557   -20323835.752 6 -15836745.512 6
        37.800          36.900
  23191810.521    23191808.800    23191806.481    -9593571.326 4  -7475506.451 4
        29.000          29.500
  20263817.356    20263816.850    20263813.720   -25594153.337 7 -19943487.492 8
        44.000          51.300
 09  1  2  1 58  0.0000000  0  9G 9G21G11G14G 6G 3G18G19G22
  21431542.498    21431541.894    21431541.085   -18759453.466 5 -14617749.825 5
        35.500          34.900
  24152410.366    24152410.014    24152408.862    -7448468.891 2  -5803995.701 1
        13.900           9.000
  24721262.723    24721261.651    24721259.949     -679573.712     -529537.756 1
                         9.000
  21545358.641    21545357.970    21545356.908   -19576754.191 6 -15254608.267 6
        37.000          37.200
  24690790.291    24690790.712    24690789.409      172231.405 2    134208.686 2
        12.600          16.100
  24632808.918    24632808.022    24632807.454      349446.717 2    272300.001 2
        13.900          12.600
  21450397.581    21450396.688    21450394.656   -20261489.503 6 -15788164.021 6
        38.100          36.800
  23199662.676    23199660.633    23199658.968    -9552306.565 4  -7443352.109 4
        28.600          29.500
  20264699.639    20264699.102    20264695.912   -25589517.407 7 -19939875.081 8
        43.900          51.300
 09  1  2  1 58 30.0000000  0  9G 9G21G11G14G 6G 3G18G19G22
  21433874.055    21433873.487    21433872.842   -18747200.825 5 -14608202.317 5
        35.400          35.100
  24174482.208    24174480.910    24174480.180    -7332487.075 2  -5713620.312 1
        17.000           6.500
  24702978.071    24702976.487    24702973.157     -775667.678     -604416.122 1
                        11.000
  21531601.373    21531600.711    21531599.739   -19649049.409 6 -15310942.198 6
        37.200          37.600
  24708434.032    24708434.263    24708434.729      264953.296 1    206459.470 3
        11.000          19.300
  24650695.673    24650695.019    24650693.955      443440.091 2    345541.551 2
        12.600          12.600
  21462322.679    21462321.812    21462320.021   -20198821.798 6 -15739332.041 6
        37.800          36.900
  23207613.403    23207611.406    23207609.657    -9510525.754 4  -7410795.647 4
        28.600          29.700
  20265659.592    20265659.076    20265655.903   -25584472.620 7 -19935944.076 8
        44.000          51.200
 09  1  2  1 59  0.0000000  0  9G 9G21G11G14G 6G 3G18G19G22
  21436344.878    21436344.132    21436343.121   -18734219.278 5 -14598086.817 5
        35.900          35.100
  24196575.631    24196574.876    24196573.962    -7216385.955 2  -5623151.942 1
        17.800           6.500
  24684740.146    24684739.628    24684734.957     -871510.448     -679098.786 1
         3.000           9.000
  21517915.857    21517915.146    21517914.279   -19720967.258 6 -15366982.071 6
        37.300          37.700
  24726100.037    24726098.759    24726099.801      357784.976 1    278795.806 3
         6.500          18.600
  24668610.684    24668609.523    24668609.281      537583.966 2    418900.406 2
        12.600          15.100
  21474308.554    21474307.740    21474306.071   -20135835.047 6 -15690251.458 6
        37.700          36.800
  23215661.171    23215659.539    23215657.446    -9468232.675 4  -7377840.011 4
        28.800          29.500
  20266697.029    20266696.533    20266693.276   -25579020.775 7 -19931695.886 8
        43.900          51.200
 09  1  2  1 59 30.0000000  0  9G 9G21G11G14G 6G 3G18G19G22
  21438953.537    21438952.875    21438952.115   -18720509.222 5 -14587403.660 5
        35.700          35.100
  24218690.987    24218690.509    24218689.602    -7100167.522 2  -5532592.152 1
        17.800           6.500
  24666547.572    24666546.935    24666544.706     -967099.133     -753583.435 1
         3.000           9.000
  21504302.387    21504301.692    21504300.786   -19792506.492 6 -15422726.919 6
        37.500          37.800
  24743784.423    24743783.153    24743786.719      450723.859      351215.710 2
                        15.100
  24686552.924    24686552.090    24686553.651      631875.605 1    492374.394 3
        11.000          18.600
  21486355.140    21486354.359    21486352.629   -20072529.528 6 -15640922.483 6
        37.500          36.700
  23223806.997    23223805.098    23223803.137    -9425428.739 4  -7344486.317 4
        28.800          29.900
  20267812.070    20267811.568    20267808.378   -25573161.175 7 -19927129.963 8
        43.900          51.200
                            4 15
RINEX FILE SPLICE                                           COMMENT
teqc  2008Oct2      WCDA Operator       20090102 03:18:21UTCCOMMENT
STATION INFORMATION EFFECTIVE FROM: 2001/01/13 18:20:00     COMMENT
                                TO: CURRENT DATE (above)    COMMENT
BIT 2 OF LLI FLAGS (+4) DATA COLLECTED UNDER 'AS' CONDITION COMMENT
L1 PHASE CENTRE 0.110m ABOVE ARP                            COMMENT
L2 PHASE CENTRE 0.128m ABOVE ARP                            COMMENT
where ARP is the Antenna Reference Point for HI measurement COMMENT
CONTACT gps@pgc.nrcan.gc.ca FOR ADDITIONAL INFORMATION      COMMENT
    P1 =    P1  TurboRogue; =    Y1  Benchmark              COMMENT
    L1 = L1(CA)                                             COMMENT
    P2 =    P2  TurboRogue; =    Y2  Benchmark              COMMENT
    L2 = L2(P2) TurboRogue; = L2(Y2) Benchmark              COMMENT
 SNR is mapped to RINEX snr flag value [0-9]                COMMENT
  L1 & L2: min(max(int(snr_dBHz/6), 0), 9)                  COMMENT
 09  1  2  2  0  0.0000000  0  9G 9G21G11G14G 6G 3G18G19G22
  21441701.530    21441700.809    21441700.030   -18706068.882 5 -14576151.447 5
        35.500          34.900
  24240830.028    24240828.721    24240828.514    -6983831.958 2  -5441941.088 1
        17.800           6.500
  24648407.876    24648407.360    24648405.114    -1062429.239 1   -827866.616 1
         9.000          11.000
  21490761.770    21490761.025    21490759.874   -19863663.851 6 -15478174.196 6
        37.500          37.800
  24761489.529    24761491.976    24761487.616      543769.416      423718.613 1
                        11.000
  24704524.535    24704523.756    24704524.164      726314.240 2    565962.923 3
        12.600          19.300
  21498462.706    21498461.889    21498460.108   -20008904.365 6 -15591344.443 6
        37.400          36.500
  23232049.416    23232047.517    23232045.554    -9382113.944 4  -7310734.548 4
        28.600          29.500
  20269005.138    20269004.634    20269001.443   -25566891.817 7 -19922244.747 8
        43.900          51.200
 09  1  2  2  0 30.0000000  0  9G 9G21G11G14G 6G 3G18G19G22
  21444589.545    21444588.775    21444588.095   -18690891.273 5 -14564324.738 5
        35.400          34.800
  24262991.073    24262989.854    24262988.999    -6867374.178 2  -5351194.767 1
        16.100           9.000
  24630320.371    24630319.510    24630316.909    -1157490.723 2   -901940.481 2
        12.600          12.600
  21477295.087    21477294.395    21477293.463   -19934430.703 6 -15533317.191 6
        37.500          38.100
  24779222.318    24779222.014    24779218.672      636926.006      496308.116 2
                        13.900
  24722525.208    24722524.549    24722522.778      820904.269 2    639669.433 2
        13.900          17.000
  21510632.409    21510631.493    21510629.490   -19944952.890 6 -15541512.123 6
        37.400          36.100
  23240389.843    23240388.423    23240386.461    -9338282.533 4  -7276580.203 4
        28.100          29.000
  20270277.540    20270277.048    20270273.800   -25560205.225 7 -19917034.415 8
        43.900          51.200
 09  1  2  2  1  0.0000000  0  9G 9G21G11G14G 6G 3G18G19G22
  21447615.582    21447614.984    21447614.306   -18674989.261 5 -14551933.555 5
        35.600          34.900
  24285171.634    24285170.898    24285170.577    -6750808.907 2  -5260364.740 2
        17.000          13.900
  24612280.192    24612279.516    24612276.671    -1252293.379 2   -975812.663 2
        13.900          12.600
  21463900.924    21463900.264    21463899.076   -20004817.656 6 -15588164.159 6
        37.600          38.000
  24796960.635    24796965.351    24796964.632      730178.572      568973.138 1
                         9.000
  24740549.927    24740549.256    24740549.095      915630.794 2    713482.242 2
        13.900          16.100
  21522861.653    21522860.816    21522858.747   -19880687.949 6 -15491435.547 6
        37.600          36.000
  23248826.869    23248825.187    23248822.923    -9293948.486 4  -7242034.203 4
        28.600          29.200
  20271627.020    20271626.534    20271623.350   -25553113.405 7 -19911508.319 8
        43.800          51.100
 09  1  2  2  1 30.0000000  0  9G 9G14G21G11G 6G 3G18G19G22
  21450779.547    21450779.044    21450778.401   -18658362.060 5 -14538977.294 5
        35.600          34.900
  21450579.372    21450578.730    21450577.635   -20074822.489 6 -15642713.371 6
        37.600          38.100
  24307373.632    24307372.865    24307371.541    -6634136.539 3  -5169451.260 2
        18.600          13.900
  24594289.385    24594288.711    24594285.285    -1346833.346 2  -1049480.135 2
        15.100          12.600
  24814729.425    24814727.801    24814726.754      823525.974      641711.639 1
         3.000          11.000
  24758601.318    24758601.062    24758601.237     1010492.163 2    787400.192 2
        12.600          17.000
  21535150.600    21535149.836    21535147.966   -19816108.418 6 -15441113.837 6
        37.500          36.200
  23257358.716    23257356.940    23257354.974    -9249112.369 4  -7207096.971 4
        28.800          29.700
  20273054.060    20273053.505    20273050.201   -25545614.778 7 -19905665.231 8
        43.800          51.000
 09  1  2  2  2  0.0000000  0  9G 9G14G21G11G 6G 3G18G19G22
  21454084.081    21454083.403    21454082.734   -18640997.866 5 -14525446.752 5
        35.600          34.900
  21437333.255    21437332.626    21437331.404   -20144431.432 6 -15696954.099 6
        37.700          38.200
  24329598.529    24329597.288    24329595.824    -6517346.647 3  -5078446.169 2
        18.600          15.100
  24576352.604    24576351.886    24576348.013    -1441095.204 2  -1122930.899 1
        12.600          11.000
  24832513.135    24832511.686    24832511.293      916978.140      714531.488 2
         3.000          12.600
  24776680.039    24776679.925    24776680.532     1105497.973 1    861430.650 2
        11.000          17.000
  21547501.754    21547500.941    21547499.190   -19751202.576 6 -15390537.866 6
        37.200          36.100
  23265988.543    23265986.721    23265984.571    -9203763.095 4  -7171759.887 4
        28.600          29.500
  20274560.866    20274560.334    20274557.064   -25537696.306 7 -19899494.991 8
        43.800          51.000
 09  1  2  2  2 30.0000000  0  9G 9G14G21G11G 6G 3G18G19G22
  21457527.667    21457527.014    21457526.392   -18622901.088 5 -14511345.370 5
        35.500          34.900
  21424162.136    21424161.378    21424160.075   -20213647.161 6 -15750888.420 6
        37.800          38.400
  24351844.318    24351842.914    24351842.194    -6400445.589 2  -4987354.470 2
        15.100          16.100
  24558467.762    24558466.719    24558464.559    -1535080.429 1  -1196166.135 1
        11.000           9.000
  24850311.745    24850312.898    24850313.179     1010528.004      787427.518 1
                        11.000
  24794786.866    24794786.007    24794785.344     1200641.195 1    935568.173 2
         9.000          17.000
  21559914.160    21559913.281    21559911.285   -19685975.230 6 -15339711.363 5
        37.300          35.600
  23274714.362    23274712.596    23274710.896    -9157906.828 4  -7136027.731 4
        27.900          29.500
  20276146.815    20276146.311    20276143.137   -25529361.847 7 -19893000.608 8
        43.800          51.000
 09  1  2  2  3  0.0000000  0  9G 9G14G18G21G11G 6G 3G19G22
  21461108.762    21461108.140    21461107.307   -18604082.135 5 -14496681.255 5
        35.400          34.500
  21411063.986    21411063.227    21411062.023   -20282478.214 6 -15804522.994 6
        37.700          38.400
  21572385.374    21572384.668    21572382.963   -19620436.989 6 -15288642.603 5
        37.200          35.600
  24374108.305    24374107.241    24374106.252    -6283445.312 1  -4896185.479 2
        11.000          15.100
  24540631.423    24540631.663    24540628.594    -1628796.536 1  -1269191.659 1
         6.500           6.500
  24868129.573    24868128.366    24868133.296     1104163.066      860388.839 1
         3.000          11.000
  24812914.839    24812913.838    24812914.476     1295908.837 1   1009802.669 2
         9.000          17.800
  23283534.991    23283533.383    23283531.292    -9111555.415 4  -7099909.748 4
        28.400          29.700
  20277810.160    20277809.648    20277806.321   -25520621.298 7 -19886189.792 8
        43.800          51.000
 09  1  2  2  3 30.0000000  0  9G 9G14G18G21G11G 6G 3G19G22
  21464827.754    21464827.091    21464826.187   -18584539.117 5 -14481452.929 5
        35.700          34.400
  21398039.772    21398039.022    21398037.819   -20350921.007 6 -15857855.023 6
        37.900          38.600
  21584916.852    21584916.034    21584913.922   -19554585.878 6 -15237330.053 5
        37.400          35.400
  24396390.911    24396389.888    24396389.462    -6166345.642 1  -4804939.051 2
         6.500          13.900
  24522849.379    24522851.633    24522847.477    -1722238.156    -1342003.302 1
         3.000           6.500
  24885967.754    24885966.652    24885965.094     1197883.428 1    933417.741 2
         9.000          12.600
  24831067.430    24831066.716    24831066.479     1391300.966 1   1084134.111 2
         9.000          17.000
  23292449.533    23292448.017    23292445.887    -9064707.849 4  -7063405.157 4
        27.600          29.200
  20279551.189    20279550.679    20279547.533   -25511471.568 7 -19879060.131 8
        43.700          51.000
 09  1  2  2  4  0.0000000  0  9G 9G14G18G21G11G 6G 3G19G22
  21468685.725    21468685.014    21468684.179   -18564266.240 5 -14465655.878 5
        35.700          34.600
  21385090.654    21385089.988    21385088.971   -20418967.932 6 -15910878.584 6
        37.900          38.900
  21597508.396    21597507.527    21597505.481   -19488416.522 6 -15185769.519 5
        37.100          35.300
  24418693.347    24418692.018    24418692.194    -6049142.370    -4713611.868 2
         3.000          12.600
  24505123.632    24505121.228    24505120.565    -1815396.722    -1414594.396 1
         3.000           9.000
  24903816.145    24903815.108    24903815.612     1291692.398 2   1006515.623 1
        13.900           9.000
  24849245.036    24849243.374    24849244.083     1486821.149 1   1158565.376 2
        11.000          16.100
  23301459.830    23301457.867    23301456.229    -9017359.579 4  -7026510.414 4
        27.600          29.900
  20281371.477    20281370.950    20281367.799   -25501906.030 7 -19871606.464 8
        43.700          51.000
