     2.11           OBSERVATION DATA    G (GPS)             RINEX VERSION / TYPE
teqc  2008Oct2      WCDA Operator       20090201 00:18:37UTCPGM / RUN BY / DATE
Solaris x86 5.10|AMD64|cc SC5.8 -xarch=amd64|=+|=+          COMMENT
teqc  2008Oct2      WCDA Operator       20090131 01:18:19UTCCOMMENT
flin  WCDA-ACP   965000   CFS Flin Flon SASK Canada         MARKER NAME
40135M001                                                   MARKER NUMBER
PGC-WCDA            GEOL. SURV. CANADA                      OBSERVER / AGENCY
1115                AOA BENCHMARK ACT   3.3.32.4            REC # / TYPE / VERS
231                 AOAD/M_T        SCIS                    ANT # / TYPE
  -766174.4630 -3611375.3160  5184056.2210                  APPROX POSITION XYZ
        0.1500        0.0000        0.0000                  ANTENNA: DELTA H/E/N
     1     1                                                WAVELENGTH FACT L1/2
     7    C1    P1    P2    L1    L2    S1    S2            # / TYPES OF OBSERV
STATION INFORMATION EFFECTIVE FROM: 2001/01/13 18:20:00     COMMENT
                                TO: CURRENT DATE (above)    COMMENT
BIT 2 OF LLI FLAGS (+4) DATA COLLECTED UNDER 'AS' CONDITION COMMENT
L1 PHASE CENTRE 0.110m ABOVE ARP                            COMMENT
L2 PHASE CENTRE 0.128m ABOVE ARP                            COMMENT
where ARP is the Antenna Reference Point for HI measurement COMMENT
CONTACT gps@pgc.nrcan.gc.ca FOR ADDITIONAL INFORMATION      COMMENT
    P1 =    P1  TurboRogue; =    Y1  Benchmark              COMMENT
    L1 = L1(CA)                                             COMMENT
    P2 =    P2  TurboRogue; =    Y2  Benchmark              COMMENT
    L2 = L2(P2) TurboRogue; = L2(Y2) Benchmark              COMMENT
 SNR is mapped to RINEX snr flag value [0-9]                COMMENT
  L1 & L2: min(max(int(snr_dBHz/6), 0), 9)                  COMMENT
  2009     1    31     0     0    0.0000000     GPS         TIME OF FIRST OBS
                                                            END OF HEADER
 09  1 31  0  0  0.0000000  0  9G 9G11G 6G21G 3G18G14G22G19
  21438078.029    21438077.636    21438076.887   -17929932.874 6 -13971367.942 5
        38.100          35.400
  24663592.780    24663592.144    24663589.932    -1066221.591 1   -830821.482 1
        11.000          11.000
  24711005.366    24711005.205    24711005.560    -2515712.784 1  -1960295.153 2
         6.500          12.600
  24221100.403    24221099.466    24221098.755    -6940858.181 3  -5408459.881 1
        19.900           9.000
  24630520.217    24630519.498    24630519.225      922639.243 2    718941.696 2
        15.100          16.100
  21400249.941    21400249.314    21400247.611   -20870186.319 6 -16262474.221 6
        40.300          36.700
  21441509.551    21441509.080    21441507.996   -19881315.665 6 -15491925.233 6
        39.500          37.600
  20264455.207    20264454.935    20264451.833   -25735510.980 7 -20053636.657 8
        44.800          49.800
  23206068.367    23206067.341    23206065.906    -9075990.036 5  -7072195.929 4
        30.600          29.900
 09  1 31  0  0 30.0000000  0  9G 9G18G11G 6G21G 3G14G22G19
  21440682.400    21440682.058    21440681.562   -17916245.633 6 -13960702.551 5
        38.100          35.400
  21411946.232    21411945.649    21411944.188   -20808721.169 6 -16214579.296 6
        40.200          36.700
  24645436.009    24645435.666    24645432.929    -1161641.130 2   -905174.345 2
        13.900          12.600
  24728640.113    24728639.435    24728639.104    -2423051.842 1  -1888091.841 2
        11.000          13.900
  24243222.063    24243221.712    24243221.547    -6824603.323 3  -5317871.691 1
        18.600           9.000
  24648391.782    24648390.716    24648389.651     1016553.104 2    792121.339 2
        17.000          15.100
  21428251.134    21428250.675    21428249.670   -19950988.940 6 -15546216.087 6
        39.400          37.700
  20265552.970    20265552.655    20265549.552   -25729742.452 7 -20049141.693 8
        44.800          49.700
  23213735.671    23213734.319    23213732.720    -9035699.911 5  -7040801.025 4
        30.400          29.700
 09  1 31  0  1  0.0000000  0  9G 9G18G11G 6G21G 3G14G22G19
  21443426.066    21443425.645    21443425.160   -17901827.636 6 -13949467.744 5
        38.100          35.400
  21423704.871    21423704.235    21423702.683   -20746929.953 6 -16166430.297 6
        40.200          36.500
  24627328.347    24627327.922    24627325.236    -1256799.295 2   -979323.528 2
        16.100          12.600
  24746293.777    24746294.268    24746295.577    -2330278.967 2  -1815801.321 2
        12.600          16.100
  24265367.051    24265366.787    24265366.617    -6708233.180 3  -5227193.677 1
        18.600           9.000
  24666291.425    24666290.680    24666290.276     1110621.755 2    865421.513 2
        13.900          15.100
  21415067.161    21415066.618    21415065.575   -20020271.802 6 -15600202.719 6
        39.500          37.900
  20266728.806    20266728.485    20266725.483   -25723563.148 7 -20044326.644 8
        44.800          49.800
  23221501.537    23221500.106    23221498.661    -8994890.160 5  -7009001.231 4
        30.600          29.500
 09  1 31  0  1 30.0000000  0  9G 9G18G11G 6G21G 3G14G22G19
  21446308.368    21446307.946    21446307.713   -17886680.293 6 -13937664.609 5
        37.900          35.500
  21435524.967    21435524.411    21435522.865   -20684814.144 6 -16118028.362 6
        40.000          36.500
  24609269.423    24609269.243    24609266.541    -1351694.312 2  -1053267.675 2
        16.100          12.600
  24763968.935    24763968.151    24763969.951    -2237397.686 2  -1743426.308 2
        12.600          16.100
  24287533.004    24287532.707    24287532.304    -6591750.464 3  -5136427.897 2
        19.300          12.600
  24684219.116    24684219.210    24684220.178     1204841.628 2    938839.564 2
        12.600          15.100
  21401957.314    21401956.813    21401956.126   -20089163.599 6 -15653884.623 6
        39.300          38.300
  20267982.657    20267982.354    20267979.360   -25716973.938 7 -20039192.186 8
        44.800          49.800
  23229365.846    23229364.693    23229363.012    -8953563.023 5  -6976798.264 4
        30.600          29.000
 09  1 31  0  2  0.0000000  0  9G 9G18G11G 6G21G 3G14G22G19
  21449329.365    21449328.976    21449328.592   -17870805.621 6 -13925294.725 5
        37.900          35.400
  21447406.613    21447405.952    21447404.489   -20622376.467 6 -16069375.629 6
        40.000          36.500
  24591261.445    24591260.947    24591258.807    -1446325.658 2  -1127006.340 1
        15.100          11.000
  24781663.368    24781662.579    24781662.343    -2144412.478 1  -1670970.353 2
         9.000          13.900
  24309719.957    24309719.171    24309718.789    -6475159.486 3  -5045577.811 2
        19.900          12.600
  24702177.837    24702177.621    24702177.820     1299207.623 2   1012371.506 2
        15.100          16.100
  21388921.795    21388921.417    21388920.628   -20157665.041 6 -15707262.356 6
        39.400          38.300
  20269314.268    20269313.946    20269310.989   -25709976.433 7 -20033739.577 8
        44.700          49.800
  23237328.097    23237326.641    23237324.906    -8911722.030 5  -6944194.885 4
        30.800          28.800
 09  1 31  0  2 30.0000000  0  9G 9G18G14G11G 6G21G 3G22G19
  21452488.447    21452488.101    21452487.848   -17854203.328 6 -13912357.857 5
        37.700          35.300
  21459349.411    21459348.830    21459347.286   -20559616.252 6 -16020471.564 6
        39.800          36.300
  21375961.174    21375960.801    21375959.809   -20225773.982 6 -15760334.243 6
        39.600          38.400
  24573305.309    24573304.806    24573303.351    -1540689.459 2  -1200536.550 1
        13.900           9.000
  24799376.192    24799375.244    24799376.477    -2051325.107    -1598434.789 2
                        12.600
  24331927.110    24331926.553    24331925.774    -6358461.357 3  -4954644.235 2
        19.300          15.100
  24720162.400    24720161.907    24720162.736     1393718.570 1   1086016.371 2
        11.000          17.800
  20270723.794    20270723.526    20270720.430   -25702569.167 7 -20027967.676 8
        44.800          49.700
  23245387.411    23245386.314    23245384.757    -8869368.182 5  -6911191.890 4
        30.400          28.600
 09  1 31  0  3  0.0000000  0  9G 9G18G14G11G 6G21G 3G22G19
  21455786.786    21455786.307    21455785.833   -17836871.335 6 -13898852.403 5
        37.700          35.100
  21471354.050    21471353.460    21471351.818   -20496531.321 6 -15971314.473 6
        39.700          36.000
  21363075.899    21363075.465    21363074.583   -20293486.695 6 -15813097.379 6
        39.600          38.600
  24555399.934    24555399.823    24555397.094    -1634780.431 2  -1273854.150 1
        12.600           9.000
  24817110.812    24817110.398    24817110.883    -1958135.654    -1525819.710 1
                        11.000
  24354154.908    24354153.806    24354153.421    -6241655.684 2  -4863626.849 2
        17.800          16.100
  24738173.763    24738174.208    24738175.293     1488373.830 1   1159773.684 2
         9.000          17.000
  20272211.916    20272211.564    20272208.400   -25694749.463 7 -20021874.393 8
        44.800          49.600
  23253544.996    23253543.938    23253542.469    -8826500.396 5  -6877788.419 4
        31.000          29.000
 09  1 31  0  3 30.0000000  0  9G 9G18G14G11G 6G21G 3G22G19
  21459223.843    21459223.428    21459223.037   -17818808.787 6 -13884777.686 5
        37.700          34.900
  21483420.456    21483419.901    21483418.389   -20433121.431 6 -15921904.167 6
        39.600          36.000
  21350266.526    21350266.012    21350265.028   -20360800.938 6 -15865550.017 6
        39.700          38.600
  24537546.555    24537546.986    24537545.198    -1728595.062 1  -1346956.409 1
        11.000           6.500
  24834863.441    24834863.373    24834863.206    -1864845.564    -1453126.163 1
         3.000          11.000
  24376402.400    24376401.725    24376400.904    -6124743.152 2  -4772526.212 2
        17.000          15.100
  24756214.252    24756213.621    24756213.036     1583171.724 1   1233642.180 2
        11.000          15.100
  20273778.666    20273778.363    20273775.314   -25686515.757 7 -20015458.511 8
        44.800          49.700
  23261800.466    23261799.028    23261797.175    -8783119.078 5  -6843984.786 4
        31.000          28.600
 09  1 31  0  4  0.0000000  0  9G 9G18G14G11G 6G21G 3G22G19
  21462798.450    21462798.062    21462797.647   -17800023.835 6 -13870140.057 5
        37.700          34.800
  21495547.417    21495546.904    21495545.071   -20369394.545 6 -15872246.850 5
        39.700          35.700
  21337531.844    21337531.393    21337530.366   -20427722.293 6 -15917696.512 6
        39.700          38.600
  24519745.004    24519745.623    24519745.432    -1822138.098 1  -1419847.026 1
         6.500           9.000
  24852633.573    24852633.100    24852632.507    -1771465.153 1  -1380362.197 1
         6.500           9.000
  24398668.760    24398668.305    24398667.350    -6007733.686 2  -4681350.031 2
        17.000          13.900
  24774279.157    24774278.964    24774278.323     1678101.631 2   1307613.487 2
        13.900          16.100
  20275422.925    20275422.592    20275419.521   -25677875.279 7 -20008725.663 8
        44.700          49.700
  23270151.545    23270150.121    23270148.357    -8739233.584 5  -6809788.300 4
        30.400          28.600
 09  1 31  0  4 30.0000000  0  9G 9G18G14G19G11G 6G21G 3G22
  21466511.756    21466511.311    21466510.587   -17780511.796 6 -13854935.861 5
        38.100          34.700
  21507735.293    21507734.790    21507733.284   -20305345.675 6 -15822338.638 5
        39.400          35.600
  21324873.036    21324872.577    21324871.683   -20494244.281 6 -15969531.812 6
        39.700          38.900
  23278599.245    23278597.720    23278596.333    -8694840.196 5  -6775196.043 4
        30.400          28.800
  24501997.344    24501997.100    24501996.987    -1915401.378    -1492519.680 1
         3.000           9.000
  24870421.627    24870420.085    24870422.069    -1677991.610    -1307525.714 1
         3.000          11.000
  24420953.506    24420953.128    24420952.602    -5890623.806 2  -4590095.623 2
        16.100          12.600
  24792369.391    24792368.542    24792369.536     1773166.466 2   1381689.955 2
        12.600          16.100
  20277145.547    20277145.258    20277142.347   -25668822.182 7 -20001671.292 8
        44.600          49.700
 09  1 31  0  5  0.0000000  0  9G 9G18G14G19G11G 6G21G 3G22
  21470364.061    21470363.611    21470362.989   -17760268.290 6 -13839161.705 5
        38.100          34.900
  21519985.701    21519985.020    21519983.537   -20240970.825 6 -15772176.423 5
        39.500          35.700
  21312291.401    21312290.996    21312290.069   -20560360.684 6 -16021051.074 6
        39.900          38.900
  23287144.140    23287142.884    23287141.473    -8649935.657 5  -6740205.492 4
        30.200          28.800
  24484305.895    24484306.484    24484304.757    -2008377.223    -1564968.382 1
                        11.000
  24888226.241    24888225.228    24888226.123    -1584422.550    -1234614.745 1
                         9.000
  24443258.681    24443257.912    24443258.084    -5773410.459 2  -4498760.553 1
        15.100          11.000
  24810484.672    24810483.908    24810485.323     1868368.211 1   1455873.131 2
        11.000          15.100
  20278947.876    20278947.586    20278944.568   -25659351.268 7 -19994291.352 8
        44.600          49.700
 09  1 31  0  5 30.0000000  0  9G 9G18G14G19G11G 6G21G 3G22
  21474353.640    21474353.047    21474352.617   -17739302.869 6 -13822825.006 5
        37.800          34.700
  21532295.979    21532295.415    21532293.951   -20176279.414 6 -15721767.531 5
        39.300          35.500
  21299785.464    21299785.078    21299784.103   -20626079.499 6 -16072260.531 6
        39.900          39.000
  23295784.808    23295783.422    23295781.614    -8604530.790 5  -6704825.067 4
        30.800          28.400
  24466668.095    24466667.645    24466665.584    -2101072.200    -1637198.248 1
                        11.000
  24906046.158    24906046.551    24906048.780    -1490769.602    -1161638.366 1
         3.000          11.000
  24465581.715    24465580.210    24465580.062    -5656105.178 2  -4407353.875 2
        15.100          12.600
  24828625.072    24828624.888    24828625.367     1963695.184 1   1530153.876 2
        11.000          13.900
  20280827.890    20280827.607    20280824.611   -25649471.630 7 -19986592.928 8
        44.600          49.600
 09  1 31  0  6  0.0000000  0  9G 9G18G14G19G11G 6G21G 3G22
  21478480.378    21478479.987    21478479.428   -17717615.106 6 -13805925.443 5
        37.700          34.600
  21544666.611    21544666.061    21544664.420   -20111271.030 6 -15671111.647 5
        39.100          35.300
  21287355.877    21287355.389    21287354.293   -20691398.432 6 -16123158.384 6
        40.000          39.200
  23304520.165    23304518.623    23304516.895    -8558626.278 5  -6669055.323 4
        30.600          28.400
  24449084.503    24449083.095    24449079.762    -2193482.393    -1709206.148 2
                        12.600
  24923884.731    24923884.567    24923886.281    -1397034.448 1  -1088598.001 2
         6.500          12.600
  24487922.174    24487920.753    24487919.373    -5538708.574 2  -4315875.999 1
        15.100          11.000
  24846788.274    24846788.281    24846789.747     2059145.914 1   1604531.011 2
         9.000          16.100
  20282786.011    20282785.700    20282782.700   -25639181.796 7 -19978574.867 8
        44.700          49.600
 09  1 31  0  6 30.0000000  0  9G 9G18G14G19G11G 6G21G 3G22
  21482745.065    21482744.571    21482744.169   -17695204.974 6 -13788462.991 5
        37.500          34.900
  21557097.609    21557097.069    21557095.498   -20045945.555 6 -15620208.679 5
        39.300          35.200
  21275002.625    21275002.096    21275000.918   -20756315.426 6 -16173743.033 6
        40.200          39.100
  23313350.083    23313348.821    23313347.111    -8512222.957 5  -6632896.880 4
        30.600          28.400
  24431554.148    24431553.877    24431549.950    -2285604.901    -1780989.888 2
                        12.600
  24941736.402    24941735.616    24941736.945    -1303218.939 1  -1015495.024 1
         9.000           9.000
  24510278.503    24510277.529    24510276.473    -5421222.350 2  -4224328.335 1
        12.600           9.000
  24864976.258    24864976.380    24864976.542     2154717.993 2   1679002.725 2
        12.600          16.100
  20284822.358    20284822.044    20284818.957   -25628480.712 7 -19970236.353 8
        44.600          49.500
 09  1 31  0  7  0.0000000  0  9G 9G18G14G19G11G 6G21G 3G22
  21487147.732    21487147.368    21487146.824   -17672068.037 6 -13770434.193 5
        37.600          34.600
  21569589.800    21569589.252    21569587.702   -19980298.373 6 -15569055.025 5
        39.100          34.800
  21262726.901    21262726.493    21262725.400   -20820824.017 6 -16224009.451 6
        40.200          39.300
  23322276.063    23322274.551    23322272.970    -8465317.616 5  -6596347.266 4
        30.400          28.100
  24414079.261    24414078.178    24414075.163    -2377431.189    -1852542.787 1
                        11.000
  24959605.571    24959605.359    24959605.031    -1209320.535 2   -942327.466 1
        12.600           6.500
  24532652.445    24532651.509    24532650.841    -5303643.316 2  -4132708.330 1
        12.600           6.500
  24883187.372    24883186.578    24883184.987     2250414.040 2   1753571.039 2
        13.900          13.900
  20286937.834    20286937.563    20286934.663   -25617363.011 7 -19961573.204 8
        44.500          49.500
 09  1 31  0  7 30.0000000  0  9G 9G18G14G11G 6G21G 3G22G19
  21491686.901    21491686.447    21491685.680   -17648215.019 6 -13751847.411 5
        37.600          34.400
  21582141.612    21582140.944    21582138.994   -19914339.832 6 -15517658.755 5
        39.200          34.600
  21250527.287    21250526.849    21250525.762   -20884933.094 6 -16273964.553 6
        40.200          39.300
  24396657.194    24396656.207    24396656.408    -2468968.658    -1923870.594 1
                         9.000
  24977486.358    24977486.150    24977486.734    -1115351.800 2   -869105.091
        12.600           3.000
  24555042.119    24555041.525    24555040.728    -5185983.581 2  -4041025.450
        12.600
  24901417.842    24901416.955    24901417.968     2346221.218 2   1828225.998 1
        16.100          11.000
  20289130.983    20289130.671    20289127.730   -25605838.097 7 -19952592.740 8
        44.400          49.500
  23331294.801    23331293.485    23331291.718    -8417921.776 4  -6559415.434 4
        29.900          27.900
 09  1 31  0  8  0.0000000  0  8G 9G18G14G11G 6G 3G22G19
  21496362.047    21496361.739    21496361.107   -17623646.762 6 -13732703.305 5
        37.800          34.400
  21594752.015    21594751.529    21594749.689   -19848070.742 6 -15466020.495 5
        39.100          34.700
  21238404.166    21238403.665    21238402.419   -20948641.326 6 -16323607.309 6
        40.300          39.500
  24379294.660    24379294.563    24379291.927    -2560214.736    -1994971.330 1
                         9.000
  24995380.794    24995380.657    24995380.784    -1021315.356 2   -795829.912 1
        12.600           6.500
  24919670.294    24919669.681    24919670.376     2442136.788 2   1902965.387 1
        16.100          11.000
  20291401.652    20291401.367    20291398.290   -25593905.987 7 -19943294.984 8
        44.500          49.400
  23340407.169    23340405.524    23340404.363    -8370037.357 4  -6522102.904 4
        29.500          28.800
 09  1 31  0  8 30.0000000  0  8G 9G18G14G11G 6G 3G22G19
  21501176.168    21501175.685    21501174.927   -17598348.931 6 -13712990.691 5
        37.700          34.100
  21607424.470    21607423.836    21607422.212   -19781476.669 6 -15414129.004 5
        38.900          34.700
  21226360.169    21226359.665    21226358.479   -21011932.640 6 -16372925.201 6
        40.400          39.500
  24361991.065    24361990.004    24361988.416    -2651151.941 1  -2065831.455 1
         6.500           9.000
  25013290.959    25013290.814    25013291.880     -927198.790 2   -722492.325 1
        12.600           6.500
  24937944.856    24937944.757    24937944.011     2538172.714 2   1977798.607 1
        16.100          11.000
  20293752.753    20293752.467    20293749.349   -25581551.191 7 -19933667.862 8
        44.600          49.400
  23349614.695    23349613.115    23349611.669    -8321651.228 4  -6484399.422 4
        29.500          28.800
 09  1 31  0  9  0.0000000  0  9G 9G18G14G21G11G 6G 3G22G19
  21506127.284    21506126.755    21506126.045   -17572330.402 6 -13692716.493 5
        37.500          34.100
  21620157.032    21620156.513    21620154.908   -19714566.113 6 -15361990.902 5
        38.800          34.700
  21214394.253    21214393.789    21214392.616   -21074813.637 6 -16421923.365 6
        40.500          39.700
  24622308.471    24622308.253    24622307.097           -.58512          .4291
        15.100           3.000
  24344743.937    24344743.955    24344741.430    -2741785.367 1  -2136454.933 1
        11.000          11.000
  25031213.063    25031213.731    25031214.777     -833012.573 1   -649100.452
         9.000           3.000
  24956239.473    24956239.011    24956241.386     2634318.694 2   2052717.561 1
        13.900          11.000
  20296182.606    20296182.317    20296179.354   -25568781.312 7 -19923717.299 8
        44.400          49.300
  23358915.890    23358914.652    23358912.874    -8272773.359 5  -6446312.760 4
        30.200          28.400
 09  1 31  0  9 30.0000000  0  9G 9G18G14G21G11G 6G 3G22G19
  21511212.740    21511212.224    21511211.700   -17545605.601 6 -13671891.957 5
        37.100          34.100
  21632947.405    21632946.700    21632945.131   -19647353.285 6 -15309617.262 5
        38.900          34.700
  21202504.117    21202503.612    21202502.602   -21137296.700 6 -16470611.443 6
        40.500          40.000
  24644758.092    24644757.819    24644756.420      117977.337 2     91931.276 1
        12.600           6.500
  24327553.835    24327552.866    24327550.684    -2832125.846 2  -2206850.134 2
        12.600          12.600
  25049148.826    25049148.570    25049147.309     -738772.983 1   -575667.085
         9.000           3.000
  24974553.240    24974552.863    24974555.722     2730558.425 1   2127709.564 2
        11.000          12.600
  20298689.104    20298688.825    20298685.794   -25555609.970 7 -19913453.904 8
        44.400          49.200
  23368307.587    23368306.287    23368304.811    -8223418.989 5  -6407854.797 4
        30.200          28.400
 09  1 31  0 10  0.0000000  0  9G 9G18G14G21G11G 6G 3G22G19
  21516434.125    21516433.735    21516433.315   -17518165.721 6 -13650510.218 5
        37.000          34.100
  21645796.682    21645796.042    21645794.440   -19579829.157 6 -15257001.048 5
        38.600          34.400
  21190691.721    21190691.230    21190690.180   -21199370.788 6 -16518980.833 6
        40.500          40.000
  24667224.064    24667223.815    24667221.001      236029.109      183919.692 1
         3.000           9.000
  24310419.439    24310419.327    24310417.706    -2922161.179 1  -2277007.514 2
        11.000          12.600
  25067093.120    25067091.727    25067094.807     -644472.780 1   -502186.488 1
         6.500           9.000
  24992888.000    24992887.432    24992887.828     2826898.877 2   2202780.010 2
        15.100          13.900
  20301273.917    20301273.582    20301270.479   -25542026.916 7 -19902869.698 8
        44.500          49.100
  23377791.270    23377790.074    23377788.640    -8173580.260 5  -6369019.421 4
        30.200          28.100
 09  1 31  0 10 30.0000000  0  9G 9G18G14G21G11G 6G 3G22G19
  21521792.598    21521792.121    21521791.221   -17490008.694 6 -13628569.666 5
        37.300          33.600
  21658705.764    21658705.167    21658703.497   -19511991.502 6 -15204140.538 5
        38.400          34.100
  21178958.135    21178957.602    21178956.461   -21261032.287 6 -16567028.739 6
        40.700          40.100
  24689701.564    24689701.981    24689699.396      354155.445      275966.150 1
                        11.000
  24293342.994    24293343.912    24293341.302    -3011885.779 1  -2346922.746 1
         6.500           9.000
  25085046.819    25085047.632    25085049.464     -550111.811     -428658.517 1
                         9.000
  25011241.205    25011240.558    25011240.266     2923339.838 2   2277928.779 2
        16.100          13.900
  20303937.560    20303937.252    20303934.066   -25528029.382 7 -19891962.517 8
        44.400          49.000
  23387368.619    23387366.962    23387365.052    -8123256.438 5  -6329806.045 4
        31.100          28.100
 09  1 31  0 11  0.0000000  0  9G 9G18G14G21G11G 6G 3G22G19
  21527287.052    21527286.355    21527285.453   -17461135.631 6 -13606071.165 5
        37.000          33.500
  21671674.436    21671673.804    21671672.175   -19443840.567 6 -15151035.904 5
        38.400          34.100
  21167303.076    21167302.539    21167301.466   -21322279.631 6 -16614753.926 6
        40.700          40.300
  24712196.039    24712194.315    24712191.095      472354.250      368069.034 2
                        12.600
  24276327.783    24276328.395    24276325.943    -3101296.792 1  -2416593.640 1
         6.500           9.000
  25103016.313    25103014.004    25103015.337     -455692.661     -355085.215 1
                         9.000
  25029610.844    25029610.018    25029611.520     3019878.798 1   2353153.942 2
         9.000          13.900
  20306680.035    20306679.747    20306676.775   -25513616.873 7 -19880731.978 8
        44.300          49.100
  23397036.895    23397035.349    23397033.391    -8072448.811 5  -6290215.686 4
        30.800          28.100
 09  1 31  0 11 30.0000000  0  9G 9G18G21G11G 6G 3G14G22G19
  21532916.527    21532916.333    21532915.624   -17431549.891 6 -13583017.334 5
        37.200          33.900
  21684702.124    21684701.554    21684699.904   -19375379.470 6 -15097689.589 5
        38.400          34.100
  24734703.635    24734701.566    24734696.773      590621.057      460224.928 2
         3.000          13.900
  24259375.065    24259374.154    24259372.249    -3190393.725 1  -2486019.841 1
         9.000          11.000
  25120998.089    25120997.483    25120992.706     -361219.904     -281470.146 1
                        11.000
  25047996.252    25047996.630    25047998.021     3116510.831     2428451.586 1
         3.000          11.000
  21155726.618    21155726.159    21155724.930   -21383114.128 6 -16662157.410 6
        40.700          40.200
  20309501.219    20309500.947    20309497.890   -25498791.551 7 -19869179.772 8
        44.400          49.000
  23406795.715    23406794.547    23406792.652    -8021161.806 5  -6250251.778 4
        30.100          27.600
 09  1 31  0 12  0.0000000  0  8G 9G18G14G21G11G 3G22G19
  21538682.725    21538682.292    21538681.471   -17401250.377 6 -13559407.320 5
        37.300          34.100
  21697788.926    21697788.456    21697786.911   -19306607.094 6 -15044100.723 5
        38.100          34.100
  21144229.355    21144228.770    21144227.561   -21443532.850 6 -16709236.919 6
        40.600          40.300
  24757218.502    24757217.680    24757215.710      708955.643 1    552433.661 2
         6.500          15.100
  24242481.209    24242480.683    24242479.085    -3279172.371 1  -2555197.974 2
         9.000          13.900
  25066406.480    25066405.943    25066406.102     3213235.107 1   2503821.133 2
         9.000          13.900
  20312401.461    20312401.183    20312398.070   -25483551.075 7 -19857304.066 8
        44.400          49.000
  23416646.618    23416645.699    23416643.336    -7969395.952 4  -6209914.748 4
        29.700          27.900
 09  1 31  0 12 30.0000000  0  8G 9G18G14G21G11G 3G22G19
  21544580.767    21544580.206    21544579.706   -17370255.394 6 -13535255.375 5
        37.100          34.000
  21710931.906    21710931.312    21710929.533   -19237540.864 6 -14990282.886 5
        38.100          33.600
  21132808.163    21132807.656    21132806.423   -21503551.531 6 -16756004.698 6
        40.700          40.400
  24779744.685    24779745.784    24779743.229      827339.016 1    644680.431 2
         9.000          13.900
  24225644.668    24225644.819    24225643.648    -3367647.210 1  -2624139.365 2
        11.000          16.100
  25084825.851    25084824.966    25084827.131     3310031.765 1   2579247.084 2
        11.000          13.900
  20315377.397    20315377.032    20315374.001   -25467912.577 7 -19845118.218 8
        44.300          48.900
  23426584.971    23426583.602    23426582.012    -7917170.026 4  -6169219.225 4
        29.200          28.400
 09  1 31  0 13  0.0000000  0  8G 9G18G21G11G 3G14G22G19
  21550614.455    21550614.048    21550613.357   -17338546.801 6 -13510547.382 5
        37.000          33.600
  21724134.077    21724133.490    21724131.896   -19168162.646 6 -14936221.936 5
        37.900          33.600
  24802285.169    24802285.690    24802283.575      945788.252 1    736978.550 2
        11.000          13.900
  24208869.665    24208869.843    24208868.878    -3455796.278 2  -2692826.925 2
        12.600          15.100
  25103259.701    25103259.706    25103262.278     3406917.248     2654742.320 1
         3.000          11.000
  21121466.863    21121466.333    21121465.085   -21563150.310 6 -16802445.291 6
        40.600          40.400
  20318432.677    20318432.352    20318429.175   -25451856.972 7 -19832607.353 8
        44.300          48.800
  23436613.762    23436612.389    23436610.942    -7864466.556 4  -6128151.587 4
        29.000          28.400
 09  1 31  0 13 30.0000000  0  8G 9G18G21G11G 3G14G22G19
  21556785.139    21556784.738    21556783.930   -17306120.484 6 -13485280.108 5
        37.200          33.500
  21737396.611    21737396.089    21737394.576   -19098467.588 6 -14881914.100 5
        37.800          33.600
  24824838.619    24824838.332    24824836.941     1064306.415 2    829330.352 2
        12.600          12.600
  24192160.312    24192159.838    24192158.487    -3543611.475 2  -2761254.342 2
        13.900          16.100
  25121714.553    25121715.986    25121714.429     3503893.860     2730308.493 1
                         9.000
  21110206.597    21110206.142    21110204.891   -21622322.624 6 -16848553.573 6
        40.500          40.500
  20321568.368    20321568.041    20321564.974   -25435378.524 7 -19819766.992 8
        44.200          48.800
  23446734.780    23446733.147    23446732.101    -7811282.610 4  -6086709.551 4
        29.500          29.000
 09  1 31  0 14  0.0000000  0  8G 9G18G14G21G11G 3G22G19
  21563090.432    21563089.989    21563089.382   -17272985.851 6 -13459460.904 5
        37.000          33.800
  21750717.798    21750717.238    21750715.530   -19028464.497 6 -14827366.236 5
        37.700          33.400
  21099026.273    21099025.771    21099024.645   -21681075.499 6 -16894335.022 6
        40.400          40.600
  24847404.306    24847403.391    24847401.208     1182883.371 2    921727.982 1
        12.600           9.000
  24175512.887    24175512.253    24175511.334    -3631098.798 2  -2829426.264 2
        17.800          17.800
  25140186.057    25140185.670    25140185.118     3600950.261     2805936.783 1
         3.000          11.000
  20324783.112    20324782.730    20324779.639   -25418485.357 7 -19806603.479 8
        44.200          48.700
  23456944.924    23456943.464    23456941.620    -7757628.385 4  -6044901.061 4
        29.900          28.600
 09  1 31  0 14 30.0000000  0  9G 9G18G14G11G21G 6G 3G22G19
  21569529.647    21569529.071    21569528.400   -17239148.584 6 -13433094.191 5
        36.800          33.800
  21764096.658    21764095.965    21764094.232   -18958159.146 6 -14772582.843 5
        37.800          33.400
  21087925.074    21087924.568    21087923.431   -21739412.712 6 -16939792.577 6
        40.500          40.700
  24158926.283    24158926.111    24158925.571    -3718260.012 3  -2897344.061 3
        18.600          19.300
  24869978.301    24869977.444    24869977.515     1301511.851 2   1014165.762 1
        12.600           6.500
  25229041.319    25229038.052    25229040.244           -.0101           .39411
                         6.500
  25158668.646    25158668.004    25158668.779     3698079.808 1   2881622.114 1
         6.500          11.000
  20328075.693    20328075.427    20328072.321   -25401181.999 7 -19793120.337 8
        44.100          48.600
  23467243.179    23467241.554    23467240.016    -7703510.664 4  -6002731.410 4
        29.700          28.600
 09  1 31  0 15  0.0000000  0  7G 9G18G14G11G19G 3G22
  21576097.534    21576097.270    21576096.607   -17204632.024 6 -13406198.169 5
        36.800          33.600
  21777528.554    21777527.896    21777526.272   -18887573.700 6 -14717581.196 5
        37.700          33.400
  21076899.021    21076898.593    21076897.388   -21797354.677 6 -16984942.145 6
        40.400          40.700
  24142398.030    24142397.927    24142397.488    -3805114.440 3  -2965022.793 3
        20.500          19.300
  23477625.217    23477623.526    23477621.845    -7648953.147 4  -5960219.059 4
        29.200          28.400
  25177162.499    25177161.212    25177162.426     3795257.898 1   2957345.350 1
         6.500          11.000
  20331442.408    20331442.077    20331438.976   -25383490.100 7 -19779334.434 8
        44.100          48.600
 09  1 31  0 15 30.0000000  0  7G 9G18G14G11G19G 3G22
  21582798.252    21582797.790    21582797.119   -17169421.220 6 -13378761.157 5
        36.900          33.600
  21791016.588    21791015.987    21791014.618   -18816692.743 6 -14662349.282 5
        37.300          33.500
  21065951.597    21065951.038    21065949.705   -21854884.648 6 -17029770.679 6
        40.400          40.700
  24125932.108    24125931.782    24125930.390    -3891643.421 3  -3032447.934 3
        19.900          19.300
  23488092.927    23488091.756    23488089.919    -7593942.088 4  -5917353.289 4
        28.600          28.100
  25195665.059    25195663.918    25195665.222     3892497.778     3033116.718 1
                         9.000
  20334886.095    20334885.769    20334882.597   -25365393.442 7 -19765233.133 8
        44.100          48.500
 09  1 31  0 16  0.0000000  0  7G 9G18G14G11G19G 3G22
  21589636.677    21589636.384    21589635.766   -17133483.605 6 -13350757.814 5
        36.700          33.800
  21804567.335    21804566.815    21804565.308   -18745482.956 6 -14606861.139 5
        37.400          33.200
  21055088.776    21055088.380    21055087.238   -21911967.772 6 -17074251.022 6
        40.300          41.000
  24109535.266    24109534.993    24109532.881    -3977810.450 3  -3099591.025 3
        19.300          18.600
  23498653.931    23498652.654    23498650.773    -7538445.280 4  -5874109.016 4
        29.000          27.900
  25214186.395    25214184.603    25214182.518     3989830.661     3108960.785 1
                         6.500
  20338413.240    20338412.962    20338409.833   -25346858.010 7 -19750789.932 8
        44.100          48.500
 09  1 31  0 16 30.0000000  0  7G 9G18G14G11G19G 3G22
  21596609.843    21596609.502    21596608.894   -17096839.677 6 -13322204.093 5
        36.600          33.800
  21818176.993    21818176.427    21818174.908   -18673964.117 6 -14551132.165 5
        37.400          33.400
  21044307.941    21044307.452    21044306.342   -21968621.869 6 -17118397.054 6
        40.300          41.200
  24093203.405    24093203.332    24093201.803    -4063631.686 3  -3166464.697 3
        19.900          19.300
  23509303.388    23509301.704    23509299.855    -7482483.883 4  -5830502.735 4
        29.000          27.900
  25232726.155    25232724.812    25232723.827     4087235.042     3184859.979 1
                        11.000
  20342020.288    20342020.004    20342016.911   -25327902.880 7 -19736019.695 8
        44.100          48.500
 09  1 31  0 17  0.0000000  0  7G 9G18G14G11G19G 3G22
  21603713.988    21603713.618    21603712.733   -17059507.807 6 -13293114.310 5
        36.900          33.600
  21831842.029    21831841.446    21831839.799   -18602154.362 6 -14495176.511 5
        37.200          33.100
  21033605.685    21033605.104    21033603.970   -22024863.473 6 -17162221.666 6
        40.300          41.300
  24076935.434    24076934.976    24076933.266    -4149122.016 3  -3233080.526 3
        19.300          19.300
  23520036.846    23520035.383    23520033.658    -7426077.716 4  -5786549.878 4
        28.400          27.900
  25251267.264    25251266.214    25251268.211     4184690.488     3260799.127 2
                        12.600
  20345703.839    20345703.616    20345700.522   -25308544.990 7 -19720935.617 8
        44.000          48.300
 09  1 31  0 17 30.0000000  0  7G 9G18G14G11G19G 3G22
  21610952.579    21610952.238    21610951.488   -17021468.479 6 -13263473.269 5
        36.800          33.500
  21845566.338    21845565.706    21845563.952   -18530033.228 6 -14438978.225 5
        37.100          32.800
  21022985.929    21022985.423    21022984.267   -22080670.214 6 -17205707.429 6
        40.400          41.400
  24060735.610    24060734.704    24060732.795    -4234257.772 3  -3299420.051 3
        19.900          19.300
  23530859.068    23530857.494    23530855.705    -7369207.665 4  -5742235.549 4
        28.400          27.600
  25269823.904    25269825.087    25269823.095     4282215.272     3336792.495 2
                        12.600
  20349468.257    20349467.971    20349464.843   -25288763.183 7 -19705521.219 8
        43.900          48.200
 09  1 31  0 18  0.0000000  0  7G 9G18G14G11G 3G19G22
  21618321.625    21618321.146    21618320.979   -16982742.423 6 -13233297.114 5
        36.200          33.500
  21859345.965    21859345.300    21859343.487   -18457620.984 6 -14382553.099 5
        37.200          32.700
  21012445.511    21012445.003    21012443.772   -22136060.691 6 -17248868.825 6
        40.400          41.500
  24044597.431    24044597.135    24044596.015    -4319055.807 3  -3365496.414 3
        19.900          19.300
  25288396.427    25288395.062    25288394.168     4379787.354     3412822.702 2
         3.000          16.100
  23541764.806    23541763.135    23541761.741    -7311894.993 4  -5697576.320 4
        27.400          27.100
  20353309.526    20353309.297    20353306.183   -25268576.696 7 -19689791.479 8
        44.000          48.200
 09  1 31  0 18 30.0000000  0  7G 9G18G14G11G19G 3G22
  21625822.284    21625821.857    21625821.220   -16943327.505 6 -13202584.181 5
        36.600          33.500
  21873181.239    21873180.742    21873178.980   -18384914.736 6 -14325898.879 5
        37.100          32.600
  21001985.042    21001984.537    21001983.382   -22191030.364 6 -17291702.321 6
        40.500          41.600
  24028526.385    24028525.900    24028524.967    -4403510.021 3  -3431304.863 3
        19.900          19.900
  23552755.958    23552754.317    23552752.373    -7254138.565 4  -5652571.305 4
        27.900          27.400
  25306968.744    25306968.694    25306969.460     4477407.391     3488890.258 2
         3.000          12.600
  20357228.660    20357228.345    20357225.236   -25247982.128 7 -19673743.760 8
        43.900          48.200
 09  1 31  0 19  0.0000000  0  7G 9G18G14G11G19G 3G22
  21633453.288    21633452.849    21633452.083   -16903227.461 6 -13171337.387 5
        36.600          33.500
  21887072.365    21887071.791    21887069.876   -18311917.302 6 -14269017.754 5
        37.100          32.600
  20991604.357    20991603.909    20991602.804   -22245580.506 6 -17334208.912 6
        40.300          41.600
  24012521.373    24012521.027    24012519.435    -4487620.126 3  -3496845.169 3
        21.100          21.100
  23563830.210    23563828.528    23563826.910    -7195943.002 4  -5607224.114 4
        27.600          27.600
  25325554.029    25325552.928    25325553.209     4575070.759     3564991.604 1
                        11.000
  20361224.897    20361224.622    20361221.493   -25226981.602 7 -19657379.707 8
        43.800          48.100
 09  1 31  0 19 30.0000000  0  6G 9G18G11G19G14G22
  21641213.192    21641212.769    21641212.522   -16862447.032 6 -13139560.425 5
        36.300          33.600
  21901017.937    21901017.336    21901015.633   -18238632.853 6 -14211912.989 5
        36.600          32.600
  23996580.953    23996580.468    23996579.054    -4571387.165 3  -3562118.157 3
        21.100          21.100
  23574986.612    23574985.477    23574983.392    -7137313.628 4  -5561538.886 4
        27.400          27.400
  20981303.306    20981302.801    20981301.533   -22299713.490 6 -17376390.441 6
        40.500          41.500
  20365297.827    20365297.493    20365294.394   -25205578.395 7 -19640701.879 8
        43.800          48.000
 09  1 31  0 20  0.0000000  0  6G 9G18G11G19G14G22
  21649102.951    21649102.509    21649101.994   -16820986.558 6 -13107253.545 5
        36.200          33.400
  21915018.252    21915017.560    21915015.886   -18165060.793 6 -14154584.114 5
        36.400          32.400
  23980707.194    23980706.624    23980704.822    -4654806.542 3  -3627120.213 3
        20.500          20.500
  23586225.195    23586224.195    23586222.993    -7078251.365 4  -5515516.357 4
        27.100          27.400
  20971082.001    20971081.434    20971080.204   -22353426.980 6 -17418245.097 6
        40.500          41.700
  20369447.590    20369447.310    20369444.231   -25183770.868 7 -19623708.997 8
        43.800          48.000
 09  1 31  0 20 30.0000000  0  6G 9G18G11G19G14G22
  21657126.714    21657126.218    21657125.849   -16778821.626 6 -13074397.754 5
        36.200          33.400
  21929077.916    21929077.322    21929075.813   -18091175.675 6 -14097011.296 5
        36.500          32.300
  23964904.184    23964904.154    23964901.873    -4737849.686 3  -3691829.117 3
        21.100          20.500
  23597552.182    23597550.697    23597548.998    -7018732.441 4  -5469137.964 4
        27.900          27.400
  20960945.549    20960944.995    20960943.783   -22406694.175 6 -17459751.988 6
        40.600          41.900
  20373679.363    20373679.069    20373675.958   -25161533.058 7 -19606380.827 7
        43.700          47.900
 09  1 31  0 21  0.0000000  0  6G 9G18G11G19G14G22
  21665281.788    21665281.412    21665280.860   -16735965.708 6 -13041003.521 5
        36.300          33.200
  21943195.089    21943194.394    21943192.564   -18016990.635 6 -14039204.773 5
        36.600          32.000
  23949170.502    23949170.651    23949169.113    -4820526.490 3  -3756252.570 3
        21.100          20.500
  23608962.094    23608960.595    23608959.003    -6958771.306 4  -5422415.004 4
        28.600          27.100
  20950891.937    20950891.398    20950890.242   -22459526.399 6 -17500919.940 7
        40.600          42.000
  20377990.652    20377990.282    20377987.180   -25138877.094 7 -19588726.822 7
        43.600          47.800
 09  1 31  0 21 30.0000000  0  6G 9G18G11G19G14G22
  21673566.139    21673565.771    21673565.043   -16692431.431 6 -13007080.700 5
        36.200          33.200
  21957366.855    21957366.114    21957364.543   -17942517.300 6 -13981173.593 5
        36.300          31.800
  23933505.879    23933505.687    23933504.478    -4902845.542 3  -3820397.244 3
        20.500          22.100
  23620453.962    23620452.651    23620450.974    -6898381.011 4  -5375357.628 4
        28.100          26.500
  20940919.189    20940918.668    20940917.390   -22511933.600 6 -17541756.714 7
        40.700          42.000
  20382379.250    20382378.963    20382375.918   -25115814.154 7 -19570755.698 7
        43.500          47.800
 09  1 31  0 22  0.0000000  0  6G 9G18G11G19G14G22
  21681979.860    21681979.365    21681978.833   -16648217.916 6 -12972628.601 5
        36.200          33.400
  21971593.420    21971592.993    21971591.667   -17867753.452 5 -13922916.052 5
        35.800          31.600
  23917909.448    23917909.903    23917909.049    -4984801.591 3  -3884259.059 3
        19.900          23.000
  23632027.716    23632026.228    23632024.682    -6837561.238 4  -5327965.609 4
        27.600          26.800
  20931028.015    20931027.448    20931026.207   -22563912.315 6 -17582259.598 7
        40.700          42.200
  20386846.182    20386845.861    20386842.677   -25092341.153 7 -19552465.043 7
        43.600          47.700
 09  1 31  0 22 30.0000000  0  6G 9G18G11G19G14G22
  21690521.466    21690520.996    21690520.889   -16603329.779 5 -12937650.828 5
        35.800          33.600
  21985875.325    21985874.726    21985873.124   -17792703.232 5 -13864435.359 5
        35.900          31.500
  23902383.191    23902383.027    23902382.279    -5066395.124 3  -3947838.408 3
        19.300          23.000
  23643682.083    23643680.446    23643678.664    -6776317.319 4  -5280243.080 4
        28.100          26.500
  20921217.817    20921217.271    20921216.106   -22615464.644 6 -17622430.232 7
        40.700          42.300
  20391390.285    20391390.000    20391386.879   -25068461.224 7 -19533857.298 7
        43.500          47.700
 09  1 31  0 23  0.0000000  0  6G 9G18G11G19G14G22
  21699192.828    21699192.440    21699191.875   -16557762.904 6 -12902144.161 5
        36.000          33.400
  22000212.446    22000211.856    22000210.018   -17717361.566 6 -13805727.561 5
        36.000          31.100
  23886926.626    23886926.714    23886925.890    -5147617.276 2  -4011128.380 3
        17.800          23.000
  23655417.585    23655416.261    23655415.115    -6714645.492 4  -5232187.112 4
        28.100          27.100
  20911490.248    20911489.763    20911488.485   -22666583.569 6 -17662263.148 7
        40.700          42.400
  20396013.136    20396012.789    20396009.642   -25044168.494 7 -19514927.893 7
        43.400          47.600
 09  1 31  0 23 30.0000000  0  6G 9G18G11G19G14G22
  21707992.322    21707991.888    21707991.369   -16511520.151 5 -12866110.849 5
        35.700          33.000
  22014604.871    22014604.107    22014602.345   -17641730.204 5 -13746794.029 5
        35.800          31.300
  23871541.525    23871541.458    23871540.687    -5228467.207 2  -4074128.304 3
        16.100          23.000
  23667234.410    23667232.979    23667231.325    -6652549.462 4  -5183800.581 4
        27.900          26.800
  20901844.819    20901844.354    20901843.217   -22717269.979 6 -17701759.039 7
        40.700          42.600
  20400714.136    20400713.818    20400710.865   -25019463.745 7 -19495677.434 7
        43.300          47.600
 09  1 31  0 24  0.0000000  0  6G 9G18G11G19G14G22
  21716919.277    21716918.796    21716918.326   -16464609.311 5 -12829556.942 5
        35.700          33.100
  22029050.711    22029050.054    22029048.238   -17565815.720 5 -13687639.890 5
        35.500          31.100
  23856227.395    23856226.987    23856225.330    -5308948.315 2  -4136840.816 3
        17.000          21.600
  23679130.159    23679128.591    23679126.902    -6590037.655 4  -5135090.093 4
        27.100          26.500
  20892280.963    20892280.472    20892279.222   -22767528.702 6 -17740921.667 7
        40.700          42.600
  20405492.535    20405492.185    20405489.118   -24994353.658 7 -19476111.126 7
        43.300          47.600
 09  1 31  0 24 30.0000000  0  6G 9G18G11G19G14G22
  21725972.818    21725972.376    21725972.042   -16417031.913 5 -12792483.639 5
        35.600          33.000
  22043550.333    22043549.766    22043548.080   -17489618.845 5 -13628265.703 5
        35.400          31.100
  23840983.362    23840982.634    23840980.657    -5389057.896 2  -4199263.817 3
        17.800          20.500
  23691104.211    23691103.096    23691101.392    -6527112.051 4  -5086057.162 4
        27.400          26.800
  20882798.497    20882798.101    20882796.898   -22817358.910 6 -17779750.394 7
        40.700          42.800
  20410347.943    20410347.653    20410344.569   -24968837.720 7 -19456228.576 7
        43.300          47.500
 09  1 31  0 25  0.0000000  0  6G 9G18G11G19G14G22
  21735154.050    21735153.512    21735152.962   -16368785.806 5 -12754889.264 5
        35.500          33.000
  22058104.615    22058104.053    22058102.206   -17413136.397 5 -13568668.992 5
        35.500          30.800
  23825810.864    23825811.016    23825808.336    -5468789.209 3  -4261392.085 3
        19.900          20.500
  23703157.671    23703156.178    23703154.744    -6463770.997 4  -5036700.494 4
        27.100          26.200
  20873398.666    20873398.272    20873397.163   -22866755.422 6 -17818241.170 7
        40.700          43.000
  20415281.533    20415281.209    20415278.130   -24942911.868 7 -19436026.605 7
        43.200          47.400
 09  1 31  0 25 30.0000000  0  6G 9G18G11G19G14G22
  21744462.114    21744461.762    21744461.059   -16319869.773 5 -12716772.870 5
        35.500          32.700
  22072713.710    22072712.932    22072711.138   -17336366.344 5 -13508848.166 5
        35.200          30.800
  23810711.381    23810711.525    23810709.193    -5548137.048 3  -4323221.542 3
        19.900          20.500
  23715290.528    23715288.639    23715286.514    -6400014.052 4  -4987019.757 4
        26.800          24.900
  20864082.032    20864081.520    20864080.382   -22915714.912 6 -17856391.413 7
        40.700          43.000
  20420293.567    20420293.273    20420290.156   -24916573.259 7 -19415503.010 7
        43.200          47.300
 09  1 31  0 26  0.0000000  0  6G 9G18G11G19G14G22
  21753898.216    21753897.635    21753896.805   -16270285.188 5 -12678135.526 5
        35.800          32.300
  22087376.724    22087376.272    22087374.772   -17259308.894 5 -13448803.405 5
        35.100          31.000
  23795684.349    23795685.024    23795683.313    -5627098.169 3  -4384749.648 3
        18.600          19.900
  23727501.502    23727500.096    23727498.373    -6335842.622 4  -4937016.050 4
        26.500          25.300
  20854848.839    20854848.360    20854847.142   -22964235.685 6 -17894199.800 7
        40.700          43.100
  20425384.307    20425384.008    20425380.940   -24889821.352 7 -19394657.360 7
        43.200          47.400
 09  1 31  0 26 30.0000000  0  6G 9G18G11G19G14G22
  21763459.447    21763458.936    21763458.035   -16220039.831 5 -12638983.293 5
        35.500          32.100
  22102093.984    22102093.324    22102091.683   -17181970.565 5 -13388539.773 5
        34.900          30.600
  23780732.030    23780732.147    23780730.243    -5705676.164 3  -4445979.212 3
        20.500          18.600
  23739790.459    23739788.709    23739787.205    -6271265.222 4  -4886695.993 4
        26.200          25.900
  20845698.009    20845697.580    20845696.388   -23012323.010 6 -17931670.437 7
        40.700          43.100
  20430552.541    20430552.264    20430549.157   -24862662.036 7 -19373494.253 7
        43.200          47.400
 09  1 31  0 27  0.0000000  0  6G 9G18G11G19G14G22
  21773145.414    21773144.941    21773144.094   -16169139.682 5 -12599320.834 5
        35.200          32.100
  22116863.489    22116862.953    22116861.239   -17104356.256 5 -13328061.092 5
        34.900          30.600
  23765852.263    23765851.974    23765849.852    -5783872.561 3  -4506911.453 3
        22.100          18.600
  23752154.854    23752153.627    23752151.739    -6206288.414 4  -4836064.731 4
        26.800          25.600
  20836629.141    20836628.680    20836627.534   -23059980.422 6 -17968806.073 7
        40.600          43.300
  20435797.429    20435797.191    20435794.135   -24835099.473 7 -19352016.926 7
        43.100          47.300
 09  1 31  0 27 30.0000000  0  6G 9G18G11G19G14G22
  21782956.603    21782956.260    21782955.861   -16117579.721 5 -12559144.235 5
        34.900          32.300
  22131686.762    22131686.192    22131684.559   -17026459.619 5 -13267362.412 5
        34.900          30.800
  23751046.475    23751046.168    23751044.227    -5861678.123 3  -4567539.161 3
        21.600          18.600
  23764596.759    23764594.995    23764593.103    -6140907.901 4  -4785118.867 4
        26.500          25.300
  20827643.426    20827643.017    20827641.919   -23107199.920 6 -18005600.469 7
        40.500          43.400
  20441120.455    20441120.187    20441117.139   -24807127.020 7 -19330220.206 7
        43.200          47.300
 09  1 31  0 28  0.0000000  0  6G 9G18G11G19G14G22
  21792893.965    21792893.548    21792893.056   -16065359.574 5 -12518453.206 5
        35.300          32.700
  22146564.008    22146563.317    22146561.635   -16948279.621 5 -13206442.941 5
        34.600          30.400
  23736315.869    23736315.165    23736313.838    -5939088.010 3  -4627858.534 3
        20.500          19.900
  23777114.554    23777113.138    23777111.754    -6075123.485 4  -4733858.282 4
        26.200          25.600
  20818741.768    20818741.303    20818740.088   -23153978.832 6 -18042051.563 7
        40.500          43.500
  20446521.954    20446521.614    20446518.510   -24778742.542 7 -19308102.429 7
        43.200          47.200
 09  1 31  0 28 30.0000000  0  6G 9G18G11G19G14G22
  21802955.556    21802955.091    21802954.313   -16012486.585 5 -12477253.482 5
        35.400          32.100
  22161493.675    22161493.061    22161491.527   -16869822.546 5 -13145307.559 5
        34.400          30.200
  23721659.040    23721658.892    23721657.968    -6016105.048 3  -4687871.798 3
        21.100          20.500
  23789707.969    23789707.146    23789705.515    -6008943.109 4  -4682289.162 4
        26.200          25.900
  20809923.053    20809922.569    20809921.345   -23200321.816 6 -18078162.971 7
        40.400          43.600
  20452000.635    20452000.337    20451997.221   -24749951.469 7 -19285667.819 7
        43.100          47.100
 09  1 31  0 29  0.0000000  0  6G 9G18G11G19G14G22
  21813141.295    21813140.924    21813140.325   -15958958.643 5 -12435543.391 5
        35.100          32.000
  22176476.752    22176476.251    22176474.833   -16791085.101 5 -13083953.710 5
        34.000          30.100
  23707080.003    23707079.096    23707078.076    -6092723.324 3  -4747574.343 3
        21.100          20.500
  23802378.029    23802376.675    23802374.560    -5942365.766 4  -4630410.720 4
        25.900          25.300
  20801188.189    20801187.685    20801186.401   -23246224.165 6 -18113931.023 7
        40.400          43.800
  20457557.654    20457557.300    20457554.191   -24720749.780 7 -19262913.253 7
        43.200          47.100
 09  1 31  0 29 30.0000000  0  6G 9G18G11G19G14G22
  21823450.623    21823450.269    21823449.664   -15904781.596 5 -12393327.509 5
        34.600          31.600
  22191512.225    22191511.871    22191510.411   -16712071.899 5 -13022384.981 5
        33.900          30.100
  23692575.532    23692575.436    23692573.499    -6168943.747 3  -4806966.849 3
        22.100          20.500
  23815121.540    23815119.899    23815118.184    -5875397.149 4  -4578227.380 4
        24.200          24.900
  20792536.599    20792536.076    20792534.863   -23291688.444 6 -18149357.724 7
        40.300          43.900
  20463191.890    20463191.582    20463188.526   -24691141.271 7 -19239841.682 7
        43.200          47.100
 09  1 31  0 30  0.0000000  0  6G 9G18G11G19G14G22
  21833882.424    21833881.936    21833881.175   -15849964.395 5 -12350612.795 5
        34.900          31.600
  22206599.379    22206598.858    22206597.225   -16632790.154 5 -12960607.003 5
        33.800          30.100
  23678145.594    23678145.443    23678144.126    -6244770.646 3  -4866052.721 3
        22.600          21.100
  23827938.686    23827936.875    23827935.296    -5808046.278 4  -4525746.186 4
        26.200          25.600
  20783967.045    20783966.574    20783965.501   -23336720.963 6 -18184447.985 7
        40.200          44.000
  20468902.299    20468902.008    20468898.955   -24661132.704 7 -19216458.379 7
        43.200          47.000
 09  1 31  0 30 30.0000000  0  6G 9G18G11G19G14G22
  21844437.485    21844436.895    21844436.102   -15794498.907 5 -12307392.925 5
        34.800          32.000
  22221739.402    22221738.849    22221737.080   -16553230.389 5 -12898612.389 5
        34.000          30.100
  23663793.686    23663793.589    23663791.643    -6320191.302 3  -4924822.050 3
        23.000          21.600
  23840828.557    23840827.159    23840825.543    -5740305.196 4  -4472960.920 4
        25.900          24.900
  20775482.009    20775481.464    20775480.279   -23381310.919 6 -18219193.391 7
        40.100          44.100
  20474690.832    20474690.504    20474687.458   -24630713.893 7 -19192755.405 7
        43.100          47.000
 09  1 31  0 31  0.0000000  0  6G 9G18G11G19G14G22
  21855113.874    21855113.497    21855113.133   -15738389.486 5 -12263671.298 5
        34.000          31.600
  22236930.988    22236930.438    22236928.945   -16473396.072 5 -12836403.832 4
        33.200          29.700
  23649519.329    23649518.759    23649516.915    -6395205.099 3  -4983274.325 3
        23.000          21.600
  23853792.962    23853791.279    23853789.534    -5672179.330 4  -4419875.847 3
        26.800          23.800
  20767080.581    20767080.210    20767079.063   -23425459.751 6 -18253595.066 7
        40.100          44.200
  20480556.807    20480556.543    20480553.468   -24599887.506 7 -19168734.840 7
        43.100          46.800
 09  1 31  0 31 30.0000000  0  6G 9G18G11G19G14G22
  21865913.581    21865913.281    21865912.504   -15681637.684 5 -12219449.106 5
        34.000          31.300
  22252175.257    22252174.641    22252173.048   -16393287.720 5 -12773981.754 4
        33.500          29.700
  23635321.943    23635321.696    23635320.821    -6469809.929 3  -5041407.941 3
        22.600          23.000
  23866829.996    23866828.159    23866826.350    -5603670.546 4  -4366492.374 3
        26.500          23.800
  20758763.586    20758763.107    20758761.906   -23469166.462 6 -18287652.229 7
        40.100          44.200
  20486500.527    20486500.308    20486497.190   -24568653.005 7 -19144396.261 7
        43.100          46.800
 09  1 31  0 32  0.0000000  0  6G 9G18G11G19G14G22
  21876835.008    21876834.608    21876834.144   -15624244.981 5 -12174727.509 5
        34.100          31.500
  22267471.495    22267470.922    22267469.352   -16312905.128 5 -12711345.968 4
        33.400          29.200
  23621203.615    23621203.557    23621202.175    -6544002.390 3  -5099220.205 3
        22.600          22.600
  23879938.453    23879936.755    23879936.046    -5534780.142 4  -4312811.539 4
        24.600          24.200
  20750530.769    20750530.343    20750529.233   -23512429.266 6 -18321363.494 7
        40.000          44.300
  20492522.139    20492521.835    20492518.794   -24537009.516 7 -19119738.995 7
        43.100          46.700
 09  1 31  0 32 30.0000000  0  6G 9G18G11G19G14G22
  21887878.132    21887877.889    21887877.233   -15566213.813 5 -12129508.407 5
        34.100          31.600
  22282819.521    22282819.023    22282817.588   -16232249.583 5 -12648497.500 4
        33.000          29.000
  23607164.308    23607164.226    23607162.453    -6617780.555 3  -5156709.656 3
        22.100          22.100
  23893120.491    23893119.204    23893117.334    -5465511.572 4  -4258836.022 3
        25.900          23.800
  20742382.483    20742382.054    20742380.945   -23555248.506 6 -18354729.120 7
        40.000          44.400
  20498621.350    20498621.027    20498617.988   -24504957.989 7 -19094763.774 7
        43.100          46.600
 09  1 31  0 33  0.0000000  0  6G 9G18G11G19G14G22
  21899042.406    21899042.110    21899041.455   -15507544.186 5 -12083791.816 5
        33.900          31.300
  22298220.160    22298219.794    22298218.129   -16151319.605 5 -12585435.184 4
        33.200          29.000
  23593204.941    23593204.341    23593203.072    -6691139.826 3  -5213872.702 3
        21.600          22.600
  23906373.437    23906372.082    23906370.543    -5395864.909 4  -4204565.901 4
        25.300          24.200
  20734319.398    20734318.904    20734317.723   -23597620.954 6 -18387746.595 7
        40.000          44.400
  20504798.688    20504798.360    20504795.332   -24472496.080 7 -19069468.778 7
        43.000          46.600
 09  1 31  0 33 30.0000000  0  7G 9G18G11G19G32G14G22
  21910328.103    21910327.666    21910326.918   -15448238.407 5 -12037579.512 5
        34.000          31.100
  22313673.198    22313672.513    22313670.410   -16070116.134 5 -12522159.756 4
        33.400          28.800
  23579324.834    23579324.851    23579323.081    -6764077.827 3  -5270707.478 3
        22.100          22.100
  23919697.309    23919695.847    23919695.074    -5325842.867 3  -4150003.278 3
        23.800          23.400
  25172767.558    25172770.578    25172770.845            .0671          -.2881
                         3.000
  20726341.394    20726340.906    20726339.664   -23639546.144 6 -18420415.560 7
        40.200          44.600
  20511053.998    20511053.697    20511050.645   -24439624.024 7 -19043854.181 7
        43.000          46.500
 09  1 31  0 34  0.0000000  0  7G 9G18G11G32G14G22G19
  21921732.559    21921732.163    21921731.376   -15388307.496 5 -11990880.093 5
        34.000          31.300
  22329175.829    22329175.249    22329173.375   -15988648.486 5 -12458678.474 4
        33.100          29.000
  23565524.408    23565524.321    23565522.231    -6836600.863 3  -5327218.907 3
        22.600          23.000
  25154438.883    25154438.013    25154443.401      -96319.927      -75056.005
                         3.000
  20718446.793    20718446.317    20718445.011   -23681032.334 6 -18452742.450 7
        40.200          44.500
  20517385.603    20517385.336    20517382.280   -24406350.742 7 -19017926.944 7
        43.000          46.300
  23933092.280    23933090.866    23933089.246    -5255456.750 4  -4095156.959 3
        24.600          23.000
 09  1 31  0 34 30.0000000  0  8G 9G18G11G32G12G14G22G19
  21933256.003    21933255.803    21933255.112   -15327749.859 5 -11943692.320 5
        34.000          31.000
  22344729.134    22344728.627    22344727.002   -15906914.463 5 -12394989.638 4
        33.000          29.000
  23551804.183    23551803.587    23551801.843    -6908703.140 3  -5383402.469 3
        23.400          23.000
  25136116.780    25136113.593    25136118.209     -192613.353     -150090.476 1
                         6.500
  25272114.211    25272113.682    25272111.634            .03811         -.30312
        11.000          15.100
  20710636.673    20710636.135    20710634.826   -23722075.157 6 -18484723.854 7
        40.300          44.600
  20523794.313    20523794.033    20523790.952   -24372672.984 7 -18991684.531 7
        43.000          46.200
  23946555.753    23946554.029    23946553.024    -5184705.421 4  -4040026.065 3
        24.600          23.400
 09  1 31  0 35  0.0000000  0  9G 9G18G11G32G12G31G14G22G19
  21944896.311    21944895.771    21944894.789   -15266583.378 5 -11896030.115 5
        34.100          30.800
  22360330.357    22360329.698    22360328.038   -15824930.286 5 -12331105.869 4
        33.000          28.800
  23538161.093    23538160.705    23538158.728    -6980398.009 3  -5439268.571 3
        23.400          23.400
  25117792.281    25117793.854    25117796.914     -288894.417     -225113.857 1
                         6.500
  25256111.536    25256111.709    25256110.990      -84086.271 1    -65522.025 2
         9.000          15.100
  25051363.210    25051362.916    25051361.103           -.78311         -.83713
        11.000          21.600
  20702907.975    20702907.555    20702906.100   -23762689.682 6 -18516371.523 7
        40.200          44.600
  20530277.091    20530276.725    20530273.647   -24338606.149 7 -18965138.940 7
        42.900          46.100
  23960085.481    23960084.061    23960082.228    -5113607.050 3  -3984624.740 3
        23.800          23.400
 09  1 31  0 35 30.0000000  0  9G 9G18G11G32G12G31G14G22G19
  21956653.405    21956652.969    21956652.309   -15204796.540 5 -11847884.517 5
        33.200          31.000
  22375981.586    22375980.799    22375979.012   -15742682.974 5 -12267017.061 4
        32.700          28.800
  23524598.135    23524597.719    23524596.578    -7051669.047 3  -5494804.412 3
        23.800          23.400
  25099478.167    25099478.576    25099478.893     -385148.504     -300116.837 1
         3.000           9.000
  25240151.377    25240151.168    25240151.371     -167955.013 1   -130874.248 2
        11.000          12.600
  25029195.586    25029194.923    25029193.508     -116494.096 2    -90774.742 3
        15.100          20.500
  20695263.354    20695262.961    20695261.666   -23802861.745 6 -18547674.417 7
        40.200          44.800
  20536836.394    20536836.063    20536832.947   -24304136.841 7 -18938279.735 7
        42.900          46.100
  23973682.900    23973681.509    23973680.552    -5042150.356 3  -3928944.210 4
        23.800          24.900
 09  1 31  0 36  0.0000000  0 10G 9G11G18G 5G32G12G31G14G22G19
  21968530.029    21968529.763    21968529.375   -15142382.891 5 -11799250.509 5
        32.800          31.100
  23511118.314    23511118.043    23511116.723    -7122505.003 4  -5550001.240 3
        24.200          23.000
  22391683.661    22391683.197    22391681.764   -15660164.669 5 -12202717.090 4
        32.400          28.600
  25164747.704    25164747.775    25164748.602            .0381           .2771
                         3.000
  25081169.059    25081168.254    25081168.827     -481365.680 1   -375091.186 1
         6.500          11.000
  25224238.332    25224237.698    25224233.982     -251594.318 2   -196047.721 2
        16.100          12.600
  25007030.572    25007030.123    25007029.610     -232967.944 2   -181533.519 3
        17.800          18.600
  20687704.973    20687704.490    20687703.211   -23842581.686 6 -18578625.006 7
        40.200          44.900
  20543473.906    20543473.592    20543470.485   -24269256.331 7 -18911100.113 7
        42.800          46.000
  23987350.206    23987348.427    23987346.831    -4970328.948 3  -3872979.483 4
        23.400          24.600
 09  1 31  0 36 30.0000000  0 10G 9G11G 5G32G12G31G18G14G22G19
  21980523.264    21980522.776    21980522.086   -15079360.638 5 -11750142.253 5
        33.200          31.100
  23497718.864    23497718.563    23497717.117    -7192919.456 4  -5604869.628 3
        24.600          23.000
  25146947.585    25146946.717    25146946.094      -93556.781 1    -72901.101
         6.500           3.000
  25062864.000    25062863.666    25062863.866     -577560.598 1   -450048.188 1
        11.000          11.000
  25208360.899    25208360.717    25208359.006     -335016.805 2   -261052.243 2
        12.600          15.100
  24984866.644    24984866.022    24984867.108     -349435.191 2   -272287.181 2
        17.800          17.000
  22407435.067    22407434.367    22407432.977   -15577391.895 5 -12138218.832 4
        32.300          28.600
  20680229.707    20680229.226    20680227.940   -23881864.549 6 -18609235.019 7
        40.200          45.000
  20550186.481    20550186.225    20550183.130   -24233980.709 7 -18883612.610 7
        42.700          45.900
  24001083.384    24001081.359    24001080.352    -4898161.398 3  -3816745.038 4
        23.000          24.900
 09  1 31  0 37  0.0000000  0 10G 9G11G 5G32G12G31G18G14G22G19
  21992633.338    21992632.956    21992632.235   -15015720.751 5 -11700552.726 5
        33.200          31.000
  23484401.533    23484401.657    23484400.866    -7262898.786 4  -5659398.963 3
        24.900          23.400
  25129176.866    25129173.876    25129178.005     -186931.596     -145660.661 1
         3.000           6.500
  25044565.307    25044564.317    25044565.553     -673720.809 1   -524978.171 1
         9.000          11.000
  25192530.105    25192530.835    25192530.298     -418207.611 1   -325876.249 2
        11.000          15.100
  24962707.212    24962706.354    24962708.085     -465882.100 2   -363024.998 2
        17.000          13.900
  22423236.765    22423236.190    22423234.653   -15494354.009 5 -12073513.990 4
        32.000          28.400
  20672839.772    20672839.320    20672838.032   -23920698.473 6 -18639495.210 7
        40.200          45.000
  20556976.543    20556976.318    20556973.225   -24198298.542 7 -18855808.322 7
        42.700          45.800
  24014884.137    24014882.006    24014881.246    -4825638.919 3  -3760234.014 4
        23.000          24.600
 09  1 31  0 37 30.0000000  0 10G 9G11G 5G32G12G31G18G14G22G19
  22004860.755    22004860.317    22004859.599   -14951465.450 5 -11650483.656 5
        33.000          31.000
  23471168.523    23471168.577    23471167.423    -7332440.782 4  -5713587.509 3
        25.300          23.000
  25111442.873    25111441.258    25111443.232     -280121.174     -218275.996 1
                         6.500
  25026271.288    25026270.386    25026272.661     -769845.293     -599880.417 1
         3.000           9.000
  25176744.366    25176744.138    25176743.582     -501163.988 1   -390517.561 2
         6.500          13.900
  24940552.259    24940552.262    24940553.103     -582306.280 2   -453745.143 2
        17.000          12.600
  22439088.831    22439088.093    22439086.363   -15411052.132 5 -12008603.445 4
        31.800          28.100
  20665535.477    20665534.933    20665533.599   -23959083.307 6 -18669405.461 7
        40.200          45.000
  20563844.033    20563843.715    20563840.700   -24162210.308 7 -18827687.615 7
        42.600          45.800
  24028750.790    24028749.777    24028748.143    -4752764.175 3  -3703448.492 3
        22.100          23.000
 09  1 31  0 38  0.0000000  0 10G 9G11G 5G32G12G31G18G14G22G19
  22017204.252    22017203.869    22017203.154   -14886599.342 5 -11599938.638 5
        32.700          30.800
  23458018.984    23458018.629    23458016.746    -7401545.459 4  -5767435.298 3
        26.200          22.100
  25093745.337    25093743.791    25093742.949     -373124.670     -290746.159 1
         3.000           6.500
  25007987.762    25007985.900    25007987.151     -865935.343 1   -674755.821 1
         6.500           9.000
  25161004.236    25161004.606    25161000.160     -583884.750     -454975.315 1
                         9.000
  24918402.076    24918401.536    24918402.733     -698707.472 2   -544447.376 2
        16.100          15.100
  22454989.961    22454989.380    22454987.880   -15327489.459 5 -11943489.676 4
        31.600          28.100
  20658316.266    20658315.786    20658314.291   -23997020.465 6 -18698966.875 7
        40.100          44.900
  20570788.232    20570787.889    20570784.720   -24125718.549 7 -18799252.477 7
        42.600          45.600
  24042684.983    24042683.683    24042682.237    -4679542.091 3  -3646392.306 3
        23.000          23.000
 09  1 31  0 38 30.0000000  0  9G 9G11G 5G32G31G18G14G22G19
  22029663.606    22029663.258    22029662.503   -14821124.966 5 -11548919.633 5
        32.700          31.000
  23444952.523    23444952.025    23444950.066    -7470210.320 4  -5820940.371 3
        26.500          21.600
  25076082.478    25076081.225    25076083.884     -465938.166     -363068.295 1
         3.000           9.000
  24989708.695    24989708.224    24989709.357     -961989.594 1   -749603.301 1
        11.000           9.000
  24896255.816    24896256.673    24896256.099     -815082.643 2   -635129.309 2
        12.600          15.100
  22470941.003    22470940.479    22470938.976   -15243666.693 5 -11878173.243 4
        31.300          28.100
  20651182.375    20651181.859    20651180.309   -24034509.393 6 -18728179.016 7
        40.100          45.000
  20577809.176    20577808.868    20577805.676   -24088823.052 7 -18770502.733 7
        42.500          45.500
  24056685.310    24056683.523    24056681.725    -4605974.932 3  -3589067.256 3
        23.000          23.400
 09  1 31  0 39  0.0000000  0  9G 9G 5G11G32G31G18G14G22G19
  22042237.041    22042236.548    22042235.567   -14755052.981 5 -11497434.971 5
        32.800          31.000
  25058456.712    25058455.544    25058458.090     -558566.808 1   -435246.496 1
         9.000          11.000
  23431968.341    23431968.053    23431966.327    -7538441.602 4  -5874107.586 3
        26.500          21.600
  24971436.214    24971434.993    24971434.600    -1058015.535 1   -824428.701 1
        11.000           9.000
  24874114.189    24874114.403    24874113.874     -931437.710 2   -725795.539 2
        13.900          15.100
  22486939.696    22486939.144    22486937.505   -15159593.040 5 -11812661.316 4
        31.100          27.900
  20644132.093    20644131.614    20644130.253   -24071558.091 6 -18757048.119 7
        40.000          45.100
  20584905.173    20584904.901    20584901.910   -24051532.701 7 -18741445.314 7
        42.400          45.500
  24070747.258    24070745.606    24070744.638    -4532074.013 3  -3531482.128 3
        21.600          23.000
 09  1 31  0 39 30.0000000  0  9G 5G11G 9G32G31G18G14G22G19
  25040868.766    25040867.729    25040868.425     -650993.509 1   -507267.298 1
         9.000          11.000
  23419069.436    23419069.451    23419067.521    -7606222.971 4  -5926924.219 3
        25.900          21.100
  22054925.844    22054925.439    22054924.717   -14688372.161 5 -11445475.892 5
        32.800          31.100
  24953170.891    24953170.182    24953171.066    -1153998.315 1   -899220.457 1
        11.000          11.000
  24851980.759    24851980.005    24851979.052    -1047756.135 2   -816433.251 2
        13.900          15.100
  22502988.549    22502988.005    22502986.539   -15075255.627 5 -11746943.860 4
        30.800          27.900
  20637168.421    20637168.009    20637166.570   -24108152.555 6 -18785563.274 7
        40.000          45.200
  20592079.099    20592078.760    20592075.695   -24013833.935 7 -18712069.650 7
        42.400          45.400
  24084875.839    24084874.650    24084872.366    -4457827.870 3  -3473627.990 3
        22.100          21.100
 09  1 31  0 40  0.0000000  0  9G11G 5G 9G32G31G18G14G22G19
  23406255.739    23406256.242    23406253.546    -7673558.118 4  -5979393.159 3
        25.600          21.600
  25023317.136    25023315.383    25023316.695     -743220.494 1   -579132.373 1
         6.500           9.000
  22067729.231    22067728.766    22067728.039   -14621090.213 5 -11393048.390 5
        32.600          30.800
  24934914.759    24934913.481    24934914.084    -1249942.272 2   -973981.967 2
        12.600          12.600
  24829851.836    24829851.008    24829850.341    -1164041.011 2   -907044.810 2
        13.900          12.600
  22519086.260    22519085.684    22519084.212   -14990661.204 5 -11681026.151 4
        30.600          27.600
  20630290.227    20630289.826    20630288.449   -24144297.454 6 -18813728.120 7
        40.000          45.200
  20599329.339    20599329.122    20599326.118   -23975732.532 7 -18682380.243 7
        42.300          45.300
  24099067.935    24099066.627    24099065.498    -4383245.035 3  -3415511.498 3
        21.100          21.100
 09  1 31  0 40 30.0000000  0  9G11G 5G 9G32G31G18G14G22G19
  23393527.761    23393527.743    23393526.008    -7740443.460 4  -6031511.587 3
        24.600          22.600
  25005807.845    25005807.427    25005804.724     -835243.177 2   -650838.335 1
        12.600           9.000
  22080646.611    22080646.213    22080645.285   -14553208.709 5 -11340153.702 5
        32.600          30.400
  24916663.732    24916663.036    24916663.942    -1345845.207 2  -1048711.461 2
        15.100          12.600
  24807730.516    24807730.299    24807728.868    -1280288.501 2   -997627.260 2
        13.900          15.100
  22535233.174    22535232.542    22535230.718   -14905809.027 5 -11614907.572 4
        31.000          26.800
  20623497.856    20623497.419    20623496.088   -24179991.331 6 -18841541.520 7
        39.800          45.300
  20606656.861    20606656.543    20606653.515   -23937227.276 7 -18652376.144 7
        42.400          45.300
  24113325.234    24113323.784    24113322.207    -4308326.870 3  -3357133.703 3
        23.000          21.100
 09  1 31  0 41  0.0000000  0 10G11G 5G 9G32G12G31G18G14G22G19
  23380886.113    23380886.216    23380884.529    -7806876.990 4  -6083277.960 3
        24.600          22.600
  24988334.966    24988334.821    24988333.913     -927058.358 2   -722382.596 2
        13.900          12.600
  22093677.547    22093677.170    22093676.420   -14484730.655 5 -11286794.179 5
        32.400          30.400
  24898423.473    24898422.250    24898421.235    -1441706.208 2  -1123408.270 2
        15.100          13.900
  25067529.574    25067528.751    25067526.737           -.30612         -.68212
        12.600          15.100
  24785618.088    24785618.442    24785615.120    -1396496.161 2  -1088178.610 2
        13.900          17.000
  22551428.865    22551428.134    22551426.104   -14820700.586 5 -11548589.308 4
        30.200          26.200
  20616791.394    20616790.920    20616789.634   -24215233.834 6 -18869003.200 7
        39.700          45.400
  20614060.823    20614060.572    20614057.517   -23898318.671 7 -18622057.747 7
        42.400          45.100
  24127645.505    24127644.016    24127641.417    -4233076.413 3  -3298496.985 3
        23.400          21.100
 09  1 31  0 41 30.0000000  0 10G11G 5G 9G32G12G31G18G14G22G19
  23368329.360    23368329.185    23368327.745    -7872865.873 4  -6134697.855 3
        25.600          23.400
  24970902.511    24970901.350    24970902.510    -1018671.969 2   -793769.828 2
        13.900          15.100
  22106819.592    22106819.234    22106818.650   -14415667.500 5 -11232978.726 5
        32.400          30.200
  24880187.266    24880186.203    24880186.858    -1537533.577 2  -1198078.910 2
        16.100          15.100
  25052116.778    25052116.615    25052114.485      -80992.098 2    -63111.055 2
        12.600          17.000
  24763510.920    24763511.035    24763507.570    -1512670.646 1  -1178704.120 3
        11.000          18.600
  22567671.421    22567670.592    22567668.925   -14735345.918 5 -11482079.191 4
        30.400          26.800
  20610169.205    20610168.740    20610167.366   -24250033.930 6 -18896120.147 7
        39.700          45.400
  20621539.645    20621539.406    20621536.324   -23859017.297 7 -18591433.295 7
        42.400          45.000
  24142025.047    24142023.963    24142022.089    -4157505.457 3  -3239610.563 3
        21.600          21.600
 09  1 31  0 42  0.0000000  0 10G11G 5G 9G32G12G31G18G14G22G19
  23355858.327    23355857.600    23355855.775    -7938404.292 4  -6185766.737 3
        25.300          23.400
  24953507.830    24953506.213    24953508.055    -1110077.152 1   -864994.593 2
        11.000          15.100
  22120073.489    22120073.111    22120072.401   -14346018.168 5 -11178706.505 5
        32.300          30.200
  24861960.197    24861958.821    24861959.092    -1633322.626 2  -1272719.686 2
        15.100          16.100
  25036751.288    25036750.618    25036752.231     -161727.618 1   -126021.758 2
         9.000          17.000
  24741408.821    24741408.657    24741407.523    -1628805.745 1  -1269198.887 3
         6.500          18.600
  22583960.932    22583960.335    22583958.841   -14649742.390 5 -11415375.155 4
        30.400          26.800
  20603631.970    20603631.501    20603630.081   -24284387.652 6 -18922889.274 7
        39.700          45.500
  20629093.961    20629093.656    20629090.574   -23819319.137 7 -18560499.656 7
        42.300          44.800
  24156466.930    24156465.688    24156464.059    -4081613.315 3  -3180473.814 3
        21.600          21.600
 09  1 31  0 42 30.0000000  0 10G11G 5G 9G32G12G31G18G14G22G19
  23343472.978    23343472.730    23343471.239    -8003486.038 4  -6236479.765 3
        25.300          23.000
  24936152.694    24936151.826    24936153.477    -1201266.140     -936050.914 2
         3.000          13.900
  22133439.264    22133438.669    22133437.914   -14275780.779 5 -11123976.075 4
        31.500          29.900
  24843739.569    24843738.442    24843738.833    -1729067.932 2  -1347326.369 2
        12.600          16.100
  25021441.464    25021440.594    25021438.707     -242199.733 2   -188727.276 2
        12.600          15.100
  24719318.653    24719318.510    24719316.833    -1744894.431 1  -1359657.422 3
         9.000          22.100
  22600299.108    22600298.368    22600296.474   -14563886.770 5 -11348474.680 4
        30.100          26.800
  20597180.489    20597180.026    20597178.674   -24318290.484 6 -18949307.059 7
        39.700          45.600
  20636724.524    20636724.238    20636721.086   -23779220.291 7 -18529253.799 7
        42.300          44.800
  24170969.885    24170968.941    24170967.631    -4005398.399 3  -3121085.577 3
        22.100          22.100
 09  1 31  0 43  0.0000000  0 10G11G 5G 9G32G12G31G18G14G22G19
  23331175.539    23331175.559    23331173.574    -8068108.949 4  -6286835.271 3
        24.900          22.600
  24918844.456    24918842.782    24918843.146    -1292236.208 1  -1006936.619 2
         6.500          13.900
  22146915.841    22146915.543    22146915.157   -14204958.898 5 -11068790.191 5
        31.300          30.100
  24825525.023    24825524.266    24825527.581    -1824768.874 1  -1421898.523 2
         9.000          15.100
  25006177.279    25006176.785    25006172.275     -322405.609 1   -251225.356 1
        11.000           9.000
  24697237.814    24697236.376    24697235.192    -1860934.666 2  -1450078.249 3
        12.600          21.100
  22616684.766    22616684.064    22616682.160   -14477780.572 5 -11281378.948 4
        30.600          26.800
  20590814.764    20590814.264    20590813.095   -24351741.996 6 -18975373.158 7
        39.600          45.800
  20644431.268    20644431.034    20644427.974   -23738720.811 7 -18497695.758 7
        42.300          44.700
  24185534.659    24185533.005    24185531.508    -3928863.549 3  -3061448.035 3
        22.100          21.100
 09  1 31  0 43 30.0000000  0 10G11G 5G 9G32G12G31G18G14G22G19
  23318965.225    23318965.271    23318962.844    -8132276.565 4  -6336835.997 3
        25.600          23.400
  24901574.727    24901573.786    24901572.771    -1382989.225 1  -1077653.211 2
         6.500          15.100
  22160502.921    22160502.571    22160501.721   -14133560.367 5 -11013154.965 5
        31.800          30.100
  24807322.479    24807321.357    24807324.266    -1920429.904 1  -1496439.545 2
         9.000          13.900
  24990963.282    24990963.321    24990961.326     -402347.548 1   -313517.837 2
         9.000          13.900
  24675163.268    24675162.797    24675159.654    -1976929.144 2  -1540463.473 3
        12.600          21.100
  22633116.635    22633115.878    22633114.369   -14391429.950 5 -11214092.757 4
        30.100          26.800
  20584534.087    20584533.624    20584532.226   -24384747.485 6 -19001091.707 7
        39.600          45.800
  20652213.178    20652212.894    20652209.673   -23697827.385 7 -18465830.748 7
        42.400          44.600
  24200157.626    24200156.548    24200154.056    -3852017.095 3  -3001567.698 3
        22.100          20.500
 09  1 31  0 44  0.0000000  0 10G11G 5G 9G32G12G31G18G14G22G19
  23306842.096    23306841.978    23306840.113    -8195983.150 4  -6386477.461 4
        25.300          24.200
  24884346.851    24884345.688    24884345.513    -1473518.227 1  -1148195.239 2
         6.500          15.100
  22174199.530    22174199.223    22174198.585   -14061583.828 5 -10957069.349 5
        31.600          30.100
  24789129.386    24789128.153    24789127.488    -2016046.111 2  -1570945.621 2
        12.600          12.600
  24975803.242    24975802.569    24975802.809     -482018.714 1   -375599.201 3
         9.000          20.500
  24653098.108    24653099.553    24653094.977    -2092871.568 1  -1630808.121 3
        11.000          21.600
  22649595.444    22649594.744    22649593.411   -14304831.964 4 -11146613.815 4
        29.900          26.500
  20578338.931    20578338.457    20578337.107   -24417303.118 6 -19026459.722 7
        39.500          45.900
  20660070.586    20660070.283    20660067.102   -23656536.209 7 -18433655.801 7
        42.400          44.500
  24214840.815    24214839.197    24214837.747    -3774858.098 3  -2941443.811 3
        23.000          21.600
 09  1 31  0 44 30.0000000  0 10G11G 5G 9G32G12G31G18G14G22G19
  23294806.266    23294806.321    23294804.835    -8259230.108 4  -6435760.785 4
        25.900          24.600
  24867162.157    24867161.876    24867161.974    -1563823.631 1  -1218563.009 2
        11.000          17.800
  22188005.094    22188004.530    22188003.947   -13989035.976 5 -10900538.550 4
        31.100          29.700
  24770942.059    24770940.814    24770939.381    -2111620.279 2  -1645418.900 2
        12.600          12.600
  24960691.629    24960692.278    24960691.580     -561419.661 1   -437469.984 2
         9.000          17.800
  24631045.417    24631046.460    24631045.686    -2208763.274 2  -1721113.259 3
        12.600          19.900
  22666120.503    22666119.805    22666118.316   -14217991.819 4 -11078946.181 4
        29.000          26.500
  20572228.669    20572228.271    20572226.951   -24449411.964 6 -19051479.590 7
        39.300          46.000
  20668002.989    20668002.641    20667999.453   -23614851.444 7 -18401174.169 7
        42.200          44.400
  24229581.538    24229580.012    24229578.688    -3697393.475 3  -2881081.766 3
        23.400          22.100
 09  1 31  0 45  0.0000000  0 10G11G 5G 9G32G12G31G18G14G22G19
  23282859.550    23282859.331    23282858.030    -8322011.753 4  -6484681.528 4
        25.900          25.300
  24850022.394    24850021.568    24850022.014    -1653898.189 2  -1288750.943 2
        12.600          17.800
  22201918.958    22201918.636    22201918.317   -13915915.576 5 -10843561.606 4
        30.600          29.500
  24752762.608    24752761.011    24752761.851    -2207147.317 1  -1719855.504 2
         9.000          12.600
  24945637.424    24945637.578    24945634.385     -640543.674 2   -499125.010 3
        13.900          18.600
  24609003.687    24609004.637    24609002.416    -2324597.816 2  -1811373.884 3
        13.900          19.900
  22682692.569    22682691.837    22682690.084   -14130906.510 4 -11011087.507 4
        29.500          25.900
  20566204.488    20566203.947    20566202.582   -24481070.173 6 -19076148.317 7
        39.300          46.100
  20676010.898    20676010.586    20676007.340   -23572769.553 7 -18368383.083 7
        42.300          44.300
  24244381.645    24244379.917    24244378.029    -3619621.603 4  -2820480.303 3
        24.200          22.100
 09  1 31  0 45 30.0000000  0 10G11G 5G 9G32G12G31G18G14G22G19
  23271001.677    23271001.875    23271000.749    -8384320.698 4  -6533233.940 4
        25.300          24.200
  24832925.437    24832925.229    24832924.443    -1743733.423 1  -1358752.391 2
         9.000          15.100
  22215943.406    22215942.766    22215941.887   -13842220.068 5 -10786136.537 4
        30.800          29.000
  24734593.115    24734593.108    24734594.485    -2302621.029 1  -1794250.519 2
         9.000          16.100
  24930634.227    24930634.176    24930632.248     -719382.078 2   -560557.539 2
        15.100          17.800
  24586974.370    24586974.868    24586973.030    -2440367.254 2  -1901583.789 3
        17.000          20.500
  22699312.140    22699311.371    22699309.430   -14043571.649 4 -10943034.379 4
        29.500          25.900
  20560267.057    20560266.507    20560265.132   -24512272.046 6 -19100461.460 7
        39.300          46.300
  20684095.321    20684094.989    20684091.774   -23530285.859 7 -18335278.901 7
        42.300          44.400
  24259240.111    24259238.514    24259236.409    -3541539.898 4  -2759637.422 3
        24.900          21.100
 09  1 31  0 46  0.0000000  0 10G 5G11G 9G32G12G31G18G14G22G19
  24815875.841    24815875.355    24815874.489    -1833333.166    -1428570.352 2
         3.000          13.900
  23259234.130    23259234.003    23259232.452    -8446162.138 4  -6581422.067 4
        24.900          24.200
  22230074.711    22230074.094    22230073.113   -13767959.214 5 -10728270.929 4
        31.000          29.000
  24716435.227    24716434.034    24716436.154    -2398047.497 1  -1868608.765 2
         9.000          17.800
  24915684.894    24915684.412    24915683.132     -797939.468 2   -621771.087 2
        13.900          17.000
  24564956.394    24564956.363    24564954.818    -2556076.034 3  -1991746.433 3
        19.900          19.900
  22715976.850    22715976.268    22715974.889   -13955995.401 4 -10874793.157 4
        29.200          26.500
  20554414.909    20554414.371    20554413.095   -24543024.748 6 -19124424.595 7
        39.100          46.400
  20692254.667    20692254.350    20692251.218   -23487407.819 7 -18301867.440 7
        42.200          44.400
  24274154.877    24274152.795    24274151.784    -3463158.717 3  -2698561.163 3
        23.400          19.900
 09  1 31  0 46 30.0000000  0 10G11G 5G 9G32G12G31G18G14G22G19
  23247555.289    23247554.944    23247553.897    -8507535.231 4  -6629245.228 4
        25.300          24.200
  24798868.180    24798867.299    24798871.266    -1922694.934    -1498202.832 2
                        12.600
  22244312.441    22244312.081    22244311.461   -13693136.898 5 -10669967.832 4
        31.000          29.200
  24698285.508    24698284.635    24698284.970    -2493426.341 2  -1942929.930 2
        12.600          17.800
  24900791.486    24900791.079    24900788.429     -876213.258 2   -682763.602 3
        13.900          18.600
  24542949.717    24542949.684    24542948.165    -2671722.400 3  -2081860.459 3
        21.100          20.500
  22732687.365    22732686.909    22732685.300   -13868179.802 4 -10806365.426 4
        29.500          25.600
  20548648.265    20548647.728    20548646.421   -24573328.629 6 -19148037.999 7
        39.100          46.500
  20700488.901    20700488.627    20700485.466   -23444136.639 7 -18268149.639 7
        42.300          44.300
  24289126.676    24289125.616    24289123.693    -3384481.437 3  -2637254.185 3
        23.400          18.600
 09  1 31  0 47  0.0000000  0 10G11G 5G 9G32G12G31G18G14G22G19
  23235967.761    23235967.253    23235966.027    -8568429.232 4  -6676695.078 4
        25.300          24.200
  24781912.764    24781911.498    24781910.690    -2011807.477 1  -1567641.137 1
         6.500          11.000
  22258658.572    22258658.139    22258657.830   -13617747.731 5 -10611223.026 4
        31.100          29.000
  24680146.144    24680145.721    24680145.741    -2588748.746 2  -2017207.093 2
        15.100          17.800
  24885947.452    24885950.038    24885948.958     -954192.561 1   -743526.617 3
         6.500          19.900
  24520956.855    24520956.889    24520955.218    -2787295.869 3  -2171917.683 3
        21.100          19.900
  22749445.344    22749444.608    22749443.258   -13780117.798 4 -10737745.686 4
        29.500          26.200
  20542968.668    20542968.197    20542966.840   -24603175.142 6 -19171295.017 7
        39.200          46.600
  20708799.394    20708799.045    20708795.838   -23400465.052 7 -18234119.826 7
        42.300          44.100
  24304155.634    24304154.836    24304152.982    -3305503.111 3  -2575712.625 3
        22.600          19.900
 09  1 31  0 47 30.0000000  0 10G11G 5G 9G32G12G31G18G14G22G19
  23224470.680    23224470.147    23224468.835    -8628847.336 4  -6723774.110 4
        25.300          24.900
  24765002.935    24765003.543    24765000.992    -2100672.410 2  -1636886.490 1
        12.600           9.000
  22273111.229    22273110.756    22273110.040   -13541799.570 5 -10552042.620 4
        30.800          28.800
  24662017.262    24662016.241    24662017.201    -2684018.465 2  -2091443.189 3
        17.000          19.300
  24871167.599    24871167.917    24871165.976    -1031879.060 2   -804061.534 3
        12.600          19.300
  24498976.713    24498976.421    24498976.118    -2902798.919 3  -2261920.031 3
        19.300          19.300
  22766248.530    22766248.008    22766246.564   -13691815.089 4 -10668938.390 4
        28.600          25.900
  20537375.056    20537374.554    20537373.326   -24632569.393 6 -19194199.620 7
        39.100          46.700
  20717184.912    20717184.602    20717181.422   -23356398.294 7 -18199782.095 7
        42.200          44.000
  24319240.120    24319239.130    24319238.025    -3226231.594 3  -2513942.631 3
        22.100          19.900
 09  1 31  0 48  0.0000000  0 10G11G 5G 9G32G12G31G18G14G22G19
  23213063.705    23213063.018    23213061.263    -8688793.230 4  -6770485.181 4
        24.900          24.200
  24748138.897    24748138.465    24748138.387    -2189291.777 1  -1705940.549 1
        11.000          11.000
  22287668.242    22287667.838    22287667.330   -13465300.789 5 -10492433.181 4
        30.200          29.000
  24643895.460    24643895.965    24643897.198    -2779239.927 2  -2165641.690 3
        17.000          19.900
  24856441.467    24856440.925    24856437.001    -1109275.148 2   -864370.158 3
        17.000          19.900
  24477009.159    24477009.508    24477010.254    -3018234.166 3  -2351869.576 2
        18.600          17.800
  22783096.374    22783095.835    22783094.348   -13603278.468 4 -10599948.826 4
        27.600          25.300
  20531866.633    20531866.117    20531864.934   -24661516.553 6 -19216755.842 7
        39.100          46.800
  20725644.580    20725644.333    20725641.206   -23311942.037 7 -18165140.856 7
        42.200          43.900
  24334380.325    24334379.025    24334377.159    -3146675.018 3  -2451950.493 3
        22.100          20.500
 09  1 31  0 48 30.0000000  0 10G11G 5G 9G32G12G31G18G14G22G19
  23201746.932    23201746.685    23201745.281    -8748259.624 4  -6816822.615 3
        24.200          23.800
  24731324.663    24731323.372    24731322.312    -2277657.184 1  -1774796.699 1
        11.000           9.000
  22302330.925    22302330.573    22302329.992   -13388248.602 5 -10432392.516 4
        30.200          28.600
  24625785.948    24625786.421    24625787.301    -2874406.711 2  -2239797.588 3
        17.000          20.500
  24841765.708    24841766.574    24841769.214    -1186373.096 1   -924446.435 2
        11.000          17.800
  24455057.525    24455057.253    24455058.387    -3133593.879 2  -2441760.307 2
        17.800          17.000
  22799989.747    22799989.004    22799987.639   -13514503.691 4 -10530773.694 4
        27.900          24.900
  20526444.413    20526443.840    20526442.454   -24690011.214 6 -19238959.471 7
        39.200          46.900
  20734179.404    20734179.095    20734175.874   -23267091.835 7 -18130192.644 7
        42.200          43.800
  24349573.870    24349572.527    24349571.131    -3066830.762 3  -2389734.175 3
        19.900          20.500
 09  1 31  0 49  0.0000000  0 10G11G 5G 9G32G12G31G18G14G22G19
  23190521.764    23190521.677    23190520.059    -8807247.109 4  -6862786.872 3
        25.300          23.800
  24714556.706    24714555.574    24714554.932    -2365767.819 1  -1843454.293 1
         6.500          11.000
  22317097.943    22317097.547    22317096.575   -13310648.228 5 -10371924.692 4
        30.100          28.400
  24607687.036    24607687.158    24607687.942    -2969520.343 3  -2313912.095 3
        18.600          20.500
  24827151.735    24827151.447    24827153.631    -1263172.012 1   -984289.720 2
         9.000          17.000
  24433119.386    24433119.032    24433119.995    -3248878.059 2  -2531592.150 3
        16.100          18.600
  22816927.930    22816927.214    22816925.712   -13425494.380 4 -10461415.793 4
        28.600          25.300
  20521107.534    20521107.086    20521105.804   -24718055.678 6 -19260812.296 7
        39.100          46.900
  20742788.368    20742788.101    20742785.024   -23221850.864 7 -18094939.939 7
        42.100          43.700
  24364821.289    24364819.489    24364818.061    -2986704.306 3  -2327298.005 3
        19.900          19.900
 09  1 31  0 49 30.0000000  0 10G11G 5G 9G32G12G31G18G14G22G19
  23179390.081    23179389.771    23179387.908    -8865747.671 4  -6908371.713 4
        26.200          24.200
  24697839.806    24697838.552    24697840.208    -2453614.211 1  -1911905.996 2
        11.000          16.100
  22331969.544    22331969.146    22331968.362   -13232496.662 5 -10311027.370 4
        30.200          28.600
  24589599.718    24589599.397    24589599.846    -3064573.604 3  -2387979.550 3
        19.300          21.100
  24812599.501    24812599.269    24812596.911    -1339662.702 2  -1043892.819 3
        15.100          19.300
  24411197.425    24411196.911    24411197.493    -3364077.734 2  -2621358.077 3
        15.100          20.500
  22833911.069    22833910.451    22833909.467   -13336245.513 4 -10391871.236 4
        28.100          25.600
  20515857.757    20515857.330    20515855.895   -24745643.277 6 -19282309.120 7
        39.100          46.800
  20751473.055    20751472.735    20751469.642   -23176213.129 7 -18059378.066 7
        42.100          43.700
  24380124.208    24380122.077    24380119.777    -2906292.579 3  -2264639.530 3
        21.600          21.100
 09  1 31  0 50  0.0000000  0 10G11G 5G 9G32G12G31G18G14G22G19
  23168350.693    23168350.348    23168348.268    -8923761.902 4  -6953577.590 4
        27.100          24.200
  24681176.175    24681174.956    24681173.266    -2541195.705 2  -1980151.226 2
        15.100          16.100
  22346945.431    22346945.022    22346943.820   -13153799.346 4 -10249704.774 4
        29.900          27.900
  24571522.936    24571522.431    24571523.638    -3159567.863 3  -2462001.013 3
        20.500          20.500
  24798101.707    24798100.811    24798098.599    -1415844.714 2  -1103255.351 3
        13.900          19.300
  24389291.227    24389290.743    24389291.390    -3479193.112 2  -2711058.333 3
        16.100          21.100
  22850939.661    22850938.968    22850937.629   -13246760.364 4 -10322142.563 4
        27.900          24.900
  20510694.616    20510694.107    20510693.105   -24772776.619 6 -19303451.975 7
        39.100          46.400
  20760232.604    20760232.335    20760229.148   -23130181.026 7 -18023508.894 7
        42.000          43.600
  24395477.970    24395477.264    24395476.065    -2825600.621 3  -2201762.676 3
        20.500          22.100
 09  1 31  0 50 30.0000000  0 10G 5G11G 9G32G12G31G18G14G22G19
  24664557.180    24664556.199    24664556.163    -2628515.655 2  -2048192.736 2
        13.900          15.100
  23157402.136    23157401.666    23157400.127    -8981294.635 4  -6998408.279 3
        26.800          23.800
  22362023.428    22362022.706    22362021.723   -13074565.667 4 -10187964.253 4
        29.500          28.100
  24553457.214    24553456.276    24553456.039    -3254508.924 3  -2535981.000 3
        19.900          19.900
  24783662.895    24783662.564    24783663.145    -1491721.851 2  -1162380.382 3
        17.800          23.000
  24367400.785    24367400.803    24367401.108    -3594228.307 2  -2800696.082 3
        17.000          23.000
  22868011.630    22868010.937    22868009.480   -13157046.895 4 -10252235.970 4
        27.600          24.600
  20505616.471    20505616.007    20505614.310   -24799462.622 6 -19324246.259 7
        39.100          46.500
  20769065.784    20769065.438    20769062.302   -23083762.640 6 -17987338.724 7
        41.900          43.400
  24410883.679    24410883.181    24410881.893    -2744638.237 3  -2138675.128 3
        21.100          22.100
 09  1 31  0 51  0.0000000  0 10G 5G11G 9G32G12G31G18G14G22G19
  24647990.621    24647990.649    24647990.897    -2715572.044 2  -2116028.871 2
        12.600          12.600
  23146545.340    23146545.304    23146543.755    -9038344.894 4  -7042863.020 3
        26.800          23.800
  22377201.897    22377201.413    22377200.788   -12994799.824 4 -10125809.064 4
        29.900          28.400
  24535399.469    24535398.886    24535399.185    -3349396.673 2  -2609919.464 3
        17.800          19.300
  24769283.571    24769283.050    24769281.469    -1567292.134 3  -1221266.323 3
        21.600          21.100
  24345526.218    24345526.633    24345525.816    -3709181.627 3  -2890270.045 3
        18.600          22.600
  22885126.425    22885126.085    22885124.430   -13067107.295 4 -10182153.177 4
        27.100          24.900
  20500623.177    20500622.766    20500621.760   -24825701.889 6 -19344692.435 7
        39.100          46.400
  20777972.149    20777971.792    20777968.655   -23036959.455 6 -17950868.708 7
        41.900          43.300
  24426342.239    24426341.630    24426339.457    -2663409.496 3  -2075380.011 3
        22.100          23.400
 09  1 31  0 51 30.0000000  0 10G 5G11G 9G32G12G31G18G14G22G19
  24631475.821    24631475.075    24631474.422    -2802359.588 2  -2183655.493 2
        13.900          12.600
  23135781.268    23135781.240    23135779.932    -9094909.129 4  -7086939.036 3
        27.100          23.800
  22392481.609    22392481.352    22392480.901   -12914502.717 4 -10063239.879 4
        29.900          28.400
  24517353.172    24517352.344    24517353.774    -3444228.176 2  -2683814.098 3
        17.800          19.900
  24754960.099    24754960.251    24754956.935    -1642550.684 3  -1279909.289 2
        18.600          16.100
  24323667.677    24323668.241    24323666.872    -3824048.489 3  -2979776.623 3
        18.600          23.000
  22902284.684    22902284.385    22902282.499   -12976940.797 4 -10111893.587 4
        26.800          24.600
  20495715.367    20495714.958    20495713.241   -24851492.343 6 -19364788.885 7
        39.000          46.100
  20786951.954    20786951.693    20786948.590   -22989769.883 6 -17914097.611 7
        41.900          43.400
  24441851.058    24441848.755    24441847.442    -2581915.285 3  -2011878.057 4
        22.100          24.200
 09  1 31  0 52  0.0000000  0 10G 5G11G 9G32G12G31G18G14G22G19
  24615013.592    24615013.102    24615012.134    -2888866.120 2  -2251063.184 1
        12.600          11.000
  23125112.243    23125112.237    23125110.279    -9150976.567 4  -7130627.940 3
        27.600          23.800
  22407863.752    22407863.541    22407863.230   -12833668.166 4 -10000251.921 4
        29.700          27.900
  24499319.959    24499319.623    24499320.477    -3538993.427 2  -2757657.120 3
        17.800          20.500
  24740700.458    24740700.677    24740699.641    -1717485.747 2  -1338300.226 3
        15.100          18.600
  24301828.353    24301828.388    24301827.377    -3938817.667 3  -3069207.087 4
        19.300          24.200
  22919487.790    22919486.901    22919485.278   -12886539.534 4 -10041451.069 4
        26.500          24.600
  20490894.851    20490894.294    20490893.341   -24876825.247 6 -19384528.807 7
        39.100          46.200
  20796006.833    20796006.505    20796003.572   -22942185.696 6 -17877019.026 7
        41.700          43.300
  24457409.865    24457407.951    24457406.970    -2500149.646 3  -1948164.606 3
        22.100          23.400
 09  1 31  0 52 30.0000000  0 10G 5G11G 9G32G12G31G18G14G22G19
  24598606.068    24598606.061    24598604.246    -2975094.455 2  -2318254.048 2
        12.600          13.900
  23114537.528    23114537.137    23114534.828    -9206551.439 4  -7173933.030 4
        27.900          24.200
  22423346.584    22423346.580    22423345.802   -12752305.234 4  -9936852.235 4
        29.900          27.400
  24481299.183    24481298.508    24481298.691    -3633697.307 3  -2831452.340 3
        19.300          21.600
  24726502.160    24726502.066    24726502.060    -1792100.407 2  -1396441.532 3
        16.100          20.500
  24280006.988    24280006.688    24280005.833    -4053492.558 3  -3158564.061 4
        21.100          25.900
  22936733.877    22936733.282    22936731.323   -12795910.422 4  -9970831.000 4
        27.600          24.200
  20486160.186    20486159.673    20486157.931   -24901706.205 6 -19403916.560 7
        39.100          46.300
  20805135.736    20805135.464    20805132.373   -22894213.266 6 -17839637.909 7
        41.700          43.100
  24473019.663    24473017.991    24473016.417    -2418121.305 3  -1884246.407 3
        22.600          22.600
 09  1 31  0 53  0.0000000  0 10G 5G11G 9G32G12G31G18G14G22G19
  24582250.683    24582249.748    24582251.439    -3061035.041 1  -2385220.710 2
        11.000          13.900
  23104056.710    23104056.551    23104054.804    -9261625.603 4  -7216847.948 4
        28.100          24.200
  22438931.498    22438931.015    22438929.570   -12670410.873 5  -9873038.439 4
        30.100          27.400
  24463290.780    24463289.827    24463290.137    -3728332.634 3  -2905194.130 3
        18.600          22.100
  24712366.413    24712366.380    24712364.924    -1866385.263 2  -1454325.818 2
        17.000          17.800
  24258204.132    24258204.593    24258203.413    -4168064.525 3  -3247840.824 4
        20.500          24.900
  22954024.082    22954023.559    22954021.884   -12705048.779 4  -9900029.723 4
        27.600          24.200
  20481512.520    20481512.050    20481511.056   -24926129.215 6 -19422947.472 7
        39.000          46.200
  20814339.622    20814339.285    20814336.099   -22845847.090 6 -17801949.978 7
        41.700          43.000
  24488679.443    24488677.643    24488676.403    -2335827.080 3  -1820121.053 3
        22.100          22.600
 09  1 31  0 53 30.0000000  0 10G 5G11G 9G32G12G31G18G14G22G19
  24565951.031    24565950.448    24565950.792    -3146691.491 1  -2451965.932 2
         9.000          13.900
  23093670.932    23093670.809    23093668.925    -9316204.043 4  -7259376.588 4
        28.600          24.600
  22454614.349    22454613.941    22454613.004   -12587994.642 4  -9808817.998 4
        29.700          27.600
  24445294.110    24445292.951    24445294.184    -3822904.988 2  -2978886.835 3
        17.800          23.000
  24698292.543    24698292.819    24698290.189    -1940344.425 2  -1511956.302 2
        17.000          16.100
  24236420.555    24236421.162    24236419.544    -4282537.465 3  -3337040.420 3
        19.900          23.800
  22971357.146    22971356.642    22971354.963   -12613962.183 4  -9829053.169 3
        26.200          23.800
  20476951.012    20476950.520    20476948.697   -24950100.286 6 -19441626.225 7
        39.100          46.100
  20823616.941    20823616.604    20823613.464   -22797094.113 6 -17763960.644 7
        41.600          42.900
  24504388.128    24504387.182    24504385.170    -2253276.554 3  -1755795.991 3
        21.100          22.100
 09  1 31  0 54  0.0000000  0 10G 5G11G 9G32G12G31G18G14G22G19
  24549707.286    24549706.670    24549705.360    -3232059.324 1  -2518486.312 2
         9.000          13.900
  23083379.820    23083379.643    23083377.742    -9370283.795 4  -7301516.645 4
        28.800          24.600
  22470396.603    22470396.216    22470395.693   -12505058.261 4  -9744192.247 4
        29.500          27.600
  24427310.280    24427308.878    24427309.885    -3917412.140 2  -3052528.727 3
        17.800          23.000
  24684280.050    24684280.945    24684279.468    -2013973.837 2  -1569329.858 2
        16.100          17.000
  24214657.121    24214657.377    24214655.090    -4396907.688 3  -3426159.973 3
        21.100          23.000
  22988733.068    22988732.556    22988731.037   -12522650.586 4  -9757901.297 3
        25.600          23.800
  20472475.601    20472475.085    20472474.090   -24973618.868 6 -19459952.383 7
        39.100          46.100
  20832967.945    20832967.672    20832964.616   -22747953.937 6 -17725669.603 7
        41.600          42.900
  24520145.100    24520143.601    24520143.326    -2170471.596 3  -1691272.622 3
        18.600          22.600
 09  1 31  0 54 30.0000000  0 10G 5G11G 9G32G12G31G18G14G22G19
  24533516.176    24533516.490    24533517.639    -3317133.061 1  -2584777.483 2
         9.000          15.100
  23073184.407    23073184.295    23073182.204    -9423860.773 4  -7343264.938 4
        28.800          24.600
  22486277.721    22486277.428    22486276.871   -12421602.379 4  -9679161.684 4
        29.000          27.600
  24409339.470    24409338.199    24409338.869    -4011850.564 2  -3126117.077 3
        17.800          23.000
  24670334.782    24670334.873    24670332.583    -2087267.642 3  -1626441.949 3
        18.600          18.600
  24192913.944    24192914.026    24192911.683    -4511170.380 3  -3515195.777 3
        22.100          23.400
  23006152.215    23006151.991    23006150.500   -12431112.473 4  -9686572.919 3
        25.600          23.400
  20468086.575    20468086.148    20468084.339   -24996682.545 6 -19477924.077 7
        39.100          45.800
  20842392.970    20842392.730    20842389.663   -22698424.693 6 -17687075.386 7
        41.600          42.700
  24535950.677    24535949.980    24535947.790    -2087412.592 3  -1626551.306 3
        18.600          20.500
 09  1 31  0 55  0.0000000  0 10G 5G11G 9G32G12G31G18G14G22G19
  24517385.483    24517385.129    24517384.638    -3401911.331 2  -2650838.440 2
        13.900          16.100
  23063084.833    23063084.578    23063082.661    -9476935.204 4  -7384621.632 4
        28.600          25.300
  22502255.831    22502255.713    22502255.691   -12337632.158 4  -9613730.338 4
        28.400          27.600
  24391379.980    24391379.578    24391380.808    -4106221.233 2  -3199652.627 3
        17.800          23.000
  24656450.109    24656450.205    24656449.439    -2160225.608 2  -1683292.234 3
        17.000          19.900
  24171190.257    24171191.044    24171188.698    -4625325.192 3  -3604147.515 3
        22.100          23.800
  23023613.839    23023613.540    23023611.823   -12339351.414 4  -9615070.806 3
        25.600          23.800
  20463783.958    20463783.516    20463782.602   -25019293.048 6 -19495542.643 7
        39.100          45.900
  20851891.725    20851891.458    20851888.241   -22648508.720 6 -17648179.821 7
        41.600          42.600
  24551804.591    24551802.645    24551800.584    -2004104.505 2  -1561635.913 3
        17.800          19.900
 09  1 31  0 55 30.0000000  0 10G 5G11G 9G32G12G31G18G14G22G19
  24501309.105    24501307.900    24501306.084    -3486395.644 2  -2716670.368 2
        15.100          13.900
  23053079.847    23053079.692    23053078.183    -9529510.253 4  -7425589.177 4
        28.100          25.300
  22518332.322    22518331.669    22518331.212   -12253155.255 4  -9547904.176 4
        28.400          27.900
  24373434.677    24373434.680    24373434.863    -4200527.747 3  -3273138.172 3
        18.600          22.100
  24642631.318    24642630.774    24642628.738    -2232849.017 2  -1739881.849 3
        17.800          18.600
  24149488.318    24149488.616    24149486.021    -4739374.005 3  -3693016.649 4
        22.600          24.900
  23041116.848    23041116.186    23041115.071   -12247372.952 4  -9543399.303 3
        25.300          23.800
  20459566.808    20459566.290    20459564.399   -25041455.026 6 -19512811.713 7
        39.100          46.100
  20861462.707    20861462.535    20861459.634   -22598211.611 6 -17608987.269 7
        41.400          42.600
  24567704.396    24567702.793    24567700.287    -1920554.910 3  -1496532.317 3
        19.300          19.900
 09  1 31  0 56  0.0000000  0 10G 5G11G 9G32G12G31G18G14G22G19
  24485288.134    24485287.670    24485287.975    -3570576.394 2  -2782265.728 2
        12.600          16.100
  23043171.682    23043171.577    23043170.493    -9581577.700 4  -7466161.197 4
        28.100          25.900
  22534504.678    22534504.369    22534503.707   -12168168.175 4  -9481680.491 4
        28.400          27.900
  24355501.686    24355501.881    24355501.839    -4294762.538 3  -3346567.844 3
        19.300          20.500
  24628877.172    24628876.769    24628873.875    -2305128.501 3  -1796203.598 2
        18.600          17.000
  24127807.871    24127807.283    24127805.155    -4853307.496 3  -3781795.925 3
        23.000          23.800
  23058662.708    23058661.939    23058660.333   -12155171.803 4  -9471554.271 3
        25.900          23.800
  20455436.062    20455435.505    20455434.676   -25063162.148 6 -19529726.349 7
        39.100          45.900
  20871107.745    20871107.518    20871104.469   -22547527.790 6 -17569493.382 7
        41.500          42.600
  24583647.850    24583647.326    24583645.121    -1836760.243 3  -1431237.785 3
        19.300          18.600
 09  1 31  0 56 30.0000000  0 10G 5G11G 9G32G12G31G18G14G22G19
  24469327.901    24469326.676    24469327.356    -3654455.099 1  -2847625.716 2
        11.000          17.800
  23033359.565    23033359.400    23033358.005    -9633140.462 4  -7506339.961 4
        28.100          25.600
  22550772.363    22550772.053    22550771.587   -12082678.778 4  -9415065.374 4
        28.600          27.100
  24337582.074    24337582.123    24337581.943    -4388929.259 3  -3419944.467 3
        18.600          19.900
  24615186.968    24615187.470    24615184.109    -2377066.319 2  -1852259.060 2
        16.100          17.800
  24106147.955    24106147.754    24106145.775    -4967127.846 3  -3870487.060 4
        23.400          24.200
  23076249.216    23076248.620    23076246.720   -12062753.987 4  -9399540.393 3
        26.200          23.400
  20451390.876    20451390.495    20451388.617   -25084419.129 6 -19546290.226 7
        39.100          45.800
  20880825.181    20880824.851    20880821.860   -22496462.554 6 -17529702.290 7
        41.500          42.500
  24599638.586    24599637.762    24599635.804    -1752728.700 3  -1365758.667 3
        18.600          19.300
 09  1 31  0 57  0.0000000  0 10G 5G11G 9G32G12G31G18G14G22G19
  24453424.682    24453423.940    24453424.554    -3738024.908 2  -2912744.987 2
        12.600          17.000
  23023644.061    23023644.194    23023642.843    -9684193.167 4  -7546121.274 4
        28.100          25.600
  22567136.733    22567136.398    22567135.476   -11996686.314 4  -9348058.270 4
        29.000          27.100
  24319676.867    24319676.075    24319676.222    -4483023.161 2  -3493264.354 3
        17.000          18.600
  24601562.635    24601562.641    24601562.420    -2448655.902 1  -1908043.063 2
        11.000          17.800
  24084510.830    24084510.962    24084509.312    -5080829.442 3  -3959085.640 4
        22.600          24.900
  23093876.901    23093876.399    23093875.190   -11970117.330 4  -9327356.001 3
        25.600          23.400
  20447432.302    20447431.826    20447430.773   -25105222.341 6 -19562500.514 7
        39.100          45.900
  20890615.782    20890615.489    20890612.411   -22445012.528 6 -17489611.358 7
        41.500          42.400
  24615676.053    24615674.574    24615672.528    -1668459.216 3  -1300094.124 3
        21.100          20.500
 09  1 31  0 57 30.0000000  0 10G 5G11G 9G32G12G31G18G14G22G19
  24437581.729    24437581.633    24437579.935    -3821284.470 1  -2977622.553 2
        11.000          15.100
  23014026.335    23014026.171    23014024.970    -9734736.195 4  -7585505.448 4
        28.400          25.600
  22583595.163    22583594.837    22583593.986   -11910196.036 4  -9280663.250 4
        28.400          26.800
  24301785.405    24301784.186    24301785.155    -4577045.019 2  -3566528.099 3
        16.100          18.600
  24588007.870    24588007.172    24588005.275    -2519896.182 2  -1963554.982 3
        16.100          19.300
  24062897.219    24062896.853    24062894.840    -5194411.175 3  -4047590.837 3
        22.600          23.800
  23111546.008    23111545.609    23111544.411   -11877264.150 4  -9255002.903 3
        24.600          23.000
  20443559.788    20443559.174    20443557.206   -25125573.322 6 -19578358.418 7
        39.100          46.100
  20900478.913    20900478.754    20900475.750   -22393180.333 6 -17449222.635 7
        41.400          42.300
  24631755.431    24631753.867    24631752.863    -1583956.445 3  -1234247.797 3
        19.900          20.500
 09  1 31  0 58  0.0000000  0 10G 5G11G 9G32G12G31G18G14G22G19
  24421797.299    24421796.240    24421796.262    -3904224.834 1  -3042251.417 2
         9.000          13.900
  23004507.063    23004506.748    23004504.991    -9784762.020 4  -7624486.595 4
        28.600          25.300
  22600148.823    22600148.219    22600147.641   -11823205.108 4  -9212878.106 4
        27.400          26.800
  24283908.530    24283907.953    24283908.179    -4670987.846 2  -3639730.288 3
        16.100          18.600
  24574519.578    24574519.917    24574517.206    -2590778.454 3  -2018787.936 3
        18.600          21.100
  24041306.936    24041306.949    24041305.119    -5307864.883 3  -4135996.277 4
        23.000          24.600
  23129257.699    23129257.194    23129255.605   -11784189.977 4  -9182477.590 3
        24.200          22.100
  20439774.060    20439773.567    20439772.660   -25145466.699 6 -19593859.742 7
        39.000          46.000
  20910416.146    20910415.882    20910412.608   -22340961.071 6 -17408532.300 7
        41.400          42.000
  24647881.554    24647879.686    24647878.428    -1499217.453 3  -1168217.413 3
        20.500          21.600
 09  1 31  0 58 30.0000000  0 10G 5G11G 9G32G12G31G18G14G22G19
  24406073.760    24406072.444    24406074.737    -3986850.732 1  -3106635.205 2
         9.000          16.100
  22995084.740    22995084.566    22995082.451    -9834277.110 4  -7663069.772 4
        29.000          25.300
  22616796.213    22616795.369    22616794.606   -11735724.362 4  -9144711.286 4
        27.100          27.100
  24266046.061    24266045.267    24266044.615    -4764858.636 2  -3712876.328 3
        17.000          18.600
  24561096.948    24561097.420    24561097.088    -2661307.743 2  -2073745.743 3
        17.000          22.100
  24019740.461    24019740.294    24019738.873    -5421195.942 3  -4224306.141 4
        23.400          24.600
  23147009.608    23147008.595    23147007.151   -11690904.044 3  -9109787.264 3
        23.400          21.100
  20436073.996    20436073.487    20436071.525   -25164910.527 6 -19609010.774 7
        39.000          45.800
  20920425.090    20920424.866    20920421.678   -22288363.132 6 -17367546.892 7
        41.300          42.000
  24664049.875    24664048.080    24664046.716    -1414253.404 3  -1102011.680 3
        20.500          22.600
 09  1 31  0 59  0.0000000  0 10G 5G11G 9G32G12G31G18G14G22G19
  24390411.753    24390411.595    24390411.801    -4069156.402 1  -3170769.453 2
        11.000          17.800
  22985760.758    22985760.524    22985758.194    -9883277.243 4  -7701251.691 4
        29.700          25.900
  22633535.827    22633535.539    22633535.123   -11647754.334 4  -9076163.217 4
        27.100          27.100
  24248196.933    24248195.720    24248196.141    -4858653.483 3  -3785963.160 3
        19.300          18.600
  24547745.204    24547745.095    24547742.946    -2731478.431 2  -2128424.222 3
        17.800          20.500
  23998198.273    23998198.579    23998196.607    -5534398.954 3  -4312516.235 3
        23.000          23.400
  23164801.408    23164800.894    23164799.388   -11597405.119 3  -9036930.972 3
        23.400          21.100
  20432459.981    20432459.476    20432458.463   -25183902.309 6 -19623809.564 7
        39.100          45.600
  20930506.577    20930506.328    20930503.252   -22235384.658 6 -17326264.966 7
        41.400          42.100
  24680260.683    24680258.797    24680257.096    -1329064.657 3  -1035630.829 3
        19.300          22.100
 09  1 31  0 59 30.0000000  0 10G 5G11G 9G32G12G31G18G14G22G19
  24374812.864    24374811.932    24374810.724    -4151137.317 2  -3234650.674 2
        15.100          17.000
  22976534.456    22976534.307    22976532.478    -9931759.299 4  -7739029.903 4
        29.500          25.600
  22650369.324    22650368.736    22650368.078   -11559296.828 4  -9007235.295 4
        27.100          26.800
  24230363.298    24230362.353    24230362.512    -4952369.998 3  -3858988.963 3
        21.100          18.600
  24534459.396    24534459.790    24534456.654    -2801286.722 2  -2182820.270 2
        17.000          17.800
  23976681.317    23976681.504    23976680.289    -5647470.042 3  -4400623.544 4
        22.600          24.200
  23182634.445    23182634.018    23182632.319   -11503692.364 4  -8963908.062 3
        24.200          21.100
  20428932.461    20428931.937    20428929.808   -25202440.268 6 -19638254.724 7
        39.000          45.900
  20940660.747    20940660.473    20940657.345   -22182024.612 6 -17284685.711 6
        41.500          41.900
  24696513.396    24696511.243    24696510.725    -1243652.812 2   -969076.146 3
        17.800          21.100
                            4 15
RINEX FILE SPLICE                                           COMMENT
teqc  2008Oct2      WCDA Operator       20090131 02:18:38UTCCOMMENT
STATION INFORMATION EFFECTIVE FROM: 2001/01/13 18:20:00     COMMENT
                                TO: CURRENT DATE (above)    COMMENT
BIT 2 OF LLI FLAGS (+4) DATA COLLECTED UNDER 'AS' CONDITION COMMENT
L1 PHASE CENTRE 0.110m ABOVE ARP                            COMMENT
L2 PHASE CENTRE 0.128m ABOVE ARP                            COMMENT
where ARP is the Antenna Reference Point for HI measurement COMMENT
CONTACT gps@pgc.nrcan.gc.ca FOR ADDITIONAL INFORMATION      COMMENT
    P1 =    P1  TurboRogue; =    Y1  Benchmark              COMMENT
    L1 = L1(CA)                                             COMMENT
    P2 =    P2  TurboRogue; =    Y2  Benchmark              COMMENT
    L2 = L2(P2) TurboRogue; = L2(Y2) Benchmark              COMMENT
 SNR is mapped to RINEX snr flag value [0-9]                COMMENT
  L1 & L2: min(max(int(snr_dBHz/6), 0), 9)                  COMMENT
 09  1 31  1  0  0.0000000  0 10G 5G11G 9G32G12G31G18G14G22G19
  24359273.211    24359272.950    24359273.257    -4232792.796 2  -3298278.275 3
        15.100          18.600
  22967406.910    22967406.796    22967405.004    -9979724.396 4  -7776405.295 4
        29.900          25.900
  22667293.005    22667293.074    22667292.477   -11470357.620 4  -8937932.022 4
        27.100          26.200
  24212544.330    24212543.581    24212543.463    -5046009.526 3  -3931954.791 3
        23.400          19.900
  24521245.174    24521245.323    24521243.468    -2870732.241 2  -2236933.634 3
        17.800          20.500
  23955189.624    23955189.945    23955188.611    -5760409.096 3  -4488627.944 4
        22.100          24.600
  23200507.742    23200506.974    23200505.307   -11409770.253 3  -8890722.015 3
        23.400          21.600
  20425490.310    20425489.840    20425488.942   -25220527.787 6 -19652348.886 7
        38.900          45.600
  20950886.713    20950886.479    20950883.407   -22128286.313 6 -17242811.711 6
        41.300          41.900
  24712807.634    24712806.706    24712806.269    -1158023.229 2   -902351.806 3
        17.000          20.500
 09  1 31  1  0 30.0000000  0 10G 5G11G 9G32G12G31G18G14G22G19
  24343797.056    24343796.322    24343796.211    -4314122.200 2  -3361651.818 2
        16.100          17.000
  22958378.239    22958377.881    22958375.773   -10027173.318 5  -7813378.465 4
        30.200          25.900
  22684309.003    22684308.401    22684307.590   -11380942.088 4  -8868257.582 4
        27.600          26.200
  24194740.074    24194739.056    24194739.213    -5139573.508 4  -4004861.764 3
        24.600          21.100
  24508099.355    24508099.059    24508098.999    -2939815.144 2  -2290764.452 3
        17.000          23.400
  23933723.829    23933723.494    23933722.326    -5873216.195 3  -4576529.549 4
        22.600          24.200
  23218420.379    23218419.461    23218417.638   -11315641.906 3  -8817375.286 3
        23.800          22.100
  20422133.890    20422133.327    20422131.280   -25238166.475 6 -19666093.313 7
        38.900          45.600
  20961184.318    20961183.956    20961180.705   -22074173.332 6 -17200645.756 6
        41.300          41.700
  24729142.631    24729141.800    24729140.743    -1072181.402 2   -835462.091 3
        16.100          19.900
 09  1 31  1  1  0.0000000  0 10G 5G11G 9G32G12G31G18G14G22G19
  24328383.994    24328382.884    24328382.179    -4395117.627 2  -3424765.122 2
        16.100          16.100
  22949447.828    22949447.502    22949445.805   -10074099.842 4  -7849944.587 4
        29.700          25.600
  22701415.091    22701414.574    22701413.659   -11291048.646 4  -8798210.737 4
        27.900          25.900
  24176950.774    24176950.137    24176950.226    -5233056.000 4  -4077705.233 3
        24.900          22.100
  24495021.690    24495022.306    24495022.186    -3008527.125 2  -2344306.199 3
        15.100          21.600
  23912284.110    23912283.783    23912282.597    -5985884.279 3  -4664322.819 4
        23.400          24.600
  23236372.098    23236371.638    23236369.493   -11221303.919 4  -8743865.200 3
        24.600          22.100
  20418863.434    20418862.966    20418862.069   -25255352.118 6 -19679484.716 7
        38.900          45.400
  20971553.556    20971553.345    20971550.131   -22019681.429 6 -17158184.532 6
        41.300          41.600
  24745517.389    24745517.714    24745516.252     -986125.656 2   -768405.683 2
        13.900          17.000
 09  1 31  1  1 30.0000000  0 10G22G 5G11G 9G32G12G31G18G14G19
  20981994.961    20981994.718    20981991.510   -21964811.851 6 -17115429.017 6
        41.400          41.600
  24313033.587    24313033.134    24313034.356    -4475776.630 2  -3487616.282 2
        13.900          16.100
  22940617.469    22940617.228    22940615.611   -10120503.334 4  -7886103.144 4
        29.500          25.600
  22718611.706    22718611.203    22718610.174   -11200681.008 4  -8727794.384 4
        27.600          25.900
  24159177.545    24159176.693    24159176.844    -5326456.584 4  -4150484.898 3
        24.200          21.600
  24482019.957    24482019.994    24482017.137    -3076866.177 3  -2397557.357 3
        19.300          20.500
  23890870.607    23890870.471    23890869.254    -6098411.079 3  -4752005.993 4
        23.800          24.600
  23254363.130    23254363.027    23254360.939   -11126758.160 4  -8670193.210 3
        25.300          22.100
  20415679.251    20415678.768    20415676.685   -25272085.561 6 -19692523.758 7
        38.900          45.600
  24761935.225    24761933.649    24761931.809     -899859.654 1   -701185.436 2
        11.000          16.100
 09  1 31  1  2  0.0000000  0 10G22G 5G11G 9G32G12G31G18G14G19
  20992507.831    20992507.580    20992504.440   -21909566.048 6 -17072380.340 6
        41.200          41.600
  24297750.814    24297750.125    24297750.234    -4556097.237 2  -3550203.766 2
        17.800          17.800
  22931887.210    22931886.912    22931884.662   -10166383.356 4  -7921853.798 4
        29.700          25.600
  22735897.299    22735896.992    22735896.018   -11109843.578 4  -8657011.967 4
        27.600          25.900
  24141419.419    24141418.270    24141418.936    -5419775.369 3  -4223200.810 3
        22.600          21.100
  24469086.140    24469086.242    24469084.187    -3144830.770 3  -2450516.810 3
        18.600          19.900
  23869484.235    23869484.372    23869483.038    -6210795.392 3  -4839578.147 4
        23.800          24.200
  23272393.370    23272392.949    23272391.337   -11032007.015 4  -8596361.171 3
        24.600          22.100
  20412580.752    20412580.268    20412579.335   -25288368.064 6 -19705211.415 7
        38.900          45.500
  24778392.297    24778390.467    24778386.296     -813387.324 2   -633804.452 2
        12.600          17.800
 09  1 31  1  2 30.0000000  0 10G22G 5G11G 9G32G12G31G18G14G19
  21003092.448    21003092.255    21003089.133   -21853943.253 6 -17029037.905 6
        41.200          41.500
  24282531.653    24282530.654    24282530.736    -4636074.027 3  -3612523.340 2
        18.600          17.000
  22923256.700    22923256.338    22923254.370   -10211735.804 4  -7957193.364 4
        29.500          25.300
  22753272.081    22753271.687    22753271.402   -11018537.133 4  -8585864.095 4
        26.500          26.200
  24123677.374    24123676.387    24123676.971    -5513008.847 3  -4295850.256 3
        21.600          20.500
  24456224.872    24456224.435    24456223.880    -3212416.133 2  -2503180.714 3
        17.800          21.100
  23848125.941    23848125.932    23848124.577    -6323032.410 3  -4927035.532 4
        23.000          24.600
  23290463.289    23290462.975    23290461.655   -10937049.190 3  -8522368.089 3
        23.400          22.100
  20409568.445    20409567.953    20409565.800   -25304197.984 6 -19717546.417 7
        38.900          45.500
  24794884.615    24794883.043    24794882.113     -726709.321 2   -566263.161 3
        12.600          20.500
 09  1 31  1  3  0.0000000  0 10G22G 5G11G 9G32G12G31G18G14G19
  21013749.282    21013749.039    21013745.897   -21797941.740 6 -16985400.365 6
        41.200          41.400
  24267378.662    24267377.990    24267377.372    -4715701.719 3  -3674570.878 2
        18.600          17.000
  22914727.369    22914727.164    22914725.091   -10256557.475 4  -7992119.332 4
        29.700          25.600
  22770736.078    22770735.913    22770735.537   -10926762.870 4  -8514351.684 4
        26.500          26.500
  24105952.636    24105951.787    24105951.367    -5606153.712 3  -4368430.655 3
        21.600          19.300
  24443436.736    24443436.552    24443434.791    -3279617.089 3  -2555545.067 3
        18.600          21.600
  23826797.119    23826796.761    23826795.825    -6435117.343 3  -5014374.392 4
        23.000          24.900
  23308572.797    23308572.022    23308570.995   -10841883.780 3  -8448213.245 3
        22.600          21.100
  20406642.785    20406642.350    20406641.365   -25319572.552 6 -19729526.592 7
        38.900          45.600
  24811417.890    24811417.009    24811415.665     -639826.629 2   -498562.345 3
        12.600          20.500
 09  1 31  1  3 30.0000000  0 10G22G 5G11G 9G32G12G31G18G14G19
  21024476.867    21024476.635    21024473.571   -21741567.217 6 -16941472.168 6
        41.000          41.300
  24252292.883    24252291.829    24252291.301    -4794982.328 3  -3736347.984 2
        19.300          17.000
  22906298.250    22906298.014    22906296.386   -10300852.146 4  -8026634.656 4
        29.700          26.200
  22788287.315    22788287.190    22788286.708   -10834529.234 4  -8442481.323 4
        26.200          26.800
  24088243.451    24088242.892    24088242.573    -5699214.065 3  -4440945.209 3
        21.100          19.300
  24430721.780    24430721.194    24430720.274    -3346436.295 3  -2607611.961 3
        19.300          22.100
  23805496.474    23805496.200    23805495.194    -6547052.807 3  -5101596.791 4
        23.400          24.900
  23326720.614    23326719.807    23326718.657   -10746517.342 3  -8373901.760 3
        22.600          21.600
  20403802.753    20403802.220    20403800.056   -25334497.365 6 -19741156.314 7
        38.800          45.700
  24827988.842    24827986.363    24827984.588     -552747.549 1   -430708.489 3
         9.000          19.300
 09  1 31  1  4  0.0000000  0 10G22G 5G11G 9G32G12G31G18G14G19
  21035275.001    21035274.678    21035271.508   -21684823.396 6 -16897256.202 6
        41.000          41.100
  24237271.907    24237270.928    24237270.712    -4873915.676 2  -3797854.476 2
        17.800          17.800
  22897969.512    22897969.293    22897967.463   -10344621.229 4  -8060740.424 4
        29.700          26.800
  22805925.385    22805925.040    22805924.433   -10741842.005 4  -8370257.515 4
        26.200          26.200
  24070550.374    24070549.741    24070549.905    -5792191.548 3  -4513395.192 3
        21.100          19.900
  24418078.374    24418078.621    24418078.139    -3412873.630 3  -2659381.292 3
        19.300          23.000
  23784223.951    23784223.971    23784222.886    -6658839.082 3  -5188702.946 4
        23.000          24.900
  23344905.717    23344904.989    23344903.627   -10650953.837 3  -8299436.714 3
        22.600          21.600
  20401047.467    20401047.003    20401046.062   -25348975.575 6 -19752438.030 7
        38.600          45.200
  24844594.878    24844593.800    24844592.433     -465477.690 1   -362706.022 3
        11.000          19.300
 09  1 31  1  4 30.0000000  0 10G22G 5G11G 9G32G12G31G18G14G19
  21046144.303    21046143.994    21046140.931   -21627704.738 6 -16852748.155 6
        41.100          41.200
  24222318.670    24222318.052    24222318.640    -4952492.447 2  -3859083.081 3
        15.100          18.600
  22889742.082    22889741.758    22889740.228   -10387856.738 4  -8094430.431 4
        29.500          27.100
  22823650.217    22823649.938    22823649.388   -10648698.140 4  -8297677.891 4
        26.800          26.200
  24052874.938    24052874.207    24052874.501    -5885078.898 3  -4585774.911 3
        20.500          19.900
  24405510.947    24405510.603    24405509.256    -3478920.277 3  -2710846.186 3
        19.900          22.100
  23762981.841    23762981.953    23762980.643    -6770467.421 3  -5275686.036 4
        23.800          25.600
  23363129.137    23363128.816    23363127.410   -10555188.320 3  -8224814.249 3
        22.600          21.100
  20398378.523    20398378.044    20398375.849   -25363001.156 6 -19763367.052 7
        38.600          45.300
  24861238.718    24861237.077    24861236.050     -378014.121 1   -294552.616 3
        11.000          18.600
 09  1 31  1  5  0.0000000  0 10G22G 5G11G 9G32G12G31G18G14G19
  21057084.080    21057083.827    21057080.813   -21570215.891 6 -16807951.652 6
        41.100          41.200
  24207433.567    24207432.990    24207433.258    -5030713.505 2  -3920034.533 3
        16.100          18.600
  22881615.679    22881615.288    22881613.844   -10430561.398 4  -8127706.761 4
        29.200          27.400
  22841460.643    22841460.254    22841459.277   -10555104.817 4  -8224748.021 4
        26.500          25.900
  24035215.233    24035214.855    24035215.293    -5977878.914 3  -4658086.580 3
        19.900          19.900
  24393016.798    24393016.976    24393014.909    -3544577.865 3  -2762007.908 3
        22.100          23.000
  23741769.769    23741769.533    23741767.757    -6881939.648 4  -5362547.475 4
        24.200          24.900
  23381390.219    23381389.550    23381388.330   -10459225.982 3  -8150038.419 3
        23.000          20.500
  20395794.774    20395794.288    20395793.313   -25376578.456 6 -19773946.759 7
        38.600          45.100
  24877917.588    24877916.110    24877915.515     -290363.426 2   -226253.407 2
        13.900          17.000
 09  1 31  1  5 30.0000000  0 10G22G 5G11G 9G32G12G31G18G14G19
  21068095.022    21068094.774    21068091.840   -21512352.242 6 -16762863.097 6
        40.700          41.200
  24192618.258    24192617.983    24192616.749    -5108570.501 2  -3980702.313 2
        17.800          17.000
  22873591.294    22873591.211    22873589.449   -10472728.656 4  -8160564.360 4
        29.700          26.800
  22859356.510    22859355.855    22859355.445   -10461060.239 4  -8151466.546 4
        25.300          25.300
  24017573.249    24017572.836    24017573.944    -6070585.041 3  -4730325.089 3
        19.300          19.300
  24380597.679    24380597.827    24380596.440    -3609838.129 3  -2812860.062 3
        21.600          22.100
  23720588.990    23720588.978    23720586.693    -6993247.541 4  -5449280.876 4
        25.300          25.300
  23399689.616    23399689.153    23399687.123   -10363062.851 3  -8075106.128 3
        23.400          20.500
  20393297.489    20393296.944    20393294.718   -25389701.884 6 -19784172.802 7
        38.600          45.100
  24894633.817    24894632.378    24894630.730     -202523.498 3   -157806.708 2
        19.900          13.900
 09  1 31  1  6  0.0000000  0 10G22G 5G11G 9G32G12G31G18G14G19
  21079176.557    21079176.314    21079173.301   -21454118.842 6 -16717486.425 6
        40.900          41.100
  24177871.868    24177870.796    24177870.564    -5186064.037 2  -4041086.888 2
        17.800          17.800
  22865669.181    22865668.925    22865667.133   -10514361.158 5  -8193005.276 4
        30.100          26.800
  22877337.410    22877337.197    22877336.065   -10366570.936 4  -8077838.529 4
        25.300          24.600
  23999949.009    23999948.817    23999950.168    -6163199.893 3  -4802492.486 3
        19.300          19.900
  24368255.103    24368254.929    24368252.385    -3674701.633 3  -2863403.027 3
        19.900          20.500
  23699438.631    23699438.219    23699436.501    -7104392.129 4  -5535887.021 4
        24.900          25.300
  23418025.966    23418025.324    23418023.493   -10266703.958 3  -8000021.293 3
        23.400          19.900
  20390885.821    20390885.290    20390884.411   -25402375.295 6 -19794048.183 7
        38.500          45.100
  24911385.029    24911382.936    24911380.045     -114500.980 3    -89217.713 2
        20.500          12.600
 09  1 31  1  6 30.0000000  0 10G22G 5G11G 9G32G12G31G18G14G19
  21090327.440    21090327.211    21090324.180   -21395520.425 6 -16671825.325 6
        40.900          41.000
  24163193.997    24163192.598    24163193.791    -5263195.465 2  -4101189.273 3
        17.800          19.900
  22857847.587    22857847.362    22857845.727   -10555461.958 4  -8225031.870 4
        29.500          26.500
  22895400.714    22895400.524    22895399.833   -10271644.715 4  -8003870.049 4
        25.300          24.200
  23982342.770    23982341.536    23982342.588    -6255726.645 3  -4874591.232 3
        19.900          19.900
  24355986.910    24355987.320    24355984.268    -3739170.563 3  -2913638.579 3
        21.600          21.100
  23678319.401    23678319.210    23678317.139    -7215375.669 4  -5622367.663 4
        25.600          25.900
  23436398.602    23436398.205    23436396.404   -10170154.621 3  -7924788.053 3
        22.100          19.900
  20388558.753    20388558.282    20388555.971   -25414604.082 6 -19803577.104 7
        38.500          45.100
  24928167.428    24928165.708    24928164.461      -26303.251 3    -20492.230 1
        21.600           9.000
 09  1 31  1  7  0.0000000  0 10G22G 5G11G 9G32G12G31G18G14G19
  21101547.408    21101547.035    21101543.860   -21336559.879 6 -16625882.044 6
        40.700          40.700
  24148585.542    24148584.801    24148585.058    -5339963.679 3  -4161008.624 3
        18.600          19.300
  22850127.668    22850127.512    22850125.562   -10596031.439 4  -8256644.433 4
        29.900          26.200
  22913546.979    22913546.660    22913546.049   -10176286.806 4  -7929565.187 4
        26.200          24.600
  23964752.377    23964751.135    23964751.688    -6348166.220 3  -4946622.057 3
        19.900          20.500
  24343793.567    24343793.802    24343792.101    -3803244.578 3  -2963566.367 3
        20.500          21.600
  23657230.536    23657230.315    23657228.463    -7326197.430 4  -5708722.247 4
        25.900          26.200
  23454807.241    23454806.515    23454805.321   -10073417.954 3  -7849408.854 3
        21.100          20.500
  20386316.081    20386315.604    20386314.575   -25426389.993 6 -19812760.926 7
        38.600          45.200
  24944982.850    24944981.688    24944980.548       62064.678 3     48365.825 1
        20.500           9.000
 09  1 31  1  7 30.0000000  0 10G22G 5G11G 9G32G12G31G18G14G19
  21112838.503    21112838.238    21112835.045   -21277224.572 6 -16579646.742 6
        40.900          40.700
  24134049.424    24134048.606    24134047.422    -5416352.016 2  -4220532.003 2
        17.800          17.000
  22842511.615    22842511.347    22842509.217   -10636054.714 4  -8287831.405 4
        29.700          26.200
  22931777.415    22931777.183    22931776.666   -10080486.807 4  -7854915.827 4
        26.500          24.900
  23947180.345    23947179.453    23947180.579    -6440503.694 3  -5018573.325 3
        20.500          21.600
  24331679.139    24331678.824    24331677.414    -3866907.080 3  -3013173.510 3
        19.300          20.500
  23636174.879    23636175.290    23636173.532    -7436841.198 4  -5794938.144 4
        24.900          26.200
  23473253.929    23473253.035    23473251.658    -9976481.743 3  -7773874.188 3
        21.100          21.100
  20384160.035    20384159.601    20384157.187   -25437719.383 6 -19821589.019 7
        38.600          45.100
  24961834.081    24961832.613    24961830.966      150613.295 3    117364.746 1
        21.600          11.000
 09  1 31  1  8  0.0000000  0 10G22G 5G11G 9G32G12G31G18G14G19
  21124201.734    21124201.530    21124198.302   -21217510.112 6 -16533115.996 6
        40.900          40.600
  24119586.549    24119585.668    24119585.204    -5492352.627 2  -4279753.271 2
        17.000          16.100
  22835000.397    22835000.246    22834998.307   -10675525.520 4  -8318587.877 4
        29.500          26.200
  22950091.870    22950091.443    22950091.060    -9984243.243 4  -7779920.844 4
        25.600          25.300
  23929629.311    23929628.711    23929629.295    -6532733.148 3  -5090440.412 3
        20.500          21.100
  24319644.655    24319644.473    24319641.292    -3930150.273 3  -3062453.916 3
        19.900          19.900
  23615155.762    23615155.948    23615154.390    -7547299.513 4  -5881009.531 4
        25.600          27.100
  23491738.975    23491738.187    23491736.798    -9879342.473 3  -7698181.279 3
        21.100          21.100
  20382091.957    20382091.499    20382090.406   -25448587.945 6 -19830058.024 7
        38.600          45.300
  24978719.063    24978717.316    24978715.161      239344.665 3    186506.085 2
        19.900          12.600
 09  1 31  1  8 30.0000000  0 11G22G 5G11G 9G32G12G31G30G18G14G19
  21135635.000    21135634.725    21135631.640   -21157427.484 6 -16486298.369 6
        40.600          40.400
  24105196.447    24105196.010    24105195.529    -5567972.617 2  -4338677.930 2
        16.100          17.000
  22827592.409    22827592.138    22827590.715   -10714453.138 4  -8348921.073 4
        28.800          26.500
  22968488.683    22968487.952    22968487.713    -9887569.190 4  -7704590.426 4
        25.300          25.300
  23912097.437    23912096.972    23912097.956    -6624863.509 3  -5162230.299 3
        21.100          22.100
  24307688.546    24307688.551    24307687.150    -3992981.811 3  -3111413.502 3
        21.600          22.600
  23594169.646    23594170.115    23594168.578    -7657580.276 4  -5966942.560 4
        24.900          27.600
  24996045.980    24996047.621    24996046.423           -.4751           .12111
                         9.000
  23510260.127    23510259.664    23510258.126    -9782011.334 3  -7622338.845 3
        21.600          19.900
  20380109.418    20380108.886    20380106.573   -25459006.075 6 -19838176.041 7
        38.600          45.300
  24995635.723    24995633.793    24995633.593      328245.619 2    255779.604 2
        17.800          13.900
 09  1 31  1  9  0.0000000  0 11G22G 5G11G 9G32G12G31G30G18G14G19
  21147135.900    21147135.648    21147132.578   -21096990.060 6 -16439204.275 6
        40.700          40.300
  24090877.512    24090876.568    24090876.954    -5643221.099 2  -4397313.076 3
        15.100          19.300
  22820285.980    22820285.790    22820284.204   -10752848.378 4  -8378839.426 4
        28.600          26.200
  22986964.109    22986963.617    22986963.012    -9790479.811 4  -7628936.363 4
        24.900          24.900
  23894582.502    23894581.984    23894582.943    -6716905.711 3  -5233951.485 3
        21.600          23.000
  24295807.810    24295807.669    24295806.217    -4055411.575 3  -3160060.045 3
        19.300          22.100
  23573216.779    23573216.466    23573214.754    -7767692.948 4  -6052744.590 4
        25.600          27.100
  24976702.943    24976706.345    24976703.161     -101652.295      -79209.078 1
         3.000          11.000
  23528814.816    23528814.565    23528813.778    -9684502.076 3  -7546357.615 3
        20.500          19.900
  20378210.166    20378209.726    20378208.671   -25468986.170 6 -19845952.733 7
        38.600          44.900
  25012582.821    25012581.842    25012580.285      417301.137 2    325173.515 2
        17.800          17.000
 09  1 31  1  9 30.0000000  0 11G22G 5G11G 9G32G12G31G30G18G14G19
  21158706.385    21158706.059    21158702.987   -21036187.772 6 -16391825.872 6
        40.700          40.400
  24076630.969    24076630.119    24076630.848    -5718084.329 2  -4455648.058 3
        16.100          18.600
  22813083.154    22813082.997    22813081.424   -10790699.238 4  -8408333.596 4
        29.200          26.500
  23005519.415    23005519.099    23005518.245    -9692967.858 4  -7552953.041 3
        24.200          23.800
  23877087.241    23877086.250    23877086.811    -6808847.985 3  -5305594.781 3
        21.600          23.000
  24284007.226    24284006.600    24284005.187    -4117426.413 3  -3208383.276 3
        19.300          22.100
  23552297.431    23552297.047    23552295.635    -7877624.268 4  -6138405.328 4
        25.900          27.100
  24957382.118    24957382.227    24957381.904     -203195.403 1   -158333.561 1
        11.000          11.000
  23547405.894    23547405.696    23547404.832    -9586804.753 3  -7470229.857 3
        18.600          19.300
  20376396.481    20376395.951    20376393.594   -25478517.947 6 -19853380.089 7
        38.600          45.200
  25029559.533    25029558.235    25029557.330      506518.632 2    394693.632 3
        16.100          18.600
 09  1 31  1 10  0.0000000  0 11G22G 5G11G 9G32G12G31G30G18G14G19
  21170345.546    21170345.293    21170342.210   -20975022.798 6 -16344164.855 6
        40.600          40.200
  24062459.809    24062458.981    24062458.514    -5792560.858 2  -4513681.671 3
        17.800          18.600
  22805984.571    22805984.233    22805982.244   -10828006.024 5  -8437403.812 4
        30.200          26.800
  23024153.808    23024153.892    23024153.607    -9595038.516 3  -7476644.449 3
        22.600          23.400
  23859610.554    23859609.788    23859609.664    -6900690.512 3  -5377160.365 3
        22.100          22.600
  24272285.273    24272285.529    24272282.976    -4179024.749 3  -3256381.980 3
        19.900          22.100
  23531412.490    23531412.782    23531411.046    -7987373.166 4  -6223923.915 4
        26.500          27.100
  24938077.752    24938077.950    24938078.351     -304627.998 1   -237371.940 1
         9.000           6.500
  23566032.958    23566032.574    23566030.942    -9488922.320 3  -7393957.854 3
        19.300          18.600
  20374667.506    20374666.944    20374666.003   -25487603.264 6 -19860459.552 7
        38.600          45.000
  25046568.427    25046567.332    25046564.690      595893.763 2    464336.560 3
        13.900          18.600
 09  1 31  1 10 30.0000000  0 11G22G 5G11G 9G32G12G31G30G18G14G19
  21182054.318    21182054.027    21182050.926   -20913493.144 6 -16296219.672 6
        40.700          40.100
  24048362.183    24048360.823    24048360.189    -5866644.876 2  -4571409.496 2
        17.000          17.800
  22798989.453    22798989.025    22798987.546   -10864764.718 4  -8466046.940 4
        29.900          27.600
  23042869.186    23042868.997    23042868.217    -9496691.704 3  -7400010.585 3
        22.600          23.800
  23842151.925    23842151.639    23842152.590    -6992429.341 3  -5448645.140 3
        22.100          23.400
  24260643.855    24260643.827    24260641.613    -4240201.621 3  -3304052.263 3
        19.300          22.600
  23510563.629    23510563.721    23510562.372    -8096934.499 4  -6309296.352 4
        26.500          27.400
  24918797.900    24918799.017    24918796.723     -405944.123     -316319.616
         3.000           3.000
  23584695.836    23584694.852    23584692.657    -9390853.245 3  -7317540.403 2
        19.900          17.800
  20373024.045    20373023.578    20373021.182   -25496239.279 6 -19867188.911 7
        38.600          44.900
  25063603.480    25063603.458    25063601.709      685426.238 2    534102.124 3
        12.600          18.600
 09  1 31  1 11  0.0000000  0 11G22G 5G11G 9G32G12G31G30G18G14G19
  21193832.088    21193831.874    21193828.793   -20851600.070 6 -16247991.303 6
        40.500          40.000
  24034337.138    24034337.169    24034337.784    -5940333.590 2  -4628829.262 2
        15.100          17.800
  22792099.255    22792098.850    22792096.947   -10900974.393 5  -8494262.260 4
        30.400          27.400
  23061663.672    23061663.047    23061662.110    -9397930.838 3  -7323054.077 3
        23.400          23.400
  23824715.260    23824714.659    23824714.876    -7084063.476 3  -5520048.328 3
        23.400          23.000
  24249081.367    24249081.690    24249081.594    -4300954.198 2  -3351391.888 3
        17.800          23.400
  23489751.499    23489751.539    23489749.646    -8206305.838 4  -6394520.741 4
        28.100          27.600
  24899541.567    24899540.940    24899540.901     -507140.706     -395174.130 1
                         6.500
  23603392.548    23603391.773    23603390.280    -9292598.927 3  -7240978.603 3
        19.900          19.300
  20371466.076    20371465.612    20371464.475   -25504426.748 6 -19873568.753 7
        38.600          44.900
  25080672.501    25080670.940    25080668.078      775113.176 2    603988.054 3
        16.100          18.600
 09  1 31  1 11 30.0000000  0 11G22G 5G11G 9G32G12G31G30G18G14G19
  21205677.526    21205677.220    21205674.142   -20789352.374 6 -16199486.606 6
        40.300          40.000
  24020390.791    24020389.770    24020389.846    -6013632.272 2  -4685945.091 3
        17.000          19.300
  22785311.186    22785311.055    22785309.414   -10936642.396 5  -8522055.507 4
        30.200          26.800
  23080533.737    23080533.493    23080532.257    -9298767.591 4  -7245784.022 4
        24.200          24.200
  23807296.512    23807295.831    23807295.497    -7175599.958 4  -5591375.434 3
        24.200          22.600
  24237601.870    24237601.483    24237599.833    -4361288.280 3  -3398405.424 3
        19.900          22.100
  23468973.780    23468974.040    23468972.135    -8315492.987 4  -6479601.623 4
        28.100          27.600
  24880303.100    24880306.547    24880309.097     -608223.220     -473939.737 1
                         6.500
  23622122.500    23622121.805    23622121.500    -9194168.947 3  -7164279.940 3
        18.600          19.900
  20369991.867    20369991.338    20369988.971   -25512174.209 6 -19879605.732 7
        38.600          45.100
  25097766.906    25097765.036    25097763.188      864943.006 2    673985.268 3
        15.100          20.500
 09  1 31  1 12  0.0000000  0 11G22G 5G11G 9G32G12G31G30G18G14G19
  21217592.488    21217592.180    21217589.271   -20726738.481 6 -16150696.565 6
        40.300          40.000
  24006518.580    24006517.413    24006518.990    -6086525.145 2  -4742744.708 3
        17.000          20.500
  22778629.761    22778629.564    22778627.600   -10971754.461 5  -8549415.557 4
        30.400          26.500
  23099482.315    23099481.953    23099480.778    -9199192.670 4  -7168193.181 3
        24.600          23.800
  23789898.767    23789897.929    23789897.671    -7267024.896 3  -5662615.630 3
        23.800          22.600
  24226202.864    24226203.292    24226199.685    -4421188.930 3  -3445081.266 3
        21.100          20.500
  23448234.175    23448233.861    23448232.299    -8424480.531 4  -6564526.947 4
        27.600          27.900
  24861095.363    24861095.051    24861096.292     -709175.282     -552603.548 1
                         9.000
  23640888.927    23640888.476    23640887.200    -9095551.781 2  -7087435.445 3
        17.800          20.500
  20368603.669    20368603.175    20368602.107   -25519469.025 6 -19885289.998 7
        38.600          45.100
  25114889.278    25114888.205    25114887.422      954925.577 1    744101.532 3
        11.000          20.500
 09  1 31  1 12 30.0000000  0 11G22G 5G11G 9G32G12G31G30G18G14G19
  21229576.864    21229576.599    21229573.557   -20663760.032 6 -16101622.451 6
        40.200          39.700
  23992725.306    23992724.938    23992725.562    -6159010.099 2  -4799226.462 3
        17.000          21.100
  22772053.953    22772053.751    22772051.787   -11006310.489 5  -8576342.333 4
        31.000          26.800
  23118508.257    23118507.950    23118506.807    -9099209.880 4  -7090284.536 3
        24.200          23.400
  23772521.904    23772521.498    23772521.866    -7358337.693 3  -5733768.447 3
        23.400          22.600
  24214887.783    24214887.273    24214884.853    -4480654.368 3  -3491417.954 3
        20.500          21.600
  23427532.520    23427532.589    23427531.011    -8533266.738 4  -6649295.394 4
        27.600          27.600
  24841910.313    24841910.765    24841909.952     -809994.456 1   -631163.941 1
        11.000           9.000
  23659690.926    23659690.249    23659688.967    -8996749.763 3  -7010446.884 3
        19.900          20.500
  20367301.284    20367300.813    20367298.426   -25526312.649 6 -19890622.689 7
        38.600          45.000
  25132040.849    25132039.517    25132038.068     1045057.212 1    814333.972 2
         9.000          17.800
 09  1 31  1 13  0.0000000  0 11G22G 5G11G 9G32G12G31G30G18G14G19
  21241629.762    21241629.459    21241626.428   -20600421.829 6 -16052268.010 6
        40.000          39.700
  23979010.301    23979009.120    23979009.131    -6231088.317 2  -4855391.298 3
        17.800          21.600
  22765583.306    22765583.074    22765581.177   -11040313.696 5  -8602838.325 4
        31.100          26.800
  23137609.559    23137609.608    23137609.131    -8998826.479 3  -7012063.723 3
        23.400          23.000
  23755166.454    23755166.128    23755166.642    -7449541.457 3  -5804836.294 3
        23.400          23.400
  24203653.490    24203653.386    24203652.502    -4539686.001 3  -3537416.603 3
        18.600          23.000
  23406868.672    23406868.882    23406867.569    -8641853.418 4  -6733908.365 4
        27.100          27.900
  24822750.101    24822749.914    24822750.324     -910681.645 2   -709621.476 1
        12.600          11.000
  23678526.530    23678525.893    23678524.346    -8897768.141 3  -6933318.366 3
        20.500          19.900
  20366083.972    20366083.594    20366082.571   -25532709.241 6 -19895607.044 7
        38.500          44.900
  25149219.700    25149218.632    25149215.597     1135330.532 1    884676.827 2
        11.000          13.900
 09  1 31  1 13 30.0000000  0 11G22G 5G11G 9G32G12G31G30G18G14G19
  21253751.259    21253751.028    21253747.994   -20536722.698 6 -16002632.330 6
        40.000          39.600
  23965371.846    23965371.147    23965371.159    -6302754.908 2  -4911235.368 3
        17.800          21.100
  22759218.929    22759218.624    22759216.253   -11073760.843 5  -8628901.032 4
        32.000          26.500
  23156788.383    23156788.337    23156788.061    -8898043.874 3  -6933531.832 3
        23.800          23.800
  23737832.979    23737832.169    23737832.278    -7540632.918 4  -5875816.635 3
        24.200          23.000
  24192503.853    24192503.393    24192501.424    -4598279.559 2  -3583073.878 3
        17.800          21.600
  23386244.251    23386244.235    23386243.119    -8750236.039 4  -6818362.326 4
        27.400          28.400
  24803616.687    24803615.796    24803615.214    -1011231.658 2   -787972.105 2
        13.900          12.600
  23697396.794    23697395.681    23697394.540    -8798605.877 3  -6856049.102 3
        19.900          19.900
  20364952.239    20364951.724    20364949.282   -25538657.504 6 -19900242.054 7
        38.600          45.100
  25166425.930    25166423.640    25166420.917     1225744.790 1    955129.450 2
        11.000          12.600
 09  1 31  1 14  0.0000000  0 11G22G 5G11G 9G32G12G31G30G18G14G19
  21265940.748    21265940.453    21265937.477   -20472666.501 6 -15952718.411 6
        39.800          39.500
  23951812.992    23951812.333    23951812.220    -6374009.600 3  -4966758.465 3
        19.300          21.100
  22752959.591    22752959.355    22752957.043   -11106653.676 5  -8654531.809 4
        32.100          26.800
  23176042.491    23176041.932    23176041.518    -8796867.986 3  -6854693.471 3
        23.400          23.400
  23720519.725    23720519.074    23720519.016    -7631613.419 3  -5946710.523 3
        23.400          23.000
  24181437.627    24181436.798    24181434.548    -4656435.193 3  -3628389.945 3
        18.600          21.600
  23365658.871    23365658.666    23365657.152    -8858414.664 4  -6902657.324 4
        27.900          28.800
  24784507.688    24784508.400    24784506.418    -1111644.118 2   -866215.563 2
        13.900          12.600
  23716299.677    23716298.882    23716297.642    -8699267.574 3  -6778642.666 3
        19.300          18.600
  20363904.973    20363904.464    20363903.351   -25544160.687 6 -19904530.243 7
        38.600          45.100
  25183652.305    25183653.559    25183650.902     1316294.397     1025687.587 2
                        12.600
 09  1 31  1 14 30.0000000  0 11G22G 5G11G 9G32G12G31G30G18G14G19
  21278197.143    21278196.879    21278193.864   -20408259.081 6 -15902530.819 6
        39.900          39.500
  23938331.261    23938330.106    23938330.952    -6444854.585 3  -5021962.345 3
        18.600          21.100
  22746805.127    22746804.890    22746802.612   -11138996.492 5  -8679733.999 4
        32.300          27.100
  23195368.555    23195367.851    23195367.795    -8695307.438 3  -6775555.391 3
        23.800          23.800
  23703226.606    23703226.079    23703226.462    -7722487.027 3  -6017521.108 3
        23.000          23.400
  24170453.776    24170453.587    24170451.606    -4714155.382 3  -3673366.718 3
        19.900          23.000
  23345111.237    23345111.391    23345109.947    -8966391.852 4  -6986795.367 4
        28.100          28.800
  24765427.544    24765427.023    24765425.673    -1211921.026 2   -944353.371 2
        12.600          16.100
  23735236.026    23735235.127    23735232.861    -8599758.973 3  -6701103.491 2
        19.300          16.100
  20362941.473    20362940.935    20362938.521   -25549223.855 6 -19908475.567 7
        38.600          45.000
  25200908.113    25200907.832    25200902.884     1406971.159     1096344.818 1
                        11.000
 09  1 31  1 15  0.0000000  0 11G22G 5G11G 9G32G12G31G30G18G14G19
  21290520.788    21290520.508    21290517.312   -20343498.049 6 -15852067.676 6
        40.000          39.300
  23924928.717    23924928.326    23924928.699    -6515283.899 3  -5076842.316 3
        19.900          21.100
  22740755.879    22740755.526    22740753.483   -11170785.086 5  -8704504.334 4
        32.000          27.100
  23214768.555    23214767.855    23214766.603    -8593362.052 4  -6696117.447 3
        24.900          22.600
  23685955.356    23685955.101    23685955.078    -7813249.268 3  -6088244.912 3
        23.000          23.400
  24159552.861    24159552.186    24159551.281    -4771434.525 3  -3717999.786 3
        18.600          23.000
  23324603.003    23324603.149    23324601.558    -9074162.046 4  -7070772.109 4
        27.900          28.400
  24746369.335    24746370.272    24746370.907    -1312055.764 1  -1022380.388 2
         9.000          17.000
  23754204.480    23754204.080    23754201.423    -8500078.204 3  -6623430.166 2
        19.900          15.100
  20362062.290    20362061.761    20362060.701   -25553844.117 6 -19912075.768 7
        38.600          45.100
  25218192.258    25218190.715    25218186.427     1497775.064 1   1167101.093 2
         9.000          12.600
 09  1 31  1 15 30.0000000  0 11G22G 5G11G 9G32G12G31G30G18G14G19
  21302913.054    21302912.804    21302909.743   -20278375.836 6 -15801323.100 6
        39.900          39.300
  23911609.293    23911608.548    23911607.243    -6585285.706 3  -5131389.156 3
        22.100          21.100
  22734813.641    22734813.482    22734811.450   -11202009.278 5  -8728834.873 4
        31.500          26.800
  23234242.372    23234241.769    23234240.440    -8491026.303 4  -6616375.313 3
        24.600          22.100
  23668707.114    23668706.643    23668707.188    -7903890.010 3  -6158874.045 3
        22.600          23.800
  24148738.957    24148739.040    24148737.526    -4828261.600 3  -3762280.600 3
        19.900          22.600
  23304136.328    23304136.651    23304134.976    -9181713.990 4  -7154578.794 4
        27.900          28.600
  24727344.919    24727345.372    24727345.023    -1412036.180 1  -1100287.138 2
         9.000          17.800
  23773207.359    23773206.888    23773204.056    -8400218.247 3  -6545617.205 2
        19.300          16.100
  20361268.966    20361268.463    20361266.043   -25558013.259 6 -19915324.448 7
        38.600          45.300
  25235495.680    25235493.602    25235490.340     1588712.088 2   1237961.069 1
        12.600          11.000
 09  1 31  1 16  0.0000000  0 11G22G 5G11G 9G32G12G31G30G18G14G19
  21315372.597    21315372.354    21315369.342   -20212900.287 6 -15750303.194 6
        39.800          39.300
  23898367.249    23898366.816    23898367.771    -6654864.135 3  -5185606.076 3
        20.500          21.600
  22728977.905    22728977.820    22728976.034   -11232675.408 5  -8752730.549 4
        31.300          27.100
  23253788.142    23253787.860    23253786.666    -8388310.646 4  -6536337.156 3
        24.200          22.100
  23651480.080    23651479.916    23651480.736    -7994415.159 3  -6229413.099 4
        23.400          24.200
  24138011.264    24138010.915    24138009.066    -4884641.064 3  -3806212.620 3
        20.500          23.000
  23283710.702    23283710.673    23283709.070    -9289052.142 4  -7238218.886 4
        27.400          28.400
  24708349.471    24708349.183    24708347.428    -1511866.171 1  -1178076.702 2
         6.500          17.000
  23792242.634    23792241.979    23792239.810    -8300187.027 3  -6467670.815 2
        18.600          17.000
  20360559.970    20360559.410    20360558.387   -25561738.808 6 -19918227.470 7
        38.600          45.100
  25252823.057    25252820.378    25252819.954     1679772.065 1   1308916.896 2
        11.000          12.600
 09  1 31  1 16 30.0000000  0 11G22G 5G11G 9G32G12G31G30G18G14G19
  21327898.641    21327898.276    21327895.263   -20147076.468 6 -15699011.915 6
        39.700          39.100
  23885208.448    23885207.525    23885207.390    -6724020.909 3  -5239494.443 3
        19.900          20.500
  22723248.158    22723247.884    22723245.992   -11262786.946 5  -8776194.090 4
        31.300          27.100
  23273404.419    23273404.352    23273403.222    -8285222.804 3  -6456008.981 3
        23.000          21.100
  23634275.839    23634275.298    23634275.213    -8084827.974 4  -6299864.624 3
        24.600          23.400
  24127366.975    24127366.519    24127364.011    -4940575.178 3  -3849797.657 3
        19.900          22.100
  23263324.949    23263325.093    23263323.879    -9396178.566 4  -7321693.986 4
        27.100          29.000
  24689378.185    24689378.172    24689378.194    -1611547.014    -1255750.060 2
                        16.100
  23811308.904    23811308.328    23811307.282    -8199990.504 2  -6389595.632 2
        16.100          17.800
  20359934.509    20359934.006    20359931.563   -25565025.573 6 -19920788.583 7
        38.600          45.300
  25270174.530    25270172.633    25270170.564     1770947.661 2   1379962.848 2
        12.600          13.900
 09  1 31  1 17  0.0000000  0 11G22G 5G11G 9G32G12G31G30G18G14G19
  21340492.794    21340492.539    21340489.322   -20080893.701 6 -15647440.928 6
        40.000          39.100
  23872130.910    23872129.933    23872129.594    -6792740.983 3  -5293042.554 3
        19.900          19.900
  22717626.109    22717625.927    22717624.015   -11292331.167 5  -8799215.554 4
        31.500          27.600
  23293094.752    23293093.937    23293093.076    -8181753.823 3  -6375383.817 3
        23.400          21.600
  23617095.239    23617094.406    23617093.902    -8175114.947 4  -6370218.104 3
        25.900          23.400
  24116809.339    24116809.617    24116808.853    -4996049.434 3  -3893024.347 3
        19.300          23.000
  23242982.930    23242982.975    23242981.222    -9503078.718 4  -7404992.767 4
        28.400          29.000
  24670440.586    24670440.026    24670441.369    -1711063.430    -1333295.266 2
                        15.100
  23830409.673    23830409.130    23830407.604    -8099617.751 2  -6311383.140 2
        17.000          17.000
  20359394.668    20359394.276    20359393.176   -25567861.879 6 -19922998.689 7
        38.600          45.000
  25287546.999    25287545.408    25287543.373     1862248.120 2   1451106.037 2
        13.900          13.900
 09  1 31  1 17 30.0000000  0 12G22G 5G11G 9G32G12G31G30G17G18G14G19
  21353154.765    21353154.492    21353151.415   -20014354.375 6 -15595592.105 6
        39.800          38.900
  23859137.694    23859136.509    23859136.510    -6861023.140 3  -5346249.386 3
        20.500          20.500
  22712112.262    22712111.911    22712109.701   -11321308.629 5  -8821795.390 4
        32.000          27.600
  23312856.047    23312855.446    23312854.781    -8077908.508 3  -6294465.407 3
        23.000          21.600
  23599937.408    23599936.984    23599936.958    -8265276.495 4  -6440473.839 4
        25.900          24.200
  24106342.298    24106341.844    24106339.915    -5051062.985 3  -3935892.015 3
        21.600          22.600
  23222683.258    23222683.569    23222682.079    -9609751.571 4  -7488114.440 4
        28.400          29.000
  24651535.630    24651536.763    24651534.902    -1810413.548    -1410710.896 2
         3.000          13.900
  25286146.764    25286144.529    25286145.064            .0271          -.42412
         3.000          17.000
  23849542.705    23849541.757    23849540.466    -7999071.544 2  -6233035.461 2
        17.800          17.000
  20358940.463    20358939.919    20358937.444   -25570249.596 6 -19924859.247 7
        38.600          45.200
  25304945.221    25304943.913    25304940.505     1953668.670 1   1522342.785 2
         9.000          12.600
 09  1 31  1 18  0.0000000  0 12G22G 5G11G 9G32G12G31G30G17G18G14G19
  21365881.641    21365881.338    21365878.294   -19947473.768 6 -15543477.350 6
        39.600          38.800
  23846225.106    23846223.979    23846224.163    -6928879.089 3  -5399124.125 3
        21.600          21.100
  22706703.227    22706702.928    22706700.832   -11349732.987 5  -8843944.237 4
        32.000          27.600
  23332684.825    23332684.454    23332683.848    -7973705.287 3  -6213268.115 3
        22.600          21.600
  23582801.999    23582801.153    23582800.901    -8355325.918 4  -6510642.199 4
        25.900          24.200
  24095959.438    24095958.530    24095955.424    -5105628.112 3  -3978410.304 3
        20.500          21.600
  23202425.346    23202425.544    23202423.948    -9716209.175 4  -7571068.389 4
        29.200          29.500
  24632659.251    24632660.137    24632659.404    -1909608.575    -1488005.681 2
         3.000          13.900
  25277378.518    25277377.397    25277377.083      -46080.387      -35907.262 2
         3.000          17.800
  23868705.572    23868705.409    23868703.734    -7898368.092 2  -6154565.237 2
        17.800          17.800
  20358568.535    20358568.046    20358567.027   -25572203.732 6 -19926381.949 7
        38.700          45.200
  25322357.585    25322357.833    25322360.436     2045191.856     1593659.543 1
         3.000          11.000
 09  1 31  1 18 30.0000000  0 12G22G 5G11G 9G32G12G31G30G17G18G14G19
  21378674.598    21378674.343    21378671.203   -19880247.092 6 -15491092.929 6
        39.700          38.900
  23833394.611    23833393.650    23833393.291    -6996299.986 3  -5451659.864 3
        20.500          19.300
  22701400.443    22701400.257    22701398.708   -11377597.241 5  -8865656.645 4
        32.000          28.100
  23352582.065    23352581.498    23352582.239    -7869140.839 3  -6131789.340 3
        21.100          21.100
  23565688.351    23565687.671    23565687.859    -8445255.982 4  -6580717.547 4
        25.600          24.200
  24085661.776    24085661.439    24085659.838    -5159736.239 3  -4020572.465 3
        19.900          22.100
  23182210.453    23182210.186    23182208.146    -9822442.984 4  -7653847.959 4
        29.500          29.500
  24613812.103    24613814.092    24613814.805    -2008639.481    -1565172.560 2
                        12.600
  25268700.445    25268700.109    25268699.733      -91666.782      -71429.137 2
         3.000          12.600
  23887899.793    23887899.568    23887898.397    -7797502.741 2  -6075968.894 2
        17.800          17.800
  20358280.212    20358279.742    20358277.344   -25573718.996 6 -19927562.671 7
        38.800          45.300
  25339796.930    25339797.674    25339794.555     2136820.880     1665058.834 1
                         6.500
 09  1 31  1 19  0.0000000  0 12G22G 5G11G 9G32G12G31G30G17G18G14G19
  21391533.370    21391533.124    21391530.029   -19812672.978 6 -15438437.782 6
        39.400          38.500
  23820648.949    23820648.284    23820647.460    -7063280.939 3  -5503852.792 3
        20.500          19.900
  22696205.402    22696205.114    22696203.287   -11404898.549 5  -8886930.396 4
        32.000          28.400
  23372548.200    23372548.191    23372548.655    -7764216.648 3  -6050030.240 3
        20.500          21.100
  23548598.564    23548598.130    23548598.117    -8535063.210 4  -6650697.190 4
        25.600          24.600
  24075453.613    24075453.227    24075451.244    -5213383.094 3  -4062375.182 3
        21.100          22.600
  23162037.695    23162037.789    23162036.131    -9928448.477 4  -7736449.611 4
        29.500          29.700
  24595000.353    24595001.262    24595000.980    -2107500.969 1  -1642207.439 2
         6.500          15.100
  25260120.459    25260121.121    25260119.142     -136755.799 1   -106563.288 1
         9.000           6.500
  23907125.780    23907125.290    23907123.557    -7696474.159 3  -5997245.346 2
        19.900          17.800
  20358075.763    20358075.259    20358074.186   -25574793.770 6 -19928400.155 7
        38.900          45.400
  25357254.243    25357251.034    25357250.319     2228555.104     1736539.885 1
                         6.500
 09  1 31  1 19 30.0000000  0 12G22G 5G11G 9G32G12G31G30G17G18G14G19
  21404459.174    21404458.772    21404455.761   -19744748.277 6 -15385509.444 6
        39.200          38.600
  23807987.646    23807986.786    23807986.499    -7129814.914 3  -5555697.431 3
        21.600          19.900
  22691118.203    22691117.789    22691116.162   -11431632.045 5  -8907761.692 4
        31.500          28.400
  23392584.124    23392583.510    23392583.546    -7658931.541 3  -5967989.918 3
        20.500          21.100
  23531533.667    23531532.603    23531532.616    -8624742.090 4  -6720576.822 4
        25.600          24.600
  24065333.268    24065333.539    24065331.013    -5266562.243 3  -4103813.477 3
        21.100          21.600
  23141910.191    23141910.014    23141908.851   -10034219.058 4  -7818868.215 4
        29.000          29.700
  24576223.997    24576224.420    24576223.549    -2206185.339 2  -1719104.267 2
        13.900          16.100
  25251637.707    25251637.174    25251636.718     -181341.421 1   -141305.229 1
        11.000          11.000
  23926382.240    23926381.113    23926380.057    -7595279.690 2  -5918392.507 2
        17.800          17.800
  20357955.866    20357955.326    20357952.992   -25575423.886 6 -19928891.154 7
        38.800          45.500
  25374726.511    25374728.131    25374730.845     2320395.159     1808103.496 1
                         9.000
 09  1 31  1 20  0.0000000  0 11G22G 5G11G 9G32G12G31G30G17G18G14
  21417449.437    21417449.188    21417446.156   -19676483.867 6 -15332316.409 6
        39.500          38.600
  23795410.678    23795409.755    23795408.777    -7195909.105 3  -5607199.397 3
        21.600          18.600
  22686136.832    22686136.627    22686135.097   -11457806.729 5  -8928157.538 4
        31.500          28.100
  23412684.652    23412684.746    23412684.291    -7553298.701 3  -5885678.639 3
        19.900          20.500
  23514490.652    23514489.994    23514490.152    -8714301.529 4  -6790363.370 4
        25.600          24.200
  24055301.071    24055301.246    24055299.033    -5319280.974 3  -4144892.977 3
        21.100          22.100
  23121825.622    23121825.792    23121824.636   -10139762.305 4  -7901109.664 5
        28.800          30.100
  24557477.634    24557477.411    24557476.236    -2304699.524 2  -1795868.574 2
        16.100          13.900
  25243245.482    25243246.399    25243245.287     -225432.133 1   -175661.573 2
         6.500          12.600
  23945667.623    23945667.122    23945666.124    -7493930.416 2  -5839419.067 3
        17.000          18.600
  20357918.463    20357917.918    20357916.924   -25575620.179 6 -19929044.104 7
        38.800          45.400
 09  1 31  1 20 30.0000000  0 11G22G 5G11G 9G32G12G31G30G17G18G14
  21430505.530    21430505.225    21430502.111   -19607873.319 6 -15278853.647 6
        39.200          38.400
  23782918.083    23782917.173    23782917.465    -7261553.221 3  -5658350.641 3
        19.900          19.900
  22681264.517    22681264.187    22681261.833   -11483414.290 5  -8948111.481 4
        32.100          27.600
  23432853.145    23432853.569    23432852.070    -7447313.990 3  -5803093.163 3
        21.600          20.500
  23497472.967    23497472.067    23497471.980    -8803732.560 4  -6860049.863 4
        26.200          24.900
  24045359.806    24045359.159    24045357.283    -5371529.725 3  -4185606.282 3
        22.100          23.000
  23101786.246    23101786.787    23101785.170   -10245068.198 4  -7983166.168 4
        29.500          29.900
  24538763.759    24538763.299    24538762.188    -2403032.496 1  -1872491.650 1
        11.000           9.000
  25234951.682    25234952.713    25234951.913     -269018.655     -209625.136 2
         3.000          13.900
  23964984.459    23964984.182    23964982.741    -7392420.692 2  -5760320.599 2
        17.000          17.800
  20357965.077    20357964.542    20357962.103   -25575375.341 6 -19928853.319 7
        38.900          45.400
 09  1 31  1 21  0.0000000  0 11G22G 5G11G 9G32G12G31G30G17G18G14
  21443630.199    21443629.910    21443626.771   -19538903.183 6 -15225110.689 6
        39.100          38.400
  23770516.302    23770515.766    23770515.178    -7326730.060 3  -5709137.754 3
        21.600          19.900
  22676502.447    22676502.094    22676499.976   -11508439.712 5  -8967611.805 4
        32.400          27.900
  23453091.975    23453090.733    23453089.411    -7340966.302 3  -5720224.848 3
        19.900          19.900
  23480482.381    23480481.373    23480481.578    -8893019.370 4  -6929623.985 4
        27.100          24.900
  24035509.185    24035509.019    24035506.792    -5423291.869 3  -4225940.414 3
        22.100          22.100
  23081795.942    23081796.185    23081794.460   -10350119.738 4  -8065024.479 5
        29.700          30.100
  24520088.712    24520088.728    24520088.912    -2501166.777 1  -1948959.879 1
        11.000          11.000
  25226758.403    25226758.232    25226755.132     -312085.315     -243183.452 1
         3.000          11.000
  23984335.382    23984334.332    23984332.436    -7290737.314 2  -5681086.803 2
        17.000          17.000
  20358098.210    20358097.686    20358096.520   -25574675.769 6 -19928308.192 7
        38.800          45.500
 09  1 31  1 21 30.0000000  0 11G22G 5G11G 9G32G12G31G30G17G18G14
  21456820.366    21456820.183    21456817.159   -19469587.415 6 -15171098.407 6
        39.200          38.400
  23758199.812    23758199.246    23758199.213    -7391450.029 3  -5759568.900 3
        21.100          19.900
  22671848.324    22671848.130    22671846.311   -11532895.393 5  -8986668.176 4
        32.400          28.400
  23473394.693    23473393.794    23473392.943    -7234271.838 3  -5637086.315 3
        18.600          19.900
  23463516.579    23463515.631    23463515.925    -8982173.960 4  -6999095.078 4
        26.500          25.600
  24025749.023    24025749.065    24025747.207    -5474578.372 3  -4265903.899 3
        23.000          22.100
  23061852.373    23061852.228    23061850.126   -10454927.488 5  -8146692.820 5
        30.100          30.200
  24501452.356    24501452.643    24501451.713    -2599112.026 2  -2025280.866 2
        16.100          12.600
  25218660.855    25218659.925    25218657.436     -354643.529     -276345.513 2
                        12.600
  24003714.390    24003713.829    24003712.142    -7188894.376 2  -5601728.681 2
        16.100          15.100
  20358315.135    20358314.725    20358312.368   -25573534.951 6 -19927419.241 7
        38.900          45.300
 09  1 31  1 22  0.0000000  0 11G22G 5G11G 9G32G12G31G30G17G18G14
  21470075.291    21470075.012    21470071.794   -19399933.421 6 -15116822.572 6
        39.200          38.100
  23745970.042    23745969.195    23745969.432    -7455716.588 3  -5809646.705 3
        19.300          20.500
  22667301.903    22667301.759    22667299.874   -11556786.732 5  -9005284.794 4
        32.000          28.400
  23493761.037    23493760.829    23493760.666    -7127240.161 2  -5553685.011 3
        17.800          19.300
  23446575.552    23446574.682    23446575.013    -9071201.275 4  -7068466.985 4
        26.500          26.200
  24016079.626    24016079.749    24016077.859    -5525393.047 3  -4305499.734 3
        23.800          23.400
  23041953.719    23041953.744    23041951.657   -10559495.188 5  -8228174.113 5
        30.400          30.600
  24482849.123    24482848.970    24482848.653    -2696871.235 2  -2101456.869 2
        17.000          15.100
  25210654.831    25210654.522    25210654.934     -396698.023     -309115.230 2
         3.000          15.100
  24023123.663    24023122.088    24023120.693    -7086899.338 2  -5522252.028 2
        12.600          13.900
  20358615.126    20358614.636    20358613.506   -25571959.492 6 -19926191.607 7
        38.900          45.700
 09  1 31  1 22 30.0000000  0 11G22G 5G11G 9G32G12G31G30G17G18G14
  21483394.742    21483394.569    21483391.513   -19329938.522 6 -15062281.096 6
        39.100          38.300
  23733829.035    23733828.153    23733827.610    -7519523.386 3  -5859366.282 3
        21.600          19.900
  22662863.582    22662863.492    22662861.633   -11580109.603 5  -9023458.462 4
        32.100          28.400
  23514193.706    23514192.681    23514192.384    -7019870.902 2  -5470020.666 3
        17.000          19.900
  23429658.683    23429657.957    23429658.220    -9160096.411 4  -7137735.896 4
        26.800          26.500
  24006500.926    24006500.940    24006499.014    -5575730.278 4  -4344723.541 3
        24.600          23.800
  23022101.854    23022101.844    23022099.783   -10663816.635 5  -8309463.520 5
        30.600          30.400
  24464282.193    24464282.672    24464282.867    -2794437.511 2  -2177482.508 2
        17.000          15.100
  25202750.248    25202751.271    25202748.178     -438243.734 1   -341488.363 2
         6.500          12.600
  24042561.593    24042560.939    24042559.248    -6984750.160 2  -5442655.299 2
        12.600          15.100
  20358998.091    20358997.664    20358995.154   -25569946.417 6 -19924622.974 7
        38.900          45.500
 09  1 31  1 23  0.0000000  0 11G22G 5G11G 9G32G12G31G30G17G18G14
  21496779.390    21496779.127    21496776.084   -19259602.151 6 -15007473.539 6
        38.800          38.200
  23721775.311    23721774.368    23721773.466    -7582866.139 3  -5908724.244 3
        21.100          20.500
  22658533.936    22658533.600    22658532.174   -11602861.593 5  -9041187.277 4
        31.100          28.600
  23534690.247    23534689.200    23534687.522    -6912165.675 2  -5386094.531 3
        17.000          19.300
  23412767.801    23412767.508    23412767.678    -9248856.356 4  -7206899.463 4
        27.400          26.200
  23997013.698    23997013.210    23997011.393    -5625585.979 3  -4383572.129 3
        23.400          23.400
  23002297.682    23002297.651    23002295.504   -10767888.382 5  -8390558.360 5
        30.600          30.400
  24445754.588    24445754.465    24445753.887    -2891805.942 2  -2253354.014 2
        13.900          12.600
  25194937.206    25194939.241    25194937.974     -479277.593     -373462.773 1
                        11.000
  24062029.325    24062028.661    24062027.645    -6882446.638 2  -5362938.294 2
        12.600          16.100
  20359464.757    20359464.264    20359463.128   -25567494.351 6 -19922712.268 7
        38.900          45.500
 09  1 31  1 23 30.0000000  0 11G22G 5G11G 9G32G12G31G30G17G18G14
  21510228.481    21510228.152    21510224.981   -19188926.741 6 -14952401.797 6
        38.900          37.900
  23709809.536    23709808.828    23709808.166    -7645743.426 3  -5957719.514 3
        21.100          19.900
  22654312.787    22654312.605    22654311.053   -11625043.438 5  -9058471.824 4
        30.800          28.600
  23555248.435    23555247.198    23555246.372    -6804129.261 2  -5301910.342 3
        17.000          18.600
  23395903.801    23395903.136    23395902.800    -9337481.092 4  -7275957.681 4
        27.900          25.900
  23987617.845    23987617.739    23987616.055    -5674959.210 3  -4422044.751 4
        22.600          24.200
  22982541.599    22982541.436    22982538.924   -10871708.871 5  -8471457.415 5
        30.800          30.400
  24427261.736    24427261.443    24427260.811    -2988974.817    -2329070.067 1
         3.000           9.000
  25187230.860    25187230.501    25187229.146     -519799.683 1   -405038.335 2
        11.000          13.900
  24081525.679    24081525.626    24081524.788    -6779991.116 2  -5283102.873 2
        12.600          16.100
  20360014.493    20360014.004    20360011.584   -25564605.356 6 -19920461.102 7
        39.000          45.500
 09  1 31  1 24  0.0000000  0 11G22G 5G11G 9G32G12G31G30G17G18G14
  21523742.252    21523742.031    21523739.057   -19117910.723 6 -14897064.645 6
        38.900          38.000
  23697934.578    23697933.439    23697932.774    -7708150.422 3  -6006348.328 3
        22.100          19.900
  22650201.001    22650200.614    22650198.655   -11646652.272 5  -9075309.882 4
        31.000          28.400
  23575869.206    23575868.543    23575867.925    -6695762.528 2  -5217468.741 3
        15.100          18.600
  23379065.465    23379064.900    23379064.263    -9425967.177 4  -7344907.853 4
        27.600          25.600
  23978314.638    23978314.759    23978312.965    -5723845.802 3  -4460138.192 3
        22.600          23.800
  22962833.667    22962833.732    22962831.696   -10975273.573 5  -8552157.160 5
        31.300          31.500
  24408810.010    24408811.140    24408811.437    -3085938.531 1  -2404626.095 1
         6.500           9.000
  25179617.905    25179617.110    25179616.788     -559806.043 2   -436212.084 2
        13.900          16.100
  24101051.552    24101051.184    24101050.361    -6677382.975 1  -5203148.489 2
        11.000          15.100
  20360647.785    20360647.226    20360646.071   -25561277.639 6 -19917868.073 7
        39.000          45.600
 09  1 31  1 24 30.0000000  0 11G22G 5G11G 9G32G12G31G30G17G18G14
  21537319.873    21537319.603    21537316.683   -19046559.793 6 -14841466.521 6
        38.600          37.900
  23686147.389    23686146.643    23686145.962    -7770088.885 3  -6054612.052 3
        21.100          19.900
  22646197.092    22646196.797    22646195.177   -11667692.197 5  -9091704.626 4
        31.300          28.600
  23596552.171    23596551.747    23596551.522    -6587073.200 2  -5132775.777 3
        15.100          19.300
  23362253.262    23362252.378    23362251.558    -9514317.728 4  -7413752.426 4
        28.100          25.300
  23969104.846    23969104.462    23969102.136    -5772248.124 3  -4497854.274 3
        23.000          22.600
  22943174.228    22943174.024    22943172.133   -11078584.491 5  -8632659.145 5
        31.100          31.600
  24390400.343    24390400.003    24390399.276    -3182698.126 1  -2480023.172 1
        11.000          11.000
  25172102.576    25172102.060    25172098.904     -599299.741 2   -466986.274 2
        13.900          12.600
  24120604.724    24120604.226    24120603.648    -6574628.017 1  -5123079.694 2
         9.000          13.900
  20361363.525    20361363.021    20361360.602   -25557516.351 6 -19914937.197 7
        39.000          45.700
 09  1 31  1 25  0.0000000  0 11G22G 5G11G 9G32G12G31G30G17G18G14
  21550961.975    21550961.673    21550958.502   -18974871.227 6 -14785605.308 6
        38.800          37.700
  23674451.548    23674450.890    23674450.839    -7831552.124 3  -6102505.471 3
        21.600          22.100
  22642302.654    22642302.316    22642300.691   -11688158.467 5  -9107652.362 4
        31.500          28.600
  23617297.762    23617296.988    23617295.938    -6478060.934 2  -5047831.185 3
        16.100          18.600
  23345467.077    23345466.488    23345465.686    -9602527.332 4  -7482487.181 4
        28.100          25.600
  23959987.668    23959987.278    23959985.084    -5820159.774 3  -4535188.033 3
        23.000          22.600
  22923564.070    22923564.178    22923562.368   -11181635.148 5  -8712958.330 5
        31.500          32.300
  24372024.929    24372025.807    24372026.269    -3279246.614 1  -2555255.716 2
        11.000          13.900
  25164683.995    25164684.226    25164682.441     -638275.580 1   -497357.092 2
         9.000          13.900
  24140186.797    24140186.679    24140185.294    -6471723.652 2  -5042894.476 1
        13.900          11.000
  20362162.341    20362161.897    20362160.702   -25553318.045 6 -19911665.786 7
        39.000          45.500
 09  1 31  1 25 30.0000000  0 11G22G 5G11G 9G32G12G31G30G17G18G14
  21564667.557    21564667.232    21564663.934   -18902848.472 6 -14729483.682 6
        38.700          37.600
  23662845.381    23662845.067    23662845.131    -7892540.424 3  -6150028.811 3
        21.100          22.100
  22638516.589    22638516.442    22638514.729   -11708053.465 5  -9123154.944 4
        31.100          28.600
  23638101.688    23638101.340    23638100.261    -6368731.707 2  -4962639.608 2
        16.100          17.800
  23328707.598    23328707.175    23328707.073    -9690597.638 4  -7551113.389 4
        27.400          26.800
  23950963.514    23950963.009    23950960.705    -5867581.843 3  -4572140.266 3
        23.000          23.000
  22904003.686    22904003.690    22904001.751   -11284426.014 5  -8793055.080 5
        31.300          32.100
  24353692.561    24353693.451    24353694.175    -3375583.209 1  -2630323.178 2
        11.000          13.900
  25157365.766    25157364.743    25157366.853     -676735.034     -527325.416 2
         3.000          17.000
  24159797.258    24159797.566    24159794.300    -6368673.757 2  -4962595.844 2
        17.000          12.600
  20363043.782    20363043.316    20363040.800   -25548686.312 6 -19908056.642 7
        39.100          45.600
 09  1 31  1 26  0.0000000  0 11G22G 5G11G 9G32G12G31G30G17G18G14
  21578437.571    21578437.283    21578434.065   -18830486.286 6 -14673097.572 6
        38.600          37.400
  23651332.535    23651331.493    23651330.556    -7953044.641 3  -6197174.930 3
        21.100          21.100
  22634840.795    22634840.576    22634838.914   -11727370.156 5  -9138206.911 4
        31.500          28.400
  23658966.209    23658965.613    23658965.172    -6259081.994 2  -4877198.285 2
        12.600          17.000
  23311977.106    23311976.131    23311976.163    -9778520.811 4  -7619624.931 4
        27.100          28.100
  23942034.239    23942033.828    23942032.440    -5914505.481 3  -4608704.134 3
        22.600          23.800
  22884494.277    22884494.274    22884492.424   -11386948.051 5  -8872942.348 5
        31.600          31.600
  24335402.565    24335404.016    24335403.246    -3471697.941 1  -2705217.778 2
         9.000          13.900
  25150147.438    25150147.027    25150145.470     -714670.131 1   -556885.229 1
         6.500          11.000
  24179436.770    24179436.359    24179433.526    -6265473.469 2  -4882180.000 2
        17.000          13.900
  20364008.881    20364008.365    20364007.184   -25543615.020 6 -19904104.981 7
        39.100          45.800
 09  1 31  1 26 30.0000000  0 11G22G 5G11G 9G32G12G31G30G17G18G14
  21592270.867    21592270.522    21592267.203   -18757791.786 6 -14616452.512 6
        38.400          37.200
  23639910.055    23639909.142    23639908.718    -8013068.164 3  -6243946.492 3
        21.600          21.600
  22631274.128    22631273.881    22631271.764   -11746113.710 5  -9152812.272 4
        31.600          27.900
  23679891.160    23679890.815    23679890.356    -6149121.096 2  -4791514.497 2
        12.600          17.800
  23295272.541    23295271.573    23295271.806    -9866301.452 4  -7688025.395 4
        26.800          28.400
  23933199.108    23933198.877    23933197.173    -5960934.809 3  -4644882.805 4
        23.000          24.200
  22865034.991    22865035.142    22865033.473   -11489204.987 5  -8952623.058 5
        31.600          31.300
  24317153.659    24317154.013    24317154.310    -3567593.947 1  -2779941.923 2
         9.000          15.100
  25143028.340    25143028.446    25143025.125     -752085.268 1   -586039.818 1
        11.000           9.000
  24199101.487    24199101.002    24199099.360    -6162129.799 2  -4801652.494 2
        13.900          15.100
  20365056.297    20365055.666    20365053.353   -25538110.683 6 -19899815.885 7
        39.000          45.600
 09  1 31  1 27  0.0000000  0 11G22G 5G11G 9G32G12G31G30G17G18G14
  21606167.027    21606166.831    21606163.664   -18684766.152 6 -14559549.424 6
        38.400          37.300
  23628580.011    23628579.129    23628578.994    -8072608.566 3  -6290341.584 3
        21.600          22.600
  22627816.158    22627815.931    22627814.290   -11764284.287 5  -9166971.158 4
        31.600          28.400
  23700874.819    23700875.376    23700874.393    -6038852.426 2  -4705590.888 3
        12.600          18.600
  23278595.046    23278594.489    23278594.931    -9953938.482 4  -7756313.956 4
        27.400          27.900
  23924458.209    23924458.229    23924455.230    -6006867.973 4  -4680674.878 3
        24.200          23.400
  22845626.874    22845627.250    22845625.497   -11591194.440 5  -9032095.335 5
        32.000          31.600
  24298949.334    24298949.699    24298948.168    -3663268.186 1  -2854493.270 2
        11.000          16.100
  25136006.771    25136005.329    25136005.660     -788979.688     -614788.645 2
         3.000          13.900
  24218792.953    24218792.415    24218791.818    -6058644.550 1  -4721014.669 2
        11.000          16.100
  20366185.935    20366185.444    20366184.269   -25532173.910 6 -19895189.825 7
        39.000          45.500
 09  1 31  1 27 30.0000000  0 11G22G 5G11G 9G32G12G31G30G17G18G14
  21620126.758    21620126.467    21620123.460   -18611406.968 6 -14502386.431 6
        38.200          37.200
  23617343.018    23617342.320    23617341.493    -8131659.584 3  -6336355.353 3
        22.100          21.600
  22624468.410    22624468.169    22624466.617   -11781877.496 5  -9180680.151 4
        32.000          28.600
  23721918.262    23721917.672    23721916.777    -5928275.529 1  -4619427.115 2
        11.000          17.800
  23261946.914    23261946.342    23261946.735   -10041426.715 4  -7824486.588 4
        27.900          27.600
  23915812.528    23915812.729    23915810.789    -6052298.993 3  -4716075.668 3
        23.800          23.800
  22826271.157    22826271.234    22826269.693   -11692910.432 5  -9111354.524 5
        32.000          31.500
  24280785.108    24280785.114    24280786.949    -3758713.469 1  -2928866.181 3
        11.000          19.300
  25129086.331    25129085.388    25129084.342     -825348.480     -643127.930 1
         3.000           9.000
  24238514.468    24238514.122    24238512.343    -5955015.355 1  -4640264.686 2
        11.000          17.800
  20367398.540    20367398.007    20367395.678   -25525801.857 6 -19890224.589 7
        39.000          45.600
 09  1 31  1 28  0.0000000  0 11G22G 5G11G 9G32G12G31G30G17G18G14
  21634150.513    21634150.180    21634147.127   -18537711.876 6 -14444961.688 6
        38.000          37.100
  23606199.613    23606198.741    23606198.880    -8190215.480 3  -6381983.315 3
        19.900          21.600
  22621230.835    22621230.848    22621228.963   -11798889.710 5  -9193936.425 4
        32.600          28.100
  23743019.511    23743018.502    23743017.572    -5817390.467 2  -4533023.225 2
        12.600          17.800
  23245328.001    23245327.223    23245327.671   -10128761.695 4  -7892539.805 4
        28.600          27.600
  23907263.612    23907263.406    23907261.761    -6097222.740 3  -4751081.161 4
        22.600          24.600
  22806968.440    22806968.670    22806966.809   -11794347.386 5  -9190396.291 5
        32.700          31.800
  24262668.409    24262668.561    24262668.714    -3853923.281 2  -3003055.570 3
        15.100          20.500
  25122265.748    25122265.199    25122262.003     -861186.993     -671053.933
                         3.000
  24258263.370    24258262.564    24258259.276    -5851240.321 2  -4559401.062 2
        13.900          17.000
  20368694.317    20368693.808    20368692.823   -25518992.195 6 -19884918.356 7
        38.900          45.500
 09  1 31  1 28 30.0000000  0 11G22G 5G11G 9G32G12G31G30G17G18G14
  21648236.872    21648236.457    21648233.314   -18463688.278 6 -14387280.973 6
        37.900          37.000
  23595150.559    23595149.710    23595149.732    -8248279.948 3  -6427228.329 3
        20.500          22.100
  22618103.118    22618102.992    22618101.117   -11815326.970 5  -9206744.681 4
        32.700          28.100
  23764176.504    23764175.566    23764174.952    -5706206.947 2  -4446386.728 3
        15.100          18.600
  23228736.806    23228736.064    23228736.360   -10215948.390 4  -7960477.472 4
        29.000          27.600
  23898810.739    23898810.335    23898809.146    -6141643.148 3  -4785694.454 4
        22.100          25.300
  22787718.309    22787718.449    22787716.460   -11895508.911 5  -9269223.437 5
        33.000          32.000
  24244595.042    24244595.770    24244594.965    -3948900.448 3  -3077063.708 3
        18.600          20.500
  25115547.211    25115546.811    25115546.877     -896500.114 2   -698570.589 1
        15.100          11.000
  24278037.045    24278036.462    24278032.951    -5747326.905 2  -4478429.567 2
        15.100          17.000
  20370072.170    20370071.749    20370069.377   -25511751.269 6 -19879276.075 7
        39.000          45.600
 09  1 31  1 29  0.0000000  0 11G22G 5G11G 9G32G12G31G30G17G18G14
  21662384.745    21662384.377    21662381.288   -18389340.837 6 -14329347.908 6
        38.100          37.100
  23584195.332    23584194.406    23584193.328    -8305853.810 3  -6472091.051 3
        22.100          21.600
  22615084.358    22615084.131    22615082.087   -11831192.077 5  -9219107.101 4
        33.000          28.100
  23785388.734    23785388.441    23785387.382    -5594731.490 2  -4359522.759 2
        15.100          17.800
  23212173.412    23212172.865    23212172.994   -10302988.718 4  -8028301.094 4
        29.500          28.100
  23890453.290    23890452.630    23890451.661    -6185562.249 3  -4819917.095 4
        22.100          24.600
  22768519.788    22768520.130    22768518.359   -11996396.195 5  -9347836.889 5
        32.800          32.400
  24226565.169    24226565.690    24226565.641    -4043645.355 2  -3150890.898 3
        17.800          19.900
  25108926.259    25108925.217    25108924.153     -931290.371 2   -725679.955 1
        15.100          11.000
  24297836.371    24297835.822    24297833.197    -5643280.059 2  -4397354.117 2
        13.900          16.100
  20371531.416    20371530.960    20371529.815   -25504083.319 6 -19873301.044 7
        39.000          45.500
 09  1 31  1 29 30.0000000  0 11G22G 5G11G 9G32G12G31G30G17G18G14
  21676594.931    21676594.656    21676591.582   -18314665.071 6 -14271159.007 6
        37.800          36.900
  23573333.666    23573332.547    23573332.391    -8362929.447 3  -6516565.577 3
        21.600          21.600
  22612175.382    22612174.963    22612172.894   -11846479.509 5  -9231019.378 4
        32.700          28.100
  23806658.565    23806657.930    23806656.115    -5482962.223 2  -4272429.857 2
        15.100          17.000
  23195639.706    23195638.701    23195638.798   -10389876.285 4  -8096005.668 4
        29.700          28.600
  23882193.019    23882192.859    23882190.315    -6228972.545 3  -4853743.310 4
        23.400          24.600
  22749375.395    22749375.323    22749373.972   -12097001.658 5  -9426230.730 5
        33.000          32.800
  24208581.412    24208581.585    24208581.234    -4138149.541 2  -3224530.508 2
        15.100          17.000
  25102405.942    25102405.138    25102403.868     -965551.107 1   -752376.621 1
         6.500          11.000
  24317661.254    24317660.998    24317659.144    -5539095.906 1  -4316171.656 2
        11.000          15.100
  20373072.739    20373072.261    20373069.960   -25495983.690 6 -19866989.644 7
        39.100          45.700
 09  1 31  1 30  0.0000000  0 11G22G 5G11G 9G32G12G31G30G17G18G14
  21690867.814    21690867.676    21690864.723   -18239659.043 6 -14212712.757 6
        37.500          36.500
  23562568.316    23562567.452    23562566.902    -8419501.023 3  -6560647.302 3
        21.100          21.100
  22609376.534    22609376.431    22609374.554   -11861185.627 5  -9242478.687 4
        32.700          28.400
  23827983.039    23827982.542    23827981.042    -5370898.868 2  -4185107.796 2
        12.600          16.100
  23179135.263    23179134.647    23179134.532   -10476606.277 4  -8163587.469 4
        29.900          28.100
  23874029.447    23874029.578    23874027.601    -6271868.807 3  -4887168.964 4
        23.800          24.600
  22730285.611    22730285.558    22730283.944   -12197319.676 5  -9504400.590 5
        33.200          32.700
  24190644.644    24190645.373    24190644.501    -4232406.472 2  -3297977.458 2
        13.900          16.100
  25095988.496    25095988.635    25095986.859     -999277.693 1   -778656.957 1
        11.000          11.000
  24337512.298    24337512.657    24337510.500    -5434772.420 1  -4234880.658 2
         6.500          12.600
  20374696.826    20374696.292    20374695.205   -25487449.624 6 -19860339.720 7
        39.100          46.000
 09  1 31  1 30 30.0000000  0 11G22G 5G11G 9G32G12G31G30G17G18G14
  21705203.082    21705202.894    21705200.019   -18164327.340 6 -14154012.734 6
        37.700          36.700
  23551898.470    23551897.785    23551897.741    -8475569.549 3  -6604337.037 3
        21.600          21.600
  22606688.112    22606687.928    22606685.981   -11875313.490 5  -9253487.416 4
        32.700          28.600
  23849360.996    23849360.850    23849361.343    -5258548.059 1  -4097561.722 2
         9.000          16.100
  23162660.945    23162659.989    23162659.767   -10563180.882 4  -8231048.194 4
        29.900          28.400
  23865965.024    23865964.740    23865962.840    -6314252.786 4  -4920195.410 4
        24.200          25.300
  22711249.953    22711250.269    22711248.764   -12297351.081 5  -9582347.121 5
        33.400          33.200
  24172757.213    24172757.412    24172756.618    -4326416.163 2  -3371231.742 3
        16.100          18.600
  25089670.200    25089669.647    25089669.104    -1032472.658     -804523.221 1
         3.000          11.000
  24357389.704    24357389.703    24357386.972    -5330314.669    -4153485.048 1
                        11.000
  20376402.568    20376401.983    20376399.759   -25478485.554 6 -19853354.731 7
        39.100          45.800
 09  1 31  1 31  0.0000000  0 11G22G 5G11G 9G32G12G31G30G17G18G14
  21719598.643    21719598.353    21719595.401   -18088679.610 6 -14095066.454 6
        37.700          36.500
  23541323.966    23541323.040    23541323.067    -8531141.215 3  -6647639.621 3
        22.100          22.100
  22604108.279    22604108.038    22604106.200   -11888871.703 5  -9264052.256 4
        32.400          29.000
  23870792.845    23870793.020    23870793.374    -5145921.657 1  -4009800.944 2
         6.500          16.100
  23146214.295    23146213.437    23146213.327   -10649607.278 4  -8298393.430 4
        29.200          28.100
  23857995.687    23857995.596    23857992.896    -6356130.987 4  -4952827.767 4
        24.900          25.300
  22692268.101    22692268.141    22692266.735   -12397102.295 5  -9660075.321 5
        33.200          33.400
  24154913.558    24154913.753    24154912.588    -4420183.813 2  -3444297.430 3
        16.100          19.900
  25083454.799    25083454.373    25083451.612    -1065143.434 2   -829980.940 2
        12.600          12.600
  24377293.535    24377290.455    24377288.778    -5225732.223    -4071992.281 1
                         6.500
  20378188.487    20378187.934    20378186.806   -25469100.630 6 -19846041.798 7
        39.100          45.800
 09  1 31  1 31 30.0000000  0 11G22G 5G11G 9G32G12G31G30G17G18G14
  21734055.747    21734055.416    21734052.381   -18012706.589 6 -14035866.705 6
        37.200          36.200
  23530845.492    23530844.812    23530844.891    -8586203.179 3  -6690545.031 3
        21.100          21.600
  22601638.397    22601638.148    22601636.609   -11901849.535 5  -9274164.850 4
        32.300          29.000
  23892280.714    23892278.961    23892279.245    -5033012.733 1  -3921819.997 2
         9.000          15.100
  23129797.947    23129797.241    23129797.352   -10735873.755 4  -8365614.042 4
        28.400          27.600
  23850124.586    23850124.513    23850122.909    -6397490.921 4  -4985056.282 4
        24.600          24.900
  22673341.971    22673341.839    22673340.340   -12496560.802 5  -9737575.426 5
        33.200          33.600
  24137117.654    24137118.071    24137117.676    -4513696.118 2  -3517164.105 3
        17.000          19.900
  25077339.358    25077338.265    25077340.193    -1097278.468 2   -855021.138 2
        12.600          13.900
  24397219.551    24397219.204    24397214.647    -5121016.519    -3990395.675 1
                         9.000
  20380056.245    20380055.732    20380053.412   -25459284.962 6 -19838393.227 7
        39.100          45.800
 09  1 31  1 32  0.0000000  0 11G22G 5G11G 9G32G12G31G30G17G18G14
  21748574.658    21748574.368    21748571.090   -17936410.136 6 -13976414.931 6
        37.400          36.300
  23520465.740    23520464.575    23520464.186    -8640753.797 3  -6733051.977 3
        22.100          21.600
  22599279.439    22599279.283    22599277.256   -11914247.236 5  -9283825.397 4
        32.400          29.200
  23913821.511    23913820.023    23913817.701    -4919825.320 1  -3833622.041 2
        11.000          16.100
  23113412.982    23113412.344    23113411.778   -10821979.771 4  -8432709.620 4
        28.600          27.900
  23842353.240    23842353.085    23842350.581    -6438331.897 4  -5016880.412 4
        24.900          24.200
  22654471.275    22654471.437    22654469.891   -12595724.544 5  -9814845.851 5
        33.200          33.500
  24119372.507    24119372.191    24119371.517    -4606950.213 2  -3589829.605 3
        16.100          19.900
  25071326.391    25071326.260    25071321.366    -1128877.394 1   -879643.640 1
        11.000           6.500
  24417170.668    24417169.923    24417167.001    -5016169.611    -3908696.786 1
                         9.000
  20382005.808    20382005.311    20382004.228   -25449040.174 6 -19830410.271 7
        39.200          45.800
 09  1 31  1 32 30.0000000  0 11G22G 5G11G 9G32G12G31G30G17G18G14
  21763154.310    21763154.066    21763150.966   -17859792.969 6 -13916713.248 6
        37.200          36.400
  23510181.541    23510180.727    23510181.144    -8694791.969 3  -6775159.642 3
        21.600          22.100
  22597029.987    22597029.715    22597028.205   -11926066.335 5  -9293035.089 4
        32.000          29.000
  23935411.027    23935410.215    23935408.857    -4806364.004 1  -3745210.642 2
        11.000          15.100
  23097058.088    23097057.454    23097056.907   -10907925.224 4  -8499680.093 4
        29.200          27.900
  23834679.499    23834679.555    23834677.899    -6478653.168 3  -5048299.568 4
        23.400          24.200
  22635657.614    22635657.628    22635655.837   -12694592.863 5  -9891886.079 5
        33.800          33.500
  24101675.579    24101675.451    24101674.794    -4699944.678 2  -3662292.792 3
        16.100          18.600
  25065413.603    25065412.924    25065414.018    -1159940.716 1   -903848.848 1
         9.000           9.000
  24437146.763    24437145.450    24437143.036    -4911194.123    -3826897.758 1
         3.000           9.000
  20384036.690    20384036.112    20384033.781   -25438368.276 6 -19822094.507 7
        39.300          46.100
 09  1 31  1 33  0.0000000  0 11G22G 5G11G 9G32G12G31G30G17G18G14
  21777795.484    21777795.230    21777792.199   -17782852.843 6 -13856759.918 6
        37.000          36.500
  23499997.558    23499996.767    23499997.302    -8748312.165 3  -6816863.674 3
        22.100          22.100
  22594891.638    22594891.434    22594889.584   -11937303.318 5  -9301791.171 4
        31.800          28.600
  23957053.173    23957053.468    23957051.978    -4692628.652 1  -3656585.724 2
        11.000          13.900
  23080734.265    23080733.582    23080733.504   -10993705.558 4  -8566521.887 4
        29.200          27.900
  23827106.848    23827106.500    23827104.671    -6518450.083 3  -5079310.133 4
        23.800          24.200
  22616900.498    22616900.790    22616898.902   -12793160.231 5  -9968691.801 5
        33.900          33.500
  24084030.676    24084030.393    24084029.461    -4792672.983 3  -3734548.603 3
        19.300          18.600
  25059606.033    25059605.815    25059607.457    -1190464.313 2   -927633.482 1
        13.900           9.000
  24457146.665    24457145.433    24457145.307    -4806088.166    -3744997.018 1
         3.000           9.000
  20386149.062    20386148.650    20386147.489   -25427266.531 6 -19813443.793 7
        39.200          45.700
 09  1 31  1 33 30.0000000  0 11G22G 5G11G 9G32G12G31G30G17G18G14
  21792497.597    21792497.371    21792494.186   -17705592.596 6 -13796557.137 6
        36.800          36.000
  23489911.995    23489910.822    23489910.806    -8801313.578 3  -6858163.463 3
        22.100          22.100
  22592864.066    22592863.824    22592861.855   -11947959.496 5  -9310094.683 4
        32.300          28.600
  23978747.491    23978746.956    23978746.518    -4578623.963 1  -3567750.924 2
         9.000          15.100
  23064442.213    23064441.429    23064441.685   -11079321.000 4  -8633235.200 4
        29.700          28.600
  23819633.733    23819633.532    23819631.644    -6557722.127 3  -5109911.724 4
        23.800          24.900
  22598201.642    22598201.614    22598199.425   -12891425.764 5 -10045262.325 5
        34.300          33.500
  24066436.618    24066436.474    24066435.108    -4885133.442 3  -3806595.706 3
        21.600          19.300
  25053899.927    25053900.406    25053897.107    -1220448.259 2   -950997.504
        13.900           3.000
  24477173.620    24477173.643    24477171.886    -4700854.995 1  -3662997.162 1
         9.000           9.000
  20388343.030    20388342.509    20388340.317   -25415737.373 6 -19804460.034 7
        39.100          45.800
 09  1 31  1 34  0.0000000  0 11G22G 5G11G 9G32G12G31G30G17G18G14
  21807259.431    21807259.131    21807255.701   -17628019.332 6 -13736110.447 5
        36.800          35.600
  23479924.571    23479923.625    23479922.996    -8853799.974 3  -6899061.935 3
        22.100          22.600
  22590945.853    22590945.647    22590943.460   -11958040.787 5  -9317950.233 4
        33.000          28.600
  24000492.011    24000491.517    24000490.975    -4464359.091 1  -3478713.405 2
         9.000          16.100
  23048180.436    23048179.939    23048180.263   -11164776.120 5  -8699823.590 4
        30.200          28.800
  23812259.551    23812259.233    23812257.985    -6596473.284 3  -5140107.427 4
        23.000          25.300
  22579559.035    22579558.914    22579557.014   -12989393.120 5 -10121600.508 5
        34.300          33.900
  24048892.280    24048892.497    24048890.452    -4977328.527 3  -3878436.012 3
        22.100          18.600
  25048296.493    25048295.417    25048296.070    -1249897.526 1   -973945.067 2
         9.000          12.600
  24497223.316    24497222.754    24497219.227    -4595501.862 2  -3580903.844 1
        13.900          11.000
  20390617.033    20390616.475    20390615.498   -25403787.621 6 -19795148.535 7
        39.100          45.800
 09  1 31  1 34 30.0000000  0 11G22G 5G11G 9G32G12G31G30G17G18G14
  21822080.099    21822079.746    21822076.640   -17550136.073 6 -13675422.194 5
        36.800          35.700
  23470034.018    23470033.507    23470033.249    -8905770.691 3  -6939558.567 3
        22.600          21.600
  22589136.569    22589136.229    22589134.530   -11967548.595 5  -9325358.904 4
        32.700          28.800
  24022283.833    24022283.866    24022283.575    -4349839.240 1  -3389477.204 2
        11.000          16.100
  23031949.587    23031948.983    23031948.996   -11250071.288 5  -8766287.339 4
        31.000          29.200
  23804984.339    23804984.018    23804982.246    -6634704.016 3  -5169897.597 4
        22.600          24.600
  22560973.316    22560973.291    22560971.525   -13087061.605 5 -10197705.802 5
        34.600          34.300
  24031397.559    24031397.995    24031397.482    -5069256.697 3  -3950068.337 3
        19.300          18.600
  25042794.558    25042793.626    25042794.041    -1278813.230 1   -996476.710 2
         9.000          16.100
  24517290.888    24517290.396    24517289.414    -4490031.944 2  -3498719.497 1
        12.600          11.000
  20392970.591    20392970.086    20392967.909   -25391419.707 6 -19785511.199 7
        39.300          46.100
 09  1 31  1 35  0.0000000  0 11G 5G11G 9G32G12G31G30G17G18G14G22
  23460244.233    23460243.535    23460243.519    -8957215.529 3  -6979645.461 3
        22.100          22.100
  22587438.264    22587437.915    22587435.618   -11976475.018 5  -9332314.557 4
        33.000          28.600
  24044126.354    24044125.454    24044124.808    -4235059.833 1  -3300038.771 2
         9.000          15.100
  23015750.733    23015749.896    23015750.403   -11335197.270 5  -8832619.252 4
        30.800          29.700
  23797810.406    23797810.266    23797807.973    -6672404.287 3  -5199274.425 4
        23.800          24.200
  22542446.511    22542446.365    22542444.440   -13184421.507 5 -10273570.645 5
        34.700          34.100
  24013957.415    24013957.533    24013957.619    -5160906.783 3  -4021483.956 3
        18.600          18.600
  25037396.351    25037394.904    25037392.636    -1307186.319 1  -1018585.618 1
         6.500           9.000
  24537385.896    24537384.969    24537383.533    -4384438.673 1  -3416439.031 2
        11.000          12.600
  20395405.023    20395404.534    20395403.584   -25378626.394 6 -19775542.380 7
        39.300          45.900
  21836960.812    21836960.680    21836957.729   -17471935.884 6 -13614486.992 5
        36.500          35.900
 09  1 31  1 35 30.0000000  0 11G 5G11G 9G32G12G31G30G17G18G14G22
  23450557.156    23450556.213    23450555.950    -9008124.617 3  -7019314.863 3
        22.600          22.100
  22585850.774    22585850.649    22585848.933   -11984812.601 5  -9338811.381 4
        32.100          28.600
  24066018.611    24066017.785    24066017.516    -4120016.238 1  -3210394.451 2
         9.000          13.900
  22999585.412    22999584.773    22999585.256   -11420145.028 5  -8898812.295 4
        30.600          29.500
  23790738.519    23790738.723    23790736.751    -6709564.985 4  -5228230.812 4
        24.200          24.600
  22523979.917    22523979.778    22523977.989   -13281462.543 5 -10349187.022 5
        34.500          34.000
  23996573.096    23996573.233    23996572.062    -5252267.799 3  -4092674.365 3
        20.500          19.300
  25032100.482    25032100.910    25032097.511    -1335008.517 1  -1040265.138
         9.000           3.000
  24557504.358    24557503.533    24557502.012    -4278715.960 1  -3334057.771 1
         9.000          11.000
  20397921.908    20397921.377    20397919.190   -25365400.661 6 -19765236.615 7
        39.300          46.300
  21851903.521    21851903.263    21851900.062   -17393412.566 6 -13553300.000 5
        36.700          35.500
 09  1 31  1 36  0.0000000  0 11G 5G11G 9G32G12G31G30G17G18G14G22
  23440969.672    23440968.717    23440968.173    -9058507.911 3  -7058574.561 3
        23.000          22.100
  22584374.439    22584374.124    22584372.174   -11992573.519 5  -9344858.846 4
        32.300          28.800
  24087957.226    24087956.519    24087956.845    -4004723.690 1  -3120556.161 1
        11.000          11.000
  22983452.535    22983451.853    22983451.707   -11504925.455 5  -8964874.952 4
        30.600          29.000
  23783768.987    23783768.504    23783765.780    -6746196.609 4  -5256774.925 4
        24.600          24.200
  22505572.045    22505572.158    22505570.411   -13378194.467 5 -10424562.532 5
        34.500          34.000
  23979240.661    23979240.639    23979239.563    -5343349.011 3  -4163646.738 3
        19.900          19.300
  25026907.470    25026907.215    25026909.143    -1362290.780 1  -1061524.113 2
         6.500          12.600
  24577642.452    24577642.736    24577641.632    -4172877.458 1  -3251586.280 1
         9.000          11.000
  20400518.393    20400517.880    20400516.879   -25351755.485 6 -19754604.007 7
        39.400          45.900
  21866905.233    21866904.832    21866901.606   -17314579.520 6 -13491871.656 5
        36.600          35.500
 09  1 31  1 36 30.0000000  0 11G 5G11G 9G32G12G31G30G17G18G14G22
  23431483.612    23431482.664    23431482.312    -9108355.273 3  -7097416.656 3
        22.600          22.100
  22583008.948    22583008.638    22583006.601   -11999749.552 5  -9350450.553 4
        32.600          28.800
  24109945.305    24109945.177    24109944.972    -3889177.452 1  -3030520.151 1
        11.000          11.000
  22967352.865    22967352.091    22967351.980   -11589529.057 5  -9030799.831 4
        30.400          28.800
  23776900.417    23776899.846    23776897.760    -6782289.562 4  -5284899.294 4
        24.200          24.900
  22487225.568    22487225.526    22487223.897   -13474607.246 5 -10499689.352 5
        35.200          34.400
  23961962.850    23961962.996    23961962.962    -5434139.239 2  -4234392.322 3
        17.800          19.300
  25021820.380    25021820.742    25021819.376    -1389024.466 1  -1082355.551 2
        11.000          12.600
  24597806.647    24597806.297    24597805.285    -4066916.853 1  -3169019.598 1
        11.000          11.000
  20403196.162    20403195.640    20403193.573   -25337683.800 6 -19743639.057 7
        39.400          46.100
  21881966.806    21881966.423    21881963.413   -17235429.845 6 -13430196.596 5
        36.400          35.600
 09  1 31  1 37  0.0000000  0 11G 5G11G 9G32G12G31G30G17G18G14G22
  23422100.356    23422099.504    23422099.206    -9157664.943 3  -7135839.746 3
        23.000          22.600
  22581754.310    22581754.112    22581752.209   -12006341.672 5  -9355587.263 4
        32.400          28.800
  24131980.752    24131980.104    24131978.755    -3773381.496 1  -2940289.568 1
         9.000           9.000
  22951286.496    22951286.191    22951286.227   -11673955.099 5  -9096586.341 4
        30.400          29.200
  23770134.429    23770134.015    23770131.662    -6817842.939 3  -5312603.199 4
        23.400          24.200
  22468939.999    22468940.077    22468938.105   -13570699.175 5 -10574566.170 5
        35.600          34.500
  23944743.507    23944743.505    23944741.649    -5524635.840 3  -4304909.141 3
        21.100          18.600
  25016838.519    25016837.978    25016837.804    -1415209.127 1  -1102759.040 2
         9.000          13.900
  24617994.209    24617993.313    24617991.818    -3960835.418 1  -3086358.758 1
         9.000          11.000
  20405954.781    20405954.331    20405953.413   -25323186.943 6 -19732342.801 7
        39.400          46.100
  21897088.360    21897088.061    21897084.899   -17155965.408 6 -13368276.261 5
        36.600          35.400
 09  1 31  1 37 30.0000000  0 11G 5G11G 9G32G12G31G30G17G18G14G22
  23412818.464    23412817.411    23412816.940    -9206441.866 3  -7173847.745 3
        23.000          22.100
  22580609.574    22580609.570    22580607.642   -12012356.396 5  -9360274.068 4
        32.700          29.000
  24154061.008    24154060.559    24154058.196    -3657346.306 1  -2849872.602 1
         6.500           9.000
  22935254.069    22935253.312    22935253.155   -11758209.415 5  -9162239.051 4
        31.000          29.500
  23763471.237    23763470.567    23763468.155    -6852862.135 3  -5339890.899 4
        23.800          24.200
  22450714.319    22450714.287    22450712.492   -13666475.476 5 -10649197.039 5
        35.500          34.400
  23927576.803    23927577.053    23927576.086    -5614842.748 3  -4375200.238 3
        19.300          18.600
  25011959.127    25011958.946    25011957.309    -1440851.021 1  -1122739.716 2
         9.000          12.600
  24638201.597    24638201.161    24638199.153    -3854642.441 1  -3003610.987 1
         9.000           9.000
  20408792.871    20408792.375    20408790.294   -25308272.674 6 -19720721.294 7
        39.500          46.200
  21912268.098    21912267.838    21912264.955   -17076194.647 6 -13306117.236 5
        36.300          35.600
 09  1 31  1 38  0.0000000  0 11G 5G11G 9G32G12G31G30G17G18G14G22
  23403638.125    23403637.253    23403637.361    -9254683.019 3  -7211438.222 3
        22.100          22.600
  22579575.197    22579574.983    22579573.184   -12017793.226 5  -9364510.561 4
        32.800          29.000
  24176186.708    24176186.499    24176184.888    -3541074.056 1  -2759270.918 1
         6.500           9.000
  22919254.707    22919253.586    22919253.090   -11842289.538 5  -9227756.012 4
        31.300          29.700
  23756909.058    23756908.613    23756906.428    -6887344.466 4  -5366760.220 4
        24.600          24.600
  22432549.148    22432549.372    22432547.485   -13761932.683 5 -10723579.267 5
        35.500          34.300
  23910466.244    23910466.729    23910466.578    -5704755.510 2  -4445262.088 3
        17.000          19.300
  25007185.091    25007184.736    25007181.702    -1465948.456 2  -1142296.174 2
        13.900          12.600
  24658431.319    24658431.001    24658428.721    -3748337.651 1  -2920776.093 1
         9.000           9.000
  20411710.483    20411710.017    20411708.945   -25292940.811 6 -19708774.384 7
        39.500          46.200
  21927506.113    21927506.041    21927503.063   -16996117.641 6 -13243719.585 5
        36.300          35.200
 09  1 31  1 38 30.0000000  0 11G 5G11G 9G32G12G31G30G17G18G14G22
  23394561.187    23394560.325    23394559.713    -9302384.657 3  -7248608.321 3
        23.400          22.600
  22578650.840    22578650.481    22578648.594   -12022650.692 5  -9368295.596 4
        32.400          28.800
  24198357.261    24198355.933    24198355.559    -3424566.297 1  -2668485.707 1
         6.500           9.000
  22903287.809    22903286.939    22903287.180   -11926192.492 5  -9293134.919 4
        31.100          29.900
  23750449.821    23750449.863    23750447.672    -6921286.664 4  -5393208.688 4
        24.600          25.300
  22414445.643    22414445.846    22414443.942   -13857066.740 5 -10797709.682 5
        35.500          34.100
  23893414.199    23893413.892    23893412.826    -5794369.617 2  -4515091.253 3
        17.800          18.600
  25002510.829    25002509.969    25002513.175    -1490499.372 1  -1161426.676 2
         6.500          17.000
  24678681.723    24678680.613    24678680.076    -3641921.301 1  -2837854.281 1
         6.500          11.000
  20414707.596    20414706.985    20414704.970   -25277190.758 6 -19696501.616 7
        39.500          46.100
  21942802.759    21942802.518    21942799.372   -16915734.198 6 -13181083.140 5
        36.300          34.900
 09  1 31  1 39  0.0000000  0 11G 5G11G 9G32G12G31G30G17G18G14G22
  23385586.625    23385585.606    23385585.441    -9349543.772 3  -7285355.667 3
        23.000          22.100
  22577836.612    22577836.437    22577834.697   -12026928.242 5  -9371628.744 4
        32.700          28.600
  24220572.414    24220571.317    24220570.808    -3307825.010 1  -2577518.564 1
         9.000          11.000
  22887355.307    22887354.749    22887354.983   -12009916.019 5  -9358374.006 4
        30.600          29.900
  23744093.099    23744093.450    23744092.156    -6954686.801 3  -5419234.740 4
        23.800          25.900
  22396404.612    22396404.600    22396402.680   -13951874.550 5 -10871585.886 5
        35.800          34.400
  23876418.582    23876418.694    23876416.726    -5883680.884 3  -4584684.455 3
        18.600          18.600
  24997943.502    24997943.060    24997940.386    -1514501.858 1  -1180129.863 1
         9.000           9.000
  24698951.016    24698950.369    24698952.015    -3535394.025    -2754845.972 1
                        11.000
  20417784.332    20417783.867    20417782.769   -25261022.258 6 -19683902.783 7
        39.500          46.200
  21958157.448    21958157.281    21958154.074   -16835044.668 6 -13118208.193 5
        36.000          34.900
 09  1 31  1 39 30.0000000  0 10G 5G11G 9G32G12G31G30G17G14G22
  23376716.169    23376715.298    23376715.052    -9396160.699 3  -7321680.531 3
        23.400          22.600
  22577132.697    22577132.521    22577130.772   -12030628.095 5  -9374511.754 4
        32.800          29.000
  24242832.275    24242831.958    24242830.833    -3190856.330 1  -2486374.216 1
         9.000           9.000
  22871457.673    22871456.970    22871457.136   -12093461.236 5  -9423474.148 5
        31.000          30.200
  23737840.716    23737840.846    23737839.038    -6987545.442 3  -5444838.880 4
        23.800          25.900
  22378425.211    22378425.301    22378423.325   -14046356.817 6 -10945208.420 5
        36.200          34.600
  23859480.882    23859481.122    23859480.089    -5972688.541 3  -4654041.046 3
        18.600          21.100
  24993480.675    24993479.925    24993477.656    -1537957.515 2  -1198407.005 1
        12.600           9.000
  20420940.160    20420939.658    20420937.512   -25244438.639 6 -19670980.484 7
        39.600          46.400
  21973569.905    21973569.505    21973566.226   -16754052.847 6 -13055097.691 5
        36.000          34.600
 09  1 31  1 40  0.0000000  0 10G 5G11G 9G32G12G31G30G17G14G22
  23367948.202    23367947.223    23367946.615    -9442236.832 3  -7357583.999 3
        23.800          22.600
  22576537.718    22576537.615    22576535.595   -12033754.109 5  -9376947.606 4
        32.400          29.000
  24265133.244    24265133.385    24265132.411    -3073666.561 1  -2395057.564 1
        11.000           9.000
  22855593.369    22855592.611    22855592.598   -12176830.180 5  -9488436.935 5
        32.000          30.200
  23731690.482    23731690.141    23731688.527    -7019864.889 3  -5470022.872 4
        23.400          25.300
  22360507.757    22360507.826    22360505.689   -14140514.468 6 -11018578.002 5
        36.300          34.900
  23842600.132    23842600.838    23842600.281    -6061393.071 3  -4723161.415 3
        18.600          21.100
  24989119.347    24989119.777    24989119.758    -1560869.272 2  -1216260.237 2
        13.900          17.800
  20424174.032    20424173.554    20424172.431   -25227444.287 6 -19657738.131 7
        39.500          46.400
  21989038.577    21989038.276    21989035.249   -16672763.495 5 -12991755.347 5
        35.800          34.800
 09  1 31  1 40 30.0000000  0 10G 5G11G 9G32G12G31G30G17G14G22
  23359285.013    23359284.144    23359283.792    -9487762.382 4  -7393058.447 3
        24.200          23.400
  22576053.959    22576053.673    22576051.864   -12036298.339 5  -9378930.121 4
        32.800          29.200
  24287477.709    24287477.251    24287476.433    -2956251.246 1  -2303565.181 1
         9.000           9.000
  22839764.242    22839763.398    22839763.027   -12260013.726 5  -9553255.264 4
        32.800          29.900
  23725644.430    23725644.440    23725642.965    -7051635.540 3  -5494779.221 4
        23.800          25.600
  22342653.939    22342653.902    22342651.790   -14234337.397 6 -11091686.764 5
        36.600          35.200
  23825780.685    23825780.868    23825779.311    -6149783.402 2  -4792036.996 3
        17.800          19.300
  24984865.025    24984864.604    24984865.117    -1583228.778 2  -1233683.220 2
        13.900          17.800
  20427487.544    20427486.959    20427484.906   -25210031.993 6 -19644170.111 7
        39.500          46.400
  22004565.570    22004565.237    22004562.009   -16591169.937 6 -12928175.961 5
        36.000          34.800
 09  1 31  1 41  0.0000000  0 10G 5G11G 9G32G12G31G30G17G14G22
  23350728.833    23350728.089    23350728.183    -9532722.813 3  -7428092.533 3
        23.800          23.000
  22575682.716    22575682.459    22575680.302   -12038248.926 5  -9380450.050 4
        33.000          28.600
  24309867.297    24309866.147    24309864.862    -2838601.076 1  -2211889.783 1
         9.000           6.500
  22823972.503    22823971.722    22823971.560   -12342997.906 5  -9617918.257 4
        32.400          29.700
  23719706.489    23719706.358    23719704.255    -7082843.213 4  -5519096.871 4
        24.200          25.600
  22324866.595    22324866.485    22324864.414   -14327810.929 6 -11164523.265 5
        36.700          35.400
  23809023.136    23809023.095    23809023.035    -6237843.514 2  -4860655.263 3
        17.000          19.900
  24980718.851    24980717.072    24980715.645    -1605022.805 2  -1250665.577 2
        12.600          13.900
  20430882.695    20430882.197    20430881.097   -25192190.262 6 -19630267.460 7
        39.600          46.600
  22020152.087    22020151.802    22020148.603   -16509261.271 5 -12864351.031 5
        35.700          34.500
 09  1 31  1 41 30.0000000  0 10G 5G11G 9G32G12G31G30G17G14G22
  23342279.370    23342278.266    23342277.978    -9577126.970 3  -7462693.170 3
        23.800          23.000
  22575422.470    22575422.164    22575420.135   -12039616.890 5  -9381516.000 4
        32.800          28.600
  24332297.088    24332295.989    24332295.115    -2720729.880 1  -2120042.142 1
         9.000           6.500
  22808217.191    22808216.359    22808216.388   -12425792.328 5  -9682433.379 5
        32.100          30.400
  23713873.213    23713873.034    23713870.377    -7113497.689 4  -5542983.469 4
        24.900          25.300
  22307143.697    22307143.771    22307141.678   -14420944.015 6 -11237094.489 5
        36.800          35.300
  23792327.181    23792327.024    23792326.483    -6325581.668 3  -4929022.623 3
        18.600          20.500
  24976677.128    24976676.372    24976676.186    -1626261.526 2  -1267215.241 2
        13.900          15.100
  20434357.186    20434356.722    20434354.771   -25173930.952 6 -19616039.422 7
        39.600          46.400
  22035796.504    22035796.130    22035793.071   -16427049.297 5 -12800289.765 5
        35.200          34.400
 09  1 31  1 42  0.0000000  0 10G 5G11G 9G32G12G31G30G17G14G22
  23333935.613    23333935.101    23333934.666    -9620971.831 4  -7496857.980 3
        24.200          23.400
  22575273.220    22575272.856    22575271.143   -12040401.367 5  -9382127.273 4
        32.700          29.000
  24354769.128    24354768.029    24354766.676    -2602639.983 1  -2028024.064 1
         6.500           6.500
  22792498.402    22792497.654    22792497.707   -12508394.483 5  -9746798.669 5
        31.600          30.800
  23708145.902    23708145.329    23708143.534    -7143596.652 4  -5566437.193 4
        25.300          26.200
  22289486.350    22289486.403    22289484.266   -14513733.609 6 -11309398.054 5
        36.700          35.100
  23775694.147    23775694.085    23775692.355    -6412993.197 3  -4997135.482 3
        20.500          19.900
  24972739.861    24972740.744    24972738.686    -1646943.262 1  -1283330.815 2
        11.000          13.900
  20437911.347    20437910.860    20437909.930   -25155253.638 6 -19601485.673 7
        39.500          46.300
  22051498.633    22051498.395    22051495.061   -16344534.369 5 -12735992.430 5
        35.400          34.400
 09  1 31  1 42 30.0000000  0 11G 5G11G 9G32G12G31G30G17G20G14G22
  23325696.742    23325696.013    23325695.314    -9664269.738 4  -7530596.608 3
        24.600          23.000
  22575232.058    22575231.870    22575229.758   -12040616.995 5  -9382295.292 4
        32.800          28.800
  24377278.700    24377277.484    24377275.788    -2484348.955 1  -1935849.294 1
         6.500           6.500
  22776814.284    22776813.442    22776813.041   -12590817.217 5  -9811024.170 5
        32.300          30.800
  23702520.779    23702520.660    23702518.609    -7173152.953 4  -5589468.081 4
        24.900          25.900
  22271892.176    22271892.145    22271889.949   -14606191.481 6 -11381443.132 5
        36.500          34.900
  23759119.615    23759119.754    23759118.731    -6500089.325 3  -5065002.599 3
        20.500          19.900
  24968908.144    24968908.321    24968907.353    -1667081.707 1  -1299023.090 2
         9.000          17.800
  24873333.611    24873331.676    24873331.050           -.4451          -.94211
                         9.000
  20441542.207    20441541.735    20441539.740   -25136173.516 6 -19586618.043 7
        39.700          46.400
  22067255.226    22067255.009    22067251.753   -16261732.283 5 -12671471.328 5
        35.700          34.100
 09  1 31  1 43  0.0000000  0 11G 5G11G 9G32G12G31G30G17G20G14G22
  23317564.798    23317563.800    23317563.359    -9707003.230 3  -7563895.419 3
        23.800          23.400
  22575301.906    22575301.797    22575299.798   -12040248.264 5  -9382007.968 4
        32.800          28.800
  24399831.195    24399829.405    24399827.862    -2365844.280    -1843508.051 1
         3.000           6.500
  22761166.846    22761166.081    22761166.162   -12673043.585 5  -9875096.653 5
        32.800          31.100
  23697002.619    23697002.390    23697000.873    -7202149.792 4  -5612063.015 4
        24.200          25.900
  22254364.646    22254364.582    22254362.397   -14698300.119 6 -11453216.084 5
        36.800          35.300
  23742608.733    23742609.080    23742608.736    -6586851.428 3  -5132609.418 3
        19.300          20.500
  24965184.128    24965184.627    24965180.580    -1686660.834 2  -1314279.626 2
        12.600          17.000
  24852491.527    24852492.337    24852491.624     -109511.073      -85333.861 1
                         9.000
  20445252.478    20445251.977    20445251.046   -25116675.983 6 -19571425.159 7
        39.700          46.500
  22083069.334    22083069.077    22083065.990   -16178628.780 5 -12606715.357 5
        35.400          34.000
 09  1 31  1 43 30.0000000  0 11G 5G11G 9G32G12G31G30G17G20G14G22
  23309539.039    23309538.430    23309537.672    -9749176.588 3  -7596757.773 3
        23.800          23.000
  22575481.957    22575481.790    22575479.839   -12039302.181 5  -9381270.754 4
        33.000          28.800
  24422419.392    24422417.289    24422416.292    -2247135.377    -1751007.677 1
         3.000           9.000
  22745555.966    22745555.324    22745555.305   -12755078.415 5  -9939019.886 5
        33.000          31.000
  23691590.321    23691590.233    23691588.411    -7230591.976 4  -5634225.738 4
        24.600          25.600
  22236902.351    22236902.616    22236900.532   -14790063.495 6 -11524719.997 5
        36.900          35.600
  23726162.521    23726162.475    23726161.130    -6673282.578 3  -5199958.350 3
        21.100          21.600
  24961561.830    24961560.465    24961558.796    -1705686.354    -1329104.603 2
         3.000          12.600
  24831663.210    24831662.702    24831664.010     -218969.489     -170626.140 1
                         6.500
  20449040.806    20449040.342    20449038.437   -25096767.945 6 -19555912.400 7
        39.700          46.500
  22098939.509    22098939.124    22098935.953   -16095231.245 5 -12541730.277 5
        34.600          33.800
 09  1 31  1 44  0.0000000  0 12G 5G11G 9G32G12G31G30G17G20G14G22G18
  23301620.392    23301619.425    23301619.430    -9790791.380 4  -7629184.878 4
        24.200          24.600
  22575771.444    22575771.274    22575769.052   -12037782.530 5  -9380086.602 4
        33.200          29.000
  24445045.540    24445044.976    24445043.360    -2128228.768 1  -1658353.259 1
         6.500           9.000
  22729981.230    22729980.451    22729980.604   -12836923.888 5 -10002795.563 5
        32.600          31.100
  23686283.089    23686283.219    23686280.858    -7258481.510 4  -5655957.844 4
        24.900          25.600
  22219505.914    22219505.873    22219504.084   -14881482.837 6 -11595955.834 5
        36.900          35.800
  23709777.746    23709777.777    23709776.927    -6759383.298 3  -5267049.822 3
        21.600          22.600
  24958046.594    24958047.009    24958044.982    -1724161.006 1  -1343500.466 2
        11.000          16.100
  24810844.903    24810844.088    24810844.019     -328377.457     -255879.076 1
                         6.500
  20452906.544    20452906.037    20452904.960   -25076454.006 6 -19540083.356 7
        39.800          46.800
  22114864.565    22114864.245    22114861.008   -16011544.659 5 -12476519.964 5
        34.600          33.800
  24902777.089    24902777.215    24902774.898           -.7741          -.29211
                         9.000
 09  1 31  1 44 30.0000000  0 12G 5G11G 9G32G12G31G30G17G20G14G22G18
  23293807.965    23293807.462    23293807.071    -9831843.156 3  -7661173.246 3
        23.400          23.800
  22576170.106    22576169.958    22576168.157   -12035686.725 5  -9378453.497 4
        32.800          29.200
  24467710.645    24467710.279    24467706.996    -2009125.176 1  -1565545.331 1
         6.500          11.000
  22714443.580    22714442.841    22714442.674   -12918575.812 5 -10066420.430 5
        32.800          31.100
  23681081.765    23681081.672    23681080.119    -7285814.886 3  -5677256.564 4
        23.800          25.600
  22202175.715    22202175.716    22202173.818   -14972553.544 6 -11666920.005 5
        37.200          35.900
  23693457.012    23693457.349    23693457.006    -6845147.803 3  -5333879.274 3
        22.100          23.400
  24954636.464    24954636.403    24954636.724    -1742082.014 3  -1357464.888 3
        18.600          19.300
  24790034.950    24790035.096    24790033.321     -437730.759     -341089.410 1
         3.000           6.500
  20456849.699    20456849.187    20456847.261   -25055732.271 6 -19523936.549 7
        39.800          46.700
  22130844.580    22130844.335    22130841.341   -15927567.723 5 -12411083.397 5
        34.400          34.000
  24923264.070    24923266.314    24923261.491      107655.313       83886.304 1
                         6.500
 09  1 31  1 45  0.0000000  0 11G 5G11G 9G32G12G31G30G17G20G14G22
  23286104.517    23286103.704    23286102.876    -9872327.055 3  -7692719.132 3
        23.400          23.000
  22576679.135    22576678.917    22576676.661   -12033012.533 5  -9376369.714 4
        32.600          28.800
  24490412.960    24490411.744    24490409.258    -1889824.728    -1472584.052 1
         3.000          11.000
  22698943.412    22698942.623    22698942.346   -13000029.891 5 -10129891.137 5
        32.800          31.000
  23675987.758    23675987.377    23675985.036    -7312587.539 3  -5698118.379 4
        23.800          25.900
  22184912.928    22184913.021    22184910.957   -15063270.615 6 -11737608.620 6
        37.300          36.100
  23677202.649    23677202.699    23677201.276    -6930569.644 3  -5400441.732 3
        23.000          22.600
  24951330.127    24951331.821    24951330.422    -1759445.678 2  -1370994.954 2
        17.000          13.900
  24769238.058    24769236.273    24769234.833     -547025.010 1   -426253.697 1
         6.500           6.500
  20460870.982    20460870.423    20460869.325   -25034600.628 6 -19507470.332 7
        39.800          46.800
  22146880.516    22146880.276    22146877.210   -15843298.563 5 -12345419.136 5
        34.300          33.600
 09  1 31  1 45 30.0000000  0 11G 5G11G 9G32G12G31G30G17G20G14G22
  23278507.246    23278506.438    23278505.994    -9912249.049 3  -7723827.172 3
        23.400          23.000
  22577296.010    22577295.988    22577293.978   -12029768.212 5  -9373841.666 4
        32.600          28.400
  24513150.574    24513149.095    24513147.443    -1770337.894    -1379477.541 1
                        11.000
  22683479.643    22683478.888    22683478.820   -13081292.447 5 -10193212.587 5
        33.000          31.300
  23670998.629    23670998.270    23670996.495    -7338805.737 4  -5718548.143 4
        25.600          26.500
  22167716.283    22167716.267    22167714.252   -15153639.631 6 -11808026.023 6
        37.500          36.300
  23661010.137    23661010.194    23661010.197    -7015653.832 3  -5466741.088 3
        21.100          22.100
  24948132.682    24948131.954    24948130.402    -1776259.429 2  -1384096.511 1
        12.600          11.000
  24748449.449    24748449.282    24748447.071     -656266.389 1   -511376.834 1
         9.000           6.500
  20464968.485    20464967.997    20464966.166   -25013067.764 6 -19490691.476 7
        39.900          46.900
  22162970.410    22162970.094    22162967.051   -15758746.334 5 -12279534.291 5
        34.400          33.600
 09  1 31  1 46  0.0000000  0 11G 5G11G 9G32G12G31G30G17G20G14G22
  23271019.536    23271018.802    23271018.126    -9951598.903 4  -7754489.389 3
        24.200          23.800
  22578023.949    22578023.597    22578021.479   -12025945.826 5  -9370863.185 4
        33.000          28.600
  24535923.703    24535922.792    24535922.491    -1650659.561    -1286221.792 1
                        11.000
  22668054.048    22668053.405    22668053.432   -13162353.727 5 -10256377.200 5
        33.800          31.600
  23666116.359    23666116.614    23666114.400    -7364460.449 4  -5738538.827 4
        25.600          26.200
  22150587.816    22150587.847    22150585.907   -15243650.153 6 -11878164.078 6
        37.700          36.300
  23644885.859    23644886.207    23644885.579    -7100388.661 3  -5532768.205 3
        22.100          22.100
  24945038.224    24945038.992    24945036.298    -1792514.541 1  -1396762.980 1
         6.500          11.000
  24727673.251    24727672.669    24727672.606     -765444.714 1   -596450.816 1
         9.000           9.000
  20469143.763    20469143.203    20469142.251   -24991126.354 6 -19473594.272 7
        39.800          46.800
  22179115.076    22179114.952    22179111.921   -15673904.258 5 -12213423.594 5
        34.100          33.400
 09  1 31  1 46 30.0000000  0 11G 5G11G 9G32G12G31G30G17G20G14G22
  23263642.927    23263641.922    23263641.448    -9990363.620 3  -7784695.649 4
        23.800          24.200
  22578863.780    22578863.297    22578861.027   -12021534.343 5  -9367425.660 4
        33.100          28.800
  24558736.796    24558736.003    24558733.887    -1530781.719    -1192810.553 1
                        11.000
  22652669.307    22652668.581    22652668.843   -13243200.935 5 -10319375.016 5
        33.400          31.800
  23661343.305    23661343.749    23661341.749    -7389538.910 4  -5758080.470 4
        24.600          25.600
  22133529.967    22133530.062    22133528.241   -15333288.731 6 -11948012.312 6
        37.700          36.400
  23628831.280    23628831.728    23628830.552    -7184759.757 3  -5598511.917 3
        23.400          22.100
  24942054.774    24942055.229    24942052.905    -1808199.478 2  -1408984.948 2
        15.100          15.100
  24706909.951    24706909.177    24706910.909     -874546.951 1   -681465.517 1
         9.000           6.500
  20473398.836    20473398.355    20473396.534   -24968765.961 6 -19456170.588 7
        39.900          47.000
  22195317.303    22195317.015    22195313.859   -15588762.340 5 -12147079.249 5
        33.900          33.200
 09  1 31  1 47  0.0000000  0 11G 5G11G 9G32G12G31G30G17G20G14G22
  23256375.365    23256374.539    23256373.832   -10028554.095 3  -7814454.459 3
        23.800          23.800
  22579812.547    22579812.214    22579810.128   -12016547.243 5  -9363539.605 4
        33.200          29.000
  24581582.098    24581579.484    24581581.532    -1410720.014    -1099256.043 2
                        12.600
  22637323.460    22637322.681    22637322.450   -13323845.400 5 -10382214.844 5
        33.400          32.100
  23656680.063    23656679.552    23656676.789    -7414053.236 4  -5777182.531 4
        24.900          25.600
  22116541.071    22116541.048    22116539.142   -15422566.133 6 -12017579.106 6
        37.700          36.400
  23612842.414    23612842.817    23612842.438    -7268776.870 3  -5663979.786 3
        21.100          22.100
  24939174.868    24939175.072    24939174.620    -1823326.299 1  -1420771.990 2
         9.000          17.000
  24686162.862    24686159.774    24686162.225     -983584.598 1   -766429.888 1
        11.000           9.000
  20477731.112    20477730.558    20477729.298   -24946000.248 6 -19438431.071 7
        40.000          47.200
  22211573.620    22211573.335    22211570.294   -15503334.631 5 -12080512.218 5
        33.600          33.500
 09  1 31  1 47 30.0000000  0 11G 5G11G 9G32G12G31G30G17G20G14G22
  23249218.866    23249218.161    23249217.545   -10066162.623 4  -7843759.792 3
        24.200          23.800
  22580872.068    22580871.952    22580869.640   -12010978.642 5  -9359200.442 4
        33.400          28.600
  24604463.270    24604462.595    24604464.188    -1290471.542    -1005555.959 1
         3.000          11.000
  22622017.280    22622016.442    22622016.269   -13404279.743 5 -10444890.931 5
        33.800          32.100
  23652122.632    23652122.592    23652120.821    -7437995.206 4  -5795838.624 4
        24.600          25.900
  22099622.247    22099622.441    22099620.681   -15511474.263 6 -12086858.159 6
        37.800          36.600
  23596923.510    23596924.236    23596923.851    -7352430.810 3  -5729164.634 3
        19.900          22.600
  24936405.198    24936404.796    24936404.343    -1837888.640 1  -1432119.273 2
         6.500          17.000
  24665428.209    24665426.719    24665425.474    -1092549.764 2   -851337.761 1
        12.600           9.000
  20482141.423    20482140.842    20482139.014   -24922823.943 6 -19420371.612 7
        40.000          47.300
  22227885.093    22227884.888    22227881.878   -15417616.572 5 -12013718.936 5
        33.800          33.200
 09  1 31  1 48  0.0000000  0 11G 5G11G 9G32G12G31G30G17G20G14G22
  23242170.798    23242170.231    23242169.711   -10103199.290 4  -7872619.530 3
        24.200          23.800
  22582039.982    22582039.645    22582037.654   -12004841.183 5  -9354418.014 4
        33.200          28.800
  24627379.787    24627379.214    24627379.341    -1170051.893     -911722.556 1
         3.000          11.000
  22606749.131    22606748.364    22606748.203   -13484514.248 5 -10507411.316 5
        34.000          32.300
  23647673.967    23647674.059    23647671.540    -7461376.237 4  -5814057.605 4
        25.300          26.500
  22082772.142    22082772.163    22082770.372   -15600022.783 6 -12155856.984 6
        37.700          36.700
  23581073.680    23581073.731    23581072.572    -7435730.140 3  -5794073.205 3
        22.600          22.600
  24933739.236    24933738.689    24933736.150    -1851898.020 1  -1443035.723 2
        11.000          13.900
  24644703.908    24644702.834    24644701.748    -1201452.491 2   -936196.978 1
        12.600           9.000
  20486627.373    20486626.832    20486625.496   -24899249.854 6 -19402002.191 7
        40.100          47.400
  22244249.479    22244249.081    22244246.381   -15331621.398 5 -11946709.716 5
        33.400          33.100
 09  1 31  1 48 30.0000000  0 11G 5G11G 9G32G12G31G30G17G20G14G22
  23235233.310    23235232.444    23235231.553   -10139659.192 4  -7901029.832 4
        24.600          24.200
  22583316.433    22583316.178    22583314.279   -11998132.141 5  -9349190.182 4
        33.000          28.800
  24650328.675    24650327.900    24650327.322    -1049460.313     -817755.158 1
         3.000           9.000
  22591519.866    22591519.055    22591519.149   -13564544.265 5 -10569772.358 5
        33.900          32.400
  23643332.242    23643332.298    23643330.077    -7484191.969 4  -5831836.086 4
        25.900          27.100
  22065991.668    22065991.553    22065989.531   -15688206.369 6 -12224571.449 6
        38.000          36.800
  23565289.915    23565289.994    23565289.129    -7518668.644 3  -5858700.584 3
        21.100          22.100
  24931178.607    24931179.071    24931178.836    -1865350.970 1  -1453518.503 2
        11.000          16.100
  24623993.853    24623992.312    24623990.910    -1310288.166 2  -1021003.948 1
        13.900          11.000
  20491189.524    20491189.005    20491187.256   -24875275.651 6 -19383320.994 7
        40.200          47.500
  22260667.038    22260666.583    22260663.896   -15245346.960 5 -11879482.894 5
        33.400          33.400
 09  1 31  1 49  0.0000000  0 11G 5G11G 9G32G12G31G30G17G20G14G22
  23228406.468    23228405.676    23228405.601   -10175528.948 3  -7928980.285 4
        23.400          24.200
  22584704.130    22584703.918    22584702.125   -11990840.599 5  -9343508.461 4
        33.100          29.200
  24673313.392    24673312.040    24673309.621     -928688.066     -723646.974 1
         3.000           9.000
  22576331.948    22576331.164    22576331.252   -13644356.749 5 -10631963.894 5
        34.000          32.300
  23639101.046    23639100.791    23639098.097    -7506429.627 4  -5849164.136 4
        25.900          27.100
  22049282.731    22049282.885    22049280.636   -15776011.466 6 -12292990.990 6
        38.300          36.800
  23549579.337    23549579.528    23549577.677    -7601231.696 3  -5923035.425 3
        21.600          22.100
  24928726.110    24928726.956    24928727.573    -1878235.506 1  -1463558.406 2
         9.000          17.800
  24603297.102    24603296.324    24603295.684    -1419043.411 2  -1105748.270 1
        15.100           9.000
  20495829.888    20495829.298    20495827.990   -24850890.524 6 -19364319.598 7
        40.200          47.600
  22277139.610    22277139.234    22277136.315   -15158783.533 5 -11812030.882 5
        33.600          33.100
 09  1 31  1 49 30.0000000  0 11G 5G11G 9G32G12G31G30G17G20G14G22
  23221693.496    23221692.679    23221692.204   -10210808.733 4  -7956471.017 4
        24.600          24.600
  22586202.223    22586201.716    22586200.038   -11982968.696 5  -9337374.504 4
        32.800          29.500
  24696332.126    24696329.993    24696327.054     -807740.079     -629401.880 1
                         6.500
  22561185.249    22561184.724    22561184.654   -13723951.957 5 -10693986.127 5
        33.900          32.400
  23634978.549    23634978.604    23634976.426    -7528089.615 4  -5866042.042 4
        25.600          27.100
  22032646.220    22032646.217    22032643.961   -15863437.504 6 -12361115.168 6
        38.400          36.800
  23533938.972    23533939.311    23533939.094    -7683417.850 3  -5987076.596 3
        21.600          23.000
  24926379.743    24926380.559    24926380.138    -1890553.350 1  -1473156.680 2
         9.000          15.100
  24582616.563    24582616.861    24582616.399    -1527718.191 2  -1190429.872 1
        17.000           9.000
  20500547.752    20500547.197    20500545.607   -24826097.530 6 -19345000.383 7
        40.200          47.500
  22293666.366    22293666.212    22293663.252   -15071933.561 5 -11744355.590 5
        33.500          33.100
 09  1 31  1 50  0.0000000  0 11G 5G11G 9G32G12G31G30G17G20G14G22
  23215091.063    23215090.236    23215089.766   -10245505.134 4  -7983507.164 4
        24.900          24.600
  22587808.576    22587808.372    22587806.426   -11974525.787 5  -9330795.614 4
        32.800          29.000
  24719378.840    24719376.711    24719374.342     -686627.555     -535028.605 1
                         6.500
  22546079.200    22546078.575    22546078.277   -13803336.758 5 -10755844.402 5
        34.400          32.600
  23630965.546    23630965.213    23630963.366    -7549179.321 4  -5882475.581 4
        24.900          26.500
  22016080.418    22016080.487    22016078.248   -15950491.072 6 -12428949.105 6
        38.500          37.000
  23518370.934    23518370.813    23518370.222    -7765232.180 3  -6050827.993 3
        21.600          23.400
  24924145.661    24924146.131    24924144.157    -1902311.937 2  -1482319.232 2
        17.800          15.100
  24561951.887    24561950.820    24561950.171    -1636318.993 2  -1275053.856 1
        17.800          11.000
  20505341.572    20505341.101    20505339.667   -24800905.710 6 -19325370.393 7
        40.200          47.500
  22310246.043    22310245.751    22310242.870   -14984807.072 5 -11676464.832 5
        33.200          33.000
 09  1 31  1 50 30.0000000  0 11G 5G11G 9G32G12G31G30G17G20G14G22
  23208599.136    23208598.909    23208598.307   -10279615.382 4  -8010086.589 4
        24.600          24.200
  22589524.277    22589523.964    22589521.994   -11965510.809 5  -9323770.951 4
        32.800          29.200
  24742454.936    24742453.015    24742450.830     -565352.509     -440528.673
                         3.000
  22531013.443    22531012.681    22531012.279   -13882508.382 5 -10817536.567 5
        34.700          32.400
  23627060.717    23627060.835    23627059.064    -7569696.584 4  -5898463.043 4
        24.200          26.800
  21999586.022    21999586.140    21999584.077   -16037168.730 6 -12496490.126 6
        38.600          37.200
  23502873.671    23502873.587    23502872.515    -7846670.266 3  -6114286.231 3
        21.600          23.400
  24922014.068    24922013.921    24922012.173    -1913510.202 2  -1491045.127 1
        13.900          11.000
  24541301.030    24541299.458    24541298.717    -1744843.294 3  -1359618.217 1
        18.600           9.000
  20510211.344    20510210.895    20510209.270   -24775314.605 6 -19305429.270 7
        40.300          47.500
  22326878.367    22326878.051    22326874.977   -14897404.354 5 -11608358.826 5
        33.100          32.600
 09  1 31  1 51  0.0000000  0 11G 5G11G 9G32G12G31G30G17G20G14G22
  23202220.772    23202219.941    23202219.539   -10313140.053 4  -8036209.686 4
        24.200          24.600
  22591347.609    22591347.549    22591345.801   -11955926.802 5  -9316302.889 4
        32.300          29.200
  24765560.737    24765559.160    24765557.094     -443920.141     -345906.167
                         3.000
  22515987.722    22515986.976    22515986.874   -13961467.570 5 -10879063.198 5
        34.400          32.400
  23623265.306    23623265.606    23623263.531    -7589642.996 4  -5914005.711 4
        25.300          27.100
  21983163.441    21983163.455    21983161.323   -16123470.787 6 -12563738.467 6
        38.700          37.200
  23487448.265    23487448.242    23487447.475    -7927731.478 3  -6177450.768 3
        22.600          23.800
  24919987.537    24919987.001    24919987.846    -1924150.392    -1499336.138 2
         3.000          13.900
  24520663.204    24520662.462    24520661.183    -1853291.384 3  -1444123.183 1
        18.600           9.000
  20515156.501    20515156.029    20515154.639   -24749327.603 6 -19285179.656 7
        40.300          47.500
  22343562.650    22343562.203    22343559.101   -14809728.908 5 -11540040.305 5
        32.700          32.600
 09  1 31  1 51 30.0000000  0 11G 5G11G 9G32G12G31G30G17G20G14G22
  23195953.448    23195952.634    23195952.189   -10346072.550 4  -8061871.374 4
        24.200          24.600
  22593281.044    22593280.711    22593278.817   -11945769.449 5  -9308388.066 4
        32.300          29.500
  24788698.565    24788696.013    24788696.579     -322328.422     -251159.428
         3.000           3.000
  22501003.620    22501003.144    22501002.852   -14040208.013 5 -10940419.381 5
        34.400          32.300
  23619580.084    23619579.704    23619577.435    -7609012.296 4  -5929098.658 4
        24.900          26.800
  21966813.641    21966813.733    21966811.423   -16209390.057 6 -12630688.537 6
        39.100          37.200
  23472095.628    23472096.011    23472095.657    -8008408.142 3  -6240315.689 4
        23.000          24.200
  24918073.294    24918071.572    24918071.561    -1934227.133 1  -1507188.123 3
         9.000          19.300
  24500040.809    24500040.816    24500038.706    -1961656.288 2  -1528563.363 1
        17.800           9.000
  20520177.872    20520177.426    20520175.796   -24722940.303 6 -19264618.121 7
        40.400          47.400
  22360299.033    22360298.797    22360295.953   -14721777.243 5 -11471506.554 5
        32.600          32.700
 09  1 31  1 52  0.0000000  0 11G 5G11G 9G32G12G31G30G17G20G14G22
  23189800.070    23189799.400    23189798.775   -10378411.060 4  -8087070.194 4
        24.900          24.900
  22595322.436    22595322.184    22595320.429   -11935039.362 5  -9300026.959 4
        31.800          29.000
  24811865.722    24811864.215    24811863.540     -200579.704     -156290.354
         3.000
  22486061.874    22486061.159    22486061.273   -14118727.745 5 -11001603.577 5
        34.300          32.800
  23616003.602    23616003.663    23616001.798    -7627802.630 4  -5943740.474 4
        24.200          26.800
  21950536.841    21950536.913    21950534.672   -16294924.596 6 -12697338.820 6
        39.100          37.200
  23456817.759    23456817.771    23456816.733    -8088696.425 3  -6302877.979 3
        22.600          23.800
  24916260.585    24916262.304    24916260.654    -1943739.926 1  -1514600.702 2
        11.000          17.000
  24479436.121    24479435.603    24479433.840    -2069936.246 3  -1612937.339 1
        18.600           9.000
  20525275.261    20525274.817    20525273.263   -24696153.600 6 -19243745.365 7
        40.500          47.400
  22377088.118    22377087.832    22377084.952   -14633550.531 5 -11402758.480 5
        32.600          32.600
 09  1 31  1 52 30.0000000  0 10G 5G11G32G12G31G30G17G20G14G22
  23183757.076    23183755.855    23183756.074   -10410164.387 3  -8111813.033 4
        23.400          24.600
  22597471.592    22597471.042    22597469.406   -11923747.518 5  -9291228.114 4
        32.000          29.500
  22471160.601    22471159.855    22471159.816   -14197035.840 5 -11062622.858 5
        34.900          33.000
  23612537.239    23612536.774    23612534.409    -7646023.966 4  -5957938.922 4
        24.600          26.800
  21934332.088    21934331.953    21934329.741   -16380082.478 6 -12763695.598 6
        39.200          37.300
  23441611.277    23441611.438    23441611.386    -8168603.843 3  -6365143.495 4
        21.100          24.600
  24914557.254    24914556.534    24914555.770    -1952698.819 1  -1521581.639 2
         9.000          13.900
  24458846.074    24458845.281    24458844.386    -2178139.908 2  -1697251.834 1
        17.800           9.000
  20530446.414    20530445.961    20530444.422   -24668978.689 6 -19222570.108 7
        40.500          47.400
  22393927.345    22393926.935    22393923.911   -14545060.020 5 -11333804.844 5
        32.600          32.100
 09  1 31  1 53  0.0000000  0 10G 5G11G32G12G31G30G17G20G14G22
  23177827.076    23177826.321    23177826.025   -10441326.799 3  -8136095.425 4
        23.800          24.600
  22599727.788    22599727.511    22599725.885   -11911890.335 5  -9281988.752 4
        32.000          29.500
  22456300.214    22456299.602    22456299.408   -14275126.271 5 -11123472.536 5
        34.900          32.700
  23609179.247    23609178.740    23609176.207    -7663671.126 4  -5971689.967 4
        25.300          26.800
  21918199.488    21918199.586    21918197.583   -16464857.377 6 -12829753.951 6
        39.100          37.400
  23426479.783    23426479.842    23426479.413    -8248122.873 3  -6427106.342 4
        22.600          24.900
  24912957.727    24912958.852    24912957.797    -1961099.492 1  -1528127.552 2
         9.000          13.900
  24438271.232    24438270.829    24438268.649    -2286261.129 2  -1781502.115 1
        17.800           9.000
  20535692.197    20535691.735    20535690.125   -24641412.176 6 -19201089.709 7
        40.600          47.300
  22410817.365    22410816.906    22410813.743   -14456302.955 5 -11264643.509 5
        32.700          31.800
 09  1 31  1 53 30.0000000  0 10G 5G11G32G12G31G30G17G20G14G22
  23172013.218    23172012.343    23172011.549   -10471880.469 4  -8159903.465 4
        24.200          24.600
  22602094.526    22602094.027    22602092.576   -11899452.182 5  -9272296.686 4
        31.500          29.000
  22441484.897    22441484.095    22441484.010   -14352981.365 5 -11184138.837 5
        34.700          32.700
  23605932.821    23605932.291    23605930.710    -7680727.003 4  -5984980.250 4
        24.600          26.500
  21902143.788    21902143.829    21902141.804   -16549231.182 6 -12895499.764 6
        39.300          37.600
  23411425.579    23411425.601    23411423.971    -8327233.951 3  -6488751.323 3
        23.000          23.400
  24911468.644    24911468.144    24911467.495    -1968925.712 2  -1534225.823 2
        12.600          15.100
  24417716.012    24417715.375    24417713.318    -2394282.008 3  -1865674.236 1
        19.300           9.000
  20541015.512    20541014.925    20541013.273   -24613438.825 6 -19179292.290 7
        40.700          47.200
  22427760.613    22427760.431    22427757.147   -14367264.792 5 -11195263.125 5
        32.700          31.600
 09  1 31  1 54  0.0000000  0 10G 5G11G32G12G31G30G17G20G14G22
  23166313.486    23166312.798    23166312.481   -10501831.476 4  -8183241.911 4
        24.900          24.900
  22604570.610    22604570.272    22604568.493   -11886441.380 5  -9262158.405 4
        31.800          29.000
  22426713.318    22426712.589    22426712.363   -14430607.165 5 -11244626.463 5
        35.400          33.000
  23602798.711    23602798.350    23602796.349    -7697198.229 4  -5997814.974 4
        24.900          26.800
  21886163.117    21886163.202    21886161.189   -16633209.410 6 -12960937.336 6
        39.100          37.600
  23396447.875    23396447.800    23396446.577    -8405942.296 3  -6550082.486 3
        23.400          23.400
  24910088.334    24910088.146    24910087.396    -1976184.973 2  -1539882.428 3
        16.100          21.100
  24397178.202    24397177.858    24397176.127    -2502208.387 3  -1949772.695 1
        19.300           9.000
  20546414.354    20546413.859    20546412.194   -24585067.082 6 -19157184.437 7
        40.600          47.000
  22444755.770    22444755.472    22444752.652   -14277954.445 5 -11125670.661 5
        32.000          32.300
 09  1 31  1 54 30.0000000  0 10G 5G11G32G12G31G30G17G20G14G22
  23160729.370    23160728.358    23160728.629   -10531175.962 3  -8206107.726 4
        23.800          25.300
  22607155.767    22607155.298    22607153.480   -11872856.664 5  -9251572.916 4
        31.800          28.800
  22411985.718    22411985.071    22411984.999   -14507999.756 5 -11304932.382 5
        35.100          33.100
  23599775.902    23599775.825    23599774.001    -7713081.489 4  -6010191.540 4
        24.200          27.100
  21870258.983    21870259.035    21870256.908   -16716787.578 6 -13026063.171 6
        39.300          38.000
  23381547.790    23381547.948    23381547.661    -8484242.200 4  -6611095.371 4
        24.200          24.900
  24908814.526    24908814.576    24908813.265    -1982874.712 2  -1545095.142 3
        15.100          19.900
  24376659.395    24376658.546    24376656.439    -2610035.984 3  -2033794.187 1
        19.300          11.000
  20551889.414    20551888.859    20551887.267   -24556295.462 6 -19134764.994 7
        40.600          47.000
  22461803.043    22461802.743    22461799.909   -14188370.604 5 -11055865.092 5
        31.800          32.100
 09  1 31  1 55  0.0000000  0 10G 5G11G32G12G31G30G17G20G14G22
  23155259.191    23155258.572    23155257.897   -10559922.182 4  -8228507.375 4
        24.600          24.900
  22609847.926    22609847.724    22609846.031   -11858708.210 5  -9240548.150 4
        31.800          29.000
  22397301.536    22397300.751    22397300.635   -14585167.249 5 -11365062.880 5
        35.500          33.600
  23596863.550    23596863.613    23596861.738    -7728385.448 4  -6022116.700 4
        24.900          27.400
  21854429.119    21854429.287    21854427.324   -16799973.427 6 -13090883.302 6
        39.500          38.300
  23366724.294    23366724.378    23366723.251    -8562140.020 4  -6671794.943 4
        24.200          24.600
  24907648.167    24907648.137    24907646.403    -1989004.396 2  -1549871.505 2
        15.100          15.100
  24356157.464    24356156.261    24356155.121    -2717772.468 3  -2117744.659 1
        18.600          11.000
  20557438.567    20557438.039    20557436.531   -24527134.557 6 -19112042.210 7
        40.700          47.100
  22478900.138    22478899.759    22478896.874   -14098524.454 5 -10985855.112 5
        31.800          31.500
 09  1 31  1 55 30.0000000  0 10G 5G11G32G12G31G30G17G20G14G22
  23149903.102    23149902.207    23149902.048   -10588068.736 4  -8250439.744 4
        24.600          25.300
  22612647.546    22612647.157    22612645.307   -11843997.014 5  -9229084.878 4
        31.800          29.200
  22382660.123    22382659.532    22382659.296   -14662108.224 5 -11425016.880 5
        35.700          33.500
  23594061.833    23594061.693    23594060.131    -7743109.627 4  -6033590.090 4
        25.300          27.900
  21838674.386    21838674.498    21838672.367   -16882764.880 6 -13155396.110 6
        39.500          38.200
  23351978.022    23351978.171    23351977.071    -8639632.844 4  -6732178.962 4
        24.900          24.600
  24906586.747    24906587.043    24906584.172    -1994574.514 2  -1554211.771 1
        12.600          11.000
  24335672.876    24335671.819    24335670.795    -2825416.428 2  -2201623.032 1
        17.800          11.000
  20563061.506    20563061.037    20563059.471   -24497585.675 6 -19089017.106 7
        40.700          47.000
  22496046.911    22496046.647    22496043.754   -14008417.486 5 -10915641.895 5
        31.500          31.600
 09  1 31  1 56  0.0000000  0 10G 5G11G32G12G31G30G17G20G14G22
  23144661.162    23144660.176    23144660.064   -10615614.570 4  -8271904.008 4
        24.600          24.900
  22615553.592    22615553.401    22615551.708   -11828724.487 5  -9217184.206 4
        32.000          29.200
  22368061.824    22368061.337    22368061.359   -14738821.342 5 -11484793.332 5
        35.500          33.600
  23591370.486    23591370.096    23591368.234    -7757253.180 4  -6044611.034 4
        25.600          27.600
  21822994.903    21822994.991    21822992.935   -16965160.645 6 -13219600.593 6
        39.500          38.300
  23337309.336    23337309.242    23337308.733    -8716717.831 3  -6792245.164 4
        23.800          25.600
  24905635.685    24905634.751    24905633.660    -1999584.882 2  -1558115.897 2
        12.600          16.100
  24315206.264    24315205.664    24315205.468    -2932965.984 2  -2285427.863 2
        17.800          12.600
  20568758.223    20568757.683    20568756.050   -24467649.652 6 -19065690.335 7
        40.700          46.900
  22513243.176    22513242.784    22513239.790   -13918051.537 5 -10845226.888 5
        31.300          31.600
 09  1 31  1 56 30.0000000  0 10G 5G11G32G12G31G30G17G20G14G22
  23139534.764    23139533.848    23139533.242   -10642556.217 4  -8292897.508 4
        25.300          24.600
  22618567.173    22618566.934    22618564.864   -11812889.126 5  -9204844.968 4
        32.400          28.800
  22353508.655    22353507.614    22353507.415   -14815302.997 5 -11544389.420 5
        35.700          33.800
  23588790.663    23588790.150    23588787.701    -7770813.576 4  -6055177.565 4
        25.900          27.100
  21807391.727    21807391.737    21807389.632   -17047156.589 6 -13283493.526 6
        39.700          38.400
  23322718.965    23322718.825    23322718.201    -8793390.047 4  -6851989.717 4
        24.200          24.900
  24904788.500    24904788.895    24904786.873    -2004033.458 2  -1561582.286 3
        12.600          18.600
  24294759.441    24294758.578    24294758.303    -3040417.465 2  -2369156.251 2
        17.800          12.600
  20574528.558    20574528.110    20574526.541   -24437325.652 6 -19042061.244 7
        40.800          46.800
  22530488.650    22530488.470    22530485.168   -13827425.961 5 -10774609.573 5
        31.500          31.100
 09  1 31  1 57  0.0000000  0 10G 5G11G32G12G31G30G17G20G14G22
  23134523.872    23134523.012    23134522.881   -10668885.846 4  -8313414.092 4
        24.600          24.600
  22621688.828    22621688.618    22621686.637   -11796485.114 5  -9192062.613 4
        32.700          29.000
  22339000.215    22338999.359    22338998.868   -14891545.126 6 -11603798.865 5
        36.100          33.800
  23586321.936    23586321.719    23586319.728    -7783783.418 4  -6065283.925 4
        25.900          26.800
  21791866.296    21791866.243    21791864.000   -17128744.035 6 -13347068.149 6
        39.800          38.400
  23308208.829    23308208.943    23308208.072    -8869640.063 4  -6911405.307 4
        24.600          24.600
  24904048.240    24904048.139    24904047.944    -2007913.838 1  -1564606.012 3
        11.000          19.300
  24274332.307    24274331.380    24274331.120    -3147762.542 2  -2452801.746 2
        17.800          13.900
  20580373.944    20580373.506    20580371.890   -24406607.795 6 -19018125.250 7
        40.800          46.800
  22547784.511    22547784.260    22547781.033   -13736535.232 5 -10703785.640 5
        31.300          30.800
 09  1 31  1 57 30.0000000  0 10G 5G11G32G12G31G30G17G20G14G22
  23129629.401    23129628.392    23129627.444   -10694610.343 4  -8333459.153 4
        24.900          24.600
  22624916.975    22624916.491    22624914.481   -11779521.917 5  -9178844.532 4
        32.400          28.800
  22324535.611    22324534.960    22324534.900   -14967554.517 5 -11663026.954 5
        35.800          33.900
  23583964.411    23583964.367    23583962.369    -7796169.992 4  -6074935.808 4
        25.900          26.500
  21776417.271    21776417.162    21776414.984   -17209929.296 6 -13410329.381 6
        40.000          38.400
  23293778.207    23293778.284    23293777.498    -8945473.151 4  -6970496.004 4
        24.600          24.600
  24903417.787    24903418.039    24903417.964    -2011234.452 2  -1567193.517 3
        15.100          19.300
  24253924.969    24253923.731    24253922.525    -3255007.513 2  -2536369.213 2
        17.000          15.100
  20586292.525    20586292.107    20586290.617   -24375505.227 6 -18993889.481 7
        40.700          46.700
  22565128.873    22565128.693    22565125.829   -13645389.119 5 -10632762.703 5
        31.100          31.300
 09  1 31  1 58  0.0000000  0 10G 5G11G32G12G31G30G17G20G14G22
  23124850.850    23124849.999    23124849.746   -10719719.114 4  -8353024.417 4
        24.900          24.900
  22628252.524    22628252.300    22628250.311   -11761991.128 5  -9165184.169 4
        32.000          28.600
  22310118.013    22310117.275    22310117.163   -15043320.168 6 -11722065.119 5
        36.100          33.800
  23581720.798    23581720.726    23581718.060    -7807963.458 4  -6084125.539 4
        25.900          26.500
  21761046.747    21761046.814    21761044.533   -17290701.408 6 -13473268.683 6
        40.100          38.500
  23279428.993    23279429.436    23279428.537    -9020877.002 4  -7029252.230 4
        25.300          24.600
  24902894.877    24902894.026    24902892.876    -2013985.843 2  -1569337.340 2
        15.100          15.100
  24233537.607    24233537.434    24233535.498    -3362141.295 3  -2619850.062 2
        19.900          15.100
  20592286.007    20592285.522    20592283.933   -24344009.751 6 -18969347.551 7
        40.700          46.600
  22582523.898    22582523.367    22582520.582   -13553979.941 5 -10561534.781 5
        30.800          31.300
 09  1 31  1 58 30.0000000  0 10G 5G11G32G12G31G30G17G20G14G22
  23120189.798    23120188.874    23120188.254   -10744214.703 4  -8372111.882 4
        24.600          24.600
  22631695.757    22631695.596    22631693.897   -11743897.521 5  -9151085.246 4
        32.300          29.200
  22295746.359    22295745.648    22295745.398   -15118844.427 6 -11780915.187 5
        36.500          33.800
  23579588.402    23579588.149    23579586.631    -7819167.158 4  -6092855.694 4
        25.300          27.100
  21745754.457    21745754.494    21745752.387   -17371062.132 6 -13535887.421 6
        39.900          38.700
  23265161.874    23265161.918    23265160.972    -9095852.342 4  -7087674.554 4
        24.600          24.600
  24902478.847    24902478.813    24902475.315    -2016172.164 2  -1571040.984 1
        15.100          11.000
  24213171.344    24213171.402    24213169.502    -3469165.917 3  -2703245.861 2
        19.300          16.100
  20598353.165    20598352.712    20598351.203   -24312126.072 6 -18944503.125 7
        40.700          46.600
  22599967.343    22599967.120    22599964.325   -13462312.856 5 -10490105.903 5
        30.400          31.300
 09  1 31  1 59  0.0000000  0 10G 5G11G32G12G31G30G17G20G14G22
  23115644.235    23115643.297    23115642.888   -10768100.415 4  -8390724.110 3
        24.900          23.800
  22635244.944    22635244.616    22635242.843   -11725246.703 5  -9136552.144 4
        32.000          29.000
  22281419.787    22281418.913    22281418.963   -15194130.200 6 -11839579.427 5
        36.200          33.600
  23577568.162    23577568.229    23577565.778    -7829785.281 4  -6101129.543 4
        25.900          27.100
  21730539.971    21730540.076    21730537.994   -17451014.188 6 -13598187.711 6
        40.000          38.800
  23250975.700    23250975.932    23250974.980    -9170400.894 4  -7145764.301 4
        25.300          24.200
  24902168.137    24902167.940    24902168.652    -2017798.117 1  -1572307.849 2
        11.000          12.600
  24192825.873    24192824.980    24192823.816    -3576083.916 3  -2786558.555 2
        19.900          16.100
  20604493.467    20604492.913    20604491.328   -24279859.712 6 -18919360.506 7
        40.900          46.500
  22617458.924    22617458.804    22617456.012   -13370393.770 5 -10418480.658 5
        30.200          31.300
 09  1 31  1 59 30.0000000  0 10G 5G11G32G12G31G30G17G20G14G22
  23111215.760    23111214.871    23111214.402   -10791373.789 4  -8408859.209 4
        25.600          24.600
  22638899.971    22638899.829    22638897.777   -11706038.294 5  -9121584.555 4
        32.000          28.400
  22267139.253    22267138.530    22267138.291   -15269174.807 6 -11898055.738 5
        36.400          33.900
  23575659.703    23575659.253    23575657.104    -7839814.978 4  -6108944.903 4
        25.900          26.800
  21715404.201    21715404.250    21715402.158   -17530554.124 6 -13660166.873 6
        40.200          39.100
  23236871.999    23236872.147    23236870.936    -9244518.138 4  -7203517.988 4
        26.200          24.200
  24901965.070    24901965.014    24901964.603    -2018862.380 1  -1573137.095 2
         6.500          12.600
  24172501.334    24172500.344    24172499.376    -3682892.169 3  -2869785.719 2
        20.500          17.000
  20610706.389    20610705.864    20610704.220   -24247210.498 6 -18893919.557 7
        40.900          46.400
  22634998.384    22634998.128    22634995.472   -13278223.123 5 -10346659.392 5
        30.400          30.800
                            4 15
RINEX FILE SPLICE                                           COMMENT
teqc  2008Oct2      WCDA Operator       20090131 03:18:26UTCCOMMENT
STATION INFORMATION EFFECTIVE FROM: 2001/01/13 18:20:00     COMMENT
                                TO: CURRENT DATE (above)    COMMENT
BIT 2 OF LLI FLAGS (+4) DATA COLLECTED UNDER 'AS' CONDITION COMMENT
L1 PHASE CENTRE 0.110m ABOVE ARP                            COMMENT
L2 PHASE CENTRE 0.128m ABOVE ARP                            COMMENT
where ARP is the Antenna Reference Point for HI measurement COMMENT
CONTACT gps@pgc.nrcan.gc.ca FOR ADDITIONAL INFORMATION      COMMENT
    P1 =    P1  TurboRogue; =    Y1  Benchmark              COMMENT
    L1 = L1(CA)                                             COMMENT
    P2 =    P2  TurboRogue; =    Y2  Benchmark              COMMENT
    L2 = L2(P2) TurboRogue; = L2(Y2) Benchmark              COMMENT
 SNR is mapped to RINEX snr flag value [0-9]                COMMENT
  L1 & L2: min(max(int(snr_dBHz/6), 0), 9)                  COMMENT
 09  1 31  2  0  0.0000000  0 10G 5G11G32G12G31G30G17G20G14G22
  23106903.706    23106902.845    23106902.231   -10814032.934 4  -8426515.689 4
        25.300          24.200
  22642661.503    22642661.368    22642659.227   -11686272.597 5  -9106182.717 4
        32.400          28.600
  22252905.241    22252904.498    22252904.191   -15343975.883 6 -11956342.291 5
        36.800          34.100
  23573863.110    23573862.617    23573860.464    -7849255.380 4  -6116301.061 4
        25.900          26.500
  21700347.132    21700347.170    21700345.225   -17609679.897 6 -13721823.310 6
        40.400          39.300
  23222850.344    23222850.681    23222849.685    -9318200.375 4  -7260932.706 4
        26.200          24.900
  24901870.881    24901870.616    24901870.218    -2019364.489    -1573528.314 2
         3.000          12.600
  24152197.285    24152196.243    24152195.491    -3789588.250 3  -2952925.502 2
        21.600          17.000
  20616992.043    20616991.458    20616990.009   -24214178.823 6 -18868180.591 7
        40.700          46.400
  22652585.894    22652585.559    22652582.622   -13185801.661 5 -10274642.677 5
        30.800          30.400
 09  1 31  2  0 30.0000000  0 10G 5G11G32G12G31G30G17G20G14G22
  23102710.361    23102709.705    23102709.440   -10836068.199 4  -8443686.024 4
        24.900          24.900
  22646530.293    22646529.952    22646527.902   -11665942.380 5  -9090340.983 4
        32.100          28.600
  22238719.255    22238718.484    22238718.559   -15418523.284 6 -12014431.174 5
        36.700          34.700
  23572180.488    23572180.201    23572178.046    -7858097.636 4  -6123191.135 4
        25.600          26.500
  21685370.835    21685370.800    21685368.804   -17688380.424 6 -13783148.384 6
        40.300          39.200
  23208914.095    23208914.393    23208913.459    -9391436.340 4  -7317999.655 4
        25.900          25.600
  24901883.938    24901884.201    24901880.775    -2019296.215    -1573475.094 2
         3.000          12.600
  24131916.479    24131915.758    24131915.831    -3896161.567 3  -3035969.634 2
        22.100          17.800
  20623352.002    20623351.505    20623349.955   -24180756.875 6 -18842137.513 7
        40.900          46.400
  22670222.177    22670222.022    22670218.991   -13093121.890 5 -10202424.676 5
        30.800          30.400
 09  1 31  2  1  0.0000000  0 10G 5G11G32G12G31G30G17G20G14G22
  23098634.669    23098633.908    23098634.067   -10857485.204 4  -8460374.588 4
        25.300          24.900
  22650504.933    22650504.637    22650502.726   -11645055.212 5  -9074065.264 4
        31.600          29.000
  22224580.387    22224579.649    22224579.699   -15492822.336 6 -12072326.528 5
        36.500          34.800
  23570610.194    23570609.907    23570608.066    -7866347.814 4  -6129619.854 4
        25.300          26.800
  21670474.482    21670474.568    21670472.325   -17766661.267 6 -13844146.437 6
        40.600          39.100
  23195062.489    23195062.548    23195061.335    -9464229.944 4  -7374721.926 4
        25.900          25.300
  24902004.739    24902004.092    24902000.728    -2018664.538 1  -1572982.797 2
         6.500          13.900
  24111658.813    24111658.179    24111658.076    -4002617.177 3  -3118922.025 3
        23.400          19.300
  20629784.842    20629784.264    20629782.745   -24146952.405 6 -18815796.366 7
        40.800          46.300
  22687905.857    22687905.764    22687902.898   -13000192.299 5 -10130012.021 5
        30.100          30.400
 09  1 31  2  1 30.0000000  0 10G 5G11G32G12G31G30G17G20G14G22
  23094676.386    23094675.799    23094674.868   -10878287.135 4  -8476583.880 4
        25.900          24.200
  22654584.400    22654584.249    22654582.606   -11623616.464 5  -9057359.749 4
        32.300          29.500
  22210488.586    22210487.853    22210487.755   -15566875.713 6 -12130030.448 5
        36.700          34.700
  23569152.163    23569152.065    23569149.932    -7874009.567 4  -6135590.059 4
        25.300          26.800
  21655657.718    21655657.762    21655655.505   -17844524.545 6 -13904819.117 6
        40.900          39.300
  23181293.711    23181293.876    23181292.615    -9536582.783 4  -7431100.740 4
        25.300          24.600
  24902228.008    24902229.528    24902230.303    -2017474.150    -1572055.246 2
         3.000          13.900
  24091422.751    24091422.305    24091421.942    -4108957.392 4  -3201784.504 3
        24.600          19.300
  20636289.287    20636288.777    20636287.288   -24112770.715 6 -18789161.283 7
        40.800          46.200
  22705636.510    22705636.271    22705633.132   -12907018.489 4 -10057409.075 5
        29.900          30.100
 09  1 31  2  2  0.0000000  0 10G 5G11G32G12G31G30G17G20G14G22
  23090836.171    23090835.341    23090835.133   -10898467.054 4  -8492308.491 4
        24.900          24.900
  22658770.258    22658769.929    22658767.843   -11601621.600 5  -9040220.896 4
        32.400          29.000
  22196444.875    22196444.211    22196444.014   -15640676.081 6 -12187537.227 5
        37.100          34.700
  23567807.800    23567807.414    23567805.212    -7881076.746 4  -6141096.942 4
        25.600          27.400
  21640921.507    21640921.605    21640919.622   -17921962.875 6 -13965160.661 6
        40.700          39.700
  23167611.338    23167611.459    23167610.111    -9608485.848 4  -7487129.081 4
        25.300          24.600
  24902565.283    24902565.360    24902562.068    -2015719.278 1  -1570687.820 2
         9.000          15.100
  24071210.397    24071210.053    24071209.660    -4215174.444 4  -3284551.014 3
        24.900          19.300
  20642866.756    20642866.138    20642864.565   -24078207.143 6 -18762228.628 7
        40.800          46.200
  22723413.955    22723413.831    22723410.807   -12813596.340 5  -9984612.599 4
        30.100          29.700
 09  1 31  2  2 30.0000000  0 10G 5G11G32G12G31G30G17G20G14G22
  23087113.768    23087112.792    23087112.536   -10918028.088 4  -8507550.845 4
        24.600          24.900
  22663060.102    22663059.896    22663058.211   -11579075.998 5  -9022652.888 4
        32.100          28.800
  22182449.065    22182448.163    22182448.155   -15714225.892 6 -12244848.764 5
        37.400          35.200
  23566575.251    23566575.080    23566573.143    -7887553.234 4  -6146143.561 4
        25.900          27.900
  21626265.896    21626266.048    21626264.096   -17998978.286 6 -14025172.660 6
        40.700          39.800
  23154013.700    23154013.802    23154012.727    -9679940.269 4  -7542807.831 4
        25.600          24.900
  24903002.876    24903003.727    24903006.174    -2013404.408 1  -1568884.040 2
         9.000          15.100
  24051021.374    24051020.671    24051020.058    -4321270.798 4  -3367223.470 3
        25.900          19.300
  20649515.477    20649514.978    20649513.450   -24043266.633 6 -18735002.256 7
        40.700          46.100
  22741237.782    22741237.400    22741234.528   -12719931.303 4  -9911626.868 4
        29.200          29.700
 09  1 31  2  3  0.0000000  0 10G 5G11G32G12G31G30G17G20G14G22
  23083510.296    23083509.244    23083509.074   -10936966.095 4  -8522307.730 4
        25.600          25.900
  22667455.903    22667455.495    22667453.797   -11555977.577 5  -9004654.111 4
        32.100          29.000
  22168501.310    22168500.421    22168500.371   -15787520.574 6 -12301961.498 5
        37.000          34.800
  23565455.983    23565455.866    23565453.679    -7893435.161 4  -6150726.876 4
        26.200          27.900
  21611691.765    21611691.779    21611689.812   -18075566.274 6 -14084851.601 6
        40.700          39.800
  23140502.638    23140502.809    23140502.040    -9750940.166 4  -7598132.412 4
        25.300          25.300
  24903553.378    24903553.732    24903552.938    -2010526.811 2  -1566641.737 1
        13.900          11.000
  24030855.754    24030854.897    24030854.390    -4427241.259 4  -3449797.832 3
        26.500          19.300
  20656236.433    20656236.013    20656234.530   -24007947.306 6 -18707480.700 7
        40.700          46.000
  22759108.083    22759107.936    22759104.933   -12626022.043 4  -9838450.840 5
        28.800          30.100
 09  1 31  2  3 30.0000000  0 10G 5G11G32G12G31G30G17G20G14G22
  23080024.348    23080023.633    23080023.470   -10955284.227 4  -8536581.590 4
        26.200          26.200
  22671955.263    22671954.939    22671953.452   -11532331.612 5  -8986228.688 4
        31.800          29.000
  22154601.632    22154600.948    22154600.890   -15860562.689 6 -12358877.425 5
        36.800          34.800
  23564448.907    23564449.012    23564446.825    -7898726.018 4  -6154849.627 4
        26.200          27.900
  21597198.386    21597198.525    21597196.391   -18151728.886 6 -14144199.086 6
        40.900          39.700
  23127078.225    23127078.409    23127077.353    -9821486.923 4  -7653103.883 4
        25.600          25.600
  24904205.194    24904204.821    24904205.166    -2007090.860 1  -1563964.259 1
        11.000           6.500
  24010713.948    24010713.162    24010712.380    -4533088.070 4  -3532275.855 3
        27.600          19.300
  20663028.593    20663028.123    20663026.703   -23972253.991 6 -18679667.725 7
        40.700          46.000
  22777023.959    22777023.793    22777021.036   -12531873.775 4  -9765088.575 5
        29.500          30.400
 09  1 31  2  4  0.0000000  0 10G 5G11G32G12G31G30G17G20G14G22
  23076657.756    23076657.049    23076656.659   -10972975.358 4  -8550366.889 4
        25.900          25.900
  22676559.893    22676559.691    22676557.987   -11508133.451 5  -8967372.975 4
        31.600          28.600
  22140751.874    22140751.237    22140751.212   -15933344.603 6 -12415590.601 5
        37.500          35.300
  23563556.295    23563555.992    23563553.815    -7903419.560 4  -6158506.918 4
        26.500          27.600
  21582787.763    21582787.756    21582785.598   -18227458.291 6 -14203209.006 6
        40.900          39.800
  23113741.423    23113741.518    23113740.557    -9891571.496 4  -7707715.213 4
        24.900          25.300
  24904968.317    24904967.962    24904963.783    -2003091.187 1  -1560847.539 1
         9.000           6.500
  23990597.191    23990596.281    23990595.703    -4638803.169 4  -3614651.237 3
        27.600          19.900
  20669893.010    20669892.595    20669891.132   -23936181.775 6 -18651559.505 7
        40.700          46.000
  22794986.178    22794985.934    22794983.168   -12437482.051 4  -9691536.603 5
        29.900          30.100
 09  1 31  2  4 30.0000000  0 10G 5G11G32G12G31G30G17G20G14G22
  23073411.127    23073410.228    23073409.489   -10990037.433 4  -8563662.009 4
        26.200          25.300
  22681270.234    22681269.815    22681267.845   -11483382.946 5  -8948086.872 4
        32.000          28.400
  22126951.971    22126951.200    22126951.288   -16005863.501 6 -12472098.828 5
        37.500          35.500
  23562776.585    23562776.410    23562774.345    -7907514.633 4  -6161697.902 4
        25.300          27.100
  21568459.736    21568459.798    21568457.822   -18302751.534 6 -14261879.058 6
        40.900          40.100
  23100493.608    23100493.796    23100492.341    -9961190.003 4  -7761963.372 4
        25.600          24.600
  24905834.364    24905833.479    24905833.940    -1998526.565    -1557290.680 1
                         6.500
  23970505.682    23970504.934    23970504.203    -4744383.693 4  -3696921.749 3
        27.100          19.900
  20676829.533    20676828.956    20676827.584   -23899730.285 6 -18623155.745 7
        40.700          45.900
  22812994.460    22812994.358    22812991.410   -12342847.063 4  -9617795.065 4
        29.500          28.800
 09  1 31  2  5  0.0000000  0 10G 5G11G32G12G31G30G17G20G14G22
  23070283.596    23070282.781    23070282.620   -11006472.038 4  -8576468.193 4
        26.200          25.600
  22686084.376    22686084.069    22686082.080   -11458083.702 5  -8928373.167 4
        31.800          28.100
  22113201.919    22113201.109    22113201.018   -16078120.385 6 -12528402.890 5
        37.400          35.500
  23562110.696    23562110.693    23562108.386    -7911013.270 4  -6164424.116 4
        25.300          26.800
  21554214.816    21554214.833    21554212.768   -18377609.494 6 -14320209.932 6
        41.200          40.200
  23087334.123    23087334.397    23087333.054   -10030341.872 4  -7815847.937 4
        25.600          24.600
  24906810.775    24906810.240    24906809.524    -1993399.995    -1553296.014 2
         3.000          12.600
  23950439.696    23950438.975    23950438.506    -4849830.039 4  -3779087.703 3
        26.200          19.300
  20683837.470    20683836.895    20683835.554   -23862903.279 6 -18594459.376 7
        40.700          45.800
  22831048.552    22831048.398    22831045.159   -12247972.856 4  -9543867.126 4
        29.000          28.400
 09  1 31  2  5 30.0000000  0 10G 5G11G32G12G31G30G17G20G14G22
  23067274.822    23067273.944    23067273.467   -11022283.316 4  -8588788.655 4
        25.900          25.300
  22691001.745    22691001.337    22690999.551   -11432242.455 5  -8908237.118 4
        31.300          28.100
  22099501.188    22099500.474    22099500.308   -16150118.587 6 -12584505.378 5
        37.600          35.700
  23561557.520    23561557.521    23561555.507    -7913919.294 4  -6166688.556 4
        25.600          27.400
  21540052.281    21540052.247    21540049.914   -18452035.551 6 -14378204.255 6
        41.400          40.200
  23074263.294    23074263.338    23074262.413   -10099029.355 4  -7869370.639 4
        24.900          24.600
  24907892.305    24907892.186    24907890.282    -1987717.269 2  -1548867.823 2
        12.600          13.900
  23930398.863    23930397.840    23930397.557    -4955145.269 4  -3861151.493 3
        25.300          18.600
  20690915.634    20690915.232    20690913.840   -23825706.680 6 -18565475.015 7
        40.800          45.800
  22849146.923    22849146.885    22849143.793   -12152865.843 4  -9469757.785 4
        29.500          28.800
 09  1 31  2  6  0.0000000  0 10G 5G11G32G12G31G30G17G20G14G22
  23064386.146    23064385.077    23064384.989   -11037463.221 4  -8600617.147 4
        25.300          24.900
  22696023.750    22696023.478    22696021.260   -11405852.983 5  -8887673.894 4
        32.100          28.100
  22085851.252    22085850.569    22085850.425   -16221849.348 6 -12640399.473 5
        37.700          35.800
  23561118.940    23561118.859    23561116.930    -7916225.946 4  -6168485.951 4
        25.600          27.600
  21525973.398    21525973.311    21525971.078   -18526020.689 6 -14435855.009 6
        41.500          40.200
  23061283.106    23061283.192    23061282.116   -10167242.425 4  -7922523.656 4
        25.900          25.300
  24909081.444    24909081.524    24909080.528    -1981471.348 2  -1544000.836 2
        15.100          17.800
  23910384.305    23910383.749    23910383.256    -5060320.074 4  -3943105.863 3
        24.200          18.600
  20698065.517    20698065.007    20698063.630   -23788134.340 6 -18536197.864 7
        40.700          45.700
  22867290.678    22867290.487    22867287.456   -12057520.547 4  -9395462.766 4
        29.000          28.800
 09  1 31  2  6 30.0000000  0 10G 5G11G32G12G31G30G17G20G14G22
  23061617.752    23061616.914    23061616.048   -11052012.713 4  -8611954.411 4
        25.900          24.900
  22701148.848    22701148.553    22701146.616   -11378918.474 5  -8866685.971 4
        31.500          27.900
  22072252.302    22072251.470    22072251.233   -16293313.126 6 -12696085.529 5
        38.000          35.600
  23560793.894    23560793.686    23560791.189    -7917934.938 4  -6169817.642 4
        25.900          27.100
  21511978.129    21511978.136    21511975.971   -18599564.979 6 -14493162.244 6
        41.300          40.200
  23048393.063    23048393.339    23048391.823   -10234980.354 4  -7975306.441 4
        26.500          24.600
  24910375.511    24910376.049    24910373.693    -1974665.063 2  -1538697.215 2
        15.100          16.100
  23890396.849    23890396.192    23890395.787    -5165354.685 3  -4024950.986 3
        23.400          18.600
  20705286.063    20705285.600    20705284.314   -23750189.128 6 -18506630.170 7
        40.700          45.600
  22885478.777    22885478.494    22885475.790   -11961940.260 4  -9320984.647 4
        27.900          28.800
 09  1 31  2  7  0.0000000  0 10G 5G11G32G12G31G30G17G20G14G22
  23058967.890    23058966.934    23058966.295   -11065938.657 4  -8622805.806 4
        25.900          24.900
  22706376.256    22706376.140    22706374.390   -11351447.876 5  -8845280.303 4
        31.600          28.400
  22058702.909    22058702.122    22058701.738   -16364515.857 6 -12751568.176 5
        38.200          35.700
  23560581.339    23560581.060    23560578.494    -7919053.317 4  -6170689.105 4
        25.900          27.100
  21498065.834    21498065.823    21498063.594   -18672674.375 6 -14550130.594 6
        41.200          40.200
  23035591.693    23035592.056    23035591.069   -10302248.232 4  -8027722.958 4
        26.200          24.900
  24911777.492    24911777.481    24911775.474    -1967306.146 2  -1532962.921 2
        16.100          16.100
  23870434.931    23870434.409    23870434.077    -5270254.788 3  -4106691.299 3
        23.800          19.300
  20712576.176    20712575.666    20712574.268   -23711879.833 6 -18476778.768 7
        40.700          45.400
  22903710.319    22903709.863    22903707.204   -11866133.839 4  -9246330.323 4
        27.600          28.800
 09  1 31  2  7 30.0000000  0 10G 5G11G32G12G31G30G17G20G14G22
  23056436.576    23056435.681    23056435.643   -11079237.854 4  -8633168.811 4
        24.900          25.300
  22711706.299    22711705.980    22711703.714   -11323440.432 5  -8823456.333 4
        31.800          27.900
  22045203.702    22045202.897    22045202.821   -16435453.486 6 -12806844.247 5
        37.800          35.800
  23560481.280    23560480.966    23560478.767    -7919578.939 4  -6171098.692 4
        26.200          27.600
  21484237.290    21484237.288    21484234.821   -18745344.893 6 -14606756.964 6
        41.600          40.300
  23022882.485    23022882.197    23022881.069   -10369040.515 4  -8079768.884 4
        26.500          24.900
  24913281.828    24913281.039    24913282.493    -1959392.666 1  -1526796.526 2
        11.000          16.100
  23850499.427    23850499.278    23850498.478    -5375015.940 3  -4188323.345 3
        23.800          19.300
  20719935.801    20719935.312    20719933.860   -23673204.794 6 -18446642.372 7
        40.800          45.400
  22921984.661    22921984.440    22921981.932   -11770100.623 4  -9171499.280 4
        27.900          29.000
 09  1 31  2  8  0.0000000  0 10G 5G11G32G12G31G30G17G20G14G22
  23054027.427    23054026.316    23054025.559   -11091900.383 4  -8643035.705 4
        25.600          24.900
  22717139.483    22717139.176    22717137.225   -11294888.146 5  -8801207.788 4
        31.600          28.100
  22031757.127    22031756.472    22031756.257   -16506115.291 6 -12861905.387 5
        37.900          35.800
  23560495.216    23560495.133    23560493.187    -7919501.611 4  -6171038.413 4
        25.300          27.400
  21470494.133    21470494.119    21470491.797   -18817565.373 6 -14663032.656 6
        41.600          40.500
  23010264.998    23010265.111    23010263.577   -10435345.514 4  -8131435.109 4
        26.500          25.300
  24914895.184    24914895.002    24914892.478    -1950916.000 1  -1520191.349 2
        11.000          15.100
  23830592.752    23830592.312    23830591.738    -5479626.891 4  -4269838.349 3
        24.200          19.300
  20727366.425    20727366.010    20727364.687   -23634155.962 6 -18416214.712 7
        40.700          45.300
  22940303.991    22940303.600    22940300.895   -11673833.167 4  -9096485.704 4
        28.100          29.000
 09  1 31  2  8 30.0000000  0 10G 5G11G32G12G31G30G17G20G14G22
  23051739.300    23051738.328    23051738.027   -11103925.966 4  -8652406.295 4
        25.900          25.300
  22722676.040    22722675.822    22722674.154   -11265792.686 5  -8778535.990 4
        31.800          28.400
  22018363.320    22018362.607    22018362.461   -16576500.223 6 -12916750.784 6
        38.200          36.100
  23560624.653    23560624.906    23560622.600    -7918822.386 4  -6170509.166 4
        26.200          27.400
  21456836.700    21456836.718    21456834.603   -18889334.931 6 -14718956.977 6
        41.500          40.800
  22997740.392    22997740.577    22997739.775   -10501161.019 4  -8182719.892 4
        26.500          26.200
  24916617.506    24916617.064    24916614.291    -1941877.388 2  -1513148.178 3
        13.900          18.600
  23810715.417    23810714.564    23810714.091    -5584086.100 4  -4351235.115 3
        24.200          19.300
  20734868.171    20734867.672    20734866.240   -23594735.125 6 -18385497.174 7
        40.900          45.200
  22958667.321    22958666.824    22958664.057   -11577333.390 4  -9021291.097 4
        27.600          28.100
 09  1 31  2  9  0.0000000  0 10G 5G11G32G12G31G30G17G20G14G22
  23049570.588    23049569.868    23049569.695   -11115318.595 4  -8661283.654 4
        25.600          25.600
  22728314.749    22728314.456    22728312.626   -11236160.360 5  -8755445.873 4
        31.300          28.100
  22005021.898    22005021.134    22005020.908   -16646611.321 6 -12971382.811 6
        38.600          36.400
  23560867.911    23560867.558    23560865.543    -7917545.708 4  -6169514.351 4
        26.200          27.100
  21443264.732    21443264.692    21443262.583   -18960656.655 6 -14774532.338 6
        41.600          40.900
  22985309.320    22985309.519    22985308.392   -10566488.598 4  -8233624.482 4
        27.400          26.500
  24918440.528    24918439.091    24918438.245    -1932282.157    -1505671.370 2
                        15.100
  23790865.717    23790864.544    23790864.553    -5688396.520 3  -4432515.941 3
        23.800          19.300
  20742439.534    20742438.990    20742437.511   -23554947.788 6 -18354494.057 7
        40.900          45.100
  22977073.715    22977073.363    22977070.356   -11480607.309 4  -8945920.146 4
        27.600          27.900
 09  1 31  2  9 30.0000000  0 10G 5G11G32G12G31G30G17G20G14G22
  23047523.354    23047522.431    23047521.465   -11126079.727 4  -8669668.950 4
        26.500          24.900
  22734054.984    22734054.864    22734052.831   -11205994.743 5  -8731940.195 4
        31.000          28.100
  21991731.936    21991731.162    21991731.106   -16716449.153 6 -13025801.898 6
        38.400          36.400
  23561224.283    23561223.735    23561221.729    -7915673.565 4  -6168055.540 4
        25.900          27.100
  21429777.589    21429777.651    21429775.585   -19031530.899 6 -14829759.016 6
        41.600          40.900
  22972970.389    22972970.539    22972969.387   -10631328.145 4  -8284148.784 4
        27.100          25.900
  24920370.349    24920372.345    24920371.264    -1922133.052 1  -1497762.874 2
         6.500          15.100
  23771044.395    23771043.484    23771043.048    -5792557.991 4  -4513680.706 3
        24.200          18.600
  20750079.872    20750079.309    20750077.953   -23514796.799 6 -18323207.570 7
        40.700          44.900
  22995522.330    22995522.040    22995519.226   -11383658.666 4  -8870375.773 4
        27.900          27.900
