     2.11           OBSERVATION DATA    G (GPS)             RINEX VERSION / TYPE
teqc  2008Oct2      WCDA Operator       20090113 00:18:48UTCPGM / RUN BY / DATE
Solaris x86 5.10|AMD64|cc SC5.8 -xarch=amd64|=+|=+          COMMENT
teqc  2008Oct2      WCDA Operator       20090112 01:18:29UTCCOMMENT
flin  WCDA-ACP   965000   CFS Flin Flon SASK Canada         MARKER NAME
40135M001                                                   MARKER NUMBER
PGC-WCDA            GEOL. SURV. CANADA                      OBSERVER / AGENCY
1115                AOA BENCHMARK ACT   3.3.32.4            REC # / TYPE / VERS
231                 AOAD/M_T        SCIS                    ANT # / TYPE
  -766174.4630 -3611375.3160  5184056.2210                  APPROX POSITION XYZ
        0.1500        0.0000        0.0000                  ANTENNA: DELTA H/E/N
     1     1                                                WAVELENGTH FACT L1/2
     7    C1    P1    P2    L1    L2    S1    S2            # / TYPES OF OBSERV
STATION INFORMATION EFFECTIVE FROM: 2001/01/13 18:20:00     COMMENT
                                TO: CURRENT DATE (above)    COMMENT
BIT 2 OF LLI FLAGS (+4) DATA COLLECTED UNDER 'AS' CONDITION COMMENT
L1 PHASE CENTRE 0.110m ABOVE ARP                            COMMENT
L2 PHASE CENTRE 0.128m ABOVE ARP                            COMMENT
where ARP is the Antenna Reference Point for HI measurement COMMENT
CONTACT gps@pgc.nrcan.gc.ca FOR ADDITIONAL INFORMATION      COMMENT
    P1 =    P1  TurboRogue; =    Y1  Benchmark              COMMENT
    L1 = L1(CA)                                             COMMENT
    P2 =    P2  TurboRogue; =    Y2  Benchmark              COMMENT
    L2 = L2(P2) TurboRogue; = L2(Y2) Benchmark              COMMENT
 SNR is mapped to RINEX snr flag value [0-9]                COMMENT
  L1 & L2: min(max(int(snr_dBHz/6), 0), 9)                  COMMENT
  2009     1    12     0     0    0.0000000     GPS         TIME OF FIRST OBS
                                                            END OF HEADER
 09  1 12  0  0  0.0000000  0 10G21G22G26G19G15G 6G14G 3G18G 9
  21298439.457    21298438.596    21298436.870   -22400635.766 6 -17455033.216 5
        38.400          35.100
  21007800.702    21007800.215    21007797.198   -21803497.420 6 -16989729.699 7
        41.600          43.100
  24222509.361    24222508.832    24222508.680     -426606.379 1   -332410.251 2
        11.000          16.100
  23286615.913    23286614.481    23286613.428    -9091124.689 4  -7083991.490 4
        26.200          29.200
  22781537.804    22781537.612    22781536.183   -10851733.410 5  -8455884.913 5
        30.800          33.500
  22564622.341    22564621.698    22564621.569   -11277004.516 5  -8787271.790 5
        30.600          31.600
  24313354.174    24313353.498    24313352.235    -4806755.898 2  -3745522.037 3
        13.900          18.600
  22572477.415    22572476.466    22572476.535   -10062870.603 4  -7841193.594 5
        29.500          30.200
  20415272.178    20415271.338    20415270.181   -25996228.869 6 -20256791.309 7
        38.900          47.600
  22647107.699    22647107.000    22647106.952   -12375641.945 4  -9643348.442 4
        26.200          28.800
 09  1 12  0  0 30.0000000  0 10G21G22G26G19G15G 6G14G 3G18G 9
  21312064.388    21312063.678    21312062.070   -22329035.111 6 -17399240.498 5
        38.200          34.900
  20997649.004    20997648.431    20997645.255   -21856845.636 6 -17031299.730 7
        41.800          43.000
  24245510.951    24245510.699    24245510.115     -305733.239 1   -238223.373 2
        11.000          16.100
  23277699.512    23277697.946    23277696.615    -9137982.792 4  -7120504.288 4
        27.600          29.700
  22798108.403    22798108.415    22798107.029   -10764652.793 5  -8388029.886 5
        30.400          33.500
  22572673.863    22572673.243    22572672.936   -11234693.038 5  -8754301.807 5
        30.200          31.300
  24291973.932    24291972.793    24291971.059    -4919114.250 2  -3833073.946 3
        13.900          19.300
  22579277.889    22579277.198    22579277.129   -10027131.160 4  -7813344.685 4
        29.200          29.900
  20416311.449    20416310.589    20416308.399   -25990767.038 6 -20252535.335 7
        38.900          47.500
  22630523.448    22630522.670    22630522.171   -12462795.341 4  -9711260.162 4
        27.100          29.000
 09  1 12  0  1  0.0000000  0 10G21G26G19G15G 6G14G 3G18G22G 9
  21325771.765    21325770.953    21325769.285   -22257002.929 6 -17343111.534 5
        38.100          34.900
  24268542.835    24268542.177    24268541.791     -184701.875 1   -143913.203 2
        11.000          17.000
  23268884.858    23268883.541    23268881.914    -9184304.537 4  -7156599.144 5
        28.100          30.100
  22814739.325    22814739.049    22814737.594   -10677258.821 5  -8319930.689 5
        30.800          33.400
  22580822.737    22580822.066    22580821.837   -11191870.812 5  -8720933.834 5
        30.400          31.500
  24270617.036    24270616.419    24270614.607    -5031342.475 2  -3920524.459 3
        15.100          18.600
  22586186.289    22586185.664    22586185.627    -9990825.905 4  -7785054.876 4
        29.000          29.700
  20417426.260    20417425.423    20417424.320   -25984908.868 6 -20247970.520 7
        39.000          47.600
  20987560.576    20987560.065    20987557.152   -21909859.105 6 -17072608.918 7
        41.400          43.100
  22614025.733    22614025.306    22614024.988   -12549488.793 4  -9778813.465 4
        27.100          29.700
 09  1 12  0  1 30.0000000  0 10G21G26G19G15G 6G14G 3G18G22G 9
  21339561.504    21339560.567    21339558.983   -22184538.183 6 -17286645.505 5
        38.100          34.800
  24291604.664    24291603.479    24291602.643      -63513.114 1    -49480.397 2
         9.000          17.000
  23260173.237    23260171.506    23260169.781    -9230086.412 4  -7192273.321 5
        27.600          30.100
  22831429.462    22831429.236    22831428.053   -10589551.592 5  -8251587.395 5
        30.800          33.400
  22589069.121    22589068.570    22589067.999   -11148537.519 5  -8687167.633 5
        30.800          31.600
  24249286.227    24249285.689    24249283.757    -5143436.340 2  -4007870.276 2
        15.100          17.800
  22593202.929    22593202.111    22593202.280    -9953954.367 4  -7756323.798 4
        28.800          29.900
  20418616.873    20418616.041    20418613.710   -25978652.087 6 -20243095.104 7
        39.100          47.700
  20977536.628    20977536.140    20977533.180   -21962535.172 6 -17113655.190 7
        41.400          43.200
  22597617.356    22597616.876    22597616.389   -12635716.465 4  -9846003.823 4
        27.400          29.500
 09  1 12  0  2  0.0000000  0 10G21G26G19G15G 6G14G 3G18G22G 9
  21353432.117    21353431.262    21353429.530   -22111647.530 6 -17229847.603 5
        37.900          34.500
  24314693.866    24314692.684    24314691.900       57824.898 1     45068.709 2
         9.000          17.800
  23251563.474    23251561.903    23251559.623    -9275331.983 4  -7227529.589 4
        28.400          29.700
  22848177.714    22848177.617    22848175.818   -10501538.931 5  -8183006.096 5
        30.400          32.400
  22597410.833    22597410.220    22597409.940   -11104699.965 5  -8653008.497 5
        30.600          31.500
  24227979.153    24227978.778    24227978.077    -5255399.186 2  -4095114.006 2
        15.100          17.800
  22600325.749    22600324.959    22600325.065    -9916523.844 4  -7727157.159 5
        28.600          30.100
  20419882.355    20419881.545    20419880.404   -25972001.785 6 -20237913.047 7
        39.100          47.600
  20967576.248    20967575.764    20967572.721   -22014878.227 6 -17154441.975 7
        41.600          43.300
  22581297.310    22581296.427    22581296.011   -12721480.351 4  -9912832.797 4
        27.100          29.000
 09  1 12  0  2 30.0000000  0 10G21G26G19G15G 6G14G 3G18G22G 9
  21367385.205    21367384.376    21367382.461   -22038323.939 6 -17172712.342 5
        37.800          34.100
  24337812.756    24337812.308    24337811.262      179317.922 1    139738.583 3
         6.500          19.300
  23243057.340    23243055.601    23243053.565    -9320031.472 4  -7262360.349 4
        29.000          29.900
  22864985.129    22864984.930    22864983.388   -10413214.895 5  -8114182.171 5
        30.100          32.100
  22605850.047    22605849.329    22605849.272   -11060351.561 5  -8618451.290 5
        30.200          31.500
  24206700.635    24206699.842    24206698.853    -5367220.929 2  -4182247.769 2
        15.100          17.800
  22607556.491    22607555.497    22607555.701    -9878527.265 4  -7697549.442 5
        28.800          30.200
  20421224.237    20421223.442    20421221.244   -25964950.347 6 -20232418.418 7
        39.100          47.800
  20957680.863    20957680.267    20957677.321   -22066878.857 6 -17194961.936 7
        41.500          43.300
  22565067.370    22565066.759    22565065.681   -12806769.246 4  -9979291.652 4
        27.900          28.800
 09  1 12  0  3  0.0000000  0 11G21G26G19G15G24G 6G14G 3G18G22G 9
  21381419.673    21381418.897    21381416.921   -21964571.810 6 -17115243.155 5
        37.900          33.900
  24360960.285    24360959.435    24360959.565      300960.248 1    234524.790 3
         9.000          19.300
  23234654.848    23234653.152    23234651.510    -9364186.033 4  -7296766.495 5
        28.600          30.400
  22881850.981    22881850.737    22881849.152   -10324584.626 4  -8045119.621 5
        29.700          32.000
  25266158.321    25266157.370    25266157.248           -.1441           .2031
         3.000
  22614385.334    22614384.742    22614384.520   -11015496.941 4  -8583499.644 5
        29.900          31.100
  24185449.158    24185447.768    24185447.118    -5478902.229 2  -4269272.109 2
        16.100          17.800
  22614893.991    22614893.127    22614893.013    -9839969.276 4  -7667504.254 5
        28.800          30.100
  20422642.017    20422641.132    20422639.970   -25957500.469 6 -20226613.311 8
        39.100          48.000
  20947850.139    20947849.621    20947846.635   -22118539.271 6 -17235216.794 7
        41.500          43.400
  22548927.542    22548926.840    22548926.538   -12891582.295 4 -10045379.724 4
        27.600          29.000
 09  1 12  0  3 30.0000000  0 10G21G26G19G15G 6G14G 3G18G22G 9
  21395532.292    21395531.428    21395529.559   -21890409.558 6 -17057454.390 5
        37.600          33.800
  24384133.260    24384132.644    24384131.293      422731.993 1    329411.848 3
        11.000          19.300
  23226353.362    23226351.351    23226349.972    -9407811.446 4  -7330760.324 5
        28.400          30.600
  22898771.282    22898770.960    22898769.429   -10235667.670 4  -7975833.679 5
        29.500          32.100
  22623013.821    22623013.142    22623013.041   -10970154.956 4  -8548168.223 5
        29.700          31.000
  24164220.793    24164219.773    24164218.223    -5590457.937 2  -4356198.571 2
        16.100          16.100
  22622334.640    22622333.805    22622333.257    -9800868.669 4  -7637036.251 4
        29.500          29.500
  20424132.106    20424131.275    20424129.113   -25949669.134 6 -20220510.972 7
        39.100          47.800
  20938081.218    20938080.758    20938077.755   -22169875.070 6 -17275218.706 7
        41.500          43.500
  22532876.181    22532875.514    22532875.188   -12975933.011 4 -10111107.515 4
        27.100          29.700
 09  1 12  0  4  0.0000000  0 10G21G26G19G15G 6G14G 3G18G22G 9
  21409722.729    21409721.922    21409720.318   -21815836.755 6 -16999345.719 5
        37.300          33.800
  24407330.270    24407329.533    24407328.346      544632.003 2    424398.868 3
        15.100          19.300
  23218152.638    23218150.819    23218149.527    -9450904.137 4  -7364339.042 5
        27.900          30.400
  22915746.330    22915746.014    22915744.261   -10146464.678 4  -7906324.844 5
        29.200          32.300
  22631734.835    22631734.082    22631734.087   -10924325.636 4  -8512457.073 5
        29.500          31.100
  24143016.025    24143015.333    24143014.615    -5701884.848 2  -4443024.661 2
        16.100          16.100
  22629878.285    22629877.340    22629877.206    -9761225.645 4  -7606145.577 4
        29.000          29.200
  20425695.154    20425694.352    20425693.307   -25941454.956 6 -20214110.308 7
        39.200          47.700
  20928374.390    20928373.866    20928370.873   -22220884.765 6 -17314966.511 7
        41.400          43.600
  22516913.817    22516913.142    22516912.583   -13059816.412 4 -10176471.168 4
        27.900          29.700
 09  1 12  0  4 30.0000000  0 10G21G26G19G15G 6G14G 3G18G22G 9
  21423992.028    21423991.089    21423989.202   -21740853.352 6 -16940917.101 5
        37.500          33.500
  24430550.779    24430550.284    24430549.229      666659.189 2    519484.985 3
        12.600          18.600
  23210054.182    23210052.840    23210051.225    -9493461.021 4  -7397500.238 5
        28.100          30.200
  22932775.103    22932774.860    22932773.254   -10056976.401 4  -7836593.722 5
        28.600          32.400
  22640548.570    22640547.940    22640547.599   -10878009.331 4  -8476366.447 5
        29.500          31.000
  24121837.940    24121836.815    24121835.294    -5813179.131 2  -4529747.411 2
        16.100          15.100
  22637525.179    22637524.222    22637524.153    -9721040.359 4  -7574832.371 4
        28.600          29.200
  20427331.435    20427330.627    20427328.479   -25932856.529 6 -20207410.236 8
        39.300          48.000
  20918730.057    20918729.578    20918726.554   -22271565.664 6 -17354458.112 7
        41.500          43.600
  22501041.257    22501040.462    22501039.805   -13143227.660 4 -10241466.917 4
        28.100          29.900
 09  1 12  0  5  0.0000000  0 10G21G26G19G15G 6G14G 3G18G22G 9
  21438342.059    21438341.135    21438339.341   -21665443.176 6 -16882155.933 5
        37.500          33.500
  24453798.749    24453798.696    24453797.484      788828.492 2    614681.835 2
        12.600          17.800
  23202061.617    23202059.869    23202058.445    -9535463.183 4  -7430229.184 5
        27.900          30.400
  22949861.476    22949861.221    22949859.526    -9967187.347 4  -7766628.235 5
        28.800          32.100
  22649457.953    22649457.534    22649457.111   -10831190.020 4  -8439883.866 5
        29.500          31.000
  24100687.928    24100687.323    24100685.341    -5924321.376 2  -4616351.714 2
        17.000          15.100
  22645278.469    22645277.732    22645277.512    -9680296.465 4  -7543083.879 4
        28.600          29.200
  20429044.098    20429043.256    20429042.219   -25923856.167 6 -20200396.962 7
        39.300          47.800
  20909151.788    20909151.353    20909148.447   -22321899.406 6 -17393679.202 7
        41.400          43.800
  22485262.295    22485261.584    22485261.151   -13226145.520 4 -10306078.211 5
        28.100          30.200
 09  1 12  0  5 30.0000000  0 10G21G26G19G15G 6G14G 3G18G22G 9
  21452773.104    21452772.265    21452770.391   -21589607.314 6 -16823063.057 5
        37.300          33.200
  24477073.277    24477072.503    24477072.048      911137.215 1    709987.339 2
         9.000          16.100
  23194175.204    23194173.423    23194171.645    -9576909.215 4  -7462524.782 5
        28.100          30.400
  22967004.782    22967004.253    22967002.673    -9877100.085 4  -7696430.365 5
        28.800          31.600
  22658462.640    22658461.888    22658462.033   -10783869.578 4  -8403010.792 5
        29.000          31.300
  24079567.413    24079566.806    24079565.651    -6035309.329 2  -4702835.808 2
        17.000          15.100
  22653137.848    22653136.964    22653136.851    -9638996.073 4  -7510901.757 4
        28.600          29.200
  20430833.392    20430832.528    20430830.421   -25914453.949 6 -20193070.557 8
        39.300          48.100
  20899639.961    20899639.456    20899636.546   -22371884.939 6 -17432628.957 7
        41.400          44.000
  22469578.188    22469577.341    22469576.858   -13308566.707 4 -10370302.483 5
        28.600          30.100
 09  1 12  0  6  0.0000000  0 10G21G26G19G15G 6G14G 3G18G22G 9
  21467282.229    21467281.432    21467279.702   -21513360.823 6 -16763650.215 5
        37.000          33.400
  24500371.405    24500370.937    24500370.971     1033569.333 1    805388.981 2
         9.000          13.900
  23186391.338    23186389.832    23186388.145    -9617810.759 4  -7494396.112 5
        27.900          30.200
  22984201.495    22984201.143    22984199.419    -9786730.076 4  -7626012.178 5
        29.000          31.100
  22667559.751    22667559.237    22667559.248   -10736062.962 4  -8365758.883 5
        28.600          31.100
  24058474.230    24058473.699    24058472.498    -6146154.331 2  -4789208.514 2
        17.000          15.100
  22661100.048    22661099.240    22661098.917    -9597154.184 4  -7478297.679 4
        28.400          29.000
  20432696.476    20432695.652    20432694.568   -25904663.213 6 -20185441.406 8
        39.400          48.000
  20890191.894    20890191.385    20890188.584   -22421534.693 6 -17471317.065 7
        41.500          44.100
  22453986.436    22453985.609    22453985.338   -13390500.828 4 -10434147.233 4
        28.100          29.900
 09  1 12  0  6 30.0000000  0 10G21G26G19G15G 6G14G 3G18G22G 9
  21481869.149    21481868.453    21481866.755   -21436704.820 6 -16703918.273 5
        37.000          33.200
  24523692.613    24523691.020    24523691.634     1156122.706 1    900885.134 1
         6.500          11.000
  23178711.962    23178710.144    23178708.792    -9658165.950 4  -7525841.693 5
        27.600          30.200
  23001451.984    23001451.754    23001450.084    -9696079.348 4  -7555375.234 5
        29.900          31.500
  22676749.434    22676748.820    22676748.799   -10687771.816 4  -8328129.422 5
        28.600          30.600
  24037408.743    24037408.533    24037406.853    -6256853.768 2  -4875467.787 2
        17.000          16.100
  22669164.807    22669164.099    22669163.911    -9554772.151 4  -7445272.728 4
        28.400          29.000
  20434633.551    20434632.735    20434630.653   -25894483.706 6 -20177509.322 8
        39.400          48.200
  20880808.102    20880807.541    20880804.558   -22470847.623 6 -17509742.717 7
        41.600          44.100
  22438488.168    22438487.465    22438487.053   -13471944.482 4 -10497609.798 4
        27.600          29.700
 09  1 12  0  7  0.0000000  0 10G21G26G19G15G 6G14G 3G18G22G 9
  21496534.883    21496533.933    21496532.370   -21359636.672 6 -16643865.182 5
        36.500          32.800
  24547037.344    24547036.856    24547035.897     1278798.286 1    996476.489 1
         9.000           9.000
  23171137.825    23171136.033    23171134.403    -9697969.630 4  -7556857.535 5
        28.400          30.100
  23018756.097    23018755.653    23018753.895    -9605146.353 4  -7484518.343 5
        29.500          31.500
  22686031.468    22686030.869    22686030.758   -10638994.057 4  -8290120.781 5
        28.400          30.600
  24016371.611    24016370.581    24016370.898    -6367402.238 2  -4961609.416 2
        16.100          16.100
  22677333.135    22677332.193    22677332.180    -9511848.511 4  -7411825.737 4
        28.400          29.000
  20436645.308    20436644.467    20436643.338   -25883912.018 6 -20169271.639 8
        39.400          48.300
  20871489.103    20871488.537    20871485.453   -22519819.113 6 -17547902.311 7
        41.500          44.100
  22423084.999    22423084.242    22423083.555   -13552890.393 4 -10560684.511 5
        28.600          30.100
 09  1 12  0  7 30.0000000  0 10G21G26G19G15G 6G14G 3G18G22G 9
  21511278.566    21511277.667    21511275.715   -21282159.657 6 -16583493.493 5
        36.700          32.700
  24570404.539    24570403.848    24570401.400     1401591.800 1   1092159.775 1
         9.000           9.000
  23163668.507    23163666.876    23163664.871    -9737222.095 4  -7587443.854 4
        28.800          29.700
  23036112.790    23036112.643    23036110.722    -9513935.078 4  -7413444.629 5
        28.800          31.600
  22695405.750    22695404.897    22695405.011   -10589733.170 4  -8251735.676 5
        28.800          30.600
  23995363.742    23995362.565    23995363.446    -6477799.127 2  -5047632.937 3
        16.100          18.600
  22685603.899    22685602.949    22685602.834    -9468386.179 4  -7377958.985 4
        28.600          29.200
  20438731.447    20438730.582    20438728.526   -25872949.247 6 -20160729.217 8
        39.500          48.300
  20862234.768    20862234.290    20862231.379   -22568450.013 6 -17585796.509 7
        41.500          44.300
  22407776.142    22407775.476    22407775.232   -13633336.535 4 -10623369.800 5
        28.800          30.200
 09  1 12  0  8  0.0000000  0 10G21G26G19G15G 6G14G 3G18G22G 9
  21526100.140    21526099.190    21526097.321   -21204271.629 6 -16522801.522 5
        36.500          32.700
  24593795.073    24593793.963    24593793.141     1524504.102 1   1187935.634 1
         6.500           6.500
  23156304.120    23156302.751    23156301.210    -9775918.527 4  -7617596.905 4
        29.000          29.000
  23053523.165    23053522.612    23053521.000    -9422444.557 4  -7342153.313 5
        28.100          31.600
  22704872.050    22704871.435    22704871.051   -10539987.703 4  -8212972.976 5
        28.600          30.400
  23974385.757    23974385.061    23974384.786    -6588038.923 2  -5133534.037 3
        17.000          19.300
  22693976.782    22693976.014    22693976.223    -9424383.838 4  -7343671.448 4
        28.100          29.500
  20440892.535    20440891.745    20440890.613   -25861592.274 6 -20151879.624 8
        39.500          48.100
  20853046.394    20853045.824    20853042.791   -22616736.351 6 -17623422.223 7
        41.600          44.400
  22392564.062    22392563.426    22392563.124   -13713276.933 4 -10685660.997 5
        28.800          30.400
 09  1 12  0  8 30.0000000  0 10G21G26G19G15G 6G14G 3G18G22G 9
  21540997.844    21540996.879    21540995.090   -21125983.157 6 -16461797.529 5
        36.300          32.700
  24617204.792    24617202.988    24617204.077     1647523.638 1   1283795.010 1
         6.500           9.000
  23149044.730    23149043.522    23149041.637    -9814066.509 4  -7647322.592 4
        28.800          28.600
  23070983.557    23070983.119    23070982.030    -9330686.069 4  -7270653.200 5
        27.900          31.500
  22714427.984    22714427.458    22714427.493   -10489768.646 4  -8173841.244 5
        28.100          30.600
  23953436.414    23953435.698    23953435.467    -6698128.590 2  -5219318.162 3
        17.000          19.900
  22702451.278    22702450.509    22702450.142    -9379852.204 4  -7308971.470 4
        28.100          29.200
  20443126.903    20443126.105    20443124.085   -25849850.643 6 -20142730.300 8
        39.500          48.300
  20843921.761    20843921.240    20843918.266   -22664685.754 6 -17660785.387 7
        41.600          44.500
  22377447.174    22377446.448    22377445.993   -13792716.802 4 -10747562.183 5
        28.600          30.400
 09  1 12  0  9  0.0000000  0 10G21G26G19G15G 6G14G 3G18G22G 9
  21555972.461    21555971.535    21555969.689   -21047291.319 6 -16400479.221 5
        36.300          32.600
  24640635.514    24640634.549    24640633.475     1770651.953 1   1379739.147 1
         9.000           9.000
  23141891.211    23141889.730    23141887.882    -9851660.246 4  -7676616.390 4
        28.600          28.800
  23088495.917    23088495.637    23088494.430    -9238657.297 4  -7198942.470 5
        27.600          31.000
  22724075.201    22724074.546    22724074.570   -10439073.271 4  -8134338.354 5
        28.600          30.600
  23932517.356    23932516.431    23932515.909    -6808061.720 2  -5304980.312 3
        17.800          20.500
  22711026.251    22711025.487    22711025.625    -9334789.116 4  -7273857.381 4
        27.900          29.500
  20445435.371    20445434.587    20445433.336   -25837719.809 6 -20133277.696 8
        39.700          48.400
  20834862.489    20834861.940    20834858.900   -22712293.286 6 -17697882.158 7
        41.800          44.600
  22362427.038    22362426.347    22362425.786   -13871648.589 4 -10809067.451 5
        28.600          30.200
 09  1 12  0  9 30.0000000  0 10G21G26G19G15G 6G14G 3G18G22G 9
  21571024.246    21571023.415    21571021.687   -20968192.577 6 -16338843.842 5
        36.200          32.300
  24664087.315    24664086.171    24664085.920     1893891.621 1   1475770.067 1
        11.000           9.000
  23134844.286    23134842.672    23134840.283    -9888693.404 4  -7705473.376 4
        28.800          28.600
  23106060.385    23106060.227    23106058.560    -9146355.281 4  -7127018.833 5
        27.900          30.600
  22733813.542    22733812.875    22733812.533   -10387898.626 4  -8094462.013 5
        28.600          30.400
  23911628.242    23911628.205    23911627.541    -6917831.536 2  -5390515.211 3
        17.000          20.500
  22719703.303    22719702.466    22719702.724    -9289191.003 4  -7238326.385 4
        27.900          29.700
  20447818.854    20447817.990    20447815.989   -25825194.844 6 -20123517.980 8
        39.600          48.700
  20825869.204    20825868.698    20825865.779   -22759552.919 6 -17734707.837 7
        41.800          44.800
  22347504.675    22347504.000    22347503.993   -13950063.896 4 -10870170.271 5
        28.400          30.400
 09  1 12  0 10  0.0000000  0 10G21G26G19G15G 6G14G 3G18G22G 9
  21586153.221    21586152.213    21586150.546   -20888690.076 6 -16276893.853 5
        36.000          32.300
  24687558.400    24687557.318    24687557.773     2017238.046 1   1571884.214 1
         9.000           9.000
  23127903.362    23127901.889    23127900.013    -9925166.704 4  -7733894.112 4
        29.200          29.000
  23123676.570    23123676.188    23123673.987    -9053784.845 4  -7054886.017 5
        28.400          30.200
  22743642.138    22743641.528    22743641.568   -10336248.614 4  -8054215.256 5
        28.600          30.600
  23890771.287    23890770.523    23890769.695    -7027437.932 2  -5475922.763 3
        17.800          20.500
  22728481.271    22728480.354    22728480.882    -9243062.111 4  -7202381.794 4
        27.400          29.500
  20450276.796    20450275.957    20450274.745   -25812277.802 6 -20113452.747 8
        39.700          48.600
  20816942.016    20816941.447    20816938.559   -22806465.773 6 -17771263.300 7
        41.800          44.900
  22332681.464    22332680.910    22332680.509   -14027961.420 4 -10930869.624 5
        29.000          30.600
 09  1 12  0 10 30.0000000  0 10G26G19G15G 6G21G14G 3G18G22G 9
  24711048.456    24711047.600    24711048.526     2140682.143 1   1668074.434 1
         6.500          11.000
  23121068.185    23121066.552    23121064.775    -9961085.083 4  -7761882.450 4
        28.600          28.800
  23141341.405    23141340.808    23141338.873    -8960954.714 4  -6982550.848 5
        27.900          30.200
  22753559.921    22753559.330    22753558.962   -10284131.557 4  -8013604.561 5
        28.400          30.800
  21601357.159    21601356.326    21601354.533   -20808792.213 5 -16214635.789 5
        35.900          32.100
  23869943.938    23869942.809    23869942.305    -7136885.028 2  -5561206.191 3
        17.800          21.100
  22737358.936    22737358.157    22737358.240    -9196410.710 4  -7166030.057 4
        28.100          29.200
  20452808.246    20452807.463    20452805.516   -25798975.234 6 -20103087.108 8
        39.800          48.800
  20808079.547    20808079.027    20808076.128   -22853037.792 6 -17807553.178 7
        41.600          44.900
  22317956.245    22317955.479    22317954.883   -14105344.319 4 -10991167.968 5
        29.500          30.400
 09  1 12  0 11  0.0000000  0 10G26G19G15G 6G21G14G 3G18G22G 9
  24734559.318    24734558.817    24734559.265     2264232.166     1764347.161 1
         3.000          11.000
  23114340.788    23114339.640    23114337.955    -9996436.658 4  -7789429.117 4
        28.600          29.500
  23159056.566    23159056.694    23159054.943    -8867856.112 4  -6910006.480 4
        26.800          29.900
  22763568.000    22763567.337    22763567.174   -10231538.653 4  -7972623.091 5
        28.600          30.800
  21616638.094    21616637.400    21616635.865   -20728489.588 5 -16152062.321 5
        35.800          32.400
  23849150.014    23849148.754    23849148.408    -7246160.369 3  -5646355.768 3
        18.600          21.600
  22746337.341    22746336.574    22746336.552    -9149227.946 4  -7129264.262 4
        28.100          29.000
  20455415.023    20455414.197    20455412.949   -25785276.599 6 -20092412.842 8
        39.700          48.800
  20799284.378    20799283.831    20799280.905   -22899257.216 6 -17843568.309 7
        41.900          45.200
  22303331.077    22303330.510    22303330.131   -14182198.576 4 -11051054.390 5
        29.500          30.400
 09  1 12  0 11 30.0000000  0 10G26G19G15G 6G21G14G 3G18G22G 9
  24758089.073    24758087.164    24758087.658     2387879.532     1860695.763 2
                        12.600
  23107720.835    23107719.309    23107717.926   -10031226.291 4  -7816537.908 4
        29.000          29.500
  23176822.294    23176822.295    23176821.069    -8774497.291 4  -6837259.350 5
        26.500          30.400
  22773665.266    22773664.483    22773664.261   -10178477.870 4  -7931277.027 5
        28.800          30.600
  21631994.928    21631994.090    21631992.395   -20647789.750 5 -16089179.341 5
        35.500          32.000
  23828387.237    23828386.593    23828385.704    -7355267.999 3  -5731374.678 3
        18.600          21.100
  22755415.602    22755414.830    22755414.658    -9101521.791 4  -7092090.627 4
        28.100          29.000
  20458095.927    20458095.150    20458093.182   -25771188.003 6 -20081434.713 8
        39.700          48.800
  20790555.269    20790554.686    20790551.691   -22945129.273 6 -17879312.763 7
        41.900          45.200
  22288806.343    22288805.648    22288805.170   -14258527.119 4 -11110531.158 5
        29.500          30.100
 09  1 12  0 12  0.0000000  0 10G26G19G15G 6G21G14G 3G18G22G 9
  24781636.848    24781634.569    24781635.131     2511622.623     1957118.942 2
         3.000          12.600
  23101208.361    23101206.739    23101204.548   -10065451.267 4  -7843206.706 4
        29.200          29.000
  23194637.383    23194637.368    23194636.087    -8680879.618 4  -6764310.521 5
        27.100          31.000
  22783850.811    22783850.320    22783850.195   -10124950.239 4  -7889567.184 5
        28.100          30.400
  21647427.162    21647426.312    21647424.421   -20566693.294 5 -16025987.303 5
        35.500          31.800
  23807656.626    23807656.479    23807655.418    -7464204.462 3  -5816260.210 3
        18.600          21.100
  22764593.474    22764592.344    22764592.224    -9053293.153 4  -7054509.884 4
        27.600          28.800
  20460851.342    20460850.468    20460849.127   -25756708.564 6 -20070152.027 8
        39.700          48.800
  20781892.529    20781892.058    20781888.970   -22990652.003 7 -17914785.016 7
        42.100          45.300
  22274382.473    22274381.765    22274380.952   -14334325.711 4 -11169594.988 5
        29.700          30.100
 09  1 12  0 12 30.0000000  0 10G26G19G15G 6G21G14G 3G18G22G 9
  24805200.391    24805199.473    24805199.464     2635454.186     2053611.068 2
         3.000          12.600
  23094802.236    23094800.469    23094798.731   -10099115.532 4  -7869438.598 4
        28.600          29.500
  23212500.292    23212500.325    23212498.762    -8587010.223 4  -6691165.537 5
        27.600          31.100
  22794124.639    22794123.901    22794123.872   -10070962.606 4  -7847498.902 5
        28.400          30.600
  21662933.479    21662932.629    21662930.987   -20485206.630 5 -15962491.207 5
        35.300          32.000
  23786958.845    23786958.445    23786957.838    -7572973.145 3  -5901014.995 3
        19.300          21.100
  22773869.034    22773868.130    22773868.162    -9004549.265 4  -7016527.632 4
        27.600          29.000
  20463680.051    20463679.211    20463677.393   -25741843.122 6 -20058568.563 8
        39.700          48.900
  20773295.625    20773295.066    20773291.942   -23035829.744 7 -17949988.447 7
        42.100          45.400
  22260058.975    22260058.383    22260057.625   -14409595.745 4 -11228246.946 5
        29.700          30.400
 09  1 12  0 13  0.0000000  0 10G26G19G15G 6G21G14G 3G18G22G 9
  24828780.181    24828779.529    24828781.386     2759375.071     2150172.802 2
         3.000          12.600
  23088503.817    23088502.186    23088499.956   -10132214.431 4  -7895229.930 4
        28.800          29.500
  23230411.775    23230411.652    23230409.601    -8492887.887 4  -6617823.447 5
        27.900          30.800
  22804485.569    22804484.911    22804485.078   -10016513.556 4  -7805071.068 5
        28.100          30.100
  21678514.690    21678513.736    21678512.106   -20403327.879 5 -15898689.592 5
        35.300          32.000
  23766294.245    23766293.460    23766292.807    -7681568.253 3  -5985634.514 3
        19.300          21.100
  22783243.206    22783242.530    22783242.102    -8955288.276 4  -6978142.450 4
        28.100          29.000
  20466582.912    20466582.065    20466580.827   -25726588.321 6 -20046681.699 8
        39.700          48.700
  20764764.938    20764764.433    20764761.379   -23080658.026 7 -17984919.569 7
        42.100          45.500
  22245837.209    22245836.529    22245836.162   -14484330.628 4 -11286481.905 5
        29.200          30.400
 09  1 12  0 13 30.0000000  0 10G26G19G15G 6G21G14G 3G18G22G 9
  24852378.982    24852379.305    24852381.257     2883390.448     2246808.141 2
                        12.600
  23082313.961    23082312.242    23082310.710   -10164739.174 4  -7920573.875 4
        28.100          29.900
  23248371.785    23248371.625    23248369.632    -8398507.400 4  -6544280.211 5
        27.400          30.200
  22814935.846    22814935.283    22814935.196    -9961597.519 4  -7762279.358 5
        27.600          30.100
  21694171.383    21694170.609    21694168.813   -20321050.647 5 -15834577.471 5
        35.200          31.600
  23745664.533    23745663.517    23745662.652    -7789980.204 3  -6070111.308 3
        19.900          21.100
  22792716.649    22792715.806    22792715.628    -8905504.537 4  -6939349.928 4
        27.600          29.200
  20469561.263    20469560.487    20469558.636   -25710937.054 6 -20034485.906 8
        39.800          48.900
  20756302.523    20756301.989    20756298.875   -23125128.426 7 -18019571.823 7
        42.100          45.500
  22231719.541    22231718.958    22231718.565   -14558519.486 4 -11344291.389 5
        29.500          31.000
 09  1 12  0 14  0.0000000  0 10G26G19G15G 6G21G14G 3G18G22G 9
  24875993.921    24875992.485    24875994.078     3007482.380     2343503.130 2
         3.000          12.600
  23076231.509    23076229.710    23076227.916   -10196703.728 4  -7945481.311 4
        28.400          29.900
  23266377.446    23266377.237    23266375.490    -8303886.334 4  -6470549.505 5
        26.800          30.100
  22825471.310    22825470.823    22825470.833    -9906231.853 4  -7719137.296 4
        27.400          29.500
  21709900.741    21709899.921    21709898.211   -20238392.059 5 -15770168.189 5
        34.800          31.500
  23725066.816    23725066.055    23725064.985    -7898222.522 3  -6154455.913 3
        19.300          21.100
  22802286.366    22802285.342    22802285.187    -8855215.913 4  -6900163.992 4
        27.400          29.200
  20472612.167    20472611.376    20472609.973   -25694904.608 6 -20021993.086 8
        39.800          49.000
  20747905.323    20747904.793    20747901.862   -23169255.526 7 -18053956.573 7
        42.100          45.600
  22217703.573    22217702.887    22217702.710   -14632174.632 4 -11401684.983 5
        29.900          31.600
 09  1 12  0 14 30.0000000  0 11G26G19G15G28G 6G21G14G 3G18G22G 9
  24899626.332    24899625.166    24899626.311     3131667.018     2440270.403 2
                        13.900
  23070259.370    23070257.894    23070255.691   -10228088.836 4  -7969937.234 5
        29.900          30.100
  23284432.036    23284431.850    23284430.229    -8209008.320 4  -6396618.587 5
        25.900          30.100
  25634445.508    25634444.492    25634443.299          -1.0661          -.1291
         3.000           3.000
  22836095.897    22836095.257    22836095.143    -9850400.175 4  -7675632.087 4
        27.600          29.200
  21725705.865    21725705.091    21725703.445   -20155335.413 5 -15705448.738 5
        34.800          31.500
  23704504.539    23704503.491    23704502.824    -8006274.626 3  -6238652.297 3
        18.600          21.100
  22811955.209    22811954.389    22811954.052    -8804405.734 4  -6860571.655 4
        27.600          29.200
  20475738.986    20475738.157    20475736.420   -25678472.769 6 -20009189.051 8
        39.800          49.100
  20739577.309    20739576.779    20739573.799   -23213019.877 7 -18088058.662 7
        42.100          45.800
  22203793.410    22203792.493    22203792.110   -14705274.376 4 -11458645.799 5
        29.700          31.500
 09  1 12  0 15  0.0000000  0 11G26G19G15G28G 6G21G14G 3G18G22G 9
  24923269.693    24923270.260    24923269.445     3255919.407     2537090.453 2
                        12.600
  23064393.127    23064391.510    23064389.824   -10258915.378 4  -7993957.904 5
        29.900          30.800
  23302530.623    23302530.451    23302529.074    -8113897.887 4  -6322506.554 4
        25.300          29.700
  25628482.089    25628480.553    25628478.531      -31340.456      -24420.506
         3.000
  22846804.708    22846804.114    22846803.671    -9794126.742 4  -7631782.662 4
        27.600          29.000
  21741582.187    21741581.475    21741579.865   -20071904.178 5 -15640437.398 5
        34.600          31.300
  23683975.133    23683974.776    23683973.517    -8114156.622 3  -6322716.134 3
        19.300          21.100
  22821718.384    22821717.746    22821717.571    -8753098.487 4  -6820591.992 4
        27.600          29.000
  20478937.734    20478936.899    20478935.482   -25661663.661 6 -19996091.041 8
        39.800          49.100
  20731314.209    20731313.647    20731310.581   -23256443.122 7 -18121894.953 7
        42.200          45.800
  22189984.704    22189983.975    22189983.490   -14777838.091 5 -11515188.935 5
        30.200          31.500
 09  1 12  0 15 30.0000000  0 10G26G19G15G 6G21G14G 3G18G22G 9
  24946927.754    24946925.551    24946926.583     3380237.576     2633961.733 1
                        11.000
  23058633.735    23058631.914    23058630.119   -10289181.939 4  -8017542.227 5
        29.900          30.800
  23320673.267    23320673.174    23320672.002    -8018557.218 4  -6248215.126 4
        24.900          29.900
  22857596.880    22857596.065    22857596.010    -9737413.533 4  -7587590.547 4
        27.600          29.500
  21757529.932    21757528.954    21757527.328   -19988099.980 5 -15575135.435 5
        34.600          31.000
  23663478.716    23663477.834    23663477.020    -8221866.548 3  -6406645.886 3
        19.900          21.600
  22831576.024    22831575.387    22831575.220    -8701295.956 4  -6780226.387 4
        27.600          28.800
  20482208.290    20482207.408    20482205.615   -25644477.302 6 -19982699.074 8
        40.000          49.200
  20723116.129    20723115.597    20723112.534   -23299524.151 7 -18155464.584 7
        42.300          45.900
  22176278.897    22176278.111    22176277.571   -14849862.194 5 -11571311.597 5
        30.400          31.300
 09  1 12  0 16  0.0000000  0 10G26G19G15G 6G21G14G 3G18G22G 9
  24970598.893    24970597.304    24970596.161     3504622.670     2730885.199 1
                        11.000
  23052981.506    23052979.810    23052978.003   -10318883.949 4  -8040686.639 5
        29.500          30.600
  23338859.862    23338859.930    23338858.409    -7922984.897 4  -6173743.192 4
        25.300          29.500
  22868473.328    22868472.656    22868472.258    -9680258.698 4  -7543054.328 4
        27.400          29.200
  21773548.856    21773548.040    21773546.357   -19903920.632 5 -15509541.152 5
        34.700          31.000
  23643016.141    23643014.992    23643014.078    -8329398.581 3  -6490437.036 3
        19.300          21.100
  22841528.541    22841527.670    22841527.558    -8648996.488 4  -6739473.566 4
        27.600          28.600
  20485551.040    20485550.253    20485548.701   -25626910.161 6 -19969010.389 8
        40.000          49.200
  20714983.951    20714983.450    20714980.434   -23342258.596 7 -18188764.147 7
        42.200          45.900
  22162677.003    22162676.388    22162675.762   -14921339.663 5 -11627008.306 5
        30.100          31.300
 09  1 12  0 16 30.0000000  0 10G26G19G15G 6G21G14G 3G18G22G 9
  24994287.419    24994286.974    24994282.377     3629093.029     2827875.069 2
                        12.600
  23047440.678    23047439.170    23047437.597   -10347999.458 4  -8063374.049 5
        29.700          31.000
  23357094.485    23357094.261    23357092.769    -7827162.288 4  -6099076.212 4
        25.600          29.200
  22879436.269    22879435.834    22879436.017    -9622643.909 4  -7498159.694 4
        26.800          29.500
  21789642.570    21789641.759    21789639.973   -19819347.107 5 -15443639.715 5
        34.300          30.800
  23622591.222    23622590.454    23622589.749    -8436730.010 3  -6574071.861 3
        19.300          22.100
  22851578.983    22851577.803    22851577.938    -8596181.682 4  -6698319.169 4
        27.400          28.400
  20488970.384    20488969.507    20488967.807   -25608941.993 6 -19955009.214 8
        40.000          49.200
  20706921.920    20706921.366    20706918.372   -23384624.887 7 -18221776.838 7
        42.200          46.000
  22149184.003    22149183.285    22149182.778   -14992246.916 5 -11682260.693 5
        30.200          31.300
 09  1 12  0 17  0.0000000  0 10G26G19G15G 6G21G14G 3G18G22G 9
  25017988.906    25017986.605    25017981.115     3753635.502     2924921.113 1
                         9.000
  23042010.238    23042008.751    23042007.040   -10376537.834 5  -8085611.729 5
        30.400          31.000
  23375373.896    23375373.889    23375372.253    -7731102.186 4  -6024224.182 4
        25.600          28.800
  22890485.477    22890484.989    22890484.890    -9564581.633 4  -7452916.365 4
        26.800          29.500
  21805808.977    21805808.067    21805806.576   -19734391.596 5 -15377440.628 5
        33.900          30.600
  23602203.604    23602202.372    23602201.760    -8543869.320 3  -6657556.981 3
        19.900          22.600
  22861724.642    22861723.892    22861723.581    -8542864.036 4  -6656772.957 4
        26.800          27.900
  20492463.799    20492462.972    20492461.512   -25590583.059 6 -19940703.552 8
        39.900          49.100
  20698928.129    20698927.587    20698924.537   -23426632.901 7 -18254510.353 7
        42.300          46.100
  22135797.834    22135797.182    22135796.476   -15062591.574 5 -11737074.697 5
        30.800          31.100
 09  1 12  0 17 30.0000000  0 10G26G19G15G 6G21G14G 3G18G22G 9
  25041699.300    25041698.612    25041695.194     3878252.613     3022025.343 1
                         9.000
  23036690.705    23036689.019    23036686.866   -10404493.484 5  -8107395.355 5
        30.600          30.800
  23393698.883    23393699.168    23393697.385    -7634801.955 4  -5949185.044 4
        25.300          28.100
  22901619.774    22901619.276    22901619.262    -9506069.390 4  -7407322.417 4
        26.200          29.000
  21822048.867    21822047.956    21822046.184   -19649050.876 5 -15310941.379 5
        33.900          30.600
  23581853.133    23581852.214    23581851.815    -8650809.644 3  -6740887.061 3
        20.500          22.600
  22871966.903    22871966.027    22871965.927    -8489041.041 4  -6614832.961 4
        27.100          27.900
  20496032.736    20496031.878    20496030.137   -25571828.918 6 -19926089.933 8
        40.000          49.100
  20691003.476    20691002.964    20690999.883   -23468276.884 7 -18286960.206 7
        42.200          46.100
  22122520.388    22122519.661    22122518.938   -15132365.220 5 -11791443.769 5
        30.800          31.600
 09  1 12  0 18  0.0000000  0 10G26G19G15G 6G21G14G 3G18G22G 9
  25065423.042    25065423.638    25065420.153     4002933.357     3119179.140 1
                         6.500
  23031480.490    23031478.704    23031476.682   -10431874.064 5  -8128730.868 5
        30.400          31.100
  23412067.087    23412068.035    23412066.311    -7538272.631 4  -5873967.378 4
        24.600          27.600
  22912838.253    22912837.674    22912837.539    -9447117.873 4  -7361386.176 4
        26.200          29.200
  21838359.850    21838359.101    21838357.415   -19563335.445 5 -15244150.146 5
        34.000          30.600
  23561539.583    23561538.774    23561538.162    -8757558.285 3  -6824067.784 3
        19.900          23.000
  22882303.465    22882302.646    22882302.467    -8434723.602 4  -6572507.687 4
        27.600          28.400
  20499674.986    20499674.204    20499672.587   -25552688.301 6 -19911175.165 8
        40.100          49.100
  20683146.707    20683146.163    20683143.118   -23509564.765 7 -18319132.574 7
        42.200          46.300
  22109350.250    22109349.693    22109349.186   -15201573.894 5 -11845372.585 5
        30.800          32.300
 09  1 12  0 18 30.0000000  0 11G26G19G15G28G 6G21G14G 3G18G22G 9
  25089160.529    25089162.083    25089159.993     4127681.168     3216385.225
                         3.000
  23026380.753    23026378.939    23026377.150   -10458672.597 5  -8149612.828 5
        30.200          31.300
  23430481.417    23430481.703    23430479.866    -7441510.140 4  -5798568.028 4
        24.900          27.400
  25589267.851    25589269.658    25589264.137           -.6761          -.5011
                         3.000
  22924140.205    22924139.784    22924140.054    -9387723.315 4  -7315104.712 4
        26.500          29.000
  21854743.154    21854742.371    21854740.796   -19477240.739 5 -15177063.376 5
        33.800          30.600
  23541264.574    23541263.700    23541262.809    -8864106.259 3  -6907092.144 3
        20.500          22.600
  22892734.595    22892733.597    22892733.184    -8379907.555 4  -6529793.879 4
        26.800          27.900
  20503392.019    20503391.186    20503389.514   -25533155.495 6 -19895954.794 8
        40.200          49.000
  20675359.131    20675358.523    20675355.473   -23550489.119 7 -18351021.678 7
        42.300          46.300
  22096290.004    22096289.147    22096288.439   -15270208.459 5 -11898854.052 5
        31.300          32.400
 09  1 12  0 19  0.0000000  0 11G26G19G15G28G 6G21G14G 3G18G22G 9
  25112909.064    25112909.122    25112907.523     4252476.260     3313628.137
                         3.000
  23021388.649    23021386.927    23021385.105   -10484905.597 5  -8170054.123 5
        30.400          31.000
  23448935.786    23448935.461    23448933.798    -7344534.480 4  -5723002.571 4
        24.900          28.100
  25584033.050    25584034.010    25584030.215      -27518.963      -21443.361 1
         3.000           6.500
  22935523.476    22935522.793    22935522.787    -9327905.491 4  -7268493.427 4
        26.500          28.800
  21871194.895    21871194.071    21871192.360   -19390786.012 5 -15109696.063 4
        33.400          29.900
  23521024.007    23521023.124    23521022.145    -8970469.783 3  -6989972.785 3
        20.500          22.100
  22903256.465    22903255.609    22903255.600    -8324613.248 4  -6486707.409 4
        26.500          28.100
  20507180.215    20507179.397    20507177.758   -25513248.201 6 -19880442.616 8
        40.200          48.900
  20667637.049    20667636.502    20667633.587   -23591067.982 7 -18382641.567 7
        42.200          46.400
  22083335.237    22083334.663    22083334.092   -15338283.636 5 -11951899.631 5
        31.100          32.300
 09  1 12  0 19 30.0000000  0 10G19G15G28G 6G21G14G 3G18G22G 9
  23016504.755    23016502.927    23016501.022   -10510571.028 5  -8190053.151 5
        30.400          31.000
  23467430.375    23467429.790    23467428.033    -7247347.003 4  -5647272.068 4
        25.600          27.900
  25578888.081    25578887.224    25578886.171      -54565.336 1    -42518.433 2
         9.000          12.600
  22946986.809    22946986.297    22946986.293    -9267665.539 4  -7221553.204 4
        27.400          28.600
  21887714.894    21887714.168    21887712.754   -19303971.908 5 -15042048.716 4
        33.400          29.900
  23500818.976    23500818.290    23500817.774    -9076646.017 3  -7072707.484 3
        20.500          22.100
  22913869.482    22913868.508    22913868.763    -8268841.622 4  -6443248.997 4
        26.500          28.400
  20511039.850    20511039.011    20511037.419   -25492965.609 6 -19864637.995 8
        40.100          48.900
  20659981.361    20659980.817    20659977.798   -23631299.027 7 -18413990.427 7
        42.200          46.400
  22070488.224    22070487.655    22070487.033   -15405795.150 5 -12004505.986 5
        31.300          32.600
 09  1 12  0 20  0.0000000  0 10G19G15G28G 6G21G14G 3G18G22G 9
  23011729.871    23011728.183    23011726.277   -10535663.432 5  -8209605.674 5
        30.800          31.100
  23485964.780    23485964.580    23485962.997    -7149944.902 4  -5571374.317 4
        24.600          27.900
  25573827.183    25573825.102    25573826.715      -81133.697      -63221.056
                         3.000
  22958531.169    22958530.587    22958530.079    -9207000.743 4  -7174281.932 4
        27.400          28.100
  21904304.235    21904303.382    21904301.832   -19216795.293 5 -14974118.901 4
        33.200          29.700
  23480651.645    23480651.001    23480649.551    -9182628.046 3  -7155290.873 3
        21.600          21.600
  22924573.797    22924573.002    22924572.924    -8212589.973 4  -6399416.552 4
        26.500          28.100
  20514971.816    20514970.982    20514969.360   -25472303.155 6 -19848537.382 8
        40.200          48.900
  20652392.897    20652392.381    20652389.318   -23671176.503 7 -18445063.778 7
        42.200          46.500
  22057749.987    22057749.313    22057748.627   -15472735.378 5 -12056667.179 5
        31.600          32.400
 09  1 12  0 20 30.0000000  0 10G19G15G28G 6G21G14G 3G18G22G 9
  23007069.326    23007067.720    23007065.625   -10560154.793 5  -8228689.851 5
        30.800          31.100
  23504544.793    23504544.804    23504543.957    -7052303.497 3  -5495290.105 4
        23.800          28.400
  25568871.662    25568870.432    25568869.318     -107196.049 1    -83529.369 1
         6.500           6.500
  22970160.600    22970160.144    22970159.501    -9145886.597 4  -7126660.525 4
        27.400          27.400
  21920966.998    21920966.159    21920964.760   -19129231.128 5 -14905887.094 4
        32.800          29.700
  23460526.331    23460525.160    23460524.357    -9288386.702 3  -7237700.196 3
        21.100          21.600
  22935373.925    22935373.098    22935373.283    -8155833.879 4  -6355191.017 4
        25.900          28.100
  20518981.051    20518980.230    20518978.587   -25451234.316 6 -19832120.100 8
        40.200          48.800
  20644877.106    20644876.527    20644873.386   -23710672.971 7 -18475840.242 7
        42.300          46.600
  22045126.163    22045125.525    22045124.745   -15539074.420 5 -12108359.931 5
        32.000          32.400
 09  1 12  0 21  0.0000000  0 10G19G15G28G 6G21G14G 3G18G22G 9
  23002519.858    23002518.279    23002516.523   -10584060.943 5  -8247318.012 5
        30.600          31.100
  23523167.632    23523167.614    23523166.114    -6954441.611 3  -5419034.098 4
        23.400          28.600
  25564005.043    25564005.075    25564003.345     -132767.895     -103455.547 1
         3.000           9.000
  22981872.418    22981871.595    22981871.083    -9084341.817 4  -7078703.552 4
        27.100          27.400
  21937700.485    21937699.609    21937697.979   -19041297.543 5 -14837367.431 4
        33.000          29.500
  23440440.445    23440439.875    23440438.684    -9393936.875 3  -7319947.059 3
        21.100          21.600
  22946267.103    22946266.209    22946265.867    -8098592.156 4  -6310587.090 4
        26.500          27.900
  20523064.548    20523063.699    20523062.032   -25429775.535 6 -19815398.969 8
        40.200          48.700
  20637430.594    20637430.031    20637427.025   -23749804.076 7 -18506332.005 7
        42.200          46.700
  22032614.148    22032613.445    22032612.648   -15604826.108 5 -12159595.002 5
        32.100          32.800
 09  1 12  0 21 30.0000000  0 10G19G15G28G 6G21G14G 3G18G22G 9
  22998080.527    22998078.902    22998077.328   -10607389.919 5  -8265496.433 5
        30.600          31.500
  23541830.340    23541829.580    23541828.237    -6856370.332 3  -5342614.921 4
        23.800          27.600
  25559228.409    25559228.882    25559226.782     -157856.955     -123005.415 1
                         6.500
  22993663.769    22993662.981    22993662.621    -9022377.721 4  -7030419.840 4
        27.100          27.600
  21954502.190    21954501.284    21954499.290   -18953005.108 5 -14768568.146 4
        33.200          29.500
  23420393.867    23420393.094    23420391.666    -9499285.410 3  -7402036.814 3
        22.100          22.100
  22957249.739    22957248.692    22957249.051    -8040876.156 4  -6265613.581 4
        25.900          28.400
  20527220.529    20527219.654    20527217.972   -25407936.038 6 -19798381.177 8
        40.300          48.600
  20630052.053    20630051.551    20630048.635   -23788578.194 7 -18536545.597 7
        42.300          46.800
  22020212.765    22020211.978    22020211.344   -15669996.274 5 -12210376.934 5
        32.300          33.100
 09  1 12  0 22  0.0000000  0 10G19G15G28G 6G21G14G 3G18G22G 9
  22993752.185    22993750.406    22993748.757   -10630136.960 5  -8283221.399 5
        30.600          31.300
  23560533.198    23560532.955    23560530.657    -6758088.326 4  -5266031.537 4
        24.900          27.100
  25554551.156    25554549.785    25554547.137     -182458.527     -142175.500 1
         3.000           9.000
  23005534.893    23005534.421    23005534.398    -8959992.916 4  -6981808.306 4
        26.200          27.900
  21971372.223    21971371.296    21971369.453   -18864352.165 5 -14699487.938 4
        32.700          29.200
  23400386.222    23400385.354    23400383.974    -9604426.972 3  -7483965.291 3
        22.100          22.100
  22968323.414    22968322.769    22968322.804    -7982684.522 4  -6220269.462 4
        25.900          28.600
  20531449.459    20531448.650    20531446.952   -25385712.541 6 -19781064.164 8
        40.300          48.600
  20622742.584    20622742.000    20622738.832   -23826990.834 7 -18566477.521 7
        42.400          46.800
  22007923.014    22007922.289    22007921.708   -15734578.505 5 -12260700.734 5
        32.300          33.100
 09  1 12  0 22 30.0000000  0 10G19G15G28G 6G21G14G 3G18G22G 9
  22989533.578    22989531.890    22989529.908   -10652305.649 5  -8300495.702 5
        30.600          31.000
  23579274.833    23579274.075    23579272.395    -6659601.445 4  -5189288.504 4
        24.600          26.800
  25549957.375    25549955.557    25549957.283     -206575.450     -160967.849 1
                        11.000
  23017485.606    23017484.957    23017484.562    -8897193.379 4  -6932873.604 4
        26.200          27.600
  21988310.150    21988309.227    21988307.093   -18775343.881 5 -14630130.844 4
        32.600          29.000
  23380417.561    23380416.864    23380415.310    -9709363.283 3  -7565733.834 3
        22.600          22.600
  22979486.109    22979485.421    22979485.348    -7924023.289 4  -6174559.409 4
        25.600          27.900
  20535750.825    20535750.002    20535748.224   -25363109.088 6 -19763451.078 8
        40.500          48.500
  20615500.965    20615500.457    20615497.304   -23865045.134 7 -18596130.218 7
        42.400          46.800
  21995744.884    21995744.182    21995743.938   -15798573.441 5 -12310566.906 5
        32.100          33.400
 09  1 12  0 23  0.0000000  0 10G19G15G28G 6G21G14G 3G18G22G 9
  22985426.008    22985424.179    22985422.229   -10673891.194 5  -8317315.602 5
        30.600          30.600
  23598055.194    23598055.074    23598053.469    -6560908.107 3  -5112384.599 4
        23.800          27.600
  25545464.766    25545462.905    25545461.466     -230202.567 1   -179378.588 2
         6.500          15.100
  23029515.031    23029514.495    23029514.010    -8833977.538 4  -6883614.506 4
        25.600          27.600
  22005315.393    22005314.644    22005312.741   -18685978.703 5 -14560495.657 4
        32.400          28.800
  23360489.097    23360488.190    23360486.894    -9814088.476 3  -7647337.867 3
        22.600          23.000
  22990739.014    22990737.915    22990737.887    -7864890.822 4  -6128482.161 4
        25.600          28.100
  20540125.116    20540124.290    20540122.630   -25340121.958 6 -19745539.028 8
        40.500          48.500
  20608328.368    20608327.888    20608325.000   -23902736.296 7 -18625499.952 7
        42.200          46.900
  21983680.379    21983679.524    21983679.056   -15861974.717 5 -12359970.484 5
        32.400          33.400
 09  1 12  0 23 30.0000000  0 10G19G15G28G 6G21G14G 3G18G22G 9
  22981429.827    22981428.118    22981426.173   -10694890.575 5  -8333678.757 5
        30.600          30.800
  23616874.921    23616874.911    23616873.519    -6462008.580 3  -5035320.051 4
        23.800          27.900
  25541062.126    25541061.027    25541059.461     -253337.133 1   -197405.599 2
         6.500          15.100
  23041623.697    23041622.884    23041623.013    -8770345.806 4  -6834031.358 4
        25.300          28.400
  22022389.097    22022388.325    22022386.347   -18596255.978 5 -14490581.858 4
        32.400          28.600
  23340600.727    23340600.387    23340599.474    -9918598.692 3  -7728774.373 3
        22.600          23.400
  23002080.466    23002079.559    23002080.275    -7805287.516 4  -6082038.025 4
        25.300          28.400
  20544572.760    20544571.977    20544570.295   -25316749.317 6 -19727326.577 8
        40.500          48.500
  20601225.689    20601225.139    20601222.141   -23940061.801 7 -18654584.753 7
        42.300          47.000
  21971729.267    21971728.378    21971727.822   -15924777.418 5 -12408907.648 5
        32.300          33.000
 09  1 12  0 24  0.0000000  0 10G19G15G28G 6G21G14G 3G18G22G 9
  22977544.785    22977542.896    22977541.058   -10715307.851 5  -8349588.312 5
        30.400          31.000
  23635732.540    23635732.543    23635731.119    -6362909.538 3  -4958100.012 4
        23.400          27.100
  25536751.046    25536749.722    25536748.664     -275982.764     -215051.552 2
         3.000          12.600
  23053810.542    23053809.628    23053809.610    -8706305.128 4  -6784129.535 4
        25.900          28.600
  22039529.882    22039529.072    22039526.958   -18506181.800 5 -14420394.198 4
        32.400          28.600
  23320753.269    23320752.730    23320752.124   -10022896.546 3  -7810045.416 3
        23.000          23.800
  23013511.381    23013510.624    23013510.523    -7745221.032 4  -6035232.981 4
        25.600          28.400
  20549092.772    20549091.905    20549090.328   -25292996.314 6 -19708817.739 8
        40.400          48.300
  20594191.662    20594191.139    20594188.200   -23977025.482 7 -18683387.620 7
        42.200          47.000
  21959891.618    21959891.069    21959890.338   -15986983.289 5 -12457379.744 5
        32.100          33.100
 09  1 12  0 24 30.0000000  0 10G19G15G28G 6G21G14G 3G18G22G 9
  22973771.369    22973769.940    22973768.089   -10735134.863 5  -8365037.926 5
        30.200          31.100
  23654629.851    23654629.742    23654627.753    -6263605.593 3  -4880720.311 4
        23.800          26.500
  25532538.227    25532536.183    25532536.273     -298130.537 1   -232309.520 2
         6.500          12.600
  23066075.684    23066075.244    23066074.954    -8641850.021 4  -6733904.783 4
        25.900          28.400
  22056738.189    22056737.258    22056735.622   -18415751.250 5 -14349928.843 4
        32.000          28.800
  23300948.619    23300947.934    23300947.273   -10126972.451 3  -7891143.503 4
        23.400          24.600
  23025030.816    23025029.901    23025029.938    -7684685.391 4  -5988062.356 4
        25.600          27.600
  20553686.708    20553685.896    20553684.242   -25268855.139 6 -19690006.430 8
        40.500          48.300
  20587228.314    20587227.760    20587224.719   -24013618.856 7 -18711901.934 7
        42.300          47.100
  21948170.061    21948169.433    21948168.803   -16048581.805 5 -12505378.574 5
        32.600          33.400
 09  1 12  0 25  0.0000000  0 10G19G15G28G 6G21G14G 3G18G22G 9
  22970110.388    22970108.830    22970106.995   -10754373.811 5  -8380029.307 5
        30.200          31.300
  23673564.724    23673564.412    23673562.455    -6164102.175 3  -4803185.166 4
        23.000          27.100
  25528417.992    25528417.186    25528412.920     -319782.931 1   -249181.554 1
         9.000           6.500
  23078419.054    23078418.320    23078418.256    -8576986.052 4  -6683361.443 4
        25.600          28.400
  22074013.283    22074012.496    22074011.237   -18324968.447 5 -14279189.021 4
        31.300          29.200
  23281185.636    23281185.010    23281184.469   -10230827.799 3  -7972069.736 4
        23.400          24.900
  23036638.656    23036637.849    23036637.490    -7623686.385 4  -5940530.657 4
        25.900          27.400
  20558353.828    20558352.995    20558351.375   -25244329.305 6 -19670895.385 8
        40.500          48.100
  20580334.929    20580334.412    20580331.225   -24049844.255 7 -18740129.515 7
        42.400          47.100
  21936563.357    21936562.940    21936562.513   -16109573.753 5 -12552904.755 5
        32.600          33.400
 09  1 12  0 25 30.0000000  0 10G19G15G28G 6G21G14G 3G18G22G 9
  22966560.123    22966558.399    22966556.673   -10773031.208 5  -8394567.528 5
        30.600          31.100
  23692536.152    23692535.799    23692533.603    -6064408.335 3  -4725501.662 4
        22.600          26.800
  25524388.134    25524388.230    25524386.918     -340946.017     -265672.290 1
         3.000          11.000
  23090838.041    23090837.382    23090837.047    -8511722.748 4  -6632506.928 4
        25.600          27.400
  22091354.154    22091353.319    22091351.781   -18233842.566 5 -14208181.861 4
        31.100          28.800
  23261463.985    23261463.146    23261462.077   -10334467.644 3  -8052828.043 4
        23.000          24.600
  23048332.743    23048331.953    23048331.890    -7562233.200 4  -5892645.063 4
        25.900          27.900
  20563092.632    20563091.821    20563090.150   -25219426.398 6 -19651490.520 7
        40.500          47.900
  20573510.005    20573509.471    20573506.476   -24085708.337 7 -18768075.551 7
        42.200          47.000
  21925071.959    21925071.451    21925070.548   -16169963.157 5 -12599961.422 5
        32.700          33.100
 09  1 12  0 26  0.0000000  0 10G19G15G28G 6G21G14G 3G18G22G 9
  22963121.047    22963119.499    22963117.525   -10791102.809 5  -8408649.295 5
        31.000          31.000
  23711544.221    23711543.598    23711540.947    -5964522.662 3  -4647668.673 4
        21.600          26.800
  25520458.212    25520456.542    25520455.056     -361615.347 1   -281778.239 2
        11.000          12.600
  23103333.465    23103332.833    23103332.630    -8446058.781 4  -6581340.190 4
        25.600          27.400
  22108760.455    22108759.638    22108758.090   -18142371.660 5 -14136905.851 4
        31.300          28.600
  23241784.146    23241783.214    23241781.866   -10437886.554 3  -8133414.191 4
        23.400          24.200
  23060113.610    23060112.838    23060112.741    -7500324.791 4  -5844404.741 4
        25.900          28.100
  20567903.950    20567903.084    20567901.374   -25194143.188 6 -19631789.313 7
        40.600          47.900
  20566754.917    20566754.382    20566751.399   -24121206.783 7 -18795736.673 7
        42.400          47.200
  21913695.957    21913695.261    21913694.904   -16229743.551 5 -12646543.533 5
        32.600          33.400
 09  1 12  0 26 30.0000000  0 10G19G15G28G 6G21G14G 3G18G22G 9
  22959794.656    22959793.225    22959790.952   -10808583.605 5  -8422270.688 5
        31.300          30.600
  23730588.748    23730588.103    23730585.624    -5864442.762 3  -4569684.347 4
        21.600          25.900
  25516618.577    25516618.051    25516615.059     -381785.503 2   -297495.220 1
        12.600          11.000
  23115905.228    23115904.605    23115904.467    -8379992.260 4  -6529859.791 4
        24.600          26.500
  22126232.737    22126232.083    22126230.578   -18050553.175 5 -14065358.997 4
        31.300          28.100
  23222147.503    23222146.662    23222145.678   -10541078.104 3  -8213823.180 4
        23.800          24.900
  23071981.197    23071980.544    23071980.365    -7437959.511 4  -5795808.418 4
        25.900          27.600
  20572788.359    20572787.520    20572785.772   -25168475.309 6 -19611788.363 7
        40.500          47.800
  20560070.470    20560069.926    20560066.827   -24156333.885 7 -18823108.439 7
        42.300          47.100
  21902437.348    21902436.851    21902436.046   -16288908.151 5 -12692645.805 5
        32.800          33.100
 09  1 12  0 27  0.0000000  0 10G19G15G28G 6G21G14G 3G18G22G 9
  22956578.868    22956577.298    22956575.753   -10825481.752 5  -8435438.070 5
        30.800          31.100
  23749668.040    23749667.280    23749664.922    -5764179.813 3  -4491557.378 4
        21.100          24.900
  25512869.860    25512871.445    25512871.455     -401464.177 1   -312829.314 2
         6.500          12.600
  23128551.704    23128551.247    23128551.146    -8313534.237 4  -6478074.307 4
        24.900          27.100
  22143769.540    22143768.809    22143767.057   -17958397.926 5 -13993549.720 4
        31.300          27.900
  23202552.803    23202551.941    23202550.580   -10644049.073 3  -8294060.284 4
        23.800          24.900
  23083933.881    23083933.094    23083932.796    -7375148.182 4  -5746864.517 4
        25.900          27.400
  20577744.119    20577743.335    20577741.740   -25142431.620 6 -19591494.576 7
        40.600          47.800
  20553455.015    20553454.487    20553451.367   -24191098.492 7 -18850197.743 7
        42.400          47.300
  21891294.537    21891293.894    21891293.408   -16347463.028 5 -12738272.969 5
        32.700          33.400
 09  1 12  0 27 30.0000000  0 10G19G15G28G 6G21G14G 3G18G22G 9
  22953476.354    22953474.711    22953472.770   -10841786.734 5  -8448143.240 5
        30.200          31.100
  23768783.500    23768782.685    23768780.540    -5663725.936 3  -4413281.637 4
        20.500          24.600
  25509224.368    25509223.682    25509222.045     -420640.892 1   -327772.103 2
        11.000          13.900
  23141274.716    23141273.944    23141273.920    -8246677.069 4  -6425977.821 4
        24.600          27.100
  22161371.855    22161370.950    22161369.311   -17865897.397 5 -13921471.402 4
        30.800          28.100
  23183001.591    23183000.841    23183000.152   -10746787.815 3  -8374116.429 4
        23.000          25.300
  23095972.744    23095971.861    23095971.557    -7311883.799 4  -5697567.589 4
        25.600          26.800
  20582773.639    20582772.781    20582771.121   -25116002.245 6 -19570900.255 7
        40.700          47.700
  20546910.569    20546910.035    20546906.924   -24225489.650 7 -18876996.043 7
        42.300          47.400
  21880270.301    21880269.708    21880269.200   -16405395.633 5 -12783415.245 5
        32.700          33.400
 09  1 12  0 28  0.0000000  0 10G19G15G28G 6G21G14G 3G18G22G 9
  22950486.244    22950484.509    22950482.754   -10857500.224 5  -8460387.514 5
        31.100          31.100
  23787934.466    23787934.287    23787931.805    -5563085.396 3  -4334860.430 4
        21.600          24.200
  25505673.204    25505671.821    25505667.947     -439316.467 1   -342324.515 1
        11.000          11.000
  23154072.455    23154071.546    23154071.090    -8179425.397 4  -6373573.917 4
        24.200          27.100
  22179038.783    22179037.968    22179036.608   -17773056.127 5 -13849127.570 4
        30.400          28.100
  23163495.001    23163494.307    23163493.644   -10849294.483 3  -8453991.730 4
        23.400          24.900
  23108096.953    23108096.193    23108095.814    -7248170.581 4  -5647920.924 4
        25.900          26.500
  20587875.773    20587874.940    20587873.297   -25089190.374 6 -19550007.883 7
        40.700          47.700
  20540436.967    20540436.380    20540433.284   -24259508.978 7 -18903504.606 7
        42.300          47.400
  21869364.845    21869364.179    21869363.456   -16462705.590 5 -12828072.344 5
        33.000          33.400
 09  1 12  0 28 30.0000000  0 10G19G15G28G 6G21G14G 3G18G22G 9
  22947609.061    22947607.502    22947605.382   -10872619.632 5  -8472168.867 5
        31.600          31.100
  23807121.287    23807121.080    23807118.798    -5462258.191 3  -4256293.771 4
        22.100          24.900
  25502211.655    25502210.310    25502210.382     -457488.385     -356484.499 1
                         9.000
  23166944.381    23166943.984    23166943.851    -8111779.525 4  -6320862.854 4
        24.200          27.600
  22196770.719    22196770.037    22196768.607   -17679873.476 5 -13776517.732 4
        30.400          27.900
  23144033.980    23144033.072    23144032.177   -10951564.999 4  -8533683.027 4
        24.200          25.300
  23120305.803    23120305.308    23120305.160    -7184009.187 4  -5597925.038 4
        25.300          26.800
  20593051.142    20593050.258    20593048.578   -25061993.858 6 -19528815.791 7
        40.600          47.500
  20534034.581    20534034.001    20534030.952   -24293153.445 7 -18929721.072 7
        42.300          47.500
  21858578.286    21858577.777    21858577.411   -16519387.848 5 -12872240.330 5
        33.000          33.900
 09  1 12  0 29  0.0000000  0 10G19G15G28G 6G21G14G 3G18G22G 9
  22944844.021    22944842.386    22944840.472   -10887150.297 5  -8483491.458 5
        31.800          31.000
  23826341.495    23826341.406    23826339.480    -5361252.578 3  -4177588.106 4
        21.600          25.300
  25498849.961    25498848.774    25498845.764     -475161.928     -370256.024 1
                         9.000
  23179890.347    23179889.695    23179890.058    -8043747.934 3  -6267851.240 4
        23.800          27.400
  22214566.474    22214565.678    22214564.249   -17586357.177 5 -13703647.898 4
        30.400          27.900
  23124616.581    23124615.992    23124614.834   -11053603.618 4  -8613193.622 4
        24.200          25.600
  23132599.316    23132598.694    23132598.265    -7119408.050 4  -5547586.496 4
        25.300          27.100
  20598298.396    20598297.625    20598295.911   -25034418.531 6 -19507328.522 7
        40.600          47.400
  20527702.566    20527702.021    20527698.988   -24326428.208 7 -18955649.454 7
        42.400          47.600
  21847910.994    21847910.371    21847910.020   -16575445.755 5 -12915921.797 5
        33.200          34.000
 09  1 12  0 29 30.0000000  0 10G19G15G28G 6G21G14G 3G18G22G 9
  22942190.958    22942189.428    22942187.535   -10901091.498 5  -8494354.735 5
        31.500          31.000
  23845595.694    23845595.887    23845593.958    -5260070.079 3  -4098744.598 4
        21.600          25.900
  25495580.058    25495579.780    25495580.216     -492335.308     -383637.859 1
         3.000          11.000
  23192910.284    23192909.462    23192909.059    -7975332.670 4  -6214540.652 4
        24.600          28.100
  22232425.087    22232424.335    22232422.922   -17492508.738 5 -13630519.258 4
        30.100          27.400
  23105244.040    23105243.171    23105242.148   -11155407.833 4  -8692521.571 4
        24.200          25.300
  23144975.982    23144975.348    23144975.118    -7054369.093 4  -5496906.783 4
        24.900          27.400
  20603617.810    20603617.029    20603615.272   -25006464.758 6 -19485546.356 7
        40.700          47.300
  20521441.148    20521440.596    20521437.516   -24359332.297 7 -18981289.002 7
        42.500          47.700
  21837362.950    21837362.218    21837361.472   -16630876.459 5 -12959114.542 5
        33.100          33.500
 09  1 12  0 30  0.0000000  0 10G19G15G28G 6G21G14G 3G18G22G 9
  22939650.207    22939648.659    22939646.917   -10914443.117 5  -8504758.594 5
        31.500          31.100
  23864883.229    23864883.361    23864881.362    -5158713.411 3  -4019765.369 4
        21.100          25.900
  25492409.911    25492409.540    25492406.575     -509008.567     -396630.040 1
         3.000           9.000
  23206000.952    23206000.379    23206000.575    -7906536.516 4  -6160933.257 4
        24.200          28.100
  22250346.440    22250345.816    22250344.489   -17398330.872 5 -13557133.928 4
        30.100          27.400
  23085916.069    23085915.265    23085914.389   -11256976.466 4  -8771665.940 4
        24.600          25.600
  23157435.160    23157434.359    23157434.144    -6988895.541 4  -5445888.445 4
        24.600          27.100
  20609009.167    20609008.347    20609006.726   -24978133.067 6 -19463469.709 7
        40.700          47.300
  20515250.163    20515249.661    20515246.629   -24391865.836 7 -19006639.807 7
        42.500          47.900
  21826934.383    21826933.816    21826933.257   -16685678.021 5 -13001817.044 5
        33.100          33.800
 09  1 12  0 30 30.0000000  0 10G19G15G28G 6G21G14G 3G18G22G 9
  22937223.490    22937221.653    22937219.468   -10927197.029 5  -8514696.705 5
        31.600          30.600
  23884205.221    23884205.009    23884203.275    -5057176.695 3  -3940645.857 4
        20.500          25.600
  25489332.004    25489331.946    25489330.262     -525173.081     -409225.680
         3.000           3.000
  23219165.573    23219165.230    23219165.277    -7837354.105 4  -6107024.890 4
        24.200          27.600
  22268331.967    22268331.069    22268329.619   -17303817.226 4 -13483486.949 4
        29.700          26.800
  23066634.511    23066633.919    23066633.070   -11358299.658 4  -8850619.066 4
        24.600          25.600
  23169977.373    23169976.868    23169977.133    -6922982.079 4  -5394527.293 4
        24.200          27.100
  20614473.856    20614473.035    20614471.388   -24949416.004 6 -19441092.776 7
        40.800          47.300
  20509131.522    20509130.980    20509127.961   -24424019.732 7 -19031694.787 8
        42.600          48.000
  21816627.837    21816627.073    21816626.691   -16739839.865 5 -13044021.064 5
        33.500          34.300
 09  1 12  0 31  0.0000000  0 10G19G15G28G 6G21G14G 3G18G22G 9
  22934908.285    22934906.846    22934904.743   -10939361.638 5  -8524175.623 5
        32.100          30.400
  23903559.851    23903558.955    23903557.012    -4955471.139 3  -3861394.769 4
        20.500          24.600
  25486352.726    25486351.526    25486352.572     -540837.128 1   -421431.501 1
         6.500           6.500
  23232402.059    23232402.030    23232401.717    -7767796.969 3  -6052824.534 4
        23.800          27.400
  22286379.260    22286378.145    22286376.879   -17208978.695 4 -13409586.813 4
        29.000          26.800
  23047398.335    23047397.970    23047397.286   -11459384.431 4  -8929386.411 4
        24.200          25.300
  23182601.974    23182601.557    23182601.495    -6856639.873 4  -5342832.087 4
        24.200          26.800
  20620010.155    20620009.320    20620007.666   -24920322.789 6 -19418422.735 7
        40.800          47.100
  20503083.292    20503082.855    20503079.804   -24455802.568 7 -19056460.628 8
        42.600          48.000
  21806441.700    21806441.064    21806440.371   -16793368.365 5 -13085731.570 5
        33.600          33.900
 09  1 12  0 31 30.0000000  0 10G19G15G28G 6G21G14G 3G18G22G 9
  22932705.369    22932703.786    22932701.641   -10950939.155 5  -8533197.057 5
        32.000          30.400
  23922945.232    23922944.431    23922942.371    -4853601.641 3  -3782015.941 4
        21.100          24.600
  25483465.668    25483464.527    25483463.124     -556002.492 1   -433248.729 1
         6.500           9.000
  23245708.868    23245708.549    23245708.222    -7697870.087 3  -5998336.061 4
        23.800          26.800
  22304487.410    22304486.485    22304485.084   -17113819.799 4 -13335437.049 4
        29.200          26.800
  23028208.044    23028207.575    23028206.596   -11560231.580 4  -9007968.593 4
        24.900          25.600
  23195306.472    23195305.848    23195306.708    -6789874.488 3  -5290807.103 4
        23.800          26.800
  20625617.425    20625616.576    20625614.868   -24890856.401 6 -19395461.911 7
        40.900          47.000
  20497105.565    20497105.066    20497101.990   -24487216.249 7 -19080938.816 8
        42.600          48.100
  21796375.967    21796375.245    21796374.593   -16846263.874 5 -13126948.833 5
        33.600          33.900
 09  1 12  0 32  0.0000000  0 10G19G15G28G 6G21G14G 3G18G22G 9
  22930615.201    22930613.261    22930610.934   -10961924.584 5  -8541757.128 5
        31.600          30.400
  23942361.939    23942361.317    23942359.224    -4751565.539 3  -3702507.284 4
        20.500          24.600
  25480674.731    25480675.538    25480674.356     -570663.747 1   -444673.075 2
         6.500          13.900
  23259086.251    23259085.729    23259085.755    -7627571.267 3  -5943557.762 4
        23.400          26.500
  22322656.928    22322656.214    22322654.717   -17018337.464 4 -13261035.248 4
        29.200          26.500
  23009064.214    23009063.438    23009062.359   -11660834.602 4  -9086360.543 4
        24.600          25.600
  23208093.396    23208092.683    23208092.792    -6722683.714 4  -5238450.663 4
        24.200          26.800
  20631296.464    20631295.646    20631293.887   -24861012.691 6 -19372207.069 7
        40.800          46.900
  20491199.025    20491198.521    20491195.435   -24518255.369 7 -19105125.137 8
        42.700          48.200
  21786432.284    21786431.603    21786430.920   -16898519.020 5 -13167667.123 5
        33.900          34.300
 09  1 12  0 32 30.0000000  0 10G19G15G28G 6G21G14G 3G18G22G 9
  22928637.723    22928635.877    22928633.997   -10972315.266 5  -8549853.763 5
        31.300          30.800
  23961810.143    23961809.970    23961808.242    -4649361.873 3  -3622868.063 4
        19.900          25.300
  25477982.406    25477980.086    25477981.360     -584818.199     -455702.505 2
                        12.600
  23272534.857    23272534.126    23272533.860    -7556900.633 4  -5888489.743 4
        24.200          26.200
  22340888.443    22340887.666    22340886.051   -16922531.841 4 -13186381.535 4
        29.500          26.800
  22989967.199    22989966.547    22989965.454   -11761189.145 4  -9164558.869 4
        24.600          25.600
  23220960.180    23220959.281    23220959.554    -6655067.638 4  -5185762.802 4
        24.600          26.800
  20637047.875    20637047.067    20637045.321   -24830789.091 6 -19348656.209 7
        41.000          46.900
  20485364.325    20485363.796    20485360.801   -24548916.841 7 -19129017.189 8
        42.700          48.300
  21776611.164    21776610.450    21776609.929   -16950129.192 5 -13207882.825 5
        33.900          34.500
 09  1 12  0 33  0.0000000  0 10G19G15G28G 6G21G14G 3G18G22G 9
  22926773.194    22926771.411    22926769.470   -10982112.427 5  -8557487.908 5
        31.100          30.400
  23981288.797    23981289.198    23981288.225    -4546994.839 3  -3543101.542 4
        18.600          25.300
  25475387.086    25475385.129    25475383.345     -598466.276     -466337.374
         3.000           3.000
  23286052.580    23286052.049    23286052.136    -7485862.298 4  -5833135.189 4
        24.200          26.200
  22359180.991    22359180.084    22359178.349   -16826406.062 4 -13111478.350 4
        29.500          27.100
  22970917.782    22970916.862    22970915.988   -11861295.074 4  -9242563.472 4
        25.300          25.600
  23233907.646    23233906.781    23233906.703    -6587030.292 4  -5132746.694 4
        24.200          26.200
  20642870.998    20642870.221    20642868.600   -24800187.661 6 -19324810.936 7
        40.900          46.800
  20479601.343    20479600.791    20479597.805   -24579201.733 7 -19152615.800 8
        42.700          48.400
  21766912.949    21766912.255    21766911.539   -17001093.505 5 -13247595.265 5
        33.900          34.000
 09  1 12  0 33 30.0000000  0 10G19G15G28G 6G21G14G 3G18G22G 9
  22925022.198    22925020.461    22925018.236   -10991314.592 5  -8564658.421 5
        31.100          30.400
  24000800.456    24000800.137    24000798.888    -4444465.370 3  -3463208.447 4
        19.300          25.300
  25472884.294    25472883.556    25472882.580     -611606.494     -476576.526
         3.000
  23299640.460    23299639.776    23299640.042    -7414457.636 4  -5777495.200 4
        24.200          26.200
  22377533.552    22377532.827    22377531.322   -16729960.795 4 -13036326.216 4
        28.800          27.100
  22951915.842    22951915.080    22951914.558   -11961149.321 4  -9320371.953 4
        25.600          25.600
  23246934.537    23246933.631    23246933.783    -6518573.277 4  -5079403.554 4
        24.900          26.200
  20648766.411    20648765.558    20648763.898   -24769207.583 6 -19300670.610 7
        40.900          46.700
  20473910.317    20473909.764    20473906.677   -24609108.467 7 -19175919.744 8
        42.800          48.400
  21757338.205    21757337.612    21757337.045   -17051408.647 5 -13286801.863 5
        34.000          34.400
 09  1 12  0 34  0.0000000  0  9G19G15G 6G21G14G 3G18G22G 9
  22923383.411    22923381.632    22923380.177   -10999924.869 5  -8571367.730 5
        30.600          30.600
  24020340.879    24020340.628    24020339.452    -4341778.617 2  -3383192.807 4
        17.800          24.900
  23313297.144    23313296.523    23313296.549    -7342692.448 4  -5721574.279 4
        24.200          26.500
  22395946.296    22395945.539    22395943.969   -16633200.947 4 -12960928.948 4
        28.600          26.200
  22932961.793    22932961.240    22932960.508   -12060753.275 4  -9397985.406 4
        25.600          25.600
  23260040.181    23260039.500    23260039.223    -6449702.765 4  -5025738.220 4
        24.600          25.600
  20654732.927    20654732.139    20654730.492   -24737852.981 6 -19276238.453 7
        40.800          46.600
  20468290.777    20468290.268    20468287.140   -24638639.181 7 -19198930.685 8
        42.800          48.500
  21747886.913    21747886.255    21747885.403   -17101075.597 5 -13325503.368 5
        34.100          33.900
 09  1 12  0 34 30.0000000  0 10G28G19G15G 6G21G14G 3G18G22G 9
  25468174.959    25468174.341    25468171.757           -.4901          -.35511
         3.000           6.500
  22921858.524    22921856.955    22921855.320   -11007937.522 5  -8577611.354 5
        30.400          30.800
  24039912.285    24039912.001    24039910.651    -4238931.553 2  -3303052.243 4
        17.800          24.600
  23327022.412    23327021.918    23327022.171    -7270564.004 3  -5665370.303 4
        23.400          26.500
  22414419.246    22414418.457    22414417.002   -16536123.980 4 -12885284.574 4
        28.400          25.900
  22914057.252    22914056.553    22914055.477   -12160099.830 4  -9475398.286 4
        26.200          25.900
  23273224.997    23273224.106    23273223.962    -6380415.889 3  -4971748.450 4
        23.800          24.900
  20660771.977    20660771.097    20660769.371   -24706118.338 6 -19251510.159 7
        40.900          46.500
  20462743.828    20462743.375    20462740.243   -24667788.120 7 -19221644.139 8
        43.000          48.500
  21738560.390    21738559.806    21738558.707   -17150086.695 5 -13363693.835 5
        34.100          33.600
 09  1 12  0 35  0.0000000  0 10G 9G28G19G15G 6G21G14G 3G18G22
  21729357.801    21729357.126    21729356.621   -17198446.121 5 -13401376.488 5
        34.000          34.300
  25465963.069    25465962.123    25465961.750      -11619.132 1     -9053.804 1
         6.500           6.500
  22920446.360    22920444.611    22920442.802   -11015359.444 5  -8583394.658 5
        30.800          30.400
  24059512.310    24059511.936    24059511.042    -4135932.935 2  -3222793.575 4
        17.800          24.200
  23340815.620    23340814.907    23340814.910    -7198081.528 3  -5608890.453 4
        23.400          26.200
  22432951.265    22432950.472    22432949.003   -16438738.338 4 -12809399.686 4
        28.600          25.600
  22895200.139    22895199.409    22895198.391   -12259194.020 4  -9552614.521 4
        26.200          26.200
  23286486.966    23286486.611    23286486.321    -6310722.155 3  -4917441.650 4
        23.800          24.900
  20666881.694    20666880.860    20666879.232   -24674010.844 6 -19226491.328 7
        40.900          46.400
  20457268.532    20457268.061    20457264.906   -24696561.271 7 -19244064.771 8
        43.100          48.800
 09  1 12  0 35 30.0000000  0 10G 9G28G19G15G 6G21G14G 3G18G22
  21720278.934    21720278.381    21720277.707   -17246155.415 5 -13438552.558 5
        34.300          34.300
  25463845.591    25463845.164    25463846.634      -22736.116      -17716.304 1
         3.000           9.000
  22919145.429    22919144.132    22919142.220   -11022194.172 5  -8588720.427 5
        30.800          30.200
  24079140.650    24079140.303    24079139.109    -4032788.638 2  -3142421.397 4
        17.800          24.200
  23354674.931    23354674.335    23354674.319    -7125251.459 3  -5552139.751 4
        23.000          26.200
  22451540.800    22451539.917    22451538.565   -16341049.381 4 -12733278.433 4
        28.400          25.600
  22876390.702    22876389.922    22876388.839   -12358037.753 4  -9629635.594 4
        25.900          26.500
  23299825.458    23299824.780    23299824.782    -6240627.697 3  -4862822.587 3
        23.400          23.800
  20673061.681    20673060.825    20673059.211   -24641534.724 6 -19201185.259 7
        40.900          46.400
  20451864.115    20451863.602    20451860.496   -24724961.889 7 -19266195.119 8
        43.200          48.900
 09  1 12  0 36  0.0000000  0 10G 9G28G19G15G 6G21G14G 3G18G22
  21711325.673    21711324.971    21711324.214   -17293206.594 5 -13475215.811 5
        34.400          34.400
  25461827.985    25461827.672    25461828.469      -33344.803 1    -25982.829 1
         9.000           6.500
  22917958.118    22917956.624    22917954.482   -11028435.213 5  -8593583.567 5
        31.000          30.100
  24098797.265    24098796.886    24098794.760    -3929494.721 2  -3061932.636 3
        17.800          23.400
  23368600.460    23368600.073    23368600.397    -7052070.180 3  -5495115.387 4
        22.600          26.800
  22470188.971    22470188.251    22470186.791   -16243053.216 4 -12656917.803 4
        28.100          25.900
  22857630.840    22857629.957    22857628.667   -12456622.890 4  -9706455.154 4
        25.900          26.500
  23313241.175    23313240.205    23313240.331    -6170129.169 3  -4807888.659 4
        23.000          24.600
  20679312.964    20679312.137    20679310.378   -24608684.289 6 -19175587.518 7
        41.000          46.100
  20446531.870    20446531.315    20446528.163   -24752983.274 7 -19288029.960 8
        43.100          48.900
 09  1 12  0 36 30.0000000  0 10G 9G28G19G15G 6G21G14G 3G18G22
  21702497.854    21702497.263    21702496.615   -17339596.371 5 -13511363.671 5
        34.400          34.600
  25459906.961    25459906.106    25459904.987      -43443.351 1    -33851.925
         6.500
  22916884.171    22916882.195    22916879.886   -11034081.979 5  -8597983.643 5
        31.100          30.200
  24118481.467    24118480.715    24118478.658    -3826052.408 2  -2981328.242 3
        17.800          23.400
  23382593.057    23382592.114    23382592.653    -6978539.481 3  -5437818.760 4
        22.100          25.900
  22488895.260    22488894.389    22488893.132   -16144750.916 4 -12580318.636 4
        27.400          25.900
  22838920.380    22838919.490    22838918.327   -12554946.950 4  -9783071.285 4
        26.800          27.100
  23326733.225    23326732.354    23326732.204    -6099228.942 3  -4752641.728 4
        23.400          25.300
  20685635.551    20685634.688    20685632.968   -24575458.960 6 -19149697.649 7
        41.000          46.000
  20441271.897    20441271.410    20441268.352   -24780623.784 7 -19309568.015 8
        43.200          49.000
 09  1 12  0 37  0.0000000  0  9G 9G19G15G 6G21G14G 3G18G22
  21693796.638    21693796.079    21693795.273   -17385321.017 5 -13546993.264 5
        34.500          34.400
  22915922.845    22915921.065    22915919.034   -11039132.609 5  -8601919.199 5
        31.500          30.600
  24138193.523    24138193.613    24138191.043    -3722462.064 3  -2900608.502 3
        18.600          23.000
  23396651.583    23396651.163    23396650.975    -6904660.472 3  -5380250.710 4
        22.100          24.600
  22507659.981    22507659.062    22507657.406   -16046142.920 4 -12503481.262 4
        27.600          25.300
  22820259.952    22820259.382    22820258.320   -12653006.664 4  -9859481.437 4
        26.500          27.400
  23340301.455    23340300.188    23340300.165    -6027927.717 3  -4697082.351 4
        22.100          24.600
  20692029.566    20692028.790    20692027.056   -24541857.651 6 -19123514.806 7
        41.000          45.800
  20436085.125    20436084.553    20436081.370   -24807881.647 7 -19330807.905 8
        43.400          49.100
 09  1 12  0 37 30.0000000  0  9G 9G19G15G 6G21G14G 3G18G22
  21685221.896    21685221.235    21685220.800   -17430381.886 5 -13582105.620 5
        34.500          34.900
  22915074.583    22915072.817    22915071.013   -11043590.457 5  -8605392.843 5
        31.600          31.100
  24157933.066    24157933.204    24157930.346    -3618729.142 3  -2819777.650 3
        19.300          23.000
  23410775.599    23410775.111    23410774.895    -6830439.131 3  -5322415.891 4
        23.000          24.200
  22526481.564    22526480.883    22526478.928   -15947234.609 4 -12426409.865 4
        28.100          24.900
  22801649.965    22801649.030    22801648.134   -12750803.634 4  -9935686.846 4
        26.500          27.400
  23353944.570    23353943.518    23353943.300    -5956231.603 3  -4641215.254 3
        21.600          23.800
  20698494.625    20698493.818    20698492.011   -24507884.092 6 -19097041.900 7
        41.000          45.700
  20430970.359    20430969.877    20430966.693   -24834759.221 7 -19351751.465 8
        43.300          49.100
 09  1 12  0 38  0.0000000  0 10G 9G28G19G15G 6G21G14G 3G18G22
  21676775.940    21676775.141    21676774.415   -17474766.744 5 -13616691.216 5
        34.600          34.700
  25454726.129    25454725.965    25454725.029           -.32411         -.42111
         6.500           6.500
  22914340.962    22914339.164    22914337.019   -11047445.411 5  -8608396.701 5
        31.500          30.600
  24177701.174    24177701.076    24177698.578    -3514845.666 3  -2738829.483 3
        18.600          22.100
  23424966.037    23424965.597    23424965.141    -6755867.849 3  -5264308.410 3
        23.000          23.800
  22545361.623    22545360.944    22545359.129   -15848017.653 4 -12349097.959 4
        27.400          24.900
  22783092.067    22783091.245    22783089.983   -12848325.946 4 -10011678.246 4
        26.800          27.100
  23367664.654    23367663.676    23367663.599    -5884133.240 3  -4585034.726 4
        23.000          24.600
  20705032.217    20705031.418    20705029.632   -24473528.550 6 -19070271.344 7
        41.100          45.600
  20425930.098    20425929.557    20425926.470   -24861245.927 7 -19372390.453 8
        43.400          49.300
 09  1 12  0 38 30.0000000  0 10G 9G28G19G15G 6G21G14G 3G18G22
  21668455.483    21668454.974    21668454.249   -17518489.447 5 -13650760.852 5
        34.700          34.700
  25453192.875    25453193.958    25453189.681       -8055.415 1     -6277.072
         6.500           3.000
  22913719.156    22913717.368    22913715.248   -11050713.054 5  -8610942.916 5
        31.500          30.400
  24197493.875    24197493.929    24197492.373    -3410829.637 2  -2657778.033 3
        17.800          22.100
  23439219.731    23439219.138    23439218.792    -6680965.452 3  -5205942.909 4
        22.600          24.200
  22564296.978    22564296.712    22564294.871   -15748510.541 4 -12271559.980 4
        27.400          25.300
  22764583.657    22764582.823    22764581.665   -12945588.047 4 -10087466.891 4
        27.400          27.600
  23381457.734    23381456.846    23381456.408    -5811651.483 3  -4528555.439 4
        22.100          24.900
  20711639.525    20711638.672    20711636.868   -24438807.484 6 -19043215.964 7
        41.100          45.600
  20420961.317    20420960.812    20420957.578   -24887357.321 7 -19392736.990 8
        43.600          49.400
 09  1 12  0 39  0.0000000  0 10G 9G28G19G15G 6G21G14G 3G18G22
  21660262.758    21660261.981    21660261.272   -17561544.575 5 -13684310.294 5
        34.800          34.900
  25451755.274    25451755.417    25451753.662      -15603.057      -12158.307
         3.000           3.000
  22913209.336    22913207.619    22913205.680   -11053390.645 5  -8613029.349 5
        31.300          30.600
  24217312.826    24217313.039    24217311.724    -3306679.547 2  -2576622.127 3
        17.000          22.100
  23453536.049    23453535.417    23453535.659    -6605731.093 3  -5147318.735 3
        22.100          23.800
  22583288.052    22583287.507    22583286.123   -15648712.010 4 -12193794.911 4
        27.400          24.900
  22746125.907    22746124.997    22746124.077   -13042584.552 4 -10163048.571 4
        27.400          27.900
  23395322.970    23395322.250    23395322.142    -5738785.632 3  -4471776.873 4
        22.100          24.200
  20718316.840    20718316.012    20718314.183   -24403717.947 6 -19015873.465 7
        41.200          45.500
  20416064.576    20416064.087    20416060.950   -24913089.513 7 -19412788.044 8
        43.600          49.500
 09  1 12  0 39 30.0000000  0 10G 9G28G19G15G 6G21G14G 3G18G22
  21652198.251    21652197.504    21652196.815   -17603922.558 5 -13717332.089 5
        34.700          34.900
  25450417.076    25450417.017    25450416.860      -22635.028      -17637.769 1
         3.000           9.000
  22912813.627    22912812.127    22912809.997   -11055470.325 5  -8614649.874 5
        31.800          31.000
  24237158.769    24237158.633    24237156.777    -3202389.745 2  -2495357.338 3
        17.800          21.100
  23467916.435    23467916.130    23467915.976    -6530159.675 3  -5088431.907 3
        22.600          23.400
  22602335.839    22602335.067    22602333.891   -15548616.007 4 -12115798.053 4
        27.100          24.900
  22727720.480    22727719.708    22727718.614   -13139305.869 4 -10238415.820 4
        27.600          28.100
  23409262.901    23409262.346    23409262.286    -5665531.067 3  -4414695.404 4
        23.000          24.600
  20725065.527    20725064.698    20725062.994   -24368252.556 6 -18988238.091 7
        41.100          45.500
  20411241.685    20411241.176    20411238.012   -24938434.155 7 -19432537.115 8
        43.700          49.600
 09  1 12  0 40  0.0000000  0 10G 9G28G19G15G 6G21G14G 3G18G22
  21644262.550    21644261.859    21644261.312   -17645625.125 5 -13749827.586 5
        34.900          35.200
  25449175.937    25449175.138    25449173.950      -29154.716 1    -22718.044 1
         6.500           9.000
  22912531.220    22912529.399    22912527.530   -11056955.592 5  -8615807.224 5
        31.600          31.300
  24257029.887    24257029.755    24257028.243    -3097966.161 2  -2413988.302 3
        17.800          22.100
  23482360.785    23482360.340    23482359.831    -6454257.624 3  -5029287.449 3
        22.100          23.000
  22621439.012    22621438.404    22621436.844   -15448228.386 4 -12037573.958 4
        27.100          24.600
  22709366.981    22709366.195    22709365.210   -13235753.946 4 -10313570.151 4
        27.600          28.400
  23423275.598    23423274.929    23423275.149    -5591893.493 3  -4357315.491 4
        21.600          24.900
  20731885.163    20731884.320    20731882.546   -24332415.541 6 -18960313.141 7
        41.100          45.300
  20406491.954    20406491.407    20406488.242   -24963394.194 7 -19451986.494 8
        43.700          49.700
 09  1 12  0 40 30.0000000  0 10G 9G28G19G15G 6G21G14G 3G18G22
  21636455.384    21636454.682    21636454.236   -17686651.847 5 -13781796.456 5
        34.900          35.400
  25448034.983    25448034.295    25448033.285      -35163.492 1    -27400.277 2
        11.000          13.900
  22912361.078    22912359.476    22912357.568   -11057848.487 5  -8616502.988 5
        31.600          31.500
  24276925.641    24276925.620    24276924.467    -2993412.389 2  -2332517.836 3
        17.000          22.600
  23496866.636    23496865.908    23496865.495    -6378029.212 3  -4969888.692 3
        22.600          23.000
  22640597.558    22640596.614    22640594.886   -15347552.897 4 -11959125.538 4
        27.100          24.600
  22691065.408    22691064.506    22691063.632   -13331928.943 4 -10388511.691 4
        27.900          28.600
  23437360.590    23437359.517    23437360.010    -5517877.674 3  -4299640.827 4
        21.100          25.300
  20738775.007    20738774.229    20738772.436   -24296208.820 6 -18932100.109 7
        41.100          45.200
  20401815.158    20401814.648    20401811.526   -24987970.812 7 -19471137.102 8
        43.800          49.800
 09  1 12  0 41  0.0000000  0 10G 9G28G19G15G 6G21G14G 3G18G22
  21628778.224    21628777.464    21628776.739   -17726996.642 5 -13813233.948 5
        35.400          35.300
  25446988.709    25446988.588    25446987.544      -40657.434 1    -31681.215 1
         9.000          11.000
  22912304.915    22912303.116    22912301.246   -11058145.147 5  -8616734.159 5
        31.500          31.500
  24296846.235    24296846.740    24296845.299    -2888726.654 2  -2250944.544 3
        16.100          21.600
  23511434.591    23511434.281    23511433.584    -6301473.262 3  -4910234.701 3
        22.100          23.800
  22659810.818    22659809.742    22659807.908   -15246587.607 4 -11880451.304 4
        27.100          24.600
  22672816.740    22672816.001    22672815.210   -13427825.194 4 -10463236.028 4
        27.900          28.400
  23451517.625    23451516.861    23451516.585    -5443483.051 3  -4241671.014 4
        22.100          24.900
  20745736.017    20745735.197    20745733.362   -24259628.782 6 -18903596.180 7
        41.100          45.000
  20397212.047    20397211.571    20397208.567   -25012159.653 7 -19489985.550 8
        43.800          49.900
 09  1 12  0 41 30.0000000  0 10G 9G28G19G15G 6G21G14G 3G18G22
  21621229.685    21621228.975    21621228.244   -17766663.686 5 -13844143.326 5
        35.300          35.300
  25446040.603    25446039.634    25446039.958      -45641.714 1    -35565.033 1
         6.500           6.500
  22912360.638    22912358.815    22912357.250   -11057851.505 5  -8616505.350 5
        31.500          32.000
  24316791.313    24316791.974    24316789.878    -2783916.547 2  -2169274.347 3
        16.100          21.600
  23526063.828    23526063.041    23526062.549    -6224598.327 3  -4850332.172 4
        21.600          24.600
  22679077.332    22679076.379    22679075.090   -15145340.358 4 -11801557.362 4
        26.200          24.600
  22654620.582    22654619.585    22654619.131   -13523446.641 4 -10537746.228 4
        27.900          28.600
  23465744.301    23465743.520    23465743.565    -5368717.370 3  -4183412.032 3
        21.100          23.400
  20752766.645    20752765.836    20752764.112   -24222682.150 6 -18874806.594 7
        41.100          44.900
  20392681.967    20392681.473    20392678.350   -25035965.965 7 -19508535.921 8
        43.900          50.000
 09  1 12  0 42  0.0000000  0 10G 9G28G19G15G 6G21G14G 3G18G22
  21613811.220    21613810.727    21613810.098   -17805646.718 5 -13874519.707 5
        35.200          35.400
  25445191.022    25445189.970    25445189.207      -50111.765 1    -39048.202
         6.500           3.000
  22912529.793    22912528.216    22912526.106   -11056963.299 5  -8615813.244 5
        31.800          31.600
  24336760.397    24336761.137    24336758.851    -2678979.893 2  -2087505.522 3
        17.000          21.600
  23540753.523    23540752.483    23540752.560    -6147402.470 3  -4790179.559 4
        19.900          24.600
  22698397.840    22698396.966    22698395.749   -15043808.593 4 -11722441.728 4
        26.200          24.600
  22636477.915    22636477.047    22636476.231   -13618787.205 4 -10612037.556 4
        28.400          28.800
  23480043.134    23480042.385    23480042.225    -5293579.371 3  -4124862.960 3
        22.100          23.400
  20759867.863    20759867.073    20759865.333   -24185364.514 6 -18845727.913 7
        41.000          44.800
  20388225.659    20388225.092    20388221.988   -25059384.418 7 -19526784.063 8
        43.900          50.100
 09  1 12  0 42 30.0000000  0 10G 9G28G19G15G 6G21G14G 3G18G22
  21606523.293    21606522.743    21606521.896   -17843946.321 5 -13904363.548 5
        35.300          35.300
  25444436.607    25444435.889    25444436.787      -54069.911      -42132.599
                         3.000
  22912811.209    22912809.522    22912807.272   -11055483.299 5  -8614659.994 5
        31.500          30.800
  24356752.814    24356753.323    24356751.109    -2573921.546 2  -2005641.877 3
        16.100          21.100
  23555503.067    23555502.798    23555502.868    -6069891.200 3  -4729781.188 4
        21.600          25.600
  22717772.404    22717771.301    22717769.896   -14941997.331 4 -11643108.294 4
        26.500          24.900
  22618388.631    22618387.900    22618386.691   -13713847.708 4 -10686110.657 4
        29.000          28.800
  23494410.216    23494409.643    23494410.243    -5218074.788 3  -4066028.216 3
        21.100          23.000
  20767039.283    20767038.425    20767036.655   -24147679.318 6 -18816362.822 7
        41.100          44.700
  20383842.663    20383842.127    20383838.886   -25082417.658 7 -19544732.039 8
        44.000          50.200
 09  1 12  0 43  0.0000000  0 10G 9G28G19G15G 6G21G14G 3G18G22
  21599365.241    21599364.602    21599364.165   -17881560.606 5 -13933673.373 5
        34.900          35.400
  25443780.724    25443779.377    25443779.729      -57515.619      -44817.516
         3.000           3.000
  22913205.564    22913203.813    22913201.843   -11053411.480 5  -8613045.592 5
        31.100          31.000
  24376767.299    24376767.934    24376766.209    -2468742.703 2  -1923684.344 3
        16.100          20.500
  23570312.932    23570312.076    23570312.361    -5992066.882 3  -4669138.867 4
        21.600          25.600
  22737199.306    22737198.182    22737196.903   -14839908.183 4 -11563558.329 4
        25.900          24.900
  22600352.752    22600352.018    22600350.899   -13808626.285 4 -10759964.082 4
        28.800          28.800
  23508848.697    23508847.694    23508847.917    -5142205.999 3  -4006909.695 3
        20.500          23.400
  20774280.575    20774279.695    20774277.934   -24109626.421 6 -18786711.212 7
        41.200          44.700
  20379533.047    20379532.479    20379529.346   -25105064.495 7 -19562378.921 8
        44.000          50.300
 09  1 12  0 43 30.0000000  0 10G 9G28G19G15G 6G21G14G 3G18G22
  21592340.098    21592339.349    21592338.608   -17918479.887 5 -13962441.638 5
        35.400          35.500
  25443224.004    25443222.040    25443221.253      -60440.838      -47096.918
         3.000
  22913714.048    22913712.258    22913710.212   -11050740.149 5  -8610964.047 5
        31.800          31.500
  24396806.528    24396806.667    24396805.221    -2363437.615 2  -1841628.455 3
        16.100          19.900
  23585182.501    23585181.894    23585182.279    -5913924.280 3  -4608248.534 4
        21.100          24.600
  22756680.072    22756679.292    22756677.508   -14737535.507 4 -11483787.440 4
        25.600          24.200
  22582372.448    22582371.678    22582370.554   -13903113.305 4 -10833590.309 4
        29.000          28.800
  23523356.211    23523355.467    23523355.171    -5065967.954 3  -3947503.424 3
        21.100          22.600
  20781593.154    20781592.284    20781590.551   -24071198.540 6 -18756767.407 7
        41.200          44.600
  20375298.578    20375298.024    20375294.940   -25127316.521 7 -19579718.161 8
        43.900          50.400
 09  1 12  0 44  0.0000000  0  9G 9G19G15G 6G21G14G 3G18G22
  21585444.688    21585444.075    21585443.144   -17954715.182 5 -13990676.928 5
        35.400          35.500
  22914333.901    22914332.166    22914330.299   -11047482.269 5  -8608425.438 5
        32.000          31.800
  24416866.648    24416867.096    24416865.102    -2258021.158 2  -1759485.768 3
        17.000          19.300
  23600110.468    23600109.903    23600109.489    -5835478.982 3  -4547122.331 4
        21.100          24.200
  22776211.862    22776211.021    22776209.357   -14634894.260 4 -11403807.275 3
        24.900          23.400
  22564445.806    22564445.008    22564443.573   -13997320.090 4 -10906998.172 4
        29.500          29.000
  23537930.913    23537930.100    23537929.881    -4989376.173 3  -3887821.517 3
        21.600          22.600
  20788974.379    20788973.621    20788971.859   -24032409.142 6 -18726541.898 7
        41.100          44.400
  20371136.934    20371136.383    20371133.264   -25149186.204 7 -19596759.467 8
        43.900          50.400
 09  1 12  0 44 30.0000000  0  9G 9G19G15G 6G21G14G 3G18G22
  21578681.008    21578680.353    21578679.822   -17990257.388 5 -14018372.145 5
        35.200          35.500
  22915066.730    22915065.080    22915062.960   -11043631.224 5  -8605424.621 5
        31.800          31.500
  24436949.647    24436949.438    24436946.644    -2152487.836 2  -1677252.003 3
        17.800          18.600
  23615096.465    23615095.759    23615095.933    -5756726.476 3  -4485756.741 3
        21.100          23.400
  22795795.867    22795794.810    22795793.385   -14531979.040 4 -11323613.613 3
        24.900          22.600
  22546573.888    22546573.097    22546571.810   -14091237.127 4 -10980180.256 4
        29.700          29.200
  23552574.650    23552573.790    23552573.349    -4912425.896 3  -3827860.261 3
        22.600          23.000
  20796426.006    20796425.163    20796423.448   -23993251.012 6 -18696029.068 7
        41.100          44.400
  20367049.537    20367048.979    20367045.914   -25170665.403 7 -19613496.500 8
        44.000          50.500
 09  1 12  0 45  0.0000000  0 10G 9G28G19G15G 6G21G14G 3G18G22
  21572048.762    21572048.107    21572047.654   -18025109.991 5 -14045530.019 5
        35.300          35.500
  25442137.757    25442137.173    25442135.067           -.77011         -.74511
        11.000           9.000
  22915911.149    22915909.639    22915907.642   -11039192.254 5  -8601965.688 5
        31.600          31.300
  24457052.952    24457052.328    24457049.779    -2046844.995 2  -1594932.891 2
        17.000          17.800
  23630139.299    23630138.774    23630138.815    -5677674.502 3  -4424157.800 3
        19.900          22.600
  22815430.445    22815429.986    22815427.835   -14428797.189 4 -11243212.173 3
        25.600          21.600
  22528756.187    22528755.435    22528754.476   -14184868.258 4 -11053139.554 4
        29.200          29.200
  23567283.882    23567282.962    23567283.361    -4835125.374 3  -3767626.078 3
        21.600          23.400
  20803946.601    20803945.756    20803943.985   -23953730.029 6 -18665233.497 7
        41.100          44.200
  20363035.614    20363035.039    20363031.890   -25191759.243 7 -19629933.258 8
        44.000          50.600
 09  1 12  0 45 30.0000000  0 10G 9G28G19G15G 6G21G14G 3G18G22
  21565547.703    21565547.042    21565546.511   -18059273.821 5 -14072151.183 5
        35.500          35.600
  25441970.105    25441969.013    25441967.205        -885.040 1      -689.842
        11.000           3.000
  22916867.051    22916865.658    22916863.530   -11034168.179 5  -8598050.830 5
        31.300          30.800
  24477175.280    24477175.802    24477172.829    -1941097.052 2  -1512531.901 3
        16.100          18.600
  23645238.408    23645237.842    23645237.723    -5598328.476 3  -4362329.725 3
        18.600          22.100
  22835115.555    22835114.905    22835112.751   -14325353.213 4 -11162606.490 3
        25.600          23.000
  22510993.242    22510992.403    22510991.191   -14278214.153 4 -11125876.595 4
        29.200          29.000
  23582059.695    23582058.798    23582058.757    -4757480.183 3  -3707123.331 4
        22.100          24.200
  20811535.666    20811534.839    20811533.019   -23913849.007 6 -18634157.374 7
        41.100          44.000
  20359094.506    20359093.947    20359090.879   -25212469.286 7 -19646070.948 8
        44.000          50.600
 09  1 12  0 46  0.0000000  0 10G 9G28G19G15G 6G21G14G 3G18G22
  21559179.190    21559178.643    21559177.984   -18092739.550 5 -14098228.363 5
        35.500          35.500
  25441898.537    25441898.136    25441898.878       -1253.656 1      -977.029 1
         9.000           6.500
  22917936.030    22917934.336    22917932.516   -11028552.004 5  -8593674.588 5
        31.000          31.000
  24497319.590    24497319.999    24497317.148    -1835238.316 2  -1430044.579 3
        15.100          19.300
  23660394.387    23660394.004    23660393.583    -5518683.391 3  -4300268.626 3
        19.300          21.600
  22854851.528    22854850.505    22854848.515   -14221641.763 4 -11081792.390 3
        24.600          23.400
  22493286.048    22493285.376    22493283.965   -14371265.716 4 -11198384.291 4
        29.700          29.000
  23596901.235    23596900.266    23596900.389    -4679485.336 3  -3646348.133 3
        22.600          23.800
  20819194.558    20819193.821    20819192.017   -23873600.807 6 -18602795.139 7
        41.200          44.000
  20355227.995    20355227.486    20355224.430   -25232787.636 7 -19661903.426 8
        44.000          50.700
 09  1 12  0 46 30.0000000  0 10G 9G28G19G15G 6G21G14G 3G18G22
  21552945.239    21552944.565    21552943.920   -18125499.860 5 -14123755.873 5
        35.400          35.400
  25441926.762    25441929.682    25441927.098       -1100.945        -859.094
                         3.000
  22919118.147    22919116.744    22919114.823   -11022337.940 5  -8588832.458 5
        30.800          30.400
  24517484.816    24517485.653    24517483.020    -1729264.891 2  -1347467.884 3
        15.100          19.300
  23675608.168    23675607.506    23675607.080    -5438736.201 3  -4237972.127 3
        19.900          21.600
  22874638.841    22874637.839    22874635.962   -14117659.176 4 -11000767.023 3
        24.200          23.400
  22475636.557    22475635.778    22475634.479   -14464015.358 5 -11270656.724 4
        30.100          29.500
  23611809.867    23611809.360    23611809.186    -4601138.082 3  -3585298.340 3
        21.600          23.400
  20826924.410    20826923.571    20826921.850   -23832980.503 6 -18571142.955 7
        41.100          43.800
  20351437.362    20351436.824    20351433.716   -25252707.822 7 -19677425.643 8
        44.100          50.700
 09  1 12  0 47  0.0000000  0 10G 9G28G19G15G 6G21G14G 3G18G22
  21546843.384    21546842.788    21546842.037   -18157565.562 5 -14148742.135 5
        35.700          35.700
  25442051.687    25442048.082    25442046.181        -439.153        -343.371
                         3.000
  22920412.357    22920410.678    22920408.490   -11015538.803 5  -8583534.424 5
        31.000          30.400
  24537669.344    24537670.823    24537668.648    -1623191.020 2  -1264812.915 3
        15.100          19.900
  23690876.135    23690875.322    23690875.500    -5358502.058 3  -4175452.020 3
        19.900          22.100
  22894474.939    22894473.640    22894472.079   -14013419.683 4 -10919541.471 3
        24.200          23.000
  22458042.269    22458041.453    22458040.198   -14556473.644 5 -11342702.121 4
        30.100          29.900
  23626783.392    23626782.659    23626782.838    -4522453.554 3  -3523985.728 4
        22.100          24.200
  20834722.711    20834721.878    20834720.056   -23792000.404 6 -18539210.409 7
        41.200          43.600
  20347720.232    20347719.681    20347716.504   -25272241.657 7 -19692646.811 8
        44.100          50.700
 09  1 12  0 47 30.0000000  0 10G 9G28G19G15G 6G21G14G 3G18G22
  21540873.535    21540872.849    21540872.347   -18188937.171 5 -14173187.534 6
        35.500          36.000
  25442278.759    25442278.041    25442273.602         729.571         567.414
         3.000           3.000
  22921817.158    22921815.346    22921813.317   -11008157.044 5  -8577782.407 5
        31.100          30.800
  24557874.021    24557874.016    24557872.415    -1517020.723 2  -1182082.813 3
        13.900          19.900
  23706197.552    23706197.394    23706196.881    -5277985.735 3  -4112712.042 3
        20.500          22.600
  22914358.438    22914357.894    22914356.608   -13908927.896 4 -10838119.316 3
        24.200          23.000
  22440503.453    22440502.512    22440501.417   -14648641.082 5 -11414520.886 5
        30.200          30.200
  23641820.267    23641819.335    23641818.955    -4443436.688 3  -3462414.169 3
        21.600          23.400
  20842589.090    20842588.187    20842586.274   -23750663.029 6 -18506999.466 7
        41.200          43.600
  20344076.173    20344075.636    20344072.573   -25291390.952 7 -19707568.338 8
        44.100          50.800
 09  1 12  0 48  0.0000000  0 10G 9G28G19G15G 6G21G14G 3G18G22
  21535038.185    21535037.662    21535036.828   -18219601.568 5 -14197081.861 5
        35.600          35.700
  25442598.688    25442598.397    25442595.726        2417.531 1      1882.675 1
         6.500           6.500
  22923334.923    22923333.015    22923331.145   -11000181.648 5  -8571567.827 5
        31.000          31.100
  24578098.263    24578098.096    24578096.318    -1410744.549 2  -1099270.225 3
        15.100          20.500
  23721575.265    23721574.888    23721574.044    -5197178.101 3  -4049745.053 3
        21.600          22.100
  22934292.545    22934291.802    22934290.820   -13804173.756 3 -10756492.743 3
        23.800          23.400
  22423021.968    22423021.279    22423020.279   -14740504.382 5 -11486102.660 5
        30.200          30.200
  23656921.686    23656920.800    23656920.500    -4364078.952 3  -3400576.970 3
        20.500          23.800
  20850525.203    20850524.360    20850522.616   -23708957.630 6 -18474501.749 7
        41.100          43.500
  20340507.855    20340507.315    20340504.142   -25310142.999 7 -19722180.318 8
        44.100          50.800
 09  1 12  0 48 30.0000000  0 10G 9G28G19G15G 6G21G14G 3G18G22
  21529338.710    21529338.051    21529337.164   -18249553.972 5 -14220421.393 5
        35.900          35.700
  25443017.499    25443016.842    25443018.220        4627.412        3604.648 1
                         6.500
  22924965.754    22924964.183    22924962.327   -10991609.551 5  -8564888.267 5
        31.000          31.100
  24598343.574    24598342.252    24598340.615    -1304360.630 2  -1016373.673 3
        15.100          21.600
  23737008.024    23737007.347    23737006.809    -5116078.655 3  -3986550.686 3
        22.600          22.600
  22954277.109    22954276.164    22954274.843   -13699155.944 4 -10674660.709 3
        24.200          22.600
  22405600.025    22405599.289    22405598.035   -14832058.283 5 -11557443.354 5
        30.400          30.100
  23672086.860    23672086.192    23672087.120    -4284379.379 3  -3338473.423 3
        19.900          23.800
  20858532.085    20858531.227    20858529.498   -23666881.105 6 -18441714.847 7
        41.100          43.400
  20337015.661    20337015.137    20337011.994   -25328494.172 7 -19736479.931 8
        44.100          50.800
 09  1 12  0 49  0.0000000  0 10G 9G28G19G15G 6G21G14G 3G18G22
  21523771.699    21523770.896    21523770.312   -18278809.132 5 -14243217.614 6
        35.700          36.000
  25443534.891    25443533.528    25443532.747        7342.726        5720.515 1
         3.000           9.000
  22926707.363    22926705.886    22926704.146   -10982457.716 5  -8557756.957 5
        31.300          31.500
  24618604.139    24618603.544    24618601.779    -1197887.254 2   -933407.413 3
        13.900          22.600
  23752491.995    23752491.591    23752491.816    -5034706.858 3  -3923144.094 3
        21.600          23.400
  22974307.870    22974306.994    22974305.454   -13593893.583 4 -10592638.108 3
        24.200          22.100
  22388233.524    22388232.786    22388231.973   -14923317.845 5 -11628554.690 5
        30.200          30.100
  23687315.348    23687314.457    23687314.594    -4204357.388 3  -3276118.627 3
        21.100          23.000
  20866606.502    20866605.615    20866603.774   -23624450.296 6 -18408651.878 7
        41.200          43.300
  20333596.650    20333596.122    20333593.057   -25346461.012 7 -19750480.065 8
        44.100          50.900
 09  1 12  0 49 30.0000000  0 10G 9G28G19G15G 6G21G14G 3G18G22
  21518339.545    21518338.853    21518338.285   -18307354.035 5 -14265460.386 5
        35.700          35.900
  25444151.319    25444151.033    25444148.233       10575.612 1      8239.642 1
         9.000           6.500
  22928561.891    22928560.071    22928558.077   -10972714.905 5  -8550165.165 5
        31.300          31.500
  24638884.072    24638883.347    24638881.543    -1091314.868 2   -850364.003 3
        13.900          23.400
  23768031.034    23768030.130    23768030.062    -4953053.639 3  -3859518.226 3
        21.600          23.800
  22994386.958    22994386.036    22994384.902   -13488376.668 3 -10510417.164 3
        23.800          22.100
  22370926.155    22370925.436    22370924.506   -15014269.748 5 -11699426.279 5
        30.400          30.600
  23702606.216    23702605.348    23702605.067    -4124004.248 3  -3213505.805 3
        20.500          22.100
  20874750.205    20874749.378    20874747.631   -23581654.322 6 -18375304.363 7
        41.100          43.200
  20330253.273    20330252.768    20330249.644   -25364030.432 7 -19764170.517 8
        44.200          50.900
 09  1 12  0 50  0.0000000  0 10G 9G28G19G15G 6G21G14G 3G18G22
  21513043.027    21513042.243    21513041.583   -18335188.192 5 -14287149.340 5
        35.800          35.800
  25444863.281    25444861.526    25444861.476       14324.315 1     11160.720 1
         6.500           9.000
  22930527.547    22930525.843    22930523.833   -10962383.212 5  -8542114.495 5
        31.000          31.500
  24659181.077    24659181.958    24659179.930     -984646.931 2   -767246.133 3
        13.900          22.100
  23783621.830    23783620.759    23783620.841    -4871123.059 3  -3795676.221 3
        19.900          23.000
  23014514.034    23014512.816    23014511.394   -13382609.031 3 -10428000.848 3
        23.000          21.100
  22353677.326    22353676.550    22353675.512   -15104913.679 5 -11770057.906 5
        31.000          30.600
  23717958.938    23717957.843    23717958.112    -4043324.589 3  -3150638.552 3
        21.100          22.100
  20882963.157    20882962.338    20882960.638   -23538494.773 6 -18341673.546 7
        41.100          43.100
  20326985.325    20326984.769    20326981.635   -25381204.025 7 -19777552.535 8
        44.200          51.000
 09  1 12  0 50 30.0000000  0 10G 9G28G19G15G 6G21G14G 3G18G22
  21507880.253    21507879.493    21507878.619   -18362319.150 6 -14308290.333 5
        36.000          35.600
  25445673.619    25445672.581    25445671.737       18580.196 1     14477.017 1
         6.500          11.000
  22932603.973    22932602.324    22932600.641   -10951471.787 5  -8533612.094 5
        31.600          31.800
  24679495.170    24679495.734    24679493.986     -877893.760 2   -684061.870 3
        13.900          21.600
  23799262.749    23799262.108    23799261.975    -4788926.578 2  -3731627.032 3
        17.800          22.600
  23034686.487    23034685.357    23034683.901   -13276601.408 3 -10345397.535 3
        22.600          20.500
  22336485.753    22336484.968    22336483.870   -15195256.498 5 -11840454.898 5
        31.100          30.600
  23733371.732    23733370.805    23733370.294    -3962329.886 3  -3087525.787 3
        21.600          22.100
  20891243.614    20891242.788    20891241.038   -23494980.892 6 -18307766.627 7
        41.200          43.000
  20323791.140    20323790.567    20323787.472   -25397989.564 7 -19790632.173 8
        44.200          51.000
 09  1 12  0 51  0.0000000  0 10G 9G28G19G15G 6G21G14G 3G18G22
  21502851.422    21502850.660    21502850.010   -18388745.106 5 -14328881.984 5
        35.900          35.600
  25446580.418    25446579.176    25446577.122       23343.572       18188.789
         3.000
  22934790.707    22934789.113    22934787.069   -10939980.837 5  -8524658.101 5
        32.000          31.500
  24699827.098    24699826.760    24699824.884     -771056.714 2   -600812.228 3
        15.100          23.800
  23814954.291    23814953.697    23814953.628    -4706466.397 3  -3667372.375 3
        18.600          23.000
  23054903.970    23054903.635    23054901.949   -13170355.240 3 -10262608.339 3
        23.000          19.900
  22319351.585    22319350.703    22319349.897   -15285296.193 5 -11910615.698 5
        31.100          30.800
  23748844.205    23748843.073    23748843.166    -3881022.107 3  -3024169.083 3
        22.100          22.600
  20899591.524    20899590.687    20899588.966   -23451112.436 6 -18273583.413 7
        41.200          43.000
  20320671.014    20320670.455    20320667.307   -25414386.110 7 -19803408.698 8
        44.300          51.000
 09  1 12  0 51 30.0000000  0  9G 9G19G15G 6G21G14G 3G18G22
  21497958.127    21497957.367    21497956.663   -18414459.509 5 -14348919.177 5
        35.700          35.600
  22937088.913    22937087.191    22937084.855   -10927905.093 5  -8515248.428 5
        32.000          31.600
  24720174.635    24720174.695    24720171.623     -664131.874 2   -517494.184 4
        15.100          24.200
  23830696.505    23830696.133    23830696.544    -4623740.028 3  -3602910.257 3
        19.300          23.400
  23075167.923    23075167.253    23075166.003   -13063867.374 3 -10179630.789 3
        23.000          19.900
  22302276.451    22302275.848    22302274.977   -15375025.697 5 -11980534.780 5
        31.100          31.100
  23764375.412    23764374.906    23764375.720    -3799398.875 3  -2960566.550 3
        21.100          23.400
  20908007.818    20908006.970    20908005.199   -23406884.772 6 -18239120.300 7
        41.200          42.900
  20317625.853    20317625.353    20317622.246   -25430387.947 7 -19815877.661 8
        44.300          51.100
 09  1 12  0 52  0.0000000  0 10G 9G28G19G15G 6G21G14G 3G18G22
  21493201.839    21493201.156    21493200.316   -18439453.762 5 -14368395.210 5
        35.900          35.500
  25448688.251    25448687.118    25448684.204           -.7731          -.21111
         3.000           9.000
  22939499.645    22939497.770    22939495.632   -10915238.533 5  -8505378.380 5
        32.100          32.300
  24740539.572    24740539.319    24740536.244     -557114.441 2   -434103.976 3
        15.100          23.000
  23846489.784    23846489.432    23846490.194    -4540742.992 3  -3538237.254 3
        18.600          23.400
  23095478.837    23095477.908    23095477.284   -12957132.772 3 -10096460.992 3
        23.400          20.500
  22285262.390    22285261.533    22285260.587   -15464436.350 5 -12050205.411 5
        31.500          31.100
  23779969.676    23779968.654    23779968.665    -3717456.196 3  -2896715.132 3
        21.100          23.000
  20916493.664    20916492.856    20916491.009   -23362291.342 6 -18204372.170 7
        41.200          42.700
  20314657.373    20314656.882    20314653.785   -25445987.339 7 -19828033.027 8
        44.300          51.100
 09  1 12  0 52 30.0000000  0 10G 9G28G19G15G 6G21G14G 3G18G22
  21488581.968    21488581.245    21488580.415   -18463731.546 5 -14387312.965 5
        35.900          35.600
  25449885.576    25449883.803    25449885.997        6309.938        4917.297 1
                         9.000
  22942020.751    22942019.082    22942017.238   -10901986.693 5  -8495052.273 5
        32.000          32.100
  24760920.651    24760920.506    24760917.681     -450011.101 2   -350646.824 3
        15.100          23.000
  23862334.082    23862333.634    23862333.698    -4457483.193 3  -3473359.507 3
        18.600          23.000
  23115835.145    23115834.536    23115833.799   -12850158.657 3 -10013104.569 3
        22.600          20.500
  22268307.884    22268307.207    22268306.210   -15553531.643 5 -12119630.310 5
        31.300          31.000
  23795622.456    23795621.430    23795620.814    -3635201.963 3  -2832620.928 3
        21.100          23.000
  20925048.094    20925047.322    20925045.340   -23317337.569 6 -18169343.254 7
        41.300          42.500
  20311764.682    20311764.133    20311761.008   -25461188.775 7 -19839878.299 8
        44.400          51.100
 09  1 12  0 53  0.0000000  0 10G 9G28G19G15G 6G21G14G 3G18G22
  21484097.457    21484096.855    21484096.269   -18487296.775 5 -14405675.475 5
        35.900          35.600
  25451186.250    25451184.941    25451182.865       13129.985 1     10231.577
         6.500           3.000
  22944652.562    22944650.918    22944649.220   -10888155.318 5  -8484274.576 5
        31.500          32.000
  24781317.927    24781317.590    24781313.425     -342829.037 2   -267128.322 3
        13.900          23.000
  23878227.008    23878225.966    23878226.227    -4373968.559 3  -3408283.171 3
        19.300          23.400
  23136236.076    23136235.286    23136234.551   -12742952.338 3  -9929567.203 3
        22.100          21.100
  22251413.220    22251412.347    22251411.414   -15642314.961 5 -12188812.105 5
        31.600          31.100
  23811332.279    23811331.594    23811331.398    -3552644.159 3  -2768290.171 3
        20.500          23.400
  20933669.961    20933669.078    20933667.224   -23272029.269 6 -18134038.086 7
        41.200          42.400
  20308946.822    20308946.268    20308943.080   -25475996.872 7 -19851417.071 8
        44.400          51.100
 09  1 12  0 53 30.0000000  0 10G14G28G19G15G 6G21G 3G18G22G 9
  22234578.513    22234577.975    22234576.755   -15730781.335 5 -12257746.944 5
        32.000          31.300
  25452581.068    25452580.177    25452579.302       20462.446 1     15945.167 1
         9.000           6.500
  22947395.556    22947393.876    22947392.197   -10873742.074 5  -8473043.483 5
        31.600          32.400
  24801728.886    24801728.419    24801725.317     -235566.748 1   -183547.311 3
        11.000          22.100
  23894167.813    23894167.297    23894167.189    -4290198.651 3  -3343007.939 3
        19.900          23.800
  23156681.825    23156681.055    23156679.782   -12635512.814 3  -9845848.115 3
        23.400          21.600
  23827100.500    23827099.492    23827099.841    -3469782.174 3  -2703722.395 4
        19.300          24.200
  20942359.833    20942358.955    20942357.070   -23226363.640 6 -18098454.477 7
        41.200          42.300
  20306204.420    20306203.915    20306200.686   -25490408.217 7 -19862646.688 8
        44.500          51.100
  21479749.590    21479748.963    21479748.124   -18510145.189 6 -14423479.428 5
        36.200          35.300
 09  1 12  0 54  0.0000000  0 10G14G28G19G15G 6G21G 3G18G22G 9
  22217803.888    22217803.255    22217802.274   -15818931.789 5 -12326435.607 5
        32.000          31.600
  25454071.105    25454072.543    25454070.703       28304.348       22055.761 1
                         9.000
  22950248.047    22950246.484    22950244.753   -10858749.962 5  -8461361.308 5
        31.500          32.100
  24822153.694    24822154.082    24822151.016     -128228.272 1    -99906.943 3
         9.000          20.500
  23910156.785    23910156.060    23910155.520    -4206178.629 3  -3277537.799 3
        20.500          23.400
  23177170.600    23177169.765    23177168.048   -12527844.506 3  -9761950.757 3
        23.000          21.600
  23842925.210    23842924.369    23842924.533    -3386622.164 2  -2638922.399 4
        17.800          24.200
  20951117.206    20951116.273    20951114.388   -23180343.664 6 -18062594.752 7
        41.200          42.200
  20303537.111    20303536.619    20303533.451   -25504424.742 7 -19873568.653 8
        44.500          51.100
  21475537.914    21475537.259    21475536.418   -18532278.301 6 -14440726.007 5
        36.200          35.300
 09  1 12  0 54 30.0000000  0 10G 9G28G19G15G 6G21G14G 3G18G22
  21471463.710    21471463.065    21471462.439   -18553688.296 6 -14457409.111 5
        36.400          35.500
  25455663.793    25455663.971    25455661.150       36662.038 1     28568.236 1
         6.500           6.500
  22953212.540    22953210.977    22953208.778   -10843173.434 5  -8449223.764 5
        31.800          31.800
  24842593.093    24842594.552    24842592.649      -20809.440 1    -16203.973 2
         9.000          16.100
  23926193.040    23926192.204    23926192.104    -4121905.088 3  -3211870.109 3
        19.900          23.000
  23197703.867    23197702.721    23197701.248   -12419943.575 3  -9677872.143 3
        22.100          21.100
  22201091.106    22201090.493    22201089.426   -15906758.575 5 -12394872.054 5
        32.300          31.800
  23858807.706    23858806.649    23858806.813    -3303160.269 2  -2573887.168 3
        17.000          23.400
  20959942.994    20959942.254    20959940.272   -23133963.442 6 -18026454.320 7
        41.300          42.000
  20300946.424    20300945.822    20300942.680   -25518039.464 7 -19884177.526 8
        44.500          51.200
 09  1 12  0 55  0.0000000  0 10G 9G28G19G15G 6G21G14G 3G18G22
  21467526.188    21467525.411    21467524.746   -18574380.981 6 -14473533.284 5
        36.500          35.700
  25457349.107    25457349.621    25457348.979       45528.692       35477.220 1
                         6.500
  22956286.468    22956284.689    22956283.031   -10827019.777 5  -8436636.496 5
        31.500          31.800
  24863046.740    24863048.893    24863046.380       86681.012       67554.729 2
         3.000          13.900
  23942276.049    23942275.419    23942275.287    -4037387.376 3  -3146012.172 3
        18.600          22.600
  23218279.350    23218278.185    23218276.534   -12311818.601 3  -9593618.944 3
        21.600          19.900
  22184439.094    22184438.327    22184437.069   -15994266.567 5 -12463060.095 5
        32.600          32.000
  23874745.444    23874744.294    23874744.639    -3219406.383 2  -2508624.393 3
        16.100          22.600
  20968836.078    20968835.170    20968833.295   -23087230.059 6 -17990038.695 7
        41.100          42.000
  20298430.818    20298430.314    20298427.112   -25531258.700 7 -19894478.227 8
        44.600          51.200
 09  1 12  0 55 30.0000000  0  9G14G28G19G 6G21G 3G18G22G 9
  22167847.415    22167846.828    22167845.721   -16081454.500 5 -12530998.737 5
        32.400          32.000
  25459135.177    25459134.645    25459132.603       54903.471       42782.311 1
         3.000           6.500
  22959469.596    22959467.982    22959465.971   -10810290.454 5  -8423600.657 5
        30.800          31.100
  23958405.709    23958404.940    23958404.345    -3952628.676 2  -3079966.459 3
        17.800          22.100
  23238896.551    23238895.593    23238894.312   -12203472.242 3  -9509193.240 3
        22.100          20.500
  23890737.655    23890737.165    23890737.214    -3135363.415 2  -2443136.389 3
        17.000          21.100
  20977796.031    20977795.210    20977793.468   -23040144.605 6 -17953348.730 7
        41.100          42.000
  20295990.670    20295990.074    20295986.873   -25544082.573 7 -19904470.855 8
        44.700          51.300
  21463725.021    21463724.365    21463723.500   -18594355.592 6 -14489097.915 5
        36.500          35.400
 09  1 12  0 56  0.0000000  0  9G28G19G 6G21G14G 3G18G22G 9
  25461014.733    25461014.269    25461011.632       64781.476 1     50479.497 1
         6.500           9.000
  22962761.986    22962760.084    22962758.052   -10792991.105 5  -8410120.653 5
        30.600          31.000
  23974578.216    23974577.913    23974577.972    -3867636.669 2  -3013738.944 3
        17.000          21.100
  23259554.856    23259553.949    23259552.458   -12094911.464 3  -9424600.450 3
        21.600          19.300
  22151316.649    22151315.931    22151314.652   -16168325.831 5 -12598690.680 5
        32.700          32.100
  23906783.946    23906783.255    23906783.904    -3051038.907 2  -2377428.997 3
        15.100          19.900
  20986822.132    20986821.307    20986819.482   -22992712.640 6 -17916388.758 6
        41.200          41.900
  20293624.584    20293624.081    20293620.910   -25556515.456 7 -19914158.814 8
        44.600          51.300
  21460059.826    21460059.102    21460058.469   -18613616.054 6 -14504106.066 5
        36.400          35.500
 09  1 12  0 56 30.0000000  0  9G28G19G 6G21G14G 3G18G22G 9
  25462992.203    25462992.970    25462991.301       75178.797 1     58581.270 1
         6.500          11.000
  22966165.292    22966163.791    22966161.691   -10775105.623 5  -8396183.911 5
        30.800          31.000
  23990799.271    23990798.798    23990798.648    -3782397.499 2  -2947318.831 3
        17.800          20.500
  23280256.677    23280255.934    23280254.352   -11986121.669 3  -9339829.203 3
        21.600          19.300
  22134849.329    22134848.546    22134847.585   -16254862.164 5 -12666121.581 5
        32.700          32.400
  23922886.564    23922886.020    23922885.623    -2966419.711 2  -2311491.966 3
        17.000          19.300
  20995917.169    20995916.357    20995914.533   -22944917.952 6 -17879146.145 6
        41.200          41.800
  20291336.444    20291335.898    20291332.744   -25568540.043 7 -19923528.621 8
        44.700          51.300
  21456533.867    21456533.301    21456532.652   -18632144.157 6 -14518543.543 5
        36.400          35.500
 09  1 12  0 57  0.0000000  0  9G28G19G 6G21G14G 3G18G22G 9
  25465068.842    25465069.084    25465071.587       86101.728       67092.541 1
                        11.000
  22969681.297    22969679.874    22969677.737   -10756628.589 5  -8381786.233 5
        30.800          31.000
  24007067.080    24007066.611    24007066.657    -3696907.494 2  -2880703.244 3
        17.800          19.300
  23301003.379    23301002.795    23301000.871   -11877098.785 3  -9254876.330 3
        22.100          19.900
  22118447.341    22118446.509    22118445.429   -16341055.728 5 -12733285.386 5
        32.800          32.400
  23939046.400    23939045.478    23939045.397    -2881501.988 2  -2245322.292 3
        17.000          18.600
  21005082.253    21005081.488    21005079.692   -22896754.499 6 -17841616.175 6
        41.200          41.600
  20289127.221    20289126.639    20289123.427   -25580149.911 7 -19932575.271 8
        44.700          51.400
  21453148.870    21453148.218    21453147.551   -18649932.824 6 -14532404.837 5
        36.500          35.500
 09  1 12  0 57 30.0000000  0 10G28G19G15G 6G21G14G 3G18G22G 9
  25467244.884    25467244.020    25467242.609       97528.702       75996.748 1
                         6.500
  22973305.713    22973304.012    22973301.920   -10737581.958 5  -8366944.708 5
        30.600          30.800
  24965524.653    24965525.910    24965523.036           -.66211         -.10212
         9.000          12.600
  24023378.524    24023377.800    24023377.591    -3611190.408 2  -2813910.722 3
        16.100          18.600
  23321789.885    23321789.025    23321787.252   -11767865.718 3  -9169759.680 3
        21.100          19.900
  22102106.758    22102105.996    22102104.758   -16426925.796 5 -12800197.124 5
        33.100          32.600
  23955257.879    23955256.776    23955256.524    -2796309.799 2  -2178938.767 2
        17.000          17.800
  21014313.630    21014312.745    21014311.034   -22848243.817 6 -17803815.645 6
        41.000          41.700
  20286992.976    20286992.450    20286989.238   -25591365.020 7 -19941314.316 8
        44.700          51.400
  21449900.953    21449900.220    21449899.334   -18667002.068 6 -14545705.546 5
        36.600          35.400
 09  1 12  0 58  0.0000000  0 10G28G19G15G 6G21G14G 3G18G22G 9
  25469514.332    25469513.423    25469513.296      109451.348       85287.117 1
         3.000           6.500
  22977037.009    22977035.255    22977033.357   -10717974.615 5  -8351666.254 5
        31.000          31.100
  24986056.767    24986057.091    24986055.775      107894.328 1     84073.946 2
         9.000          12.600
  24039731.995    24039731.231    24039730.055    -3525257.315 3  -2746949.874 2
        18.600          17.000
  23342614.033    23342613.096    23342611.911   -11658433.111 3  -9084487.546 3
        19.900          21.100
  22085826.404    22085825.692    22085824.690   -16512479.124 5 -12866862.047 5
        33.100          32.800
  23971519.536    23971518.590    23971518.398    -2710854.271 3  -2112350.043 3
        18.600          18.600
  21023609.284    21023608.455    21023606.809   -22799394.800 6 -17765751.479 6
        41.000          41.700
  20284932.436    20284931.897    20284928.750   -25602193.219 7 -19949751.873 8
        44.700          51.500
  21446788.178    21446787.423    21446786.683   -18683359.497 6 -14558451.594 5
        36.400          35.300
 09  1 12  0 58 30.0000000  0 10G28G19G15G 6G21G14G 3G18G22G 9
  25471880.299    25471879.095    25471877.688      121882.145       94973.467 1
         3.000           6.500
  22980877.176    22980875.543    22980873.563   -10697794.366 5  -8335941.400 5
        31.100          31.300
  25006600.841    25006600.805    25006599.417      215850.808 2    168195.886 2
        12.600          13.900
  24056127.015    24056126.680    24056125.901    -3439097.768 3  -2679812.557 2
        19.900          17.800
  23363478.247    23363477.687    23363476.634   -11548789.788 3  -8999051.225 3
        20.500          21.600
  22069609.400    22069608.657    22069607.455   -16597700.760 5 -12933268.511 5
        33.600          32.800
  23987833.082    23987832.533    23987832.568    -2625125.007 3  -2045548.017 3
        18.600          19.300
  21032971.762    21032970.927    21032969.198   -22750194.864 6 -17727413.866 6
        41.000          41.500
  20282947.942    20282947.416    20282944.319   -25612621.570 7 -19957877.859 8
        44.700          51.500
  21443813.607    21443812.890    21443811.934   -18698990.649 6 -14570631.702 5
        36.500          35.300
 09  1 12  0 59  0.0000000  0 10G28G19G15G 6G21G14G 3G18G22G 9
  25474344.986    25474343.983    25474342.170      134826.800 1    105060.260 1
        11.000           6.500
  22984827.126    22984825.885    22984823.687   -10677036.231 5  -8319766.234 5
        31.000          31.100
  25027156.942    25027156.864    25027155.576      323872.855 1    252368.887 2
         9.000          13.900
  24072565.410    24072565.096    24072564.964    -3352708.803 3  -2612496.487 2
        19.300          17.000
  23384383.446    23384382.615    23384381.815   -11438932.165 2  -8913447.916 3
        17.800          21.100
  22053456.729    22053456.008    22053454.678   -16682583.609 5 -12999410.990 5
        33.600          33.000
  24004199.563    24004198.442    24004198.459    -2539119.593 2  -1978530.793 3
        17.800          19.300
  21042402.003    21042401.128    21042399.368   -22700638.441 6 -17688798.469 6
        40.800          41.300
  20281040.973    20281040.386    20281037.245   -25622643.130 7 -19965686.865 8
        44.700          51.500
  21440978.603    21440977.906    21440977.183   -18713888.882 6 -14582240.715 5
        36.500          35.700
 09  1 12  0 59 30.0000000  0 10G28G19G15G 6G21G14G 3G18G22G 9
  25476905.280    25476903.618    25476901.155      148278.272      115541.755 1
         3.000           9.000
  22988886.134    22988884.491    22988882.417   -10655708.408 5  -8303147.152 5
        31.000          31.100
  25047723.019    25047723.160    25047721.657      431951.915 1    336586.325 2
         9.000          13.900
  24089046.950    24089046.144    24089046.406    -3266100.134 3  -2545009.212 2
        18.600          17.800
  23405328.622    23405327.052    23405325.691   -11328869.317 2  -8827684.703 3
        17.000          20.500
  22037367.617    22037366.831    22037365.696   -16767132.858 5 -13065293.514 5
        33.600          33.200
  24020616.649    24020616.085    24020615.577    -2452847.887 2  -1911306.088 3
        17.000          19.300
  21051898.840    21051898.012    21051896.216   -22650732.574 6 -17649910.780 6
        40.900          41.200
  20279210.044    20279209.546    20279206.358   -25632264.284 7 -19973183.868 8
        44.700          51.500
  21438281.503    21438280.968    21438280.345   -18728060.424 6 -14593283.475 5
        36.500          35.500
                            4 15
RINEX FILE SPLICE                                           COMMENT
teqc  2008Oct2      WCDA Operator       20090112 02:18:09UTCCOMMENT
STATION INFORMATION EFFECTIVE FROM: 2001/01/13 18:20:00     COMMENT
                                TO: CURRENT DATE (above)    COMMENT
BIT 2 OF LLI FLAGS (+4) DATA COLLECTED UNDER 'AS' CONDITION COMMENT
L1 PHASE CENTRE 0.110m ABOVE ARP                            COMMENT
L2 PHASE CENTRE 0.128m ABOVE ARP                            COMMENT
where ARP is the Antenna Reference Point for HI measurement COMMENT
CONTACT gps@pgc.nrcan.gc.ca FOR ADDITIONAL INFORMATION      COMMENT
    P1 =    P1  TurboRogue; =    Y1  Benchmark              COMMENT
    L1 = L1(CA)                                             COMMENT
    P2 =    P2  TurboRogue; =    Y2  Benchmark              COMMENT
    L2 = L2(P2) TurboRogue; = L2(Y2) Benchmark              COMMENT
 SNR is mapped to RINEX snr flag value [0-9]                COMMENT
  L1 & L2: min(max(int(snr_dBHz/6), 0), 9)                  COMMENT
 09  1 12  1  0  0.0000000  0 10G28G19G15G 6G21G14G 3G18G22G 9
  25479562.220    25479559.041    25479558.896      162235.134      126417.305 1
                        11.000
  22993052.759    22993051.037    22993048.981   -10633812.021 5  -8286085.040 5
        31.000          31.000
  25068298.226    25068298.957    25068299.544      540085.966 1    420846.604 2
         6.500          12.600
  24105569.675    24105568.961    24105568.866    -3179274.904 2  -2477353.170 3
        17.000          19.300
  23426311.215    23426310.115    23426308.963   -11218603.762 3  -8741763.532 3
        18.600          19.900
  22021341.868    22021341.198    22021340.226   -16851347.334 5 -13130915.173 5
        33.600          33.200
  24037083.256    24037082.684    24037083.091    -2366312.776 2  -1843876.131 3
        16.100          19.300
  21061461.638    21061460.821    21061458.945   -22600479.116 6 -17610752.240 6
        40.700          40.900
  20277455.318    20277454.800    20277451.639   -25641485.380 7 -19980369.135 8
        44.700          51.500
  21435723.384    21435722.680    21435721.994   -18741505.015 6 -14603759.776 5
        36.600          35.500
 09  1 12  1  0 30.0000000  0 10G28G19G15G 6G21G14G 3G18G22G 9
  25482314.477    25482312.201    25482311.409      176699.013      137687.845 1
         3.000           6.500
  22997328.202    22997326.369    22997324.076   -10611346.172 5  -8268579.180 5
        31.500          31.300
  25088886.074    25088889.204    25088886.625      648275.137      505149.843 2
         3.000          12.600
  24122132.741    24122131.651    24122132.039    -3092234.069 2  -2409529.154 3
        16.100          19.900
  23447332.715    23447331.454    23447330.214   -11108136.089 3  -8655684.850 3
        19.900          19.300
  22005380.967    22005380.135    22005378.848   -16935223.870 5 -13196273.499 5
        33.900          33.200
  24053600.042    24053599.235    24053599.851    -2279515.828 2  -1776242.148 3
        17.000          19.300
  21071091.001    21071090.167    21071088.296   -22549876.695 6 -17571321.780 6
        40.700          40.700
  20275777.241    20275776.695    20275773.519   -25650304.210 7 -19987240.950 8
        44.800          51.500
  21433303.512    21433302.905    21433302.225   -18754220.391 6 -14613667.856 5
        36.500          35.400
 09  1 12  1  1  0.0000000  0 10G28G19G15G 6G21G14G 3G18G22G 9
  25485161.780    25485159.698    25485159.060      191666.933      149351.003
         3.000           3.000
  23001710.365    23001708.792    23001707.113   -10588314.591 5  -8250632.486 5
        31.300          31.600
  25109482.843    25109485.325    25109485.098      756514.864      589492.508 1
                        11.000
  24138736.737    24138735.786    24138735.586    -3004983.155 2  -2341541.454 3
        16.100          19.900
  23468391.269    23468390.363    23468389.410   -10997470.959 3  -8569452.295 3
        20.500          18.600
  21989483.985    21989483.086    21989481.947   -17018763.225 5 -13261369.089 5
        34.000          33.500
  24070165.521    24070165.487    24070165.030    -2192462.013 2  -1708408.009 3
        17.800          19.900
  21080786.179    21080785.329    21080783.450   -22498928.325 6 -17531621.747 6
        40.700          40.600
  20274175.191    20274174.656    20274171.464   -25658722.829 7 -19993800.911 8
        44.800          51.500
  21431022.511    21431021.831    21431021.109   -18766207.714 6 -14623008.621 5
        36.500          35.400
 09  1 12  1  1 30.0000000  0 10G28G19G15G 6G21G14G 3G18G22G 9
  25488106.884    25488103.400    25488105.746      207143.845      161410.984 1
                         6.500
  23006201.930    23006200.359    23006198.178   -10564713.015 5  -8232241.653 5
        31.000          31.500
  25130091.555    25130091.556    25130090.861      864809.007      673877.585 1
                        11.000
  24155379.727    24155379.548    24155379.174    -2917519.441 2  -2273387.920 3
        17.000          20.500
  23489488.545    23489487.447    23489486.690   -10886605.026 3  -8483063.274 2
        20.500          17.800
  21973652.266    21973651.536    21973650.348   -17101958.870 5 -13326196.849 5
        34.100          33.400
  24086781.553    24086780.313    24086780.346    -2105149.388 3  -1640372.211 3
        18.600          19.900
  21090548.115    21090547.248    21090545.424   -22447629.054 6 -17491648.288 6
        40.700          40.500
  20272650.484    20272649.935    20272646.732   -25666735.424 7 -20000044.491 8
        44.800          51.600
  21428881.154    21428880.479    21428879.751   -18777460.890 6 -14631777.326 5
        36.600          35.400
 09  1 12  1  2  0.0000000  0 10G28G19G15G 6G21G14G 3G18G22G 9
  25491150.039    25491148.409    25491146.284      223128.523 2    173866.701 1
        12.600           9.000
  23010801.140    23010799.414    23010797.466   -10540542.779 5  -8213407.716 5
        30.200          31.500
  25150707.448    25150707.133    25150709.904      973155.770      758303.643 1
                        11.000
  24172063.868    24172063.467    24172062.903    -2829846.242 2  -2205071.173 3
        17.000          21.100
  23510623.126    23510622.367    23510621.314   -10775541.067 3  -8396519.940 2
        19.900          17.000
  21957886.269    21957885.579    21957884.277   -17184809.771 5 -13390755.985 5
        34.600          33.500
  24103446.337    24103445.252    24103443.927    -2017581.424 3  -1572137.447 3
        18.600          19.900
  21100376.582    21100375.720    21100374.034   -22395979.753 6 -17451402.080 6
        40.500          40.500
  20271202.860    20271202.308    20271199.282   -25674342.146 7 -20005971.806 8
        44.700          51.700
  21426879.549    21426878.826    21426878.083   -18787979.805 6 -14639973.884 5
        36.600          35.500
 09  1 12  1  2 30.0000000  0 10G28G19G15G 6G21G14G 3G18G22G 9
  25494284.955    25494284.233    25494282.158      239615.072 1    186713.267 1
         9.000           9.000
  23015507.276    23015505.800    23015504.021   -10515810.694 4  -8194135.967 5
        29.900          31.600
  25171333.603    25171333.422    25171335.070     1081547.797      842762.475 1
                         9.000
  24188785.707    24188784.891    24188784.323    -2741971.855 2  -2136597.625 3
        16.100          20.500
  23531794.321    23531793.421    23531792.414   -10664286.634 3  -8309828.200 3
        19.300          18.600
  21942185.042    21942184.258    21942183.151   -17267319.529 5 -13455049.290 5
        34.400          33.600
  24120156.428    24120155.274    24120154.221    -1929765.951 3  -1503709.804 3
        18.600          19.300
  21110270.470    21110269.642    21110267.900   -22343986.875 6 -17410888.151 6
        40.500          40.300
  20269831.816    20269831.267    20269828.033   -25681547.836 7 -20011586.628 8
        44.800          51.600
  21425016.581    21425015.851    21425015.189   -18797769.520 6 -14647602.224 5
        36.600          35.500
 09  1 12  1  3  0.0000000  0 10G28G19G15G 6G21G14G 3G18G22G 9
  25497515.975    25497515.097    25497514.346      256602.505      199950.209 1
         3.000          11.000
  23020320.536    23020318.994    23020317.072   -10490517.914 4  -8174427.320 5
        29.500          31.600
  25191970.869    25191972.031    25191966.273     1189982.965      927254.789 2
                        12.600
  24205545.067    24205543.879    24205543.696    -2653899.422 2  -2067969.761 3
        15.100          19.900
  23553001.718    23553000.581    23552999.485   -10552844.203 3  -8222989.987 3
        19.300          18.600
  21926549.059    21926548.307    21926547.172   -17349487.175 5 -13519076.014 5
        34.800          33.800
  24136912.782    24136911.741    24136911.868    -1841706.523 2  -1435092.091 3
        17.800          20.500
  21120229.504    21120228.690    21120226.991   -22291651.301 6 -17370107.181 6
        40.300          40.100
  20268536.765    20268536.253    20268533.053   -25688352.769 7 -20016889.169 8
        44.800          51.600
  21423292.548    21423291.862    21423291.015   -18806829.591 6 -14654662.016 5
        36.700          35.400
 09  1 12  1  3 30.0000000  0 10G28G19G15G 6G21G14G 3G18G22G 9
  25500844.733    25500843.994    25500843.144      274091.320 1    213577.945 1
         6.500          11.000
  23025240.087    23025238.413    23025236.554   -10464664.752 4  -8154281.999 5
        29.500          31.100
  25212614.404    25212614.116    25212614.812     1298460.646     1011782.872 2
                        13.900
  24222342.658    24222341.982    24222340.911    -2565630.597 2  -1999188.855 3
        17.000          19.900
  23574244.038    23574242.986    23574241.232   -10441215.058 3  -8136006.269 2
        18.600          17.800
  21910978.630    21910977.848    21910976.784   -17431310.292 5 -13582834.274 5
        34.700          33.900
  24153715.196    24153714.803    24153715.789    -1753404.818 3  -1366285.573 3
        18.600          20.500
  21130254.107    21130253.281    21130251.475   -22238972.138 6 -17329058.483 6
        40.400          40.000
  20267318.409    20267317.886    20267314.743   -25694755.300 7 -20021878.154 8
        44.800          51.700
  21421707.593    21421706.880    21421706.067   -18815158.317 6 -14661151.928 5
        36.700          35.400
 09  1 12  1  4  0.0000000  0 10G28G19G15G 6G21G14G 3G18G22G 9
  25504268.727    25504267.930    25504267.273      292078.996      227594.355 1
         3.000           9.000
  23030265.770    23030264.288    23030262.441   -10438254.262 5  -8133702.412 5
        30.200          31.000
  25233265.077    25233265.126    25233264.139     1406976.781     1096340.871 2
         3.000          15.100
  24239175.752    24239175.155    24239174.887    -2477170.469 2  -1930258.913 3
        17.000          19.900
  23595521.236    23595519.896    23595518.043   -10329403.654 3  -8048880.524 3
        18.600          18.600
  21895473.640    21895473.007    21895471.751   -17512789.665 5 -13646324.682 5
        34.900          34.000
  24170565.005    24170563.938    24170563.642    -1664866.747 3  -1297294.879 3
        18.600          19.900
  21140343.535    21140342.675    21140340.785   -22185952.576 6 -17287744.535 6
        40.400          39.900
  20266176.317    20266175.729    20266172.586   -25700757.286 7 -20026555.024 8
        44.800          51.700
  21420261.548    21420260.892    21420259.924   -18822757.561 6 -14667073.412 5
        36.800          35.400
 09  1 12  1  4 30.0000000  0 10G28G19G15G 6G21G14G 3G18G22G 9
  25507785.062    25507785.757    25507785.249      310568.117      242001.378
                         3.000
  23035398.596    23035396.816    23035394.763   -10411284.237 5  -8112686.800 5
        31.000          31.100
  25253922.615    25253923.215    25253920.468     1515533.949 1   1180930.838 2
         9.000          13.900
  24256045.373    24256044.737    24256045.557    -2388518.439 2  -1861179.419 3
        17.000          20.500
  23616833.164    23616832.113    23616830.114   -10217408.614 2  -7961611.695 3
        17.800          18.600
  21880035.311    21880034.403    21880033.020   -17593920.078 5 -13709543.176 5
        35.100          34.000
  24187457.886    24187456.818    24187456.941    -1576090.946 3  -1228118.937 3
        19.300          19.300
  21150498.108    21150497.274    21150495.413   -22132589.332 6 -17246162.789 6
        40.200          39.700
  20265111.119    20265110.546    20265107.371   -25706355.078 7 -20030916.936 8
        44.800          51.700
  21418955.080    21418954.294    21418953.642   -18829623.311 6 -14672423.343 5
        36.700          35.600
 09  1 12  1  5  0.0000000  0 10G28G19G15G 6G21G14G 3G18G22G 9
  25511401.647    25511400.389    25511398.619      329560.429      256800.529 1
         3.000           6.500
  23040637.584    23040635.553    23040633.683   -10383753.629 5  -8091234.381 5
        30.800          30.800
  25274588.622    25274588.645    25274586.316     1624132.667 1   1265553.173 2
         9.000          13.900
  24272952.064    24272951.050    24272951.547    -2299674.831 2  -1791950.643 3
        16.100          20.500
  23638179.837    23638178.741    23638177.499   -10105229.756 2  -7874199.638 3
        16.100          18.600
  21864663.793    21864663.011    21864661.694   -17674697.757 5 -13772486.815 5
        35.300          34.300
  24204396.700    24204395.755    24204395.245    -1487078.513 3  -1158758.603 3
        19.300          18.600
  21160718.591    21160717.751    21160716.017   -22078880.461 6 -17204311.721 6
        40.300          39.700
  20264123.283    20264122.739    20264119.677   -25711545.706 7 -20034961.579 8
        44.800          51.800
  21417788.784    21417788.003    21417787.297   -18835752.951 6 -14677199.677 5
        36.800          35.800
 09  1 12  1  5 30.0000000  0 10G28G19G15G 6G21G14G 3G18G22G 9
  25515111.025    25515109.837    25515108.121      349051.510 1    271988.417 1
         6.500          11.000
  23045982.083    23045980.365    23045978.447   -10355667.429 5  -8069349.026 5
        31.100          31.000
  25295260.760    25295260.548    25295259.288     1732767.067 1   1350203.315 2
         6.500          12.600
  24289893.367    24289892.651    24289893.185    -2210646.345 2  -1722577.797 3
        16.100          18.600
  23659559.686    23659558.995    23659557.805    -9992873.148 2  -7786649.075 2
        16.100          17.800
  21849358.929    21849357.989    21849356.819   -17755125.350 5 -13835157.655 5
        35.200          34.600
  24221379.286    24221378.107    24221377.365    -1397836.154 2  -1089219.113 2
        17.000          17.800
  21171003.841    21171003.002    21171001.085   -22024830.997 6 -17162195.257 6
        40.200          39.400
  20263212.468    20263211.885    20263208.727   -25716332.608 7 -20038691.631 8
        44.800          51.800
  21416761.600    21416760.853    21416759.942   -18841149.849 6 -14681405.054 5
        36.800          35.400
 09  1 12  1  6  0.0000000  0 10G28G19G15G 6G21G14G 3G18G22G 9
  25518914.165    25518912.284    25518910.914      369040.716 1    287564.381 1
         6.500           9.000
  23051431.866    23051430.305    23051428.577   -10327027.087 5  -8047031.867 5
        31.000          31.100
  25315940.254    25315939.832    25315938.742     1841435.938 1   1434880.338 2
         9.000          13.900
  24306869.682    24306869.406    24306868.779    -2121435.574 2  -1653062.943 2
        16.100          17.000
  23680973.055    23680972.366    23680972.066    -9880340.743 2  -7698961.505 2
        16.100          17.000
  21834120.728    21834119.962    21834118.730   -17835201.208 5 -13897554.413 5
        35.200          34.500
  24238404.556    24238403.272    24238403.437    -1308366.861 2  -1019502.785 3
        15.100          19.300
  21181354.025    21181353.157    21181351.082   -21970441.285 6 -17119813.660 6
        40.300          39.300
  20262378.351    20262377.896    20262374.851   -25720714.896 7 -20042106.398 8
        44.800          51.800
  21415874.392    21415873.621    21415872.731   -18845813.228 6 -14685038.849 5
        37.000          35.600
 09  1 12  1  6 30.0000000  0 10G28G19G15G 6G21G14G 3G18G22G 9
  25522813.778    25522812.205    25522812.958      389532.621      303532.066 1
         3.000           9.000
  23056988.489    23056986.752    23056984.587   -10297828.197 5  -8024279.490 5
        30.800          30.600
  25336624.790    25336626.026    25336623.645     1950142.793     1519586.995 2
         3.000          12.600
  24323881.671    24323880.698    24323879.688    -2032040.137 2  -1583404.158 2
        17.000          16.100
  23702421.634    23702421.163    23702420.896    -9767629.454 2  -7611134.543 2
        16.100          17.000
  21818950.802    21818950.123    21818949.304   -17914918.176 5 -13959671.519 5
        35.200          34.800
  24255472.523    24255471.553    24255473.090    -1218667.698 2   -949607.348 3
        13.900          19.300
  21191769.441    21191768.646    21191766.853   -21915706.549 6 -17077163.215 6
        40.200          39.200
  20261622.512    20261621.962    20261618.829   -25724687.470 7 -20045201.911 8
        44.800          51.800
  21415127.556    21415126.809    21415125.875   -18849737.498 6 -14688096.723 5
        37.000          35.400
 09  1 12  1  7  0.0000000  0 10G28G19G15G 6G21G14G 3G18G22G 9
  25526807.692    25526805.173    25526803.196      410519.597      319885.495 1
                         6.500
  23062649.519    23062647.546    23062645.915   -10268079.268 5  -8001098.504 5
        30.200          31.100
  25357315.988    25357315.150    25357316.174     2058879.050     1604316.570 2
                        12.600
  24340926.137    24340925.194    24340924.809    -1942470.156 2  -1513609.380 2
        16.100          16.100
  23723902.319    23723901.480    23723901.219    -9654749.148 2  -7523175.907 2
        15.100          17.000
  21803848.520    21803847.755    21803846.647   -17994282.536 5 -14021513.866 5
        35.700          34.900
  24272583.690    24272583.055    24272583.722    -1128749.185 2   -879540.963 3
        12.600          18.600
  21202249.457    21202248.517    21202246.672   -21860634.793 6 -17034250.157 6
        40.200          39.100
  20260943.144    20260942.630    20260939.453   -25728257.480 7 -20047983.733 8
        44.800          51.700
  21414519.988    21414519.296    21414518.223   -18852929.721 6 -14690584.168 5
        36.800          35.300
 09  1 12  1  7 30.0000000  0  9G28G19G 6G21G14G 3G18G22G 9
  25530894.583    25530892.739    25530889.452      431991.715      336617.055 1
                         9.000
  23068412.881    23068411.309    23068409.611   -10237790.473 4  -7977496.846 5
        29.700          31.000
  24358000.378    24357999.640    24358001.024    -1852737.107 1  -1443687.525 2
        11.000          17.000
  23745413.026    23745412.319    23745411.968    -9541710.598 2  -7435093.941 2
        16.100          16.100
  21788811.786    21788810.998    21788809.665   -18073301.689 6 -14083087.223 5
        36.000          34.900
  24289734.144    24289733.343    24289733.979    -1038623.157 2   -809312.926 3
        13.900          19.300
  21212791.409    21212790.594    21212788.812   -21805235.375 6 -16991081.778 6
        40.200          39.100
  20260338.871    20260338.277    20260335.120   -25731433.189 7 -20050458.310 8
        44.800          51.700
  21414050.183    21414049.514    21414048.639   -18855398.223 6 -14692507.680 5
        36.700          35.600
 09  1 12  1  8  0.0000000  0  9G28G19G 6G21G14G 3G18G22G 9
  25535074.012    25535073.456    25535071.654      453960.858 1    353735.841 1
         6.500           9.000
  23074281.908    23074280.128    23074278.027   -10206950.704 4  -7953465.866 5
        29.700          31.000
  24375109.200    24375109.176    24375108.607    -1762831.491 2  -1373631.220 2
        13.900          16.100
  23766955.637    23766954.898    23766953.719    -9428503.764 2  -7346880.846 2
        16.100          16.100
  21773843.381    21773842.580    21773841.150   -18151961.656 6 -14144380.698 5
        36.200          35.200
  24306927.474    24306926.072    24306925.465     -948280.038 2   -738915.702 3
        15.100          19.900
  21223398.426    21223397.462    21223395.663   -21749496.340 6 -16947648.764 6
        40.200          39.000
  20259811.966    20259811.439    20259808.277   -25734201.769 7 -20052615.644 8
        44.900          51.700
  21413720.575    21413719.903    21413719.290   -18857130.435 6 -14693857.448 5
        36.600          35.900
 09  1 12  1  8 30.0000000  0  9G28G19G 6G21G14G 3G18G22G 9
  25539351.817    25539351.005    25539350.043      476442.076      371253.649 2
         3.000          12.600
  23080258.273    23080256.585    23080254.270   -10175545.434 5  -7928994.227 5
        30.600          30.800
  24392253.872    24392253.552    24392252.176    -1672740.216 2  -1303430.208 2
        15.100          15.100
  23788533.132    23788532.369    23788530.687    -9315114.397 2  -7258525.530 2
        15.100          16.100
  21758946.172    21758945.457    21758944.211   -18230245.482 6 -14205381.075 5
        36.100          35.300
  24324161.209    24324161.167    24324161.633     -857707.282 2   -668339.547 3
        15.100          20.500
  21234072.673    21234071.790    21234069.958   -21693402.380 6 -16903939.186 6
        40.200          38.900
  20259365.679    20259365.172    20259362.030   -25736546.843 7 -20054442.973 8
        44.900          51.700
  21413534.053    21413533.384    21413532.699   -18858110.311 6 -14694620.983 5
        36.800          35.700
 09  1 12  1  9  0.0000000  0  9G28G19G 6G21G14G 3G18G22G 9
  25543722.226    25543721.628    25543720.465      499424.681      389162.204 1
                         6.500
  23086339.491    23086337.889    23086335.949   -10143586.037 5  -7904090.795 5
        30.200          31.000
  24409430.390    24409429.707    24409429.498    -1582475.829 2  -1233094.331 2
        15.100          13.900
  23810142.953    23810141.612    23810139.976    -9201554.744 2  -7170037.516 2
        16.100          13.900
  21744119.361    21744118.718    21744117.487   -18308160.982 6 -14266094.442 5
        36.300          35.500
  24341439.347    24341438.148    24341438.454     -766917.564 2   -597594.314 3
        17.000          20.500
  21244812.350    21244811.549    21244809.935   -21636963.996 6 -16859961.222 6
        40.000          38.800
  20258998.187    20258997.651    20258994.509   -25738478.082 7 -20055947.833 8
        44.900          51.700
  21413489.109    21413488.376    21413487.510   -18858347.339 6 -14694805.683 5
        36.900          35.600
 09  1 12  1  9 30.0000000  0  9G28G19G 6G21G14G 3G18G22G 9
  25548188.998    25548189.538    25548188.908      522896.319      407451.789 1
         3.000          11.000
  23092524.155    23092522.680    23092521.077   -10111085.483 5  -7878765.704 5
        30.100          31.300
  24426636.445    24426636.065    24426636.467    -1492052.935 2  -1162634.961 2
        12.600          15.100
  23831782.058    23831781.050    23831778.744    -9087839.107 2  -7081427.932 2
        13.900          12.600
  21729360.660    21729359.912    21729358.750   -18385718.947 6 -14326529.211 5
        36.500          35.700
  24358753.456    24358753.136    24358752.549     -675925.128 2   -526691.133 3
        15.100          19.900
  21255615.412    21255614.594    21255612.895   -21580193.698 6 -16815724.625 6
        40.000          38.700
  20258707.463    20258706.877    20258703.613   -25740006.857 7 -20057139.085 8
        44.900          51.700
  21413582.954    21413582.274    21413581.638   -18857853.224 6 -14694420.653 5
        36.700          35.700
 09  1 12  1 10  0.0000000  0  9G28G19G 6G21G14G 3G18G22G 9
  25552748.448    25552748.611    25552749.210      546851.431      426118.082 2
         3.000          15.100
  23098810.693    23098808.936    23098807.293   -10078049.900 5  -7853023.691 5
        30.100          31.000
  24443871.525    24443871.646    24443872.262    -1401479.066 2  -1092057.923 2
        12.600          13.900
  23853449.175    23853448.773    23853447.051    -8973974.462 2  -6992702.260 2
        13.900          13.900
  21714669.349    21714668.570    21714667.166   -18462922.389 6 -14386687.731 5
        36.600          35.500
  24376106.260    24376105.491    24376105.662     -584737.870 2   -455636.165 3
        16.100          19.300
  21266480.624    21266479.855    21266478.199   -21523096.772 6 -16771233.509 6
        40.000          38.700
  20258492.205    20258491.636    20258488.505   -25741137.362 7 -20058019.997 8
        44.900          51.700
  21413815.325    21413814.604    21413813.910   -18856632.407 6 -14693469.370 5
        36.800          35.600
 09  1 12  1 10 30.0000000  0  9G28G19G 6G21G14G 3G18G22G 9
  25557399.116    25557398.728    25557399.221      571291.811      445162.450 2
                        12.600
  23105199.542    23105197.677    23105195.641   -10044477.809 5  -7826863.625 5
        30.100          30.400
  24461137.788    24461136.953    24461136.034    -1310754.336 2  -1021363.318 2
        13.900          13.900
  23875145.171    23875145.282    23875143.410    -8859959.928 2  -6903859.810 2
        15.100          13.900
  21700046.319    21700045.522    21700044.167   -18539767.459 6 -14446567.000 5
        36.600          35.800
  24393495.768    24393495.056    24393494.765     -493356.286 2   -384429.761 3
        16.100          18.600
  21277408.469    21277407.655    21277405.863   -21465670.774 6 -16726485.981 6
        39.800          38.400
  20258353.381    20258352.828    20258349.633   -25741866.971 7 -20058588.521 8
        44.900          51.700
  21414186.566    21414185.815    21414184.957   -18854681.890 6 -14691949.484 5
        36.900          35.600
 09  1 12  1 11  0.0000000  0  9G28G19G 6G21G14G 3G18G22G 9
  25562143.010    25562147.007    25562139.130      596227.726      464593.081 1
                         6.500
  23111691.858    23111690.344    23111687.972   -10010359.723 5  -7800278.117 4
        30.200          29.900
  24478432.732    24478431.641    24478430.976    -1219870.293 2   -950544.563 2
        13.900          16.100
  23896873.433    23896872.465    23896870.189    -8745786.424 2  -6814893.471 2
        16.100          15.100
  21685493.687    21685492.928    21685491.648   -18616241.473 6 -14506157.133 5
        36.500          35.900
  24410923.575    24410922.740    24410922.236     -401771.707 2   -313065.167 3
        13.900          18.600
  21288400.776    21288399.980    21288398.170   -21407905.534 6 -16681474.107 6
        39.700          38.300
  20258293.071    20258292.502    20258289.298   -25742184.093 7 -20058835.627 8
        45.000          51.600
  21414698.731    21414698.036    21414697.232   -18851990.824 6 -14689852.548 5
        36.900          35.700
 09  1 12  1 11 30.0000000  0  9G28G19G 6G21G14G 3G18G22G 9
  25566985.418    25566985.227    25566984.057      621661.347      484411.597 1
                        11.000
  23118288.677    23118286.923    23118284.764    -9975694.076 5  -7773265.920 4
        30.400          29.700
  24495756.828    24495755.659    24495756.439    -1128827.025 2   -879601.762 2
        13.900          17.800
  23918629.852    23918629.288    23918627.594    -8631453.621 2  -6725803.003 2
        17.000          15.100
  21671012.296    21671011.652    21671010.312   -18692340.141 6 -14565454.789 5
        36.500          35.800
  24428389.546    24428388.990    24428389.084     -309984.581 2   -241542.720 3
        16.100          18.600
  21299458.077    21299457.291    21299455.594   -21349798.903 6 -16636196.214 6
        39.700          38.400
  20258311.918    20258311.345    20258308.078   -25742085.384 7 -20058758.708 8
        45.000          51.600
  21415352.046    21415351.353    21415350.579   -18848556.191 6 -14687176.207 5
        36.800          35.400
 09  1 12  1 12  0.0000000  0  8G19G 6G21G14G 3G18G22G 9
  23124986.558    23124984.639    23124982.568    -9940496.498 5  -7745839.249 4
        30.600          29.900
  24513108.622    24513107.589    24513108.413    -1037641.266 2   -808547.951 3
        12.600          18.600
  23940413.975    23940413.084    23940411.239    -8516977.833 2  -6636601.128 2
        15.100          13.900
  21656600.305    21656599.631    21656598.490   -18768076.323 6 -14624469.992 6
        36.700          36.200
  24445891.595    24445891.011    24445891.779     -218011.996 2   -169875.780 3
        16.100          18.600
  21310577.652    21310576.812    21310575.068   -21291365.451 6 -16590663.651 6
        39.700          38.100
  20258407.030    20258406.533    20258403.343   -25741584.757 7 -20058368.608 8
        45.000          51.600
  21416144.555    21416143.845    21416143.071   -18844392.306 6 -14683931.622 5
        37.000          35.500
 09  1 12  1 12 30.0000000  0  9G19G11G 6G21G14G 3G18G22G 9
  23131786.044    23131784.525    23131782.326    -9904764.078 5  -7717995.808 5
        30.800          30.100
  24879041.475    24879039.336    24879034.974          -1.1551          -.74511
                         6.500
  24530489.315    24530488.087    24530488.197     -946311.346 1   -737381.776 2
        11.000          17.800
  23962225.966    23962225.305    23962222.909    -8402356.693 2  -6547285.978 2
        16.100          15.100
  21642258.241    21642257.582    21642256.311   -18843444.440 6 -14683198.389 6
        36.700          36.200
  24463429.361    24463428.329    24463428.891     -125852.102 2    -98062.880 2
        16.100          17.000
  21321760.286    21321759.371    21321757.489   -21232601.201 6 -16544873.322 6
        39.700          38.000
  20258579.893    20258579.338    20258576.052   -25740676.967 7 -20057661.238 8
        45.000          51.500
  21417076.621    21417075.899    21417075.037   -18839494.571 6 -14680115.202 5
        36.900          35.400
 09  1 12  1 13  0.0000000  0  9G19G11G 6G21G14G 3G18G22G 9
  23138689.086    23138687.342    23138685.221    -9868489.196 5  -7689729.672 5
        30.200          30.200
  24860352.973    24860352.087    24860349.139      -98196.558      -76516.603 1
                         6.500
  24547895.812    24547894.322    24547896.475     -854830.987 1   -666098.391 2
         9.000          17.000
  23984066.831    23984065.869    23984064.163    -8287583.156 2  -6457852.095 2
        17.000          13.900
  21627988.436    21627987.613    21627986.470   -18918433.858 6 -14741631.697 6
        36.700          36.500
  24481002.713    24481002.148    24481003.581      -33499.239 2    -26099.595 2
        13.900          15.100
  21333007.134    21333006.334    21333004.620   -21173497.851 6 -16498818.762 6
        39.600          38.100
  20258831.729    20258831.185    20258827.894   -25739353.255 7 -20056629.774 8
        45.000          51.500
  21418149.964    21418149.290    21418148.417   -18833853.811 6 -14675719.805 5
        36.900          35.300
 09  1 12  1 13 30.0000000  0  9G19G11G 6G21G14G 3G18G22G 9
  23145692.646    23145690.846    23145689.084    -9831683.593 4  -7661049.988 5
        29.500          30.100
  24841709.636    24841710.204    24841709.285     -196161.123     -152852.580 1
                         9.000
  24565330.618    24565329.527    24565329.354     -763213.099 1   -594707.836 2
         6.500          15.100
  24005934.387    24005933.247    24005931.865    -8172670.067 2  -6368309.474 2
        17.800          15.100
  21613788.641    21613787.859    21613786.857   -18993053.462 6 -14799776.836 6
        36.800          36.700
  24498611.798    24498611.505    24498611.135       59033.873 2     46004.100 2
        13.900          15.100
  21344316.640    21344315.816    21344314.060   -21114066.299 6 -16452508.466 6
        39.500          37.900
  20259160.857    20259160.313    20259157.094   -25737623.604 7 -20055281.992 8
        44.900          51.500
  21419362.777    21419362.004    21419361.369   -18827480.316 6 -14670753.448 5
        36.800          35.400
 09  1 12  1 14  0.0000000  0  9G19G11G 6G21G14G 3G18G22G 9
  23152798.169    23152796.570    23152794.578    -9794344.514 5  -7631954.609 5
        30.100          30.100
  24823113.814    24823112.398    24823113.041     -293887.821     -229003.221 1
         3.000          11.000
  24582791.250    24582791.090    24582790.350     -671456.190 1   -523208.946 2
        11.000          16.100
  24027828.785    24027827.806    24027825.633    -8057614.918 2  -6278656.155 2
        15.100          15.100
  21599660.211    21599659.547    21599658.662   -19067297.557 6 -14857629.371 6
        36.900          36.900
  24516254.778    24516254.004    24516253.875      151748.636 2    118249.371 2
        15.100          13.900
  21355689.399    21355688.525    21355686.683   -21054302.671 6 -16405939.402 6
        39.500          37.700
  20259568.278    20259567.733    20259564.527   -25735482.764 7 -20053613.805 8
        44.900          51.600
  21420715.750    21420715.137    21420714.325   -18820369.986 6 -14665212.926 5
        36.800          35.500
 09  1 12  1 14 30.0000000  0  9G19G11G 6G21G14G 3G18G22G 9
  23160003.276    23160001.648    23159999.749    -9756480.732 4  -7602450.360 4
        29.700          29.700
  24804560.220    24804561.075    24804561.631     -391381.728     -304972.499 2
         3.000          12.600
  24600278.537    24600277.527    24600276.136     -579570.385 2   -451609.669 2
        12.600          17.800
  24049747.808    24049746.165    24049745.553    -7942427.120 2  -6188899.470 1
        13.900          11.000
  21585602.561    21585601.798    21585600.809   -19141171.894 6 -14915193.784 6
        37.000          37.100
  24533930.618    24533930.084    24533929.348      244634.696 2    190628.105 2
        12.600          13.900
  21367123.596    21367122.714    21367120.879   -20994215.003 6 -16359117.842 6
        39.300          37.500
  20260052.476    20260051.916    20260048.724   -25732938.241 7 -20051631.059 8
        44.900          51.600
  21422207.590    21422206.963    21422206.176   -18812530.074 6 -14659103.906 5
        36.900          35.300
 09  1 12  1 15  0.0000000  0  9G19G11G 6G21G14G 3G18G22G 9
  23167308.694    23167307.313    23167305.591    -9718088.666 4  -7572534.461 4
        28.800          29.700
  24786054.572    24786054.963    24786054.333     -488635.262 1   -380754.502 1
         6.500          11.000
  24617785.606    24617785.256    24617786.788     -487553.410 1   -379908.169 3
        11.000          19.300
  24071692.071    24071691.412    24071690.755    -7827104.032 2  -6099037.351 1
        13.900           9.000
  21571616.127    21571615.514    21571614.428   -19214670.380 6 -14972465.326 6
        37.200          37.000
  24551638.969    24551638.116    24551637.524      337694.233 1    263142.013 2
         9.000          13.900
  21378620.225    21378619.395    21378617.618   -20933798.988 6 -16312040.433 6
        39.300          37.400
  20260614.550    20260613.973    20260610.795   -25729984.621 7 -20049329.537 8
        44.900          51.600
  21423839.403    21423838.686    21423837.656   -18803955.843 6 -14652422.680 5
        36.900          34.900
 09  1 12  1 15 30.0000000  0  9G19G11G 6G21G14G 3G18G22G 9
  23174715.092    23174713.492    23174711.030    -9679169.763 4  -7542208.045 4
        29.000          28.600
  24767595.577    24767594.922    24767595.200     -585645.328 1   -456346.769 1
         6.500          11.000
  24635322.359    24635320.914    24635322.462     -395407.577 2   -308106.191 3
        13.900          19.300
  24093663.576    24093662.431    24093661.744    -7711647.250 2  -6009071.053 1
        15.100           9.000
  21557701.787    21557701.061    21557700.090   -19287791.138 6 -15029442.532 6
        37.200          37.100
  24569380.297    24569380.100    24569379.463      430924.818 1    335789.190 2
         9.000          15.100
  21390179.639    21390178.798    21390176.948   -20873054.544 6 -16264707.098 6
        39.100          37.300
  20261254.613    20261254.087    20261250.795   -25726621.221 7 -20046708.706 8
        44.900          51.500
  21425610.438    21425609.871    21425609.015   -18794647.148 6 -14645169.155 5
        36.500          34.900
 09  1 12  1 16  0.0000000  0  9G19G11G 6G21G14G 3G18G22G 9
  23182221.701    23182220.232    23182218.211    -9639720.533 4  -7511468.389 4
        29.000          28.600
  24749183.585    24749182.807    24749181.566     -682404.539     -531743.545 1
         3.000           9.000
  24652882.672    24652882.234    24652881.471     -303130.830 2   -236202.225 2
        16.100          17.800
  24115659.761    24115658.300    24115657.853    -7596054.498 2  -5918998.785 1
        16.100          11.000
  21543860.488    21543859.838    21543858.543   -19360528.176 6 -15086120.739 6
        37.500          37.200
  24587155.934    24587154.655    24587154.261      524328.594 2    408571.354 2
        12.600          13.900
  21401802.073    21401801.228    21401799.469   -20811977.712 6 -16217114.760 6
        39.000          37.200
  20261973.630    20261973.064    20261969.781   -25722842.861 7 -20043764.527 8
        44.900          51.500
  21427522.901    21427522.099    21427521.256   -18784599.349 6 -14637339.697 5
        36.700          35.300
 09  1 12  1 16 30.0000000  0  9G19G11G 6G21G14G 3G18G22G 9
  23189827.835    23189826.223    23189824.331    -9599750.910 4  -7480323.223 4
        28.600          29.500
  24730817.371    24730817.473    24730813.085     -778918.737     -606949.384 1
                        11.000
  24670464.791    24670463.772    24670462.644     -210734.078 2   -164204.787 2
        13.900          13.900
  24137679.175    24137679.092    24137678.345    -7480335.923 2  -5828828.502 1
        15.100          11.000
  21530090.995    21530090.237    21530088.927   -19432888.343 6 -15142505.282 6
        37.800          37.400
  24604960.294    24604959.256    24604958.828      617893.820 2    481479.367 2
        13.900          15.100
  21413486.350    21413485.514    21413483.493   -20750577.374 6 -16169270.342 6
        39.000          37.100
  20262769.904    20262769.373    20262766.263   -25718657.580 7 -20040503.270 8
        44.700          51.500
  21429573.968    21429573.171    21429572.428   -18773821.261 6 -14628941.184 5
        36.800          35.500
 09  1 12  1 17  0.0000000  0  9G19G11G 6G21G14G 3G18G22G 9
  23197532.537    23197530.670    23197528.781    -9559264.019 4  -7448774.989 4
        28.800          29.900
  24712498.438    24712496.571    24712493.923     -875186.635     -681963.307 1
                        11.000
  24688067.883    24688067.948    24688067.437     -118221.601 2    -92117.164 2
        12.600          15.100
  24159723.461    24159722.418    24159722.221    -7364495.238 2  -5738563.093 1
        15.100           9.000
  21516392.985    21516392.267    21516390.805   -19504871.647 6 -15198596.162 6
        38.000          37.400
  24622794.372    24622793.805    24622793.849      711616.622 2    554510.143 2
        15.100          13.900
  21425231.455    21425230.645    21425228.872   -20688855.485 6 -16121175.366 6
        38.800          37.000
  20263643.731    20263643.157    20263639.978   -25714066.048 7 -20036925.452 8
        44.800          51.500
  21431763.396    21431762.763    21431762.015   -18762313.778 6 -14619974.308 5
        36.500          35.300
 09  1 12  1 17 30.0000000  0  9G19G11G 6G21G14G 3G18G22G 9
  23205337.811    23205336.253    23205334.214    -9518246.174 4  -7416813.036 5
        29.000          30.100
  24694229.645    24694228.313    24694223.630     -971190.023     -756771.122 1
                         9.000
  24705698.801    24705697.793    24705696.971      -25580.607 2    -19929.379 2
        12.600          17.000
  24181793.421    24181792.591    24181791.282    -7248519.053 3  -5648192.078 1
        18.600          11.000
  21502770.017    21502769.234    21502767.791   -19576461.346 6 -15254380.341 6
        38.000          37.400
  24640661.288    24640660.970    24640661.333      805509.515 2    627673.405 2
        15.100          13.900
  21437040.888    21437040.010    21437038.116   -20626797.373 6 -16072818.402 6
        38.700          36.800
  20264597.675    20264597.127    20264593.970   -25709052.839 7 -20033019.053 8
        44.700          51.500
  21434094.749    21434094.113    21434093.537   -18750062.207 6 -14610427.631 5
        36.500          35.400
 09  1 12  1 18  0.0000000  0  9G19G11G 6G21G14G 3G18G22G 9
  23213239.409    23213237.675    23213236.264    -9476721.591 4  -7384456.220 5
        28.800          30.100
  24676005.534    24676005.350    24676002.011    -1066949.133     -831388.556 1
         3.000          11.000
  24723345.791    24723345.524    24723346.499       67163.369 1     52338.604 3
        11.000          18.600
  24203884.014    24203883.177    24203882.184    -7132432.402 3  -5557734.964 1
        19.300           9.000
  21489217.593    21489216.866    21489215.466   -19647679.219 6 -15309874.782 6
        37.900          37.600
  24658556.702    24658555.904    24658555.316      899546.639 2    700949.060 2
        15.100          13.900
  21448909.643    21448908.832    21448906.909   -20564426.289 6 -16024217.553 6
        38.700          36.600
  20265627.670    20265627.100    20265623.846   -25703640.457 7 -20028801.612 8
        44.700          51.400
  21436563.844    21436563.058    21436562.025   -18737089.773 6 -14600319.233 5
        36.900          35.400
 09  1 12  1 18 30.0000000  0  9G19G11G 6G21G14G 3G18G22G 9
  23221240.367    23221238.606    23221236.500    -9434679.868 4  -7351696.438 5
        29.200          30.200
  24657832.453    24657832.119    24657830.427    -1162449.158     -905804.157 2
         3.000          12.600
  24741018.120    24741016.520    24741016.759      160019.807 1    124694.239 2
         6.500          17.800
  24225998.090    24225997.500    24225996.888    -7016225.097 3  -5467183.841 1
        19.300           6.500
  21475738.483    21475737.740    21475736.620   -19718511.557 6 -15365068.803 6
        37.900          37.700
  24676480.793    24676479.693    24676478.691      993737.545 2    774344.572 2
        13.900          15.100
  21460840.170    21460839.329    21460837.530   -20501730.785 6 -15975363.913 6
        38.500          36.600
  20266735.869    20266735.333    20266732.162   -25697816.510 7 -20024263.471 8
        44.700          51.400
  21439171.542    21439170.838    21439170.097   -18723384.631 6 -14589639.899 5
        36.700          35.300
 09  1 12  1 19  0.0000000  0  9G19G11G 6G21G14G 3G18G22G 9
  23229339.076    23229337.492    23229335.211    -9392119.447 4  -7318532.476 4
        29.200          29.700
  24639711.500    24639711.037    24639708.036    -1257684.464 1   -980013.450 2
         9.000          12.600
  24758707.814    24758707.496    24758705.753      252989.131      197137.869 2
                        13.900
  24248135.772    24248134.747    24248133.354    -6899896.089 3  -5376537.897 1
        19.300           6.500
  21462333.699    21462333.023    21462331.949   -19788953.666 6 -15419958.754 6
        38.100          37.900
  24694433.396    24694432.197    24694432.795     1088082.410 1    847860.042 2
        11.000          17.800
  21472832.883    21472832.079    21472830.210   -20438708.505 6 -15926255.647 6
        38.500          36.500
  20267923.188    20267922.660    20267919.496   -25691577.284 7 -20019401.735 8
        44.700          51.400
  21441919.477    21441918.795    21441917.952   -18708944.259 6 -14578387.662 5
        36.600          35.300
 09  1 12  1 19 30.0000000  0  9G19G11G 6G21G14G 3G18G22G 9
  23237535.117    23237533.447    23237531.571    -9349048.452 4  -7284970.673 4
        28.400          29.700
  24621639.548    24621638.881    24621635.763    -1352658.929 2  -1054019.515 2
        13.900          13.900
  24776417.661    24776419.938    24776420.578      346062.351      269662.839 1
                        11.000
  24270293.557    24270292.846    24270291.849    -6783454.236 3  -5285804.013 1
        18.600          11.000
  21449002.363    21449001.595    21449000.580   -19859010.646 6 -15474548.604 6
        38.100          38.100
  24712414.586    24712413.534    24712414.119     1182572.299 1    921488.510 3
        11.000          19.300
  21484886.686    21484885.803    21484883.943   -20375366.192 6 -15876898.005 6
        38.500          36.500
  20269188.186    20269187.701    20269184.513   -25684929.250 7 -20014221.447 8
        44.700          51.400
  21444805.949    21444805.222    21444804.545   -18693775.011 6 -14566567.466 5
        36.500          35.200
 09  1 12  1 20  0.0000000  0  9G19G14G11G 6G21G 3G18G22G 9
  23245828.141    23245826.191    23245823.993    -9305469.989 4  -7251013.435 4
        28.600          29.000
  21435744.107    21435743.347    21435742.362   -19928682.897 6 -15528838.665 6
        38.100          38.200
  24603615.635    24603615.164    24603612.205    -1447371.055 2  -1127821.153 2
        13.900          12.600
  24794152.985    24794151.160    24794148.710      439235.441      342265.694 2
                        12.600
  24292471.742    24292471.099    24292469.903    -6666902.918 3  -5194984.883 2
        19.300          12.600
  24730422.261    24730421.134    24730420.522     1277202.934 2    995226.688 2
        12.600          17.000
  21497000.787    21496999.963    21496998.159   -20311705.494 6 -15827292.269 6
        38.300          36.300
  20270530.970    20270530.430    20270527.265   -25677873.225 7 -20008723.244 8
        44.700          51.300
  21447830.995    21447830.317    21447829.547   -18677878.778 6 -14554180.788 5
        36.500          35.100
 09  1 12  1 20 30.0000000  0  9G19G14G11G 6G21G 3G18G22G 9
  23254218.133    23254216.485    23254214.619    -9261378.503 4  -7216656.433 4
        28.600          28.800
  21422560.948    21422560.193    21422559.009   -19997961.761 6 -15582822.188 6
        38.300          38.300
  24585645.165    24585644.182    24585641.007    -1541810.775 1  -1201410.532 2
        11.000          12.600
  24811896.126    24811900.751    24811901.719      532512.791      414949.356 1
                         9.000
  24314673.163    24314672.134    24314670.467    -6550236.854 3  -5104076.288 2
        20.500          15.100
  24748457.434    24748456.739    24748455.712     1371978.630 2   1069077.837 2
        13.900          16.100
  21509176.681    21509175.921    21509174.003   -20247720.109 6 -15777433.528 6
        38.200          36.000
  20271952.806    20271952.258    20271948.932   -25670401.793 7 -20002901.347 8
        44.700          51.200
  21450995.388    21450994.767    21450994.210   -18661248.817 6 -14541222.373 5
        36.500          35.200
 09  1 12  1 21  0.0000000  0  9G19G14G11G 6G21G 3G18G22G 9
  23262704.371    23262702.681    23262700.247    -9216785.170 4  -7181908.394 4
        28.800          28.800
  21409450.775    21409450.110    21409448.916   -20066855.563 6 -15636505.664 6
        38.300          38.400
  24567724.266    24567722.884    24567720.792    -1635985.454 1  -1274793.370 1
         9.000           6.500
  24829668.567    24829666.512    24829665.997      625882.172      487704.695 1
                        11.000
  24336893.782    24336892.488    24336890.945    -6433467.856 3  -5013087.518 2
        19.300          16.100
  24766516.844    24766517.282    24766516.952     1466886.584 1   1143032.073 2
        11.000          16.100
  21521412.791    21521411.874    21521409.826   -20183420.319 6 -15727329.793 5
        38.400          35.900
  20273451.887    20273451.315    20273448.008   -25662524.101 7 -19996762.884 8
        44.600          51.200
  21454297.758    21454297.087    21454296.468   -18643895.352 6 -14527700.190 5
        36.500          35.200
 09  1 12  1 21 30.0000000  0  9G19G14G18G11G 6G21G 3G22G 9
  23271286.125    23271284.312    23271282.281    -9171686.807 4  -7146766.817 4
        28.100          29.000
  21396415.421    21396414.619    21396413.311   -20135358.002 6 -15689884.184 6
        38.400          38.600
  21533709.078    21533708.295    21533706.474   -20118801.648 6 -15676977.582 6
        38.200          36.000
  24549852.480    24549852.807    24549850.742    -1729887.185 1  -1347963.510 1
         6.500           9.000
  24847454.967    24847453.639    24847453.639      719346.168      560533.750 1
         3.000          11.000
  24359134.245    24359133.340    24359131.388    -6316592.869 2  -4922016.146 2
        17.000          16.100
  24784602.567    24784602.497    24784602.407     1561929.382 1   1217091.379 2
        11.000          16.100
  20275029.173    20275028.590    20275025.435   -25654235.138 7 -19990303.951 8
        44.600          51.200
  21457738.560    21457737.920    21457737.297   -18625813.668 6 -14513610.567 5
        36.500          35.100
 09  1 12  1 22  0.0000000  0  9G19G14G18G11G 6G21G 3G22G 9
  23279964.014    23279962.258    23279960.446    -9126082.216 4  -7111230.779 4
        27.600          29.000
  21383454.901    21383454.199    21383453.054   -20203464.682 6 -15742954.322 6
        38.400          38.700
  21546066.975    21546066.079    21546064.053   -20053861.603 6 -15626374.950 5
        38.100          35.500
  24532035.071    24532035.707    24532033.324    -1823510.265    -1420916.564 1
         3.000           9.000
  24865256.731    24865255.210    24865256.709      812904.985      633436.734 1
         3.000          11.000
  24381394.864    24381393.596    24381392.393    -6199611.012 2  -4830861.523 2
        12.600          15.100
  24802715.544    24802714.436    24802714.457     1657107.124 1   1291255.837 2
         9.000          16.100
  20276685.426    20276684.890    20276681.597   -25645531.458 7 -19983521.861 8
        44.600          51.200
  21461318.350    21461317.678    21461316.847   -18607001.471 6 -14498951.713 5
        36.500          34.600
 09  1 12  1 22 30.0000000  0  9G19G14G18G11G 6G21G 3G22G 9
  23288737.716    23288736.138    23288734.495    -9079975.618 4  -7075303.574 4
        28.100          29.200
  21370569.764    21370568.990    21370567.972   -20271176.854 6 -15795717.044 6
        38.500          38.900
  21558484.973    21558484.160    21558482.248   -19988603.381 6 -15575524.381 5
        38.100          35.400
  24514273.434    24514273.324    24514270.997    -1916854.977    -1493652.707 1
                         9.000
  24883075.742    24883075.475    24883076.540      906553.321      706409.485 1
         3.000          11.000
  24403673.904    24403673.001    24403672.494    -6082527.150 1  -4739627.401 2
        11.000          13.900
  24820852.379    24820851.327    24820850.705     1752414.421 1   1365521.225 2
         9.000          17.000
  20278420.121    20278419.559    20278416.407   -25636415.320 7 -19976418.375 8
        44.400          51.100
  21465036.766    21465036.076    21465035.185   -18587461.850 6 -14483726.033 5
        36.600          34.700
 09  1 12  1 23  0.0000000  0  9G19G14G18G11G 6G21G 3G22G 9
  23297606.347    23297604.645    23297602.613    -9033373.532 4  -7038990.257 4
        28.100          29.900
  21357759.002    21357758.294    21357757.141   -20338497.892 6 -15848174.994 6
        38.500          39.000
  21570962.939    21570962.111    21570960.223   -19923032.351 6 -15524430.076 5
        38.100          35.500
  24496563.841    24496563.889    24496562.286    -2009922.804    -1566173.061 1
                         9.000
  24900915.006    24900913.999    24900913.675     1000284.063 1    779446.448 1
        11.000          11.000
  24425972.218    24425971.751    24425971.333    -5965347.878 1  -4648318.929 2
        11.000          12.600
  24839011.112    24839011.064    24839010.724     1847843.986 1   1439881.881 2
         9.000          16.100
  20280232.550    20280232.002    20280228.856   -25626890.930 7 -19968996.770 8
        44.400          51.100
  21468892.700    21468891.906    21468891.054   -18567200.023 6 -14467937.590 5
        36.700          34.800
 09  1 12  1 23 30.0000000  0  9G19G14G18G 9G11G 6G21G 3G22
  23306569.594    23306568.186    23306566.523    -8986268.742 4  -7002285.233 5
        27.600          30.200
  21345024.555    21345023.790    21345022.772   -20405417.967 6 -15900320.499 6
        38.400          39.100
  21583501.913    21583501.053    21583498.975   -19857140.002 6 -15473085.389 5
        38.100          35.200
  21472887.097    21472886.419    21472885.693   -18546207.970 6 -14451580.152 5
        36.500          34.700
  24478908.792    24478907.049    24478906.602    -2102702.535    -1638468.967 1
                         9.000
  24918766.159    24918765.564    24918766.299     1094103.279 2    852552.331 1
        13.900           9.000
  24448292.088    24448291.373    24448288.899    -5848066.669 1  -4556931.013 1
         9.000          11.000
  24857195.842    24857194.790    24857194.227     1943401.845 1   1514342.536 2
        11.000          15.100
  20282124.306    20282123.772    20282120.630   -25616949.391 7 -19961250.114 8
        44.300          51.000
 09  1 12  1 24  0.0000000  0  9G19G14G18G 9G11G 6G21G 3G22
  23315627.486    23315625.825    23315624.300    -8938668.598 4  -6965194.219 4
        27.400          29.900
  21332365.764    21332364.958    21332363.814   -20471940.767 6 -15952156.442 6
        38.600          39.200
  21596100.700    21596099.770    21596097.633   -19790932.585 6 -15421495.200 5
        37.800          34.900
  21477019.648    21477018.935    21477018.053   -18524491.630 6 -14434658.323 5
        36.300          34.700
  24461309.364    24461308.837    24461306.403    -2195196.843    -1710542.430 1
                        11.000
  24936635.000    24936634.456    24936634.273     1188002.960 2    925720.939
        15.100           3.000
  24470628.732    24470627.309    24470624.754    -5730690.906 1  -4465469.450 2
         9.000          12.600
  24875402.746    24875401.929    24875401.883     2039079.796 2   1588896.768 2
        12.600          12.600
  20284094.638    20284094.093    20284090.878   -25606595.796 7 -19953182.376 8
        44.400          51.000
 09  1 12  1 24 30.0000000  0  9G19G14G18G11G 6G21G 3G22G 9
  23324776.786    23324775.371    23324773.899    -8890588.616 4  -6927729.314 4
        27.400          29.900
  21319779.792    21319779.100    21319778.044   -20538078.928 6 -16003692.664 6
        38.500          39.300
  21608756.735    21608755.928    21608753.931   -19724424.264 6 -15369670.533 5
        37.800          35.100
  24443759.648    24443760.035    24443757.816    -2287416.515    -1782401.932 1
                         9.000
  24954515.447    24954514.929    24954514.830     1281966.845 2    998939.559 1
        16.100           6.500
  24492978.908    24492977.984    24492975.930    -5613236.431 1  -4373946.554 2
         9.000          12.600
  24893629.142    24893628.487    24893628.435     2134861.628 2   1663531.981 1
        13.900          11.000
  20286140.734    20286140.176    20286136.913   -25595843.423 7 -19944803.903 8
        44.300          51.000
  21481287.103    21481286.402    21481285.782   -18502065.243 6 -14417183.212 5
        36.100          34.900
 09  1 12  1 25  0.0000000  0  9G14G19G18G 9G11G 6G21G 3G22
  21307270.670    21307269.847    21307268.699   -20603816.076 6 -16054916.412 6
        38.600          39.300
  23334020.681    23334018.916    23334016.726    -8842015.078 4  -6889879.809 4
        27.400          29.500
  21621472.801    21621471.990    21621470.223   -19657600.458 6 -15317600.042 5
        37.700          35.200
  21485692.781    21485692.035    21485691.333   -18478914.159 6 -14399143.403 5
        36.100          34.900
  24426268.382    24426269.154    24426263.910    -2379343.760    -1854033.576 1
                        11.000
  24972411.477    24972411.114    24972411.789     1376007.659 2   1072218.155 1
        13.900           6.500
  24515346.204    24515345.415    24515344.663    -5495689.506 1  -4282351.622 1
         9.000          11.000
  24911876.448    24911876.764    24911877.576     2230759.690 2   1738257.731 1
        13.900           9.000
  20288265.590    20288265.104    20288261.977   -25584676.640 7 -19936102.515 8
        44.300          50.900
 09  1 12  1 25 30.0000000  0  9G14G19G18G11G 6G21G 3G22G 9
  21294837.787    21294837.129    21294836.014   -20669150.208 6 -16105826.118 6
        38.600          39.400
  23343356.924    23343355.478    23343353.704    -8792949.744 4  -6851647.079 4
        27.900          29.500
  21634249.108    21634248.231    21634246.373   -19590460.954 6 -15265283.554 5
        37.500          34.900
  24408833.266    24408832.032    24408825.881    -2470975.439    -1925434.852 1
                        11.000
  24990321.730    24990320.988    24990321.454     1470123.318 2   1145555.019 1
        13.900           6.500
  24537732.596    24537732.040    24537730.277    -5378052.109 1  -4190686.197 1
         9.000           9.000
  24930146.411    24930146.846    24930148.257     2326771.965 2   1813072.560 1
        12.600          11.000
  20290469.627    20290469.053    20290465.895   -25573094.741 7 -19927077.656 8
        44.200          50.900
  21490236.037    21490235.281    21490234.553   -18455038.950 6 -14380539.345 5
        36.000          34.700
 09  1 12  1 26  0.0000000  0  9G14G19G18G 9G11G 6G21G 3G22
  21282482.309    21282481.633    21282480.376   -20734079.000 6 -16156419.978 6
        38.700          39.500
  23352787.169    23352785.817    23352784.054    -8743392.891 4  -6813031.373 4
        27.900          28.800
  21647085.384    21647084.596    21647082.740   -19523005.519 6 -15212720.878 5
        37.500          34.700
  21494917.239    21494916.646    21494915.792   -18430438.894 6 -14361370.471 5
        36.300          34.600
  24391449.535    24391448.311    24391445.065    -2562307.638    -1996602.752 1
                         9.000
  25008245.433    25008244.902    25008244.375     1564312.323 2   1218949.030 1
        12.600           6.500
  24560134.510    24560134.634    24560133.946    -5260325.087 2  -4098950.913
        12.600
  24948439.039    24948438.327    24948439.850     2422896.322 1   1887974.642 1
        11.000          11.000
  20292752.903    20292752.330    20292749.057   -25561096.341 7 -19917728.252 8
        44.300          50.800
 09  1 12  1 26 30.0000000  0  8G14G19G18G11G 6G 3G22G 9
  21270203.246    21270202.435    21270201.107   -20798607.052 6 -16206701.575 6
        38.800          39.600
  23362309.525    23362308.058    23362306.171    -8693352.854 4  -6774039.136 4
        27.600          28.400
  21659980.730    21659979.869    21659977.883   -19455240.885 6 -15159917.266 5
        37.400          34.600
  24374126.623    24374125.135    24374120.813    -2653344.133    -2067540.247 1
                         9.000
  25026180.196    25026179.752    25026179.793     1658566.022 1   1292393.425 1
         6.500           6.500
  24966752.321    24966751.363    24966751.635     2519124.147 2   1962957.351 1
        13.900          11.000
  20295114.166    20295113.640    20295110.429   -25548687.375 7 -19908058.926 8
        44.200          50.700
  21499735.046    21499734.420    21499733.451   -18405121.476 6 -14341642.611 5
        36.300          34.500
 09  1 12  1 27  0.0000000  0  9G14G19G18G21G11G 6G 3G22G 9
  21258000.795    21257999.911    21257998.612   -20862731.918 6 -16256668.997 6
        38.900          39.800
  23371924.341    23371922.526    23371920.577    -8642829.303 4  -6734670.139 4
        27.900          28.100
  21672934.869    21672934.019    21672932.275   -19387165.492 6 -15106871.505 5
        37.200          34.600
  24604988.163    24604987.240    24604987.440          -1.09013         -.0261
        19.900           3.000
  24356859.347    24356858.934    24356856.258    -2744079.862    -2138243.390 1
         3.000           6.500
  25044127.455    25044126.763    25044128.088     1752883.849     1365887.762 1
         3.000           9.000
  24985084.217    24985083.134    24985082.886     2615454.470 2   2038019.918 2
        15.100          12.600
  20297554.099    20297553.572    20297550.367   -25535865.275 7 -19898067.681 8
        44.100          50.700
  21504689.638    21504688.971    21504687.948   -18379085.208 6 -14321354.611 5
        36.200          34.400
 09  1 12  1 27 30.0000000  0  9G14G19G18G21G11G 6G 3G22G 9
  21245875.366    21245874.520    21245873.263   -20926451.110 6 -16306320.313 6
        38.900          39.800
  23381630.042    23381628.374    23381626.730    -8591823.406 4  -6694925.278 4
        27.100          28.100
  21685948.338    21685947.411    21685945.715   -19318779.192 6 -15053583.484 5
        36.800          34.400
  24627437.487    24627436.424    24627436.604      117968.501 3     91924.359
        19.900           3.000
  24339651.124    24339650.544    24339649.315    -2834511.446 1  -2208709.567 1
         9.000          11.000
  25062088.349    25062087.988    25062087.884     1847263.796     1439430.531 1
         3.000          11.000
  25003431.267    25003431.979    25003432.090     2711885.754 1   2113161.169 2
        11.000          12.600
  20300072.948    20300072.387    20300069.138   -25522629.168 7 -19887753.829 8
        44.100          50.600
  21509780.741    21509780.064    21509779.361   -18352329.955 5 -14300506.361 5
        35.800          34.500
 09  1 12  1 28  0.0000000  0  9G14G19G18G21G11G 6G 3G22G 9
  21233826.353    21233825.592    21233824.339   -20989768.279 6 -16355658.360 6
        38.900          40.000
  23391426.607    23391425.082    23391423.332    -8540341.915 4  -6654809.839 4
        27.600          28.400
  21699019.871    21699019.099    21699017.281   -19250087.669 6 -15000057.623 5
        36.900          34.500
  24649900.471    24649899.551    24649898.423      236011.076 2    183905.567 1
        17.000           6.500
  24322500.934    24322499.953    24322497.497    -2924641.050 1  -2278940.429 1
         6.500          11.000
  25080059.970    25080057.695    25080057.963     1941698.518     1513016.074 1
                        11.000
  25021798.941    25021797.824    25021798.946     2808410.461 1   2188375.220 1
         6.500          11.000
  20302669.558    20302668.962    20302665.690   -25508983.894 7 -19877121.146 8
        44.100          50.500
  21515007.737    21515007.184    21515006.456   -18324861.726 5 -14279102.543 5
        35.800          34.400
 09  1 12  1 28 30.0000000  0  9G14G18G19G21G11G 6G 3G22G 9
  21221855.365    21221854.615    21221853.215   -21052676.892 6 -16404678.055 6
        39.100          40.100
  21712150.455    21712149.662    21712147.974   -19181086.170 6 -14946290.221 5
        37.000          34.600
  23401315.046    23401313.263    23401310.995    -8488381.806 4  -6614321.448 4
        28.100          28.100
  24672377.814    24672377.040    24672374.607      354130.064 2    275946.301 1
        12.600          11.000
  24305406.605    24305406.519    24305404.481    -3014460.736    -2348929.791 1
         3.000          11.000
  25098041.285    25098040.852    25098041.610     2036190.760     1586646.370 1
                         9.000
  25040187.409    25040187.005    25040187.585     2905030.552 2   2263663.623 2
        12.600          12.600
  20305345.155    20305344.608    20305341.279   -25494923.643 7 -19866165.106 8
        44.100          50.400
  21520371.773    21520370.941    21520369.787   -18296675.852 5 -14257139.524 5
        35.900          34.000
 09  1 12  1 29  0.0000000  0  9G14G18G19G21G11G 6G 3G22G 9
  21209960.549    21209959.787    21209958.544   -21115184.020 6 -16453384.904 6
        39.300          40.200
  21725338.215    21725337.462    21725335.739   -19111783.242 6 -14892287.944 5
        36.600          34.300
  23411291.555    23411290.114    23411287.775    -8435952.858 4  -6573467.732 4
        27.900          28.400
  24694867.298    24694866.568    24694863.935      472315.189 1    368038.540 2
         6.500          12.600
  24288371.045    24288369.073    24288370.401    -3103976.036    -2418681.943 1
                         9.000
  25116030.691    25116028.299    25116026.039     2130729.598     1660314.928 1
                         6.500
  25058588.868    25058588.214    25058590.570     3001735.557 1   2339018.174 2
         9.000          12.600
  20308098.032    20308097.498    20308094.336   -25480456.565 7 -19854892.056 8
        44.000          50.400
  21525869.993    21525869.122    21525868.056   -18267781.873 5 -14234624.733 5
        35.600          33.900
 09  1 12  1 29 30.0000000  0  9G14G18G19G21G11G 6G 3G22G 9
  21198141.661    21198140.916    21198139.748   -21177292.340 6 -16501780.996 6
        39.300          40.300
  21738582.849    21738582.046    21738579.987   -19042183.681 6 -14838054.518 5
        36.800          34.000
  23421356.493    23421354.584    23421352.689    -8383061.261 4  -6532253.511 4
        27.400          28.600
  24717367.000    24717368.784    24717365.060      590560.006      460177.271 2
         3.000          13.900
  24271394.275    24271394.809    24271391.890    -3193187.885    -2488197.666
         3.000           3.000
  25134027.951    25134027.597    25134027.427     2225308.970     1734011.837 1
                         9.000
  25077005.713    25077005.997    25077006.797     3098519.350     2414434.184 1
                        11.000
  20310927.705    20310927.186    20310923.974   -25465586.558 7 -19843305.035 8
        44.000          50.400
  21531502.003    21531501.303    21531500.397   -18238184.545 5 -14211561.877 5
        35.600          34.300
 09  1 12  1 30  0.0000000  0  9G14G18G19G21G11G 6G 3G22G 9
  21186401.472    21186400.715    21186399.341   -21238987.976 6 -16549855.511 6
        39.500          40.400
  21751885.887    21751885.157    21751883.195   -18972275.129 6 -14783580.320 5
        36.600          34.000
  23431511.403    23431509.793    23431508.295    -8329695.633 4  -6490669.913 4
        27.100          28.800
  24739882.938    24739882.971    24739880.501      708875.946      552371.412 2
         3.000          16.100
  24254479.790    24254479.186    24254475.741    -3282081.141 1  -2557465.199 1
         6.500          11.000
  25152036.353    25152035.361    25152036.364     2319938.644     1807745.550 1
                         9.000
  25095442.453    25095441.191    25095439.253     3195391.301     2489918.749 1
                         9.000
  20313836.737    20313836.198    20313832.977   -25450299.777 7 -19831393.256 8
        44.000          50.300
  21537270.476    21537269.833    21537268.718   -18207871.980 5 -14187941.701 5
        35.900          34.400
 09  1 12  1 30 30.0000000  0  9G14G18G21G19G11G 6G 3G22G 9
  21174740.356    21174739.562    21174738.240   -21300267.424 6 -16597605.726 6
        39.500          40.500
  21765248.320    21765247.433    21765245.425   -18902056.102 6 -14728864.206 5
        36.500          33.900
  24762411.244    24762409.939    24762408.889      827263.108 1    644621.097 2
         9.000          17.000
  23441757.142    23441755.500    23441753.396    -8275856.014 4  -6448716.956 4
        27.600          28.400
  24237625.201    24237625.634    24237622.831    -3370650.891    -2626480.526 2
         3.000          12.600
  25170053.547    25170053.112    25170052.196     2414618.799     1881522.213 2
         3.000          13.900
  25113892.256    25113891.941    25113891.970     3292351.351     2565471.927 1
         3.000          11.000
  20316825.349    20316824.789    20316821.563   -25434594.542 7 -19819155.410 8
        43.800          50.200
  21543174.976    21543174.302    21543173.412   -18176843.073 5 -14163763.327 5
        35.700          34.300
 09  1 12  1 31  0.0000000  0  9G14G18G21G19G11G 6G 3G22G 9
  21163157.175    21163156.383    21163155.100   -21361137.442 6 -16645036.908 6
        39.500          40.600
  21778667.827    21778667.151    21778665.089   -18831535.268 6 -14673912.908 5
        36.400          33.800
  24784950.186    24784949.778    24784948.626      945711.414 1    736918.428 2
         9.000          17.000
  23452091.019    23452089.206    23452086.745    -8221552.176 4  -6406402.277 4
        27.600          27.900
  24220831.759    24220831.222    24220830.440    -3458902.264    -2695247.797 2
         3.000          15.100
  25188076.227    25188076.554    25188077.124     2509338.765     1955329.939 2
         3.000          13.900
  25132359.346    25132358.545    25132358.290     3389388.646     2641085.438 1
         3.000          11.000
  20319892.206    20319891.640    20319888.352   -25418478.174 7 -19806597.201 8
        43.800          50.100
  21549214.245    21549213.449    21549212.432   -18145106.702 5 -14139033.690 5
        35.400          34.000
 09  1 12  1 31 30.0000000  0  8G14G18G21G19G11G 3G22G 9
  21151650.752    21151650.017    21151648.705   -21421604.415 6 -16692154.026 6
        39.600          40.700
  21792143.552    21792142.709    21792140.732   -18760720.444 6 -14618732.532 5
        36.400          33.800
  24807499.185    24807500.312    24807498.519     1064211.605 1    829256.192 2
        11.000          13.900
  23462511.115    23462509.228    23462507.191    -8166793.745 4  -6363733.375 4
        26.800          28.100
  24204098.007    24204097.711    24204095.997    -3546840.121 1  -2763770.805 2
        11.000          16.100
  25150839.021    25150837.345    25150837.614     3486493.008     2716751.223 1
         3.000          11.000
  20323035.857    20323035.342    20323032.140   -25401957.823 7 -19793724.196 8
        43.800          50.100
  21555386.369    21555385.667    21555384.824   -18112671.210 5 -14113759.283 5
        35.500          34.000
 09  1 12  1 32  0.0000000  0  8G14G18G 9G21G19G11G 3G22
  21140222.340    21140221.476    21140220.216   -21481661.564 6 -16738951.799 6
        39.700          40.900
  21805675.974    21805675.185    21805673.461   -18689606.604 6 -14563319.156 5
        36.200          33.900
  21561692.442    21561691.802    21561690.842   -18079532.591 5 -14087936.977 5
        35.500          34.000
  24830060.424    24830060.812    24830059.009     1182766.962 1    921636.935 2
        11.000          12.600
  23473018.155    23473016.449    23473014.536    -8111576.925 4  -6320707.281 4
        26.200          27.900
  24187427.172    24187426.015    24187423.922    -3634455.949 2  -2832042.890 2
        13.900          17.000
  25169329.356    25169328.090    25169325.280     3583667.591     2792471.681 1
                         9.000
  20326257.561    20326256.996    20326253.761   -25385027.861 7 -19780532.017 8
        43.700          50.000
 09  1 12  1 32 30.0000000  0  8G14G18G 9G21G19G11G 3G22
  21128874.797    21128873.987    21128872.720   -21541292.746 6 -16785417.652 6
        39.700          40.900
  21819268.092    21819267.217    21819265.494   -18618179.772 6 -14507661.891 5
        36.000          33.800
  21568135.079    21568134.304    21568133.431   -18045676.859 5 -14061555.884 5
        35.300          33.900
  24852634.647    24852634.053    24852632.233     1301390.437 2   1014070.755 1
        13.900           9.000
  23483615.452    23483613.794    23483611.709    -8055889.269 4  -6277314.308 4
        26.800          28.100
  24170818.326    24170817.921    24170816.847    -3721732.405 2  -2900050.522 2
        16.100          17.800
  25187835.880    25187837.881    25187837.021     3680924.593     2868256.337 1
                         9.000
  20329559.968    20329559.440    20329556.214   -25367673.201 7 -19767008.904 8
        43.600          49.900
 09  1 12  1 33  0.0000000  0  7G14G18G 9G19G11G 3G22
  21117604.412    21117603.657    21117602.285   -21600518.962 6 -16831567.946 6
        39.700          41.000
  21832915.436    21832914.591    21832912.932   -18546462.195 5 -14451778.065 5
        35.800          33.600
  21574709.526    21574708.901    21574707.945   -18011127.155 5 -14034634.039 5
        35.200          33.600
  23494297.254    23494295.360    23494293.605    -7999754.664 4  -6233573.075 4
        26.500          27.600
  24154269.918    24154269.832    24154269.313    -3808688.891 2  -2967808.819 3
        17.000          19.300
  25206356.225    25206354.914    25206353.447     3778239.066     2944085.716 2
                        12.600
  20332939.166    20332938.665    20332935.401   -25349915.447 7 -19753171.691 8
        43.600          49.900
 09  1 12  1 33 30.0000000  0  7G14G18G 9G19G11G 3G22
  21106412.503    21106411.758    21106410.532   -21659332.307 6 -16877396.521 6
        39.700          41.100
  21846619.110    21846618.287    21846616.628   -18474448.138 5 -14395663.220 5
        35.500          33.200
  21581417.229    21581416.579    21581415.770   -17975877.861 5 -14007167.047 5
        35.300          33.600
  23505065.182    23505063.570    23505061.687    -7943168.319 4  -6189479.811 4
        26.800          27.600
  24137785.611    24137785.741    24137783.893    -3895316.011 2  -3035310.461 3
        17.800          19.300
  25224885.061    25224883.260    25224882.681     3875615.388     3019963.288 2
         3.000          15.100
  20336396.334    20336395.826    20336392.562   -25331747.903 7 -19739015.162 8
        43.600          49.900
 09  1 12  1 34  0.0000000  0  7G14G18G 9G19G11G 3G22
  21095302.553    21095301.850    21095300.511   -21717715.449 6 -16922889.876 6
        39.700          41.100
  21860382.225    21860381.548    21860379.907   -18402121.884 5 -14339305.102 5
        35.400          33.100
  21588261.135    21588260.417    21588259.373   -17939914.138 5 -13979143.370 5
        35.300          33.900
  23515921.737    23515920.193    23515918.333    -7886116.074 4  -6145023.526 4
        25.900          27.400
  24121368.027    24121367.479    24121364.641    -3981594.773 2  -3102540.652 2
        17.000          17.800
  25243427.795    25243427.863    25243427.083     3973067.101     3095899.726 2
         3.000          16.100
  20339934.633    20339934.098    20339930.914   -25313154.072 7 -19724526.462 8
        43.500          49.800
 09  1 12  1 34 30.0000000  0  7G14G18G 9G19G11G 3G22
  21084272.055    21084271.318    21084269.971   -21775681.178 6 -16968057.972 6
        39.700          41.200
  21874202.370    21874201.577    21874199.731   -18329497.672 5 -14282714.811 5
        35.600          33.000
  21595237.968    21595237.198    21595236.319   -17903250.878 5 -13950574.597 5
        35.100          34.000
  23526864.509    23526862.703    23526860.653    -7828613.903 4  -6100216.642 4
        26.500          27.100
  24105013.292    24105013.247    24105010.415    -4067535.916 2  -3169507.769 3
        17.000          18.600
  25261985.370    25261984.666    25261983.980     4070577.716     3171882.012 2
         3.000          16.100
  20343551.609    20343551.038    20343547.830   -25294147.211 7 -19709715.920 8
        43.400          49.800
 09  1 12  1 35  0.0000000  0  7G14G18G 9G19G11G 3G22
  21073320.987    21073320.200    21073318.882   -21833230.077 6 -17012901.267 6
        39.700          41.400
  21888078.420    21888077.680    21888075.997   -18256578.179 5 -14225894.438 5
        35.400          33.000
  21602347.178    21602346.580    21602345.612   -17865891.102 5 -13921463.083 5
        35.300          33.900
  23537891.812    23537890.167    23537887.563    -7770665.718 4  -6055062.214 4
        26.800          26.200
  24088722.469    24088722.418    24088721.348    -4153138.771 2  -3236211.313 3
        16.100          18.600
  25280549.923    25280547.906    25280547.749     4168142.621     3247906.624 2
                        13.900
  20347246.640    20347246.078    20347242.866   -25274729.289 7 -19694585.074 8
        43.400          49.600
 09  1 12  1 35 30.0000000  0  7G14G18G 9G19G11G 3G22
  21062448.081    21062447.327    21062446.142   -21890366.840 6 -17057423.415 6
        39.700          41.500
  21902009.803    21902008.857    21902007.113   -18183369.538 5 -14168848.750 5
        35.300          32.700
  21609587.786    21609587.164    21609585.925   -17827842.100 5 -13891814.510 5
        35.400          33.600
  23549001.954    23549000.121    23548998.336    -7712279.269 4  -6009566.273 4
        24.900          26.500
  24072497.785    24072497.256    24072495.655    -4238406.677 2  -3302653.856 3
        16.100          18.600
  25299124.334    25299123.336    25299122.414     4265753.711     3323967.186 2
                        12.600
  20351018.985    20351018.410    20351015.064   -25254906.042 7 -19679138.387 8
        43.400          49.500
 09  1 12  1 36  0.0000000  0  7G14G18G 9G19G11G 3G22
  21051654.823    21051654.133    21051652.755   -21947085.735 6 -17101619.953 6
        39.700          41.500
  21915996.788    21915995.888    21915993.963   -18109867.967 5 -14111574.810 5
        35.200          32.700
  21616959.772    21616959.001    21616958.554   -17789100.347 5 -13861626.129 5
        34.700          33.800
  23560196.707    23560195.080    23560192.585    -7653451.879 4  -5963726.764 4
        24.900          26.200
  24056337.315    24056336.469    24056334.913    -4323332.198 2  -3368829.592 3
        16.100          19.300
  25317707.874    25317708.227    25317709.648     4363413.244     3400065.470 2
                        12.600
  20354869.136    20354868.668    20354865.437   -25234672.304 7 -19663371.835 8
        43.400          49.500
 09  1 12  1 36 30.0000000  0  7G14G18G 9G19G11G 3G22
  21040942.154    21040941.429    21040940.137   -22003380.976 6 -17145486.374 6
        39.500          41.700
  21930040.085    21930039.230    21930037.318   -18036069.609 5 -14054069.596 5
        35.300          32.400
  21624464.731    21624464.023    21624463.102   -17749662.462 5 -13830895.309 5
        34.700          33.600
  23571475.428    23571473.561    23571471.961    -7594181.235 4  -5917541.866 4
        24.600          27.100
  24040242.559    24040242.791    24040240.622    -4407907.939 2  -3434732.752 3
        17.000          18.600
  25336302.563    25336299.979    25336303.049     4461122.742     3476202.701 2
                        12.600
  20358798.667    20358798.081    20358794.846   -25214023.305 7 -19647281.704 8
        43.300          49.500
 09  1 12  1 37  0.0000000  0  7G14G18G 9G19G11G 3G22
  21030310.398    21030309.594    21030308.466   -22059250.917 6 -17189021.389 6
        39.400          41.800
  21944139.979    21944139.140    21944137.152   -17961974.380 5 -13996333.054 5
        35.100          32.100
  21632101.766    21632101.149    21632100.106   -17709529.473 5 -13799622.852 5
        35.100          33.500
  23582838.311    23582836.661    23582834.834    -7534468.877 4  -5871012.756 4
        24.900          27.600
  24024215.319    24024214.459    24024213.155    -4492130.556 2  -3500360.760 3
        17.000          18.600
  25354905.816    25354905.054    25354903.827     4558880.267     3552377.351 1
                        11.000
  20362807.068    20362806.555    20362803.325   -25192958.451 7 -19630867.530 8
        43.200          49.400
 09  1 12  1 37 30.0000000  0  6G14G18G 9G19G11G22
  21019756.340    21019755.551    21019754.376   -22114712.722 6 -17232238.375 6
        39.300          41.900
  21958292.575    21958291.853    21958289.898   -17887600.864 5 -13938379.667 5
        34.900          32.000
  21639867.398    21639866.600    21639866.042   -17668721.096 5 -13767824.115 5
        34.800          33.500
  23594281.034    23594279.690    23594277.800    -7474335.146 4  -5824155.316 4
        24.600          27.400
  24008254.097    24008253.008    24008250.740    -4576015.789 2  -3565725.870 3
        17.000          19.300
  20366891.430    20366890.833    20366887.514   -25171495.765 7 -19614143.358 8
        43.100          49.300
 09  1 12  1 38  0.0000000  0  6G14G18G 9G19G11G22
  21009279.906    21009279.201    21009277.976   -22169767.089 6 -17275137.877 7
        39.400          42.100
  21972498.059    21972497.252    21972495.047   -17812951.564 5 -13880211.384 5
        34.800          31.600
  21647760.751    21647760.029    21647759.299   -17627240.302 5 -13735501.416 5
        34.400          33.400
  23605803.667    23605802.010    23605800.297    -7413784.032 4  -5776972.646 4
        24.200          27.100
  23992355.085    23992354.420    23992352.162    -4659562.558 2  -3630827.235 3
        17.000          19.300
  20371051.011    20371050.446    20371047.260   -25149636.652 7 -19597110.282 8
        43.100          49.300
 09  1 12  1 38 30.0000000  0  6G14G18G 9G19G11G22
  20998887.684    20998886.926    20998885.727   -22224378.686 6 -17317692.366 7
        39.500          42.200
  21986762.253    21986761.345    21986759.375   -17737992.703 5 -13821801.881 5
        34.500          31.500
  21655788.505    21655787.745    21655787.030   -17585054.089 5 -13702629.044 5
        34.300          33.100
  23617411.872    23617409.895    23617408.855    -7352783.111 4  -5729439.456 4
        24.600          27.400
  23976527.882    23976527.028    23976525.107    -4742734.009 2  -3695636.114 3
        17.800          19.300
  20375292.591    20375292.074    20375288.943   -25127346.651 7 -19579741.450 8
        43.000          49.300
 09  1 12  1 39  0.0000000  0  6G18G 9G19G11G14G22
  22001083.117    22001082.089    22001080.034   -17662737.129 5 -13763161.186 5
        34.400          31.600
  21663947.937    21663947.207    21663946.568   -17542176.056 5 -13669217.589 5
        34.300          33.200
  23629102.880    23629101.079    23629099.329    -7291346.657 3  -5681566.896 4
        23.800          26.800
  23960769.561    23960769.249    23960767.837    -4825539.303 2  -3760159.720 3
        17.800          19.300
  20988577.637    20988576.874    20988575.611   -22278558.414 6 -17359910.331 7
        39.500          42.300
  20379613.950    20379613.365    20379610.267   -25104637.701 7 -19562046.164 8
        42.900          49.200
 09  1 12  1 39 30.0000000  0  6G18G 9G19G11G14G22
  22015456.952    22015456.132    22015454.146   -17587200.286 5 -13704301.314 5
        34.400          31.300
  21672235.827    21672235.191    21672234.315   -17498622.677 5 -13635279.888 5
        34.500          33.100
  23640873.780    23640872.041    23640870.255    -7229491.771 4  -5633368.296 4
        24.200          27.100
  23945079.446    23945079.230    23945077.541    -4907990.797 2  -3824407.611 3
        17.000          19.300
  20978347.192    20978346.367    20978345.187   -22332319.859 6 -17401802.362 7
        39.300          42.400
  20384012.312    20384011.733    20384008.569   -25081524.470 7 -19544035.851 8
        42.800          49.200
 09  1 12  1 40  0.0000000  0  6G18G 9G19G11G14G22
  22029885.272    22029884.453    22029882.595   -17511378.407 5 -13645219.336 5
        34.100          31.300
  21680653.075    21680652.321    21680651.533   -17454390.746 5 -13600813.444 5
        34.300          33.200
  23652723.751    23652721.935    23652720.774    -7167216.061 4  -5584841.774 4
        24.600          26.500
  23929458.970    23929458.116    23929456.401    -4990081.319 2  -3888374.226 3
        17.000          20.500
  20968197.290    20968196.547    20968195.280   -22385657.820 6 -17443364.403 7
        39.400          42.400
  20388488.399    20388487.917    20388484.720   -25058002.229 7 -19525706.832 8
        42.800          49.100
 09  1 12  1 40 30.0000000  0  6G18G 9G19G11G14G22
  22044368.331    22044367.510    22044365.679   -17435269.287 5 -13585913.533 5
        33.600          31.100
  21689199.344    21689198.613    21689198.096   -17409479.157 5 -13565817.407 5
        33.900          33.500
  23664654.872    23664653.205    23664651.133    -7104519.174 4  -5535987.050 4
        24.900          25.300
  23913905.932    23913906.084    23913904.737    -5071805.663 2  -3952055.503 3
        15.100          21.100
  20958128.777    20958127.916    20958126.643   -22438568.693 6 -17484593.652 7
        39.400          42.500
  20393042.928    20393042.422    20393039.300   -25034067.930 7 -19507056.729 8
        42.700          49.100
 09  1 12  1 41  0.0000000  0  6G18G 9G19G11G14G22
  22058906.555    22058905.762    22058904.038   -17358870.373 5 -13526381.918 5
        33.500          31.300
  21697875.318    21697874.534    21697873.866   -17363886.460 5 -13530290.626 5
        33.900          33.200
  23676665.904    23676664.566    23676662.237    -7041400.259 4  -5486803.501 4
        24.900          24.900
  23898425.492    23898424.437    23898424.047    -5153157.736 2  -4015446.715 3
        12.600          21.100
  20948142.321    20948141.500    20948140.155   -22491048.047 6 -17525486.653 7
        39.600          42.600
  20397676.385    20397675.875    20397672.790   -25009718.653 7 -19488083.265 8
        42.700          49.000
 09  1 12  1 41 30.0000000  0  6G18G 9G19G11G14G22
  22073498.000    22073497.312    22073495.573   -17282191.331 5 -13466632.024 5
        33.400          31.100
  21706679.166    21706678.449    21706677.604   -17317622.902 5 -13494241.100 5
        34.000          33.100
  23688756.159    23688754.256    23688752.186    -6977870.140 4  -5437299.504 4
        24.900          25.300
  23883014.563    23883013.722    23883013.049    -5234143.717 2  -4078552.668 3
        12.600          21.100
  20938236.289    20938235.576    20938234.311   -22543103.728 6 -17566049.517 7
        39.500          42.700
  20402387.216    20402386.692    20402383.621   -24984963.147 7 -19468793.261 8
        42.600          49.000
 09  1 12  1 42  0.0000000  0  6G18G 9G19G11G14G22
  22088143.066    22088142.189    22088140.350   -17205232.560 5 -13406664.154 5
        33.400          31.100
  21715610.199    21715609.486    21715608.553   -17270690.142 5 -13457670.122 5
        34.100          33.100
  23700923.018    23700921.072    23700919.164    -6913930.936 4  -5387476.733 4
        24.200          25.300
  23867674.024    23867673.432    23867671.978    -5314761.025 2  -4141371.302 3
        12.600          20.500
  20928411.303    20928410.544    20928409.246   -22594734.800 6 -17606281.518 7
        39.700          42.900
  20407175.412    20407174.884    20407171.775   -24959801.167 7 -19449186.521 8
        42.500          48.900
 09  1 12  1 42 30.0000000  0  6G18G 9G19G11G14G22
  22102841.891    22102841.017    22102839.024   -17127991.292 5 -13346476.160 5
        33.500          31.500
  21724669.206    21724668.319    21724667.381   -17223086.310 5 -13420576.226 5
        34.000          33.100
  23713167.960    23713166.299    23713164.698    -6849581.583 3  -5337334.384 4
        23.800          25.900
  23852404.071    23852404.067    23852401.504    -5395003.458 2  -4203897.858 3
        12.600          19.300
  20918667.845    20918667.066    20918665.843   -22645936.658 6 -17646179.064 7
        39.600          43.000
  20412041.813    20412041.235    20412038.070   -24934228.584 7 -19429259.833 8
        42.600          48.900
 09  1 12  1 43  0.0000000  0  6G18G 9G19G11G14G22
  22117594.826    22117594.111    22117592.208   -17050462.181 5 -13286063.868 5
        33.100          31.000
  21733856.052    21733855.378    21733854.683   -17174807.254 5 -13382956.181 5
        33.500          33.100
  23725492.376    23725490.300    23725488.642    -6784818.344 3  -5286869.525 4
        23.800          26.200
  23837207.684    23837207.549    23837205.303    -5474862.408 2  -4266125.581 3
        15.100          19.300
  20909007.456    20909006.739    20909005.359   -22696702.380 6 -17685736.766 7
        39.700          43.000
  20416987.157    20416986.654    20416983.507   -24908240.160 7 -19409009.113 8
        42.600          48.800
 09  1 12  1 43 30.0000000  0  6G18G 9G19G11G14G22
  22132400.913    22132400.088    22132398.197   -16972656.120 5 -13225435.775 5
        33.100          30.800
  21743169.235    21743168.638    21743167.919   -17125864.359 5 -13344818.867 5
        33.500          32.800
  23737892.279    23737890.587    23737889.007    -6719653.679 3  -5236091.865 4
        22.600          25.900
  23822084.135    23822083.281    23822080.138    -5554345.591 2  -4328060.523 3
        16.100          19.300
  20899428.107    20899427.471    20899426.244   -22747041.349 6 -17724961.934 7
        39.800          43.200
  20422009.939    20422009.411    20422006.207   -24881845.451 7 -19388441.807 8
        42.600          48.700
 09  1 12  1 44  0.0000000  0  6G18G 9G19G11G14G22
  22147258.641    22147257.754    22147255.911   -16894578.662 5 -13164596.202 5
        33.100          30.800
  21752608.007    21752607.288    21752606.403   -17076264.723 5 -13306169.795 5
        33.500          32.300
  23750367.735    23750366.057    23750364.789    -6654094.547 3  -5185006.837 4
        22.600          26.800
  23807028.960    23807028.810    23807025.981    -5633455.018 2  -4389704.212 3
        15.100          18.600
  20889929.730    20889928.962    20889927.541   -22796957.237 6 -17763857.428 7
        39.900          43.300
  20427109.094    20427108.531    20427105.454   -24855049.148 7 -19367561.569 8
        42.500          48.700
 09  1 12  1 44 30.0000000  0  6G18G 9G19G11G14G22
  22162169.000    22162168.263    22162166.591   -16816222.889 5 -13103539.767 5
        33.000          30.600
  21762172.587    21762171.944    21762170.810   -17026002.782 5 -13267004.645 5
        33.400          32.100
  23762919.501    23762917.313    23762915.967    -6588136.100 3  -5133610.653 4
        22.600          26.800
  23792046.804    23792047.141    23792044.876    -5712180.834 2  -4451048.988 2
        15.100          17.800
  20880512.987    20880512.276    20880510.943   -22846441.780 6 -17802416.809 7
        39.800          43.400
  20432286.095    20432285.525    20432282.359   -24827844.056 7 -19346362.798 8
        42.400          48.600
 09  1 12  1 45  0.0000000  0  6G18G 9G19G11G14G22
  22177133.781    22177132.942    22177131.355   -16737582.320 5 -13042261.411 5
        32.100          30.200
  21771864.273    21771863.591    21771862.636   -16975072.407 5 -13227318.641 5
        33.400          32.100
  23775547.879    23775546.217    23775544.267    -6521773.199 3  -5081899.292 4
        22.600          26.500
  23777141.286    23777140.857    23777138.921    -5790512.736 2  -4512086.819 2
        17.800          17.800
  20871180.107    20871179.338    20871178.113   -22895486.608 6 -17840633.554 7
        39.800          43.600
  20437542.204    20437541.695    20437538.560   -24800222.531 7 -19324839.533 8
        42.400          48.500
 09  1 12  1 45 30.0000000  0  6G18G 9G19G11G14G22
  22192151.146    22192150.365    22192148.576   -16658666.429 5 -12980768.519 5
        32.400          30.400
  21781680.981    21781680.214    21781679.554   -16923484.687 5 -13187120.419 5
        33.000          32.100
  23788251.516    23788249.481    23788247.859    -6455016.852 3  -5029881.368 4
        23.000          27.100
  23762309.294    23762308.732    23762306.470    -5868457.565 3  -4572823.084 2
        18.600          17.000
  20861929.271    20861928.542    20861927.267   -22944100.007 6 -17878514.123 7
        39.800          43.700
  20442876.003    20442875.531    20442872.422   -24772192.982 7 -19302998.326 8
        42.400          48.400
 09  1 12  1 46  0.0000000  0  6G18G 9G19G11G14G22
  22207220.594    22207219.748    22207218.014   -16579476.380 5 -12919061.986 5
        32.400          30.800
  21791622.609    21791621.796    21791621.168   -16871241.928 5 -13146411.771 5
        33.100          32.400
  23801029.380    23801027.262    23801024.783    -6387869.971 3  -4977559.134 4
        23.400          25.900
  23747550.627    23747550.133    23747548.111    -5946012.787 2  -4633255.758 2
        17.800          17.000
  20852760.832    20852760.014    20852758.678   -22992281.153 6 -17916057.868 7
        39.900          43.800
  20448287.439    20448286.916    20448283.712   -24743756.496 7 -19280840.026 8
        42.400          48.400
 09  1 12  1 46 30.0000000  0  6G18G 9G19G11G14G22
  22222340.630    22222339.749    22222338.040   -16500019.864 5 -12857147.834 5
        32.300          30.600
  21801687.057    21801686.406    21801685.594   -16818352.705 5 -13105199.394 5
        33.100          32.400
  23813878.733    23813877.139    23813875.799    -6320341.631 3  -4924939.652 4
        23.400          26.200
  23732865.373    23732865.052    23732863.693    -6023182.859 2  -4693388.298 2
        17.000          17.800
  20843673.230    20843672.449    20843671.143   -23040036.307 6 -17953269.671 7
        39.800          43.900
  20453774.842    20453774.329    20453771.177   -24714919.681 7 -19258369.780 8
        42.400          48.300
 09  1 12  1 47  0.0000000  0  6G18G 9G19G11G14G22
  22237513.549    22237512.701    22237510.806   -16420285.273 5 -12795016.999 4
        32.000          29.900
  21811876.388    21811875.755    21811875.085   -16764806.722 5 -13063475.254 5
        33.000          32.300
  23826804.037    23826802.209    23826800.356    -6252422.486 4  -4872015.653 4
        24.200          25.600
  23718256.487    23718255.950    23718254.440    -6099953.307 2  -4753209.456 3
        17.800          19.300
  20834669.285    20834668.475    20834667.084   -23087352.646 6 -17990139.542 7
        39.800          44.000
  20459340.888    20459340.338    20459337.157   -24685670.555 7 -19235578.252 8
        42.400          48.200
 09  1 12  1 47 30.0000000  0  6G18G 9G19G11G14G22
  22252738.863    22252737.932    22252736.113   -16340276.034 5 -12732672.140 5
        32.000          30.100
  21822190.040    21822189.196    21822188.419   -16710608.892 5 -13021243.179 5
        32.700          32.100
  23839801.215    23839799.474    23839798.355    -6184117.283 3  -4818790.806 4
        22.600          25.300
  23703723.855    23703723.953    23703721.862    -6176323.943 3  -4812719.055 3
        18.600          19.300
  20825748.480    20825747.707    20825746.324   -23134231.842 6 -18026668.784 7
        39.800          44.100
  20464984.734    20464984.210    20464981.106   -24656011.524 7 -19212467.319 8
        42.400          48.200
 09  1 12  1 48  0.0000000  0  6G18G 9G19G11G14G22
  22268014.366    22268013.503    22268011.414   -16260003.758 5 -12670122.318 4
        32.000          29.700
  21832625.226    21832624.569    21832623.714   -16655771.777 5 -12978512.957 5
        32.800          32.300
  23852871.264    23852869.771    23852867.208    -6115439.478 4  -4765275.637 4
        24.600          24.900
  23689265.386    23689265.470    23689263.668    -6252303.191 3  -4871923.656 3
        19.900          19.900
  20816908.879    20816908.146    20816906.800   -23180683.822 6 -18062865.127 7
        39.700          44.300
  20470704.711    20470704.132    20470700.974   -24625953.336 7 -19189045.355 8
        42.400          48.100
 09  1 12  1 48 30.0000000  0  6G18G 9G19G11G14G22
  22283341.382    22283340.611    22283338.489   -16179459.158 5 -12607360.294 4
        31.800          29.500
  21843183.847    21843183.090    21843182.247   -16600287.279 5 -12935278.282 5
        32.800          32.400
  23866011.481    23866009.530    23866008.432    -6046381.429 3  -4711464.182 4
        23.000          24.600
  23674884.407    23674883.956    23674881.877    -6327878.394 3  -4930813.416 3
        19.900          19.900
  20808152.616    20808151.895    20808150.659   -23226697.870 6 -18098720.228 7
        39.700          44.400
  20476502.343    20476501.806    20476498.624   -24595486.135 7 -19165304.681 7
        42.300          47.900
 09  1 12  1 49  0.0000000  0  6G18G 9G19G11G14G22
  22298720.057    22298719.062    22298716.969   -16098644.642 5 -12544387.943 4
        31.600          29.200
  21853864.069    21853863.470    21853862.886   -16544159.227 5 -12891542.148 5
        32.300          32.100
  23879224.554    23879223.347    23879221.532    -5976947.113 3  -4657359.509 4
        23.000          24.600
  23660580.564    23660579.733    23660577.215    -6403048.823 3  -4989387.759 3
        19.900          20.500
  20799479.722    20799478.936    20799477.678   -23272274.664 6 -18134234.610 7
        39.500          44.400
  20482377.538    20482377.049    20482373.794   -24564611.690 7 -19141246.671 7
        42.200          47.700
 09  1 12  1 49 30.0000000  0  6G18G 9G19G11G14G22
  22314150.518    22314149.647    22314147.306   -16017557.339 5 -12481203.028 4
        31.600          29.500
  21864667.760    21864667.153    21864666.250   -16487385.660 5 -12847303.001 5
        32.000          31.600
  23892510.047    23892508.401    23892506.149    -5907135.293 3  -4602960.701 4
        23.400          24.600
  23646353.978    23646353.146    23646351.069    -6477808.199 3  -5047641.810 3
        19.300          21.600
  20790890.914    20790890.038    20790888.657   -23317410.061 6 -18169405.046 7
        39.500          44.600
  20488331.027    20488330.512    20488327.286   -24533325.952 7 -19116868.173 7
        42.200          47.700
 09  1 12  1 50  0.0000000  0  6G18G 9G19G11G14G22
  22329631.942    22329631.023    22329629.143   -15936200.804 5 -12417808.330 4
        31.100          29.700
  21875593.330    21875592.680    21875591.906   -16429971.706 5 -12802564.850 5
        32.000          31.500
  23905865.201    23905863.748    23905861.676    -5836951.214 3  -4548271.812 4
        23.400          25.300
  23632204.843    23632204.274    23632203.496    -6552157.112 3  -5105575.997 3
        19.300          22.600
  20782385.494    20782384.683    20782383.374   -23362105.774 6 -18204232.870 7
        39.500          44.700
  20494362.127    20494361.587    20494358.407   -24501632.333 7 -19092171.847 7
        42.200          47.600
 09  1 12  1 50 30.0000000  0  6G18G 9G19G11G14G22
  22345164.373    22345163.545    22345161.678   -15854576.835 5 -12354205.249 4
        30.600          29.500
  21886640.317    21886639.579    21886638.943   -16371920.429 5 -12757330.086 5
        31.800          31.800
  23919291.105    23919289.050    23919287.533    -5766398.570 3  -4493295.736 4
        22.600          25.900
  23618135.457    23618135.423    23618133.297    -6626094.011 3  -5163189.153 3
        19.900          22.100
  20773963.641    20773962.910    20773961.714   -23406362.080 6 -18238718.298 7
        39.300          44.800
  20500470.736    20500470.170    20500466.935   -24469531.642 7 -19067158.321 7
        42.100          47.400
 09  1 12  1 51  0.0000000  0  6G18G 9G19G11G14G22
  22360747.170    22360746.317    22360744.751   -15772687.818 5 -12290395.636 4
        30.400          29.500
  21897807.559    21897806.913    21897806.063   -16313235.163 5 -12711601.312 5
        31.600          31.300
  23932785.635    23932784.080    23932782.869    -5695481.311 3  -4438035.526 4
        21.600          26.500
  23604144.301    23604143.967    23604142.059    -6699617.939 3  -5220480.511 3
        19.300          21.100
  20765625.506    20765624.716    20765623.515   -23450179.944 6 -18272862.084 7
        39.300          45.000
  20506656.317    20506655.830    20506652.708   -24437025.419 7 -19041828.798 7
        42.000          47.400
 09  1 12  1 51 30.0000000  0  6G18G 9G19G11G14G22
  22376381.301    22376380.446    22376378.830   -15690529.883 5 -12226376.472 4
        30.400          29.000
  21909096.273    21909095.484    21909094.551   -16253913.844 5 -12665376.904 5
        32.000          31.300
  23946350.288    23946348.768    23946347.455    -5624197.234 3  -4382489.486 4
        20.500          26.500
  23590234.055    23590232.954    23590230.920    -6772722.025 3  -5277444.713 3
        18.600          21.100
  20757371.613    20757370.887    20757369.601   -23493553.944 6 -18306660.003 7
        39.300          45.100
  20512920.170    20512919.632    20512916.369   -24404109.221 7 -19016179.812 7
        42.000          47.200
 09  1 12  1 52  0.0000000  0  7G18G 9G19G11G12G14G22
  22392063.317    22392062.504    22392060.825   -15608119.950 5 -12162160.950 4
        30.200          28.600
  21920502.100    21920501.463    21920500.677   -16193974.734 5 -12618671.101 5
        32.000          31.500
  23959982.899    23959980.435    23959979.294    -5552564.734 3  -4326671.965 4
        20.500          27.100
  23576399.285    23576398.919    23576396.682    -6845419.337 3  -5334091.959 3
        19.300          21.100
  25265025.977    25265025.228    25265020.931           -.71012         -.30912
        12.600          12.600
  20749199.358    20749198.623    20749197.339   -23536499.382 6 -18340123.978 7
        39.300          45.100
  20519258.845    20519258.355    20519255.145   -24370798.900 7 -18990223.716 7
        42.000          47.100
 09  1 12  1 52 30.0000000  0  7G18G 9G19G11G12G14G22
  22407799.127    22407798.415    22407797.062   -15525425.673 4 -12097723.849 4
        29.500          28.400
  21932031.177    21932030.622    21932030.055   -16133386.905 5 -12571459.811 5
        31.600          31.100
  23973685.099    23973683.019    23973681.746    -5480553.800 3  -4270559.561 4
        19.300          25.300
  23562649.712    23562649.151    23562646.967    -6917675.112 3  -5390395.139 3
        19.300          22.100
  25249084.166    25249083.885    25249081.189      -83759.347      -65266.758 2
         3.000          12.600
  20741114.911    20741114.174    20741112.971   -23578983.013 6 -18373228.102 7
        39.200          45.200
  20525678.888    20525678.276    20525675.163   -24337061.890 6 -18963935.137 7
        41.900          47.100
 09  1 12  1 53  0.0000000  0  8G18G 9G19G11G12G31G14G22
  22423587.196    22423586.353    22423584.739   -15442462.031 4 -12033076.856 4
        29.500          28.600
  21943681.721    21943680.996    21943679.944   -16072166.646 5 -12523755.709 5
        31.800          31.100
  23987457.014    23987455.440    23987454.326    -5408181.043 3  -4214165.202 4
        19.300          24.600
  23548981.414    23548981.093    23548979.319    -6989500.683 3  -5446363.096 3
        19.300          22.100
  25233190.763    25233190.662    25233191.066     -167286.931     -130353.173 2
         3.000          15.100
  25074806.597    25074806.527    25074803.233           -.13211         -.14213
         6.500          19.300
  20733115.964    20733115.240    20733113.888   -23621018.052 6 -18405982.673 7
        39.200          45.200
  20532177.194    20532176.653    20532173.477   -24302912.665 6 -18937325.349 7
        41.800          47.000
 09  1 12  1 53 30.0000000  0  8G18G19G11G12G31G14G22G 9
  22439418.771    22439417.994    22439416.636   -15359265.120 4 -11968248.105 4
        29.000          28.600
  24001291.537    24001290.227    24001288.104    -5335483.845 3  -4157518.054 4
        20.500          25.300
  23535389.582    23535389.082    23535386.776    -7060929.049 3  -5502021.564 3
        19.900          21.600
  25217332.953    25217331.961    25217333.195     -250615.745     -195284.688 1
         3.000           9.000
  25052643.247    25052644.872    25052642.395     -116457.790 1    -90746.318 3
        11.000          19.300
  20725195.913    20725195.090    20725193.784   -23662638.793 6 -18438414.416 7
        39.200          45.400
  20538747.430    20538746.855    20538743.640   -24268386.291 6 -18910421.681 7
        41.900          46.900
  21955444.445    21955443.743    21955442.936   -16010351.380 5 -12475587.964 5
        31.500          31.500
 09  1 12  1 54  0.0000000  0  9G18G 9G19G11G32G12G31G14G22
  22455299.013    22455298.135    22455296.556   -15275814.916 4 -11903221.982 4
        29.200          28.400
  21967324.102    21967323.400    21967322.973   -15947922.545 5 -12426942.128 5
        31.300          31.800
  24015190.800    24015188.802    24015186.981    -5262444.259 3  -4100604.124 4
        19.900          25.300
  23521876.837    23521876.386    23521874.611    -7131937.219 3  -5557352.595 3
        20.500          22.600
  25086582.190    25086581.382    25086579.622           -.86311         -.97112
         6.500          12.600
  25201522.393    25201520.590    25201520.130     -333721.432     -260042.337

  25030482.303    25030483.575    25030481.989     -232911.488 2   -181489.386 3
        15.100          19.900
  20717358.630    20717357.810    20717356.502   -23703823.941 6 -18470506.735 7
        39.100          45.500
  20545393.258    20545392.682    20545389.529   -24233462.126 6 -18883208.044 7
        41.800          46.800
 09  1 12  1 54 30.0000000  0  8G18G19G11G32G31G14G22G 9
  22471224.999    22471224.205    22471222.300   -15192123.796 4 -11838008.134 4
        29.200          27.600
  24029151.683    24029149.594    24029149.250    -5189076.156 3  -4043434.166 4
        19.300          25.300
  23508442.987    23508442.086    23508440.479    -7202533.584 3  -5612362.747 3
        20.500          22.100
  25068283.406    25068283.548    25068285.433      -96146.749      -74919.735 2
         3.000          13.900
  25008321.648    25008323.320    25008321.674     -349369.997 3   -272236.245 3
        19.300          19.300
  20709602.134    20709601.387    20709600.081   -23744584.294 6 -18502268.044 7
        39.100          45.600
  20552112.554    20552112.016    20552108.842   -24198151.547 6 -18855693.306 7
        41.600          46.700
  21979318.448    21979317.710    21979316.939   -15884893.556 5 -12377828.623 5
        31.800          31.500
 09  1 12  1 55  0.0000000  0  8G18G19G11G32G31G14G22G 9
  22487200.950    22487200.010    22487197.990   -15108171.130 4 -11772590.474 4
        29.000          27.400
  24043179.823    24043177.810    24043176.056    -5115360.966 3  -3985993.784 3
        21.100          23.000
  23495091.365    23495090.724    23495089.318    -7272695.159 3  -5667034.105 3
        21.100          22.600
  25049992.386    25049991.725    25049995.991     -192257.605     -149811.304 1
                        11.000
  24986165.268    24986165.986    24986164.683     -465809.852 3   -362968.572 3
        21.600          18.600
  20701930.727    20701929.921    20701928.666   -23784898.150 6 -18533681.436 7
        39.200          45.600
  20558909.355    20558908.875    20558905.697   -24162433.795 6 -18827861.289 7
        41.600          46.600
  21991430.107    21991429.470    21991428.639   -15821246.409 5 -12328233.441 5
        31.600          31.500
 09  1 12  1 55 30.0000000  0  9G18G19G 5G11G32G31G14G22G 9
  22503228.516    22503227.802    22503226.090   -15023943.080 4 -11706958.239 4
        28.600          27.900
  24057274.658    24057273.066    24057271.796    -5041286.362 3  -3928273.303 3
        21.100          21.600
  25089544.009    25089543.337    25089542.218           -.6751          -.49011
         3.000           9.000
  23481825.306    23481825.246    23481824.263    -7342404.593 3  -5721353.142 3
        21.100          22.600
  25031714.463    25031714.304    25031716.236     -288317.199     -224662.966 1
         3.000           9.000
  24964015.245    24964015.040    24964013.833     -582213.246 3   -453672.486 2
        21.600          17.000
  20694347.171    20694346.352    20694345.064   -23824749.882 6 -18564734.731 7
        39.100          45.700
  20565786.622    20565786.094    20565783.000   -24126293.791 6 -18799700.247 7
        41.500          46.600
  22003661.727    22003661.120    22003660.170   -15756968.035 5 -12278146.404 5
        31.100          31.100
 09  1 12  1 56  0.0000000  0  9G18G19G 5G11G32G31G14G22G 9
  22519303.993    22519302.919    22519301.009   -14939468.754 4 -11641134.100 4
        28.600          27.600
  24071434.093    24071432.291    24071429.986    -4966883.115 3  -3870296.743 3
        22.600          19.300
  25071813.175    25071812.527    25071812.050      -93174.271      -72603.248 1
         3.000           9.000
  23468641.924    23468641.489    23468639.591    -7411687.964 3  -5775340.185 3
        21.600          22.600
  25013442.276    25013441.495    25013442.564     -384352.741 1   -299495.804 1
        11.000          11.000
  24941865.484    24941866.110    24941864.706     -698605.766 3   -544367.967 2
        20.500          13.900
  20686846.259    20686845.361    20686844.220   -23864167.263 6 -18595449.570 7
        39.100          45.800
  20572738.843    20572738.225    20572734.994   -24089760.281 6 -18771232.579 7
        41.500          46.400
  22016007.902    22016007.087    22016006.518   -15692088.988 5 -12227591.300 5
        30.800          31.300
 09  1 12  1 56 30.0000000  0  9G18G19G 5G11G32G31G14G22G 9
  22535427.161    22535426.218    22535424.108   -14854740.461 4 -11575112.055 4
        28.600          27.400
  24085656.650    24085654.516    24085652.015    -4892145.599 3  -3812059.720 3
        21.600          19.300
  25054119.615    25054118.955    25054117.628     -186161.160     -145060.515 1
         3.000           9.000
  23455541.125    23455540.444    23455538.351    -7480534.596 3  -5828986.912 3
        23.000          21.600
  24995172.661    24995172.073    24995171.816     -480354.624 1   -374302.426 1
        11.000           6.500
  24919720.086    24919720.740    24919719.821     -814976.313 2   -635046.302 2
        17.000          13.900
  20679429.820    20679429.027    20679427.753   -23903141.156 6 -18625818.831 7
        39.100          45.900
  20579767.331    20579766.801    20579763.590   -24052825.025 6 -18742451.856 7
        41.400          46.300
  22028469.552    22028468.845    22028467.828   -15626603.256 5 -12176563.459 5
        31.000          31.100
 09  1 12  1 57  0.0000000  0 10G18G19G 5G11G32G12G31G14G22G 9
  22551598.966    22551598.234    22551596.653   -14769754.388 4 -11508889.146 4
        27.600          26.800
  24099942.065    24099940.013    24099938.049    -4817071.662 3  -3753560.536 3
        19.900          19.300
  25036459.634    25036459.731    25036457.734     -278953.528     -217366.272 1
                         6.500
  23442524.620    23442524.059    23442522.009    -7548937.054 3  -5882287.541 3
        22.600          21.600
  24976910.287    24976909.967    24976911.551     -576317.120 1   -449078.355 1
         9.000           9.000
  25107576.088    25107575.709    25107572.145           -.19911         -.28411
        11.000          11.000
  24897582.236    24897581.833    24897579.833     -931317.596 2   -725701.871 2
        17.000          13.900
  20672098.774    20672097.949    20672096.656   -23941666.253 6 -18655838.383 7
        39.100          46.000
  20586873.183    20586872.640    20586869.464   -24015483.381 6 -18713354.472 7
        41.300          46.200
  22041047.113    22041046.220    22041045.166   -15560508.338 5 -12125060.924 5
        30.800          31.300
 09  1 12  1 57 30.0000000  0 10G11G 5G19G32G12G31G14G18G22G 9
  23429590.238    23429589.743    23429588.083    -7616906.107 3  -5935250.443 3
        23.000          22.100
  25018836.588    25018832.553    25018836.819     -371560.757     -289527.702 1
                         9.000
  24114289.235    24114287.698    24114285.168    -4741676.843 3  -3694811.340 3
        19.900          19.300
  24958657.004    24958655.543    24958655.081     -672251.969 1   -523832.744 1
         9.000          11.000
  25092080.971    25092080.384    25092079.283      -81423.560 1    -63446.939 2
         6.500          15.100
  24875446.612    24875446.445    24875445.471    -1047639.713 2   -816342.464 2
        16.100          16.100
  20664850.688    20664849.939    20664848.575   -23979755.069 6 -18685517.977 7
        39.200          46.000
  22567817.518    22567816.754    22567815.298   -14684524.426 4 -11442476.205 4
        27.900          26.800
  20594053.911    20594053.329    20594050.137   -23977748.464 6 -18683950.640 7
        41.300          46.100
  22053737.261    22053736.544    22053735.796   -15493819.960 5 -12073095.959 5
        31.000          31.100
 09  1 12  1 58  0.0000000  0 10G11G 5G19G32G12G31G14G18G22G 9
  23416743.771    23416743.424    23416740.781    -7684416.251 3  -5987855.754 3
        22.600          21.100
  25001257.625    25001256.466    25001255.880     -463956.153     -361524.089 2
         3.000          13.900
  24128700.406    24128699.263    24128697.902    -4665940.358 2  -3635795.889 3
        17.800          19.300
  24940408.428    24940408.513    24940408.539     -768134.762 2   -598546.524 1
        12.600           9.000
  25076635.320    25076634.547    25076635.384     -162578.150     -126684.176 2
         3.000          15.100
  24853318.309    24853319.136    24853319.186    -1163916.840 2   -906948.011 2
        13.900          16.100
  20657690.110    20657689.366    20657688.061   -24017383.617 6 -18714838.919 7
        39.200          46.000
  22584087.375    22584086.403    22584084.806   -14599028.293 4 -11375855.859 4
        28.100          27.100
  20601313.796    20601313.328    20601310.148   -23939596.841 6 -18654222.105 7
        41.300          46.000
  22066544.930    22066543.907    22066543.060   -15426516.946 5 -12020652.054 5
        31.000          30.600
 09  1 12  1 58 30.0000000  0 10G11G 5G19G32G12G31G14G18G22G 9
  23403980.380    23403979.769    23403977.554    -7751486.364 3  -6040118.187 3
        21.100          21.600
  24983708.903    24983707.680    24983709.945     -556157.459     -433369.257 2
                        13.900
  24143173.536    24143172.660    24143170.084    -4589886.168 3  -3576532.889 3
        18.600          19.300
  24922171.144    24922169.256    24922168.013     -863985.650 2   -673235.471 1
        12.600          11.000
  25061243.192    25061241.090    25061239.479     -243481.831     -189725.964 2
         3.000          15.100
  24831196.953    24831196.872    24831197.189    -1280167.748 2   -997533.130 2
        12.600          17.000
  20650613.250    20650612.527    20650611.228   -24054572.664 6 -18743817.396 7
        39.300          46.100
  22600403.222    22600402.479    22600400.727   -14513287.801 4 -11309045.104 4
        27.900          27.100
  20608649.115    20608648.517    20608645.295   -23901050.444 6 -18624185.949 7
        41.400          45.900
  22079464.332    22079463.729    22079462.774   -15358622.894 5 -11967747.591 5
        30.800          30.200
 09  1 12  1 59  0.0000000  0 10G11G 5G19G32G12G31G14G18G22G 9
  23391302.517    23391301.717    23391299.843    -7818109.020 3  -6092031.941 3
        21.100          22.100
  24966200.622    24966201.554    24966203.696     -648156.196     -505056.467 1
                        11.000
  24157707.494    24157705.750    24157703.938    -4513511.943 2  -3517020.508 3
        17.800          19.900
  24903938.270    24903937.569    24903937.582     -959798.297 2   -747894.621 2
        13.900          15.100
  25045897.082    25045896.064    25045891.436     -324126.327 1   -252565.818 1
         6.500          11.000
  24809083.423    24809083.377    24809081.815    -1396384.187 2  -1088091.388 3
        13.900          19.300
  20643621.256    20643620.440    20643619.095   -24091316.452 6 -18772448.919 7
        39.300          46.100
  22616766.135    22616765.358    22616763.886   -14427298.490 4 -11242040.463 4
        27.100          26.800
  20616060.345    20616059.765    20616056.454   -23862104.273 6 -18593838.280 7
        41.400          45.700
  22092497.438    22092496.737    22092495.705   -15290134.938 5 -11914380.357 5
        30.600          30.200
 09  1 12  1 59 30.0000000  0 10G11G 5G19G32G12G31G14G18G22G 9
  23378708.488    23378708.368    23378707.026    -7884288.428 3  -6143600.306 3
        20.500          22.600
  24948735.610    24948735.002    24948733.921     -739955.319     -576588.160 2
         3.000          13.900
  24172299.708    24172298.555    24172296.417    -4436826.558 2  -3457265.681 3
        17.800          20.500
  24885712.582    24885711.016    24885711.773    -1055578.113 1   -822528.245 2
        11.000          16.100
  25030598.344    25030597.942    25030594.020     -404515.125     -315206.505 2
         3.000          12.600
  24786972.118    24786973.116    24786971.860    -1512570.439 1  -1178626.124 3
         9.000          19.300
  20636712.697    20636711.952    20636710.504   -24127621.243 6 -18800738.362 7
        39.200          46.200
  22633175.637    22633174.733    22633172.953   -14341068.194 4 -11174848.043 4
        27.100          26.800
  20623546.258    20623545.703    20623542.477   -23822765.051 6 -18563184.340 7
        41.300          45.600
  22105641.323    22105640.525    22105639.795   -15221062.436 5 -11860557.623 5
        30.400          30.100
                            4 15
RINEX FILE SPLICE                                           COMMENT
teqc  2008Oct2      WCDA Operator       20090112 03:18:44UTCCOMMENT
STATION INFORMATION EFFECTIVE FROM: 2001/01/13 18:20:00     COMMENT
                                TO: CURRENT DATE (above)    COMMENT
BIT 2 OF LLI FLAGS (+4) DATA COLLECTED UNDER 'AS' CONDITION COMMENT
L1 PHASE CENTRE 0.110m ABOVE ARP                            COMMENT
L2 PHASE CENTRE 0.128m ABOVE ARP                            COMMENT
where ARP is the Antenna Reference Point for HI measurement COMMENT
CONTACT gps@pgc.nrcan.gc.ca FOR ADDITIONAL INFORMATION      COMMENT
    P1 =    P1  TurboRogue; =    Y1  Benchmark              COMMENT
    L1 = L1(CA)                                             COMMENT
    P2 =    P2  TurboRogue; =    Y2  Benchmark              COMMENT
    L2 = L2(P2) TurboRogue; = L2(Y2) Benchmark              COMMENT
 SNR is mapped to RINEX snr flag value [0-9]                COMMENT
  L1 & L2: min(max(int(snr_dBHz/6), 0), 9)                  COMMENT
 09  1 12  2  0  0.0000000  0 10G11G 5G19G32G12G31G14G18G22G 9
  23366202.377    23366201.839    23366199.980    -7950012.637 3  -6194813.976 3
        21.600          22.600
  24931307.341    24931306.865    24931305.565     -831541.587 1   -647954.100 2
         9.000          13.900
  24186953.435    24186951.465    24186949.395    -4359823.063 2  -3397262.983 3
        17.000          21.100
  24867493.733    24867492.045    24867493.285    -1151314.026 1   -897127.643 2
         9.000          16.100
  25015350.516    25015350.203    25015349.635     -484635.598     -377637.965 2
         3.000          17.800
  24764869.541    24764869.844    24764870.896    -1628713.659    -1269127.205 3
                        18.600
  20629889.561    20629888.866    20629887.455   -24163476.443 6 -18828677.478 7
        39.200          46.200
  22649632.410    22649631.669    22649629.670   -14254587.482 4 -11107460.486 4
        27.600          26.800
  20631108.759    20631108.261    20631105.153   -23783023.080 6 -18532216.569 7
        41.300          45.600
  22118898.006    22118897.193    22118896.594   -15151397.916 4 -11806273.575 5
        29.900          30.100
 09  1 12  2  0 30.0000000  0 10G11G 5G19G32G12G31G14G18G22G 9
  23353783.039    23353782.465    23353780.477    -8015277.021 3  -6245669.338 3
        21.100          22.600
  24913921.135    24913920.244    24913920.121     -922909.165 1   -719149.598 2
        11.000          16.100
  24201667.580    24201665.292    24201663.630    -4282501.358 2  -3337012.327 3
        17.800          22.100
  24849282.578    24849281.597    24849283.023    -1247002.523 1   -971690.090 2
         6.500          13.900
  25000156.521    25000155.459    25000153.722     -564481.123     -439855.149 2
         3.000          17.800
  24742778.421    24742778.724    24742778.978    -1744808.624 2  -1359590.747 3
        12.600          21.100
  20623152.823    20623152.052    20623150.548   -24198879.048 6 -18856263.923 7
        39.100          46.200
  22666136.727    22666136.097    22666134.460   -14167855.164 4 -11039876.876 4
        27.100          26.500
  20638748.643    20638748.091    20638744.873   -23742876.243 6 -18500933.319 7
        41.200          45.500
  22132267.117    22132266.506    22132265.667   -15081141.359 4 -11751528.207 4
        29.900          29.700
 09  1 12  2  1  0.0000000  0 10G11G 5G19G32G12G31G14G18G22G 9
  23341449.067    23341448.523    23341446.783    -8080090.053 3  -6296172.998 3
        21.100          22.100
  24896572.392    24896571.390    24896573.669    -1014065.535 1   -790180.489 2
         9.000          17.000
  24216438.130    24216437.049    24216435.397    -4204875.265 3  -3276524.478 3
        19.900          22.100
  24831080.969    24831079.538    24831081.258    -1342653.342 1  -1046223.179 2
         6.500          12.600
  24985013.723    24985013.185    24985010.290     -644059.923 1   -501864.575 2
        11.000          17.800
  24720695.048    24720695.075    24720694.629    -1860863.691 3  -1450023.225 4
        20.500          27.600
  20616500.150    20616499.364    20616497.834   -24233839.674 6 -18883505.966 7
        39.200          46.300
  22682687.448    22682686.586    22682684.516   -14080882.889 4 -10972106.286 4
        27.400          25.900
  20646463.099    20646462.597    20646459.520   -23702335.671 6 -18469343.265 7
        41.200          45.400
  22145746.589    22145745.947    22145745.238   -15010306.391 4 -11696332.128 4
        29.700          29.900
 09  1 12  2  1 30.0000000  0 10G11G 5G19G32G12G31G14G18G22G 9
  23329202.352    23329201.958    23329199.401    -8144449.260 3  -6346323.051 3
        21.600          21.600
  24879264.701    24879265.405    24879265.002    -1105006.782     -861043.786 2
         3.000          12.600
  24231268.050    24231266.644    24231264.780    -4126946.874 3  -3215801.066 3
        19.900          22.100
  24812888.172    24812887.266    24812886.688    -1438264.705 1  -1120725.499 2
        11.000          12.600
  24969922.326    24969921.882    24969919.961     -723368.048 2   -563663.080 2
        12.600          17.800
  24698618.956    24698618.401    24698617.844    -1976875.628 3  -1540422.095 4
        23.400          28.400
  20609931.531    20609930.745    20609929.289   -24268357.270 6 -18910402.791 7
        39.000          46.400
  22699283.097    22699282.314    22699280.511   -13993671.065 4 -10904149.030 4
        27.100          25.600
  20654252.951    20654252.369    20654249.056   -23661400.904 6 -18437446.044 7
        41.200          45.200
  22159335.973    22159335.266    22159334.475   -14938894.728 4 -11640686.672 4
        29.900          29.900
 09  1 12  2  2  0.0000000  0 10G11G 5G19G32G12G31G14G18G22G 9
  23317043.091    23317042.651    23317040.779    -8208345.760 3  -6396112.540 3
        21.600          23.000
  24862004.799    24862004.048    24862003.302    -1195722.964     -931731.636 2
         3.000          15.100
  24246156.271    24246154.105    24246152.753    -4048712.385 3  -3154839.123 3
        21.100          22.600
  24794704.343    24794702.795    24794700.886    -1533829.154 1  -1195191.256 2
        11.000          12.600
  24954882.806    24954882.742    24954879.624     -802395.952 1   -625243.313 2
        11.000          16.100
  24676552.314    24676552.035    24676550.793    -2092835.198 3  -1630780.172 4
        23.800          27.400
  20603448.625    20603447.886    20603446.457   -24302424.753 6 -18936948.880 7
        39.000          46.400
  22715925.735    22715924.943    22715923.150   -13906214.094 4 -10836000.740 4
        26.800          25.900
  20662118.592    20662118.057    20662114.846   -23620065.944 6 -18405236.984 7
        41.200          45.200
  22173035.780    22173035.072    22173034.041   -14866902.722 4 -11584589.007 5
        29.900          30.100
 09  1 12  2  2 30.0000000  0 10G11G 5G19G32G12G31G14G18G22G 9
  23304972.588    23304972.068    23304970.050    -8271777.720 3  -6445540.031 3
        22.600          23.000
  24844785.167    24844783.874    24844785.675    -1286210.939    -1002241.715 2
         3.000          16.100
  24261101.032    24261099.089    24261097.646    -3970174.915 3  -3093641.109 3
        22.100          22.600
  24776526.634    24776525.347    24776525.557    -1629345.715 1  -1269619.704 2
         9.000          15.100
  24939899.617    24939898.043    24939896.009     -881140.941 1   -686603.009 2
        11.000          16.100
  24654494.911    24654495.713    24654494.447    -2208740.290 3  -1721095.801 4
        21.600          26.500
  20597051.610    20597050.785    20597049.275   -24336042.029 6 -18963144.156 7
        38.900          46.500
  22732614.588    22732613.702    22732612.171   -13818513.193 4 -10767662.389 4
        26.200          26.200
  20670060.438    20670059.908    20670056.689   -23578331.235 6 -18372716.433 7
        41.100          45.000
  22186845.311    22186844.506    22186843.571   -14794333.380 4 -11528041.466 4
        29.700          29.700
 09  1 12  2  3  0.0000000  0 10G11G 5G19G32G12G31G14G18G22G 9
  23292989.015    23292988.411    23292986.622    -8334751.495 3  -6494610.518 3
        23.400          23.000
  24827609.194    24827608.508    24827607.424    -1376476.008 1  -1072578.092 2
        11.000          17.800
  24276101.868    24276100.301    24276098.355    -3891345.846 3  -3032215.874 3
        23.000          22.600
  24758356.863    24758356.235    24758357.527    -1724821.806    -1344016.652 2
         3.000          15.100
  24924963.646    24924965.291    24924965.424     -959608.356 1   -747746.413 2
         6.500          17.000
  24632448.168    24632448.610    24632447.402    -2324596.900 3  -1811373.632 4
        19.300          24.200
  20590738.426    20590737.644    20590736.257   -24369217.469 6 -18988995.148 7
        38.900          46.700
  22749348.223    22749347.323    22749345.569   -13730577.842 4 -10699141.345 4
        25.900          25.900
  20678076.706    20678076.165    20678072.849   -23536205.573 6 -18339891.243 7
        41.100          44.900
  22200762.277    22200761.427    22200761.099   -14721197.588 4 -11471052.538 4
        29.000          29.700
 09  1 12  2  3 30.0000000  0 10G11G 5G19G32G12G31G14G18G22G 9
  23281094.236    23281093.826    23281092.868    -8397256.353 3  -6543315.606 3
        23.000          23.400
  24810478.188    24810476.772    24810476.048    -1466505.877 2  -1142731.171 3
        12.600          18.600
  24291159.540    24291157.806    24291155.941    -3812218.713 3  -2970558.357 3
        22.100          22.100
  24740199.247    24740197.849    24740199.620    -1820247.634    -1418374.368 2
         3.000          17.000
  24910086.692    24910087.820    24910090.320    -1037786.258 1   -808664.229 2
         9.000          17.800
  24610413.861    24610414.067    24610412.520    -2440393.166 3  -1901604.468 3
        20.500          23.000
  20584511.163    20584510.381    20584508.965   -24401941.706 6 -19014494.550 7
        38.700          46.800
  22766128.095    22766127.190    22766125.117   -13642400.442 4 -10630431.700 4
        26.500          26.200
  20686168.966    20686168.415    20686165.198   -23493680.790 6 -18306755.048 7
        41.100          45.000
  22214788.676    22214788.085    22214787.142   -14647489.219 4 -11413617.445 4
        29.200          29.500
 09  1 12  2  4  0.0000000  0 10G11G 5G19G32G12G31G14G18G22G 9
  23269289.229    23269288.908    23269286.660    -8459294.446 3  -6591656.982 3
        23.800          23.000
  24793388.466    24793387.184    24793387.377    -1556301.407 1  -1212701.673 2
         6.500          17.000
  24306271.990    24306269.466    24306268.124    -3732800.713 3  -2908674.191 3
        19.900          21.100
  24722049.295    24722048.595    24722048.158    -1915626.221 1  -1492695.327 2
         9.000          17.000
  24895270.110    24895269.772    24895265.086    -1115675.437 2   -869357.112 3
        16.100          19.300
  24588389.956    24588390.359    24588388.317    -2556131.052 3  -1991789.832 3
        22.100          21.100
  20578369.119    20578368.310    20578366.978   -24434218.697 6 -19039645.449 7
        38.600          46.900
  22782952.915    22782951.755    22782949.755   -13553986.033 4 -10561537.358 4
        26.200          25.900
  20694336.227    20694335.634    20694332.525   -23450761.308 6 -18273311.299 7
        41.000          44.900
  22228922.417    22228921.833    22228920.752   -14573215.393 4 -11355741.729 4
        29.200          29.200
 09  1 12  2  4 30.0000000  0 10G11G 5G19G32G12G31G14G18G22G 9
  23257573.135    23257572.598    23257570.750    -8520862.639 3  -6639632.189 3
        23.400          22.600
  24776347.652    24776346.338    24776345.495    -1645858.575    -1282486.427 2
         3.000          15.100
  24321439.490    24321437.791    24321435.652    -3653093.740 3  -2846564.881 3
        19.300          21.100
  24703909.237    24703907.968    24703906.909    -2010955.616 2  -1566977.953 2
        12.600          17.800
  24880499.151    24880499.183    24880502.504    -1193272.533 1   -929822.300 2
         6.500          17.800
  24566377.903    24566378.100    24566375.330    -2671806.746 3  -2081926.754 3
        21.100          19.300
  20572312.382    20572311.575    20572310.161   -24466047.101 6 -19064446.801 7
        38.600          47.000
  22799822.415    22799821.460    22799819.760   -13465334.465 4 -10492458.241 4
        25.600          25.300
  20702578.789    20702578.221    20702575.005   -23407446.762 6 -18239559.707 7
        41.100          44.700
  22243163.959    22243162.939    22243162.008   -14498377.684 4 -11297426.631 4
        29.000          29.200
 09  1 12  2  5  0.0000000  0 10G11G 5G19G32G12G31G14G18G22G 9
  23245945.569    23245945.303    23245943.782    -8581962.864 3  -6687242.739 3
        23.400          22.600
  24759348.965    24759348.923    24759348.968    -1735177.611    -1352085.706 2
                        12.600
  24336660.823    24336659.565    24336658.056    -3573104.576 3  -2784235.662 3
        19.300          22.600
  24685777.548    24685776.461    24685775.743    -2106238.705 2  -1641224.470 2
        13.900          17.800
  24865788.574    24865789.894    24865785.781    -1270578.157     -990061.507 3
                        18.600
  24544378.417    24544377.524    24544374.563    -2787421.783 2  -2172016.395 3
        17.000          19.300
  20566340.194    20566339.452    20566338.379   -24497430.651 6 -19088901.511 7
        38.600          46.900
  22816736.226    22816735.385    22816733.687   -13376450.843 4 -10423198.274 4
        25.900          25.300
  20710895.631    20710895.078    20710891.832   -23363741.330 6 -18205503.526 7
        41.100          44.600
  22257510.512    22257509.748    22257509.508   -14422982.755 4 -11238677.344 4
        28.400          29.500
 09  1 12  2  5 30.0000000  0 10G11G 5G19G32G12G31G14G18G22G 9
  23234408.955    23234408.181    23234406.386    -8642592.430 3  -6734486.539 3
        23.800          22.600
  24742397.157    24742395.403    24742397.670    -1824254.654    -1421496.311 1
                         9.000
  24351935.623    24351933.365    24351932.826    -3492835.214 3  -2721688.148 3
        19.900          23.000
  24667654.609    24667654.201    24667653.656    -2201473.350 2  -1715433.249 3
        12.600          19.300
  24851138.085    24851137.919    24851134.997    -1347588.248 2  -1050069.258 3
        12.600          20.500
  24522389.305    24522388.781    24522386.150    -2902972.656 1  -2262055.997 3
        11.000          19.300
  20560453.000    20560452.246    20560450.628   -24528368.381 6 -19113008.832 7
        38.600          46.400
  22833694.542    22833693.707    22833691.602   -13287335.383 4 -10353757.662 4
        25.600          25.300
  20719287.029    20719286.404    20719283.140   -23319644.424 6 -18171142.303 7
        41.000          44.400
  22271963.516    22271962.870    22271962.204   -14347032.607 4 -11179495.399 4
        28.600          29.200
 09  1 12  2  6  0.0000000  0 10G11G 5G19G32G12G31G14G18G22G 9
  23222962.753    23222962.083    23222960.286    -8702741.970 4  -6781356.300 3
        24.200          23.000
  24725496.247    24725494.703    24725493.674    -1913079.015    -1490710.058 1
         3.000           9.000
  24367265.297    24367263.786    24367260.925    -3412281.369 3  -2658918.913 3
        21.600          23.000
  24649538.859    24649540.021    24649541.961    -2296651.420 1  -1789597.965 3
        11.000          18.600
  24836540.198    24836539.691    24836536.679    -1424292.494 1  -1109838.737 3
        11.000          19.900
  24500413.043    24500413.455    24500411.865    -3018449.420 1  -2352037.806 2
         9.000          17.000
  20554652.118    20554651.322    20554650.262   -24558852.543 6 -19136762.723 7
        38.500          46.400
  22850697.818    22850696.972    22850695.100   -13197981.782 4 -10284131.485 4
        24.200          25.300
  20727754.051    20727753.524    20727750.226   -23275149.492 6 -18136470.930 7
        41.100          44.300
  22286522.552    22286522.084    22286521.656   -14270522.621 4 -11119877.235 4
        28.400          29.000
 09  1 12  2  6 30.0000000  0 10G11G 5G19G32G12G31G14G18G22G 9
  23211608.409    23211607.859    23211605.869    -8762408.717 3  -6827849.860 3
        23.800          23.000
  24708643.336    24708642.757    24708642.117    -2001646.590 1  -1559723.747 1
         9.000          11.000
  24382647.954    24382646.184    24382644.085    -3331444.962 3  -2595929.504 4
        22.100          24.900
  24631440.626    24631440.336    24631441.483    -2391770.993 2  -1863717.087 3
        12.600          19.900
  24822001.282    24822001.402    24822002.029    -1500687.227 2  -1169367.087 3
        12.600          20.500
  24478452.746    24478453.816    24478451.756    -3133848.681 1  -2441959.268 2
        11.000          13.900
  20548937.504    20548936.746    20548935.054   -24588882.051 6 -19160162.335 7
        38.400          45.900
  22867746.644    22867745.750    22867743.962   -13108390.281 4 -10214319.950 4
        24.200          25.300
  20736297.008    20736296.511    20736293.107   -23230256.194 6 -18101489.137 7
        41.100          44.100
  22301188.513    22301187.659    22301187.113   -14193455.096 4 -11059824.623 4
        28.400          28.400
 09  1 12  2  7  0.0000000  0 10G11G 5G19G32G12G31G14G18G22G 9
  23200343.783    23200343.637    23200341.755    -8821601.898 3  -6873974.415 3
        23.000          22.100
  24691836.622    24691834.372    24691834.643    -2089965.197 1  -1628543.439 1
         6.500          11.000
  24398080.381    24398078.806    24398078.447    -3250339.666 3  -2532730.601 4
        19.900          25.600
  24613350.612    24613350.023    24613349.473    -2486842.001 2  -1937798.366 3
        15.100          19.900
  24807522.871    24807522.817    24807521.794    -1576780.464 2  -1228660.500 3
        17.000          20.500
  24456506.785    24456506.909    24456504.083    -3249178.994 2  -2531827.052 2
        13.900          13.900
  20543307.647    20543306.841    20543305.913   -24618467.645 6 -19183216.041 7
        38.400          45.700
  22884838.260    22884837.603    22884835.548   -13018573.218 4 -10144332.640 4
        25.300          24.900
  20744913.547    20744913.030    20744909.730   -23184975.662 6 -18066205.609 7
        40.900          44.100
  22315957.319    22315956.531    22315955.640   -14115844.051 4 -10999348.475 4
        27.900          27.400
 09  1 12  2  7 30.0000000  0 10G11G 5G19G32G12G31G14G18G22G 9
  23189171.336    23189170.947    23189168.991    -8880315.515 3  -6919725.274 3
        23.800          23.000
  24675077.863    24675076.197    24675074.283    -2178027.581    -1697163.448 1
                         9.000
  24413566.373    24413564.770    24413563.246    -3168964.490 3  -2469321.384 4
        19.300          24.200
  24595268.880    24595268.491    24595267.940    -2581859.394 2  -2011837.870 3
        15.100          18.600
  24793100.908    24793100.739    24793097.050    -1652565.271 2  -1287713.553 2
        17.000          17.000
  24434575.374    24434575.435    24434572.547    -3364433.652 2  -2621635.887 2
        13.900          17.000
  20537762.934    20537762.154    20537760.259   -24647605.252 6 -19205920.667 7
        38.400          45.800
  22901973.648    22901972.900    22901970.648   -12928527.376 4 -10074167.059 4
        25.600          24.900
  20753604.455    20753603.911    20753600.668   -23139304.779 6 -18030617.909 7
        40.900          44.000
  22330829.744    22330829.071    22330828.483   -14037688.056 4 -10938447.705 4
        27.900          27.900
 09  1 12  2  8  0.0000000  0 10G11G 5G19G32G12G31G14G18G22G 9
  23178089.752    23178089.260    23178087.262    -8938550.111 4  -6965102.870 3
        24.200          23.400
  24658368.637    24658367.191    24658368.345    -2265833.022    -1765583.246 2
         3.000          13.900
  24429101.714    24429100.230    24429098.031    -3087325.024 3  -2405706.237 3
        19.900          23.800
  24577198.248    24577197.309    24577195.898    -2676824.789 2  -2085836.834 2
        13.900          17.800
  24778738.863    24778738.368    24778735.959    -1728041.122 2  -1346525.890 2
        12.600          17.800
  24412657.708    24412657.567    24412654.673    -3479612.895 2  -2711385.892 3
        17.800          19.300
  20532303.008    20532302.241    20532301.357   -24676297.417 6 -19228278.194 7
        38.400          45.800
  22919151.387    22919150.519    22919148.581   -12838256.556 4 -10003826.165 4
        24.600          24.900
  20762369.004    20762368.472    20762365.198   -23093246.610 6 -17994728.427 7
        40.800          43.900
  22345804.985    22345804.467    22345803.325   -13958992.323 4 -10877126.350 4
        28.100          27.400
 09  1 12  2  8 30.0000000  0 10G11G 5G19G32G12G31G14G18G22G 9
  23167101.642    23167100.897    23167099.067    -8996293.988 4  -7010098.096 3
        24.200          23.000
  24641712.259    24641710.453    24641711.947    -2353368.170 1  -1833792.417 2
         6.500          16.100
  24444689.233    24444688.026    24444685.966    -3005414.127 3  -2341879.601 4
        19.900          24.200
  24559137.175    24559136.658    24559136.703    -2771726.967 2  -2159786.555 2
        12.600          17.800
  24764436.079    24764435.268    24764436.421    -1803195.246 1  -1405087.567 3
         9.000          19.900
  24390757.327    24390756.768    24390753.721    -3594703.996 3  -2801067.279 3
        20.500          20.500
  20526929.738    20526928.993    20526927.148   -24704533.833 6 -19250280.599 7
        38.400          45.700
  22936373.750    22936372.973    22936371.193   -12747751.861 3  -9933303.033 4
        23.400          24.600
  20771209.273    20771208.707    20771205.471   -23046791.116 6 -17958529.345 7
        40.700          43.900
  22360884.676    22360883.837    22360882.987   -13879750.021 4 -10815379.097 4
        28.100          27.600
 09  1 12  2  9  0.0000000  0 10G 5G19G11G32G12G31G14G18G22G 9
  24625107.171    24625106.237    24625104.483    -2440634.955 1  -1901792.481 2
        11.000          15.100
  24460326.556    24460325.253    24460322.896    -2923239.745 2  -2277847.614 3
        17.800          23.800
  23156205.980    23156205.406    23156203.302    -9053550.148 3  -7054713.289 3
        23.800          23.400
  24541088.802    24541087.195    24541089.437    -2866570.005 1  -2233690.191 3
        11.000          19.300
  24750196.607    24750195.868    24750193.978    -1878029.632 2  -1463399.993 2
        12.600          17.000
  24368871.695    24368871.392    24368869.120    -3709709.595 3  -2890682.007 3
        19.900          22.600
  20521642.319    20521641.525    20521640.704   -24732319.316 6 -19271931.620 7
        38.300          45.600
  22953638.987    22953638.300    22953636.878   -12657019.552 3  -9862602.549 4
        22.600          24.200
  20780123.822    20780123.291    20780120.020   -22999944.694 6 -17922025.644 7
        40.700          43.700
  22376066.236    22376065.525    22376064.969   -13799969.206 4 -10753212.236 4
        28.400          27.900
 09  1 12  2  9 30.0000000  0 10G 5G19G11G32G12G31G14G18G22G 9
  24608550.337    24608549.678    24608548.884    -2527633.207 1  -1969583.398 2
         9.000          15.100
  24476012.174    24476010.412    24476009.297    -2840808.057 2  -2213615.130 3
        17.000          23.400
  23145402.600    23145402.423    23145400.367    -9110320.050 3  -7098949.572 3
        23.800          23.400
  24523052.760    24523050.893    24523052.671    -2961356.027 2  -2307549.408 3
        13.900          19.900
  24736018.042    24736017.309    24736013.810    -1952544.619 2  -1521463.571 2
        13.900          13.900
  24347003.262    24347002.715    24347000.731    -3824630.157 3  -2980230.473 3
        20.500          23.400
  20516440.135    20516439.388    20516437.456   -24759656.926 6 -19293233.652 7
        38.300          45.500
  22970947.578    22970946.867    22970945.165   -12566063.869 3  -9791728.030 3
        23.000          23.800
  20789112.223    20789111.617    20789108.436   -22952710.563 6 -17885219.829 7
        40.600          43.700
  22391349.460    22391348.702    22391347.938   -13719656.035 4 -10690630.542 4
        28.100          27.900
 09  1 12  2 10  0.0000000  0 10G 5G19G11G32G12G31G14G18G22G 9
  24592047.205    24592046.816    24592046.833    -2614357.778 1  -2037160.909 2
         6.500          13.900
  24491746.571    24491745.546    24491743.975    -2758119.898 2  -2149182.791 3
        13.900          21.600
  23134692.893    23134692.484    23134690.576    -9166600.061 3  -7142804.115 3
        23.400          23.800
  24505027.948    24505026.912    24505026.109    -3056081.873 2  -2381361.746 3
        12.600          20.500
  24721897.657    24721897.144    24721896.381    -2026734.790 1  -1579274.100 2
         9.000          12.600
  24325150.841    24325150.660    24325149.384    -3939461.145 3  -3069709.155 4
        21.100          24.200
  20511323.624    20511322.880    20511322.034   -24786544.581 6 -19314185.067 7
        38.300          45.500
  22988299.107    22988298.306    22988296.215   -12474883.383 3  -9720678.319 3
        23.000          23.400
  20798174.608    20798174.057    20798170.867   -22905087.163 6 -17848110.688 7
        40.600          43.500
  22406733.025    22406732.508    22406732.370   -13638811.198 4 -10627634.566 4
        27.400          27.900
 09  1 12  2 10 30.0000000  0 10G 5G19G11G32G12G31G14G18G22G 9
  24575598.151    24575596.492    24575596.388    -2700802.181    -2104520.171 2
         3.000          15.100
  24507530.932    24507529.952    24507528.069    -2675174.922 2  -2084550.318 3
        13.900          19.900
  23124077.935    23124077.298    23124075.028    -9222384.962 4  -7186272.854 4
        24.600          24.200
  24487014.514    24487013.139    24487012.722    -3150743.517 2  -2455124.059 3
        15.100          21.100
  24707845.860    24707844.888    24707841.685    -2100594.669 2  -1636827.331 2
        12.600          13.900
  24303316.337    24303316.459    24303315.509    -4054196.926 3  -3159113.643 4
        20.500          24.900
  20506293.393    20506292.642    20506290.601   -24812979.104 6 -19334783.396 7
        38.400          45.700
  23005693.205    23005692.296    23005690.383   -12383476.465 3  -9649452.187 3
        22.600          22.600
  20807311.489    20807310.979    20807307.827   -22857072.232 6 -17810696.454 7
        40.600          43.500
  22422218.674    22422218.272    22422217.616   -13557434.707 4 -10564224.316 4
        27.900          27.100
 09  1 12  2 11  0.0000000  0 10G 5G19G11G32G12G31G14G18G22G 9
  24559201.103    24559199.402    24559198.452    -2786969.237 1  -2171663.274 2
         9.000          13.900
  24523362.970    24523360.791    24523359.289    -2591981.935 2  -2019724.643 2
        12.600          17.800
  23113555.889    23113555.381    23113553.163    -9277678.860 4  -7229359.011 4
        24.600          24.200
  24469011.893    24469011.062    24469011.246    -3245345.665 2  -2528840.025 3
        15.100          21.600
  24693850.442    24693850.907    24693850.465    -2174126.925 1  -1694125.121 2
        11.000          17.800
  24281500.408    24281500.336    24281499.578    -4168840.664 3  -3248446.432 4
        20.500          25.900
  20501348.119    20501347.361    20501346.531   -24838966.121 6 -19355033.015 7
        38.400          45.400
  23023129.377    23023128.438    23023126.207   -12291850.267 3  -9578055.157 3
        23.400          22.100
  20816521.801    20816521.221    20816518.025   -22808672.018 6 -17772982.002 7
        40.500          43.400
  22437804.336    22437803.737    22437802.249   -13475535.304 4 -10500406.597 4
        28.400          26.800
 09  1 12  2 11 30.0000000  0 10G 5G19G11G32G12G31G14G18G22G 9
  24542857.084    24542857.049    24542855.637    -2872857.081 1  -2238588.867 2
        11.000          13.900
  24539240.910    24539238.114    24539235.279    -2508545.314 1  -1954709.118 2
        11.000          16.100
  23103126.569    23103126.472    23103124.432    -9332481.670 4  -7272062.499 4
        24.900          24.600
  24451020.147    24451019.221    24451020.464    -3339888.922 2  -2602510.076 3
        15.100          22.100
  24679920.042    24679919.188    24679919.820    -2247330.726 1  -1751166.948 3
         9.000          19.300
  24259700.733    24259700.720    24259700.976    -4283391.630 2  -3337706.896 4
        17.000          24.600
  20496487.867    20496487.127    20496485.069   -24864507.036 6 -19374935.025 7
        38.400          45.600
  23040605.959    23040605.281    23040603.344   -12200007.676 3  -9506489.512 3
        23.400          22.100
  20825804.901    20825804.355    20825801.159   -22759888.726 6 -17734969.047 7
        40.500          43.300
  22453487.579    22453486.784    22453485.990   -13393117.417 4 -10436184.862 4
        27.600          26.800
 09  1 12  2 12  0.0000000  0 10G 5G19G11G32G12G31G14G18G22G 9
  24526567.750    24526566.830    24526566.722    -2958456.577 1  -2305289.741 2
        11.000          15.100
  24555165.272    24555163.573    24555161.105    -2424862.203 2  -1889501.519 2
        15.100          17.800
  23092793.358    23092792.843    23092790.985    -9386785.617 4  -7314377.258 4
        24.900          24.900
  24433041.892    24433041.073    24433041.944    -3434366.066 2  -2676128.633 3
        15.100          22.100
  24666054.643    24666054.338    24666052.071    -2320196.498 2  -1807945.530 2
        13.900          17.000
  24237921.011    24237921.792    24237922.294    -4397841.506 2  -3426888.608 3
        16.100          21.600
  20491713.654    20491712.871    20491711.991   -24889595.981 6 -19394484.849 7
        38.400          45.600
  23058125.070    23058124.208    23058123.007   -12107943.114 3  -9434750.895 3
        22.100          23.000
  20835162.080    20835161.471    20835158.327   -22710716.938 6 -17696653.372 7
        40.500          43.300
  22469269.967    22469269.695    22469269.222   -13310178.205 4 -10371556.903 4
        27.600          27.400
 09  1 12  2 12 30.0000000  0 10G 5G19G11G32G12G31G14G18G22G 9
  24510334.672    24510332.408    24510332.241    -3043765.773 1  -2371764.415 2
         6.500          15.100
  24571135.164    24571133.726    24571131.300    -2340936.925 2  -1824105.163 2
        16.100          17.800
  23082554.298    23082553.955    23082552.075    -9440590.119 4  -7356302.841 4
        25.600          24.600
  24415075.435    24415074.909    24415075.907    -3528777.270 2  -2749695.806 3
        13.900          22.100
  24652254.746    24652254.652    24652250.331    -2392722.629 2  -1864459.411 2
        16.100          16.100
  24216162.785    24216162.584    24216161.709    -4512188.326 2  -3515990.008 3
        17.800          23.000
  20487025.226    20487024.465    20487022.308   -24914233.927 6 -19413683.247 7
        38.400          45.500
  23075686.223    23075685.533    23075684.131   -12015659.432 3  -9362841.561 3
        22.100          23.400
  20844592.652    20844592.121    20844588.939   -22661158.354 6 -17658036.296 7
        40.500          43.100
  22485152.302    22485151.384    22485150.358   -13226721.807 4 -10306525.946 4
        27.600          27.400
 09  1 12  2 13  0.0000000  0 10G 5G19G11G32G12G31G14G18G22G 9
  24494156.041    24494155.218    24494155.226    -3128778.678 1  -2438008.228 2
         6.500          15.100
  24587151.742    24587148.982    24587148.129    -2256769.771 2  -1758520.359 3
        13.900          18.600
  23072412.267    23072411.726    23072409.270    -9493890.506 4  -7397835.626 4
        26.200          24.900
  24397124.716    24397123.252    24397123.243    -3623118.749 2  -2823208.616 3
        15.100          22.600
  24638517.194    24638516.354    24638515.188    -2464903.684 1  -1920704.394 2
         6.500          16.100
  24194423.914    24194424.242    24194423.314    -4626427.075 3  -3605007.228 3
        18.600          23.400
  20482423.115    20482422.344    20482421.378   -24938418.220 6 -19432528.148 7
        38.400          45.600
  23093289.195    23093288.378    23093286.939   -11923154.891 3  -9290760.131 3
        22.100          23.400
  20854097.193    20854096.684    20854093.548   -22611211.126 6 -17619116.378 7
        40.400          43.100
  22501131.158    22501130.602    22501129.729   -13142748.591 4 -10241092.287 4
        27.400          27.100
 09  1 12  2 13 30.0000000  0 10G 5G19G11G32G12G31G14G18G22G 9
  24478034.276    24478032.440    24478034.949    -3213495.115 1  -2504021.023 2
         6.500          17.000
  24603212.484    24603209.967    24603209.943    -2172366.493 2  -1692751.561 3
        13.900          20.500
  23062365.136    23062364.591    23062362.469    -9546688.338 4  -7438976.785 4
        25.900          25.300
  24379184.675    24379183.305    24379183.203    -3717392.499 2  -2896668.647 3
        15.100          21.600
  24624848.529    24624847.831    24624846.884    -2536739.948 1  -1976680.643 3
        11.000          19.300
  24172705.711    24172705.871    24172705.230    -4740558.207 2  -3693940.561 4
        17.800          24.200
  20477906.742    20477905.978    20477903.808   -24962151.824 6 -19451021.864 7
        38.400          45.500
  23110933.845    23110933.041    23110931.112   -11830433.821 3  -9218509.968 3
        22.600          23.000
  20863675.251    20863674.688    20863671.544   -22560878.661 6 -17579896.279 7
        40.300          43.000
  22517208.032    22517207.306    22517206.770   -13058264.495 4 -10175260.519 4
        27.100          27.400
 09  1 12  2 14  0.0000000  0 10G 5G19G11G32G12G31G14G18G22G 9
  24461973.152    24461972.119    24461971.203    -3297909.122 2  -2569798.141 3
        12.600          18.600
  24619318.471    24619317.071    24619315.540    -2087727.176 2  -1626798.827 3
        13.900          19.900
  23052414.507    23052413.902    23052411.947    -9598979.189 4  -7479722.905 4
        25.900          25.600
  24361256.658    24361255.843    24361256.869    -3811594.649 2  -2970072.875 3
        15.100          21.100
  24611246.230    24611245.623    24611242.238    -2608225.621 2  -2032383.794 3
        17.000          21.100
  24151009.326    24151008.835    24151008.298    -4854576.524 2  -3782785.980 4
        17.800          24.900
  20473476.652    20473475.863    20473475.008   -24985431.916 6 -19469162.192 7
        38.400          45.400
  23128620.013    23128618.985    23128617.233   -11737494.626 3  -9146089.832 3
        22.100          22.100
  20873326.898    20873326.421    20873323.289   -22510158.672 6 -17540374.209 7
        40.300          43.000
  22533382.216    22533381.355    22533380.714   -12973269.808 4 -10109030.901 4
        26.800          27.400
 09  1 12  2 14 30.0000000  0 10G 5G19G11G32G12G31G14G18G22G 9
  24445965.060    24445964.106    24445964.297    -3382023.101 2  -2635341.491 2
        12.600          17.800
  24635467.458    24635466.859    24635465.539    -2002860.496 2  -1560668.944 3
        17.800          19.900
  23042559.529    23042559.023    23042557.572    -9650766.768 4  -7520076.856 4
        26.200          26.200
  24343344.996    24343343.226    24343342.980    -3905729.689 2  -3043424.850 3
        13.900          20.500
  24597707.555    24597707.181    24597706.600    -2679363.515 2  -2087815.856 3
        15.100          22.100
  24129332.899    24129332.779    24129331.896    -4968485.039 3  -3871545.822 4
        19.300          24.200
  20469131.901    20469131.105    20469128.967   -25008264.107 6 -19486953.509 7
        38.400          45.600
  23146345.352    23146344.662    23146343.091   -11644343.740 3  -9073504.743 3
        21.600          21.100
  20883051.213    20883050.618    20883047.495   -22459057.587 6 -17500555.186 7
        40.300          42.900
  22549651.302    22549650.569    22549649.961   -12887773.440 4 -10042410.355 4
        26.500          27.100
 09  1 12  2 15  0.0000000  0 10G 5G19G11G32G12G31G14G18G22G 9
  24430018.933    24430017.188    24430017.312    -3465827.285 1  -2700643.446 2
        11.000          17.800
  24651662.881    24651661.408    24651659.106    -1917762.727 3  -1494359.008 3
        20.500          20.500
  23032801.701    23032801.171    23032799.587    -9702043.067 4  -7560032.412 4
        25.900          25.900
  24325444.331    24325443.290    24325444.261    -3999789.923 2  -3116718.524 3
        12.600          19.900
  24584239.313    24584238.499    24584236.941    -2750144.399 2  -2142969.755 3
        15.100          20.500
  24107679.671    24107679.848    24107678.089    -5082274.578 3  -3960212.976 3
        19.900          23.800
  20464873.613    20464872.851    20464871.926   -25030641.550 6 -19504390.474 7
        38.400          45.600
  23164112.707    23164112.172    23164110.024   -11550976.129 3  -9000750.780 3
        21.100          20.500
  20892848.882    20892848.431    20892845.337   -22407569.487 6 -17460434.587 7
        40.300          42.800
  22566016.964    22566016.440    22566015.713   -12801771.411 4  -9975395.793 4
        26.500          27.100
