     2.11           OBSERVATION DATA    G (GPS)             RINEX VERSION / TYPE
teqc  2013Mar15     gpsops              20140506 00:24:09UTCPGM / RUN BY / DATE
Linux 2.4.21-27.ELsmp|Opteron|gcc -static|Linux x86_64|=+   COMMENT
BIT 2 OF LLI FLAGS DATA COLLECTED UNDER A/S CONDITION       COMMENT
GLPS                                                        MARKER NAME
42005M002                                                   MARKER NUMBER
GGN                 JPL                                     OBSERVER / AGENCY
ZR220013847         ASHTECH UZ-12       CQ00                REC # / TYPE / VERS
CR519992104         ASH701945B_M    SCIT                    ANT # / TYPE
   -33801.4662 -6377516.5323   -82154.3508                  APPROX POSITION XYZ
        0.0083        0.0000        0.0000                  ANTENNA: DELTA H/E/N
     1     1                                                WAVELENGTH FACT L1/2
     7    L1    L2    P1    P2    C1    S1    S2            # / TYPES OF OBSERV
    30.0000                                                 INTERVAL
                                                            COMMENT
This data is provided as a public service by NASA/JPL.      COMMENT
No warranty is expressed or implied regarding suitability   COMMENT
for use.  For further information, contact:                 COMMENT
Dave Stowers, NASA/JPL m/s 238-600                          COMMENT
4800 Oak Grove Drive, Pasadena CA 91109 USA                 COMMENT
                                                            COMMENT
Forced Modulo Decimation to 30 seconds                      COMMENT
 SNR is mapped to RINEX snr flag value [0-9]                COMMENT
  L1 & L2: min(max(int(snr_dBHz/6), 0), 9)                  COMMENT
pseudorange smoothing corrections not applied               COMMENT
  2014     5     5     0     0    0.0000000     GPS         TIME OF FIRST OBS
                                                            END OF HEADER
 14  5  5  0  0  0.0000000  0 12G10G08G13G04G20G23G09G17G01G28G07G11
  -5565413.65746  -4325961.82146  24817447.4054   24817459.1394   24817446.876
        41.0004         36.0004
 -20799328.83048 -16151557.04348  20805373.1044   20805379.7924   20805373.265
        53.0004         48.0004
   8126162.65247   6325126.26146  22757257.5284   22757262.8824   22757256.866
        45.0004         41.0004
 -16029032.44047 -12435701.24047  22765509.8954   22765518.0304   22765508.130
        46.0004         42.0004
  -2140738.46547  -1590568.61646  23644548.0094   23644555.3464   23644547.864
        44.0004         39.0004
   6056663.97146   4743153.53445  25006650.6384   25006658.9024   25006650.413
        39.0004         35.0004
 -16792772.04448 -13020393.44847  20839801.7734   20839808.7854   20839801.654
        52.0004         47.0004
 -17132721.68648 -13287323.64047  21991966.3674   21991974.4554   21991966.712
        51.0004         46.0004
 -11861309.84748  -9218504.36447  22317933.5604   22317942.7184   22317932.841
        48.0004         43.0004
  -2131741.57647  -1626194.71046  24279411.0034   24279416.9144   24279410.669
        42.0004         37.0004
 -24996908.37049 -19441843.75148  20128974.7704   20128979.8914   20128974.104
        54.0004         50.0004
  -6441342.36947  -4995392.18946  23858566.9064   23858573.4724   23858567.910
        42.0004         38.0004
 14  5  5  0  0 30.0000000  0 12G10G08G13G04G20G23G09G17G01G28G07G11
  -5600194.05646  -4353063.27646  24810830.4564   24810840.0684   24810828.931
        41.0004         36.0004
 -20870898.30248 -16207325.40748  20791753.7784   20791760.8074   20791753.924
        53.0004         48.0004
   8208456.10747   6389251.05746  22772917.4854   22772925.8114   22772917.009
        45.0004         41.0004
 -16125787.26747 -12511094.47847  22747096.6294   22747105.6334   22747096.750
        46.0004         42.0004
  -2144779.32047  -1593717.23746  23643779.3454   23643787.4624   23643780.191
        44.0004         39.0004
   6139826.62846   4807955.62345  25022476.8884   25022482.6194   25022476.149
        39.0004         35.0004
 -16861059.12048 -13073604.10247  20826807.3064   20826813.9494   20826807.244
        52.0004         47.0004
 -17106418.45848 -13266827.58747  21996972.4174   21996979.5084   21996972.226
        51.0004         46.0004
 -11788338.53348  -9161643.56947  22331819.5094   22331829.1534   22331818.879
        48.0004         43.0004
  -2158043.70647  -1646689.73746  24274406.2214   24274412.4454   24274405.782
        42.0004         37.0004
 -25004406.77549 -19447686.63448  20127547.9204   20127552.8504   20127546.930
        54.0004         50.0004
  -6340186.57347  -4916569.48946  23877817.9804   23877824.4474   23877817.388
        42.0004         38.0004
 14  5  5  0  1  0.0000000  0 12G10G08G13G04G20G23G09G17G01G28G07G11
  -5635223.25746  -4380358.59746  24804160.7474   24804173.1584   24804162.573
        41.0004         36.0004
 -20942061.59648 -16262777.27048  20778211.5364   20778218.4244   20778211.906
        52.0004         48.0004
   8290740.40147   6453368.71946  22788575.3234   22788582.3244   22788575.558
        45.0004         41.0004
 -16222384.68447 -12586365.05947  22728715.0544   22728723.0204   22728714.474
        47.0004         42.0004
  -2148739.57547  -1596803.04846  23643025.5224   23643033.2604   23643025.179
        44.0004         39.0004
   6222776.57546   4872591.95145  25038259.9364   25038267.7544   25038259.807
        39.0004         35.0004
 -16928919.00948 -13126481.87147  20813894.0424   20813900.7764   20813893.749
        52.0004         47.0004
 -17079835.63448 -13246113.67347  22002031.1344   22002037.5924   22002030.429
        51.0004         46.0004
 -11714963.84748  -9104468.46147  22345782.0454   22345790.8594   22345781.543
        48.0004         43.0004
  -2184628.46747  -1667405.01846  24269346.9454   24269353.5204   24269346.553
        42.0004         38.0004
 -25011319.53649 -19453073.17048  20126231.7974   20126237.0574   20126231.646
        54.0004         50.0004
  -6238880.52747  -4837629.71346  23897095.8614   23897101.6774   23897095.100
        42.0004         38.0004
 14  5  5  0  1 30.0000000  0 12G10G08G13G04G20G23G09G17G01G28G07G11
  -5670500.20546  -4407846.97246  24797447.6744   24797460.5944   24797449.765
        41.0004         36.0004
 -21012814.42548 -16317909.28548  20764747.5784   20764755.0104   20764747.989
        52.0004         48.0004
   8373013.80447   6517477.89346  22804230.9594   22804237.9954   22804231.465
        45.0004         41.0004
 -16318820.71347 -12661509.88047  22710363.8544   22710372.0284   22710363.540
        47.0004         42.0004
  -2152616.42247  -1599823.85946  23642288.1484   23642295.5664   23642287.750
        44.0004         39.0004
   6305513.68446   4937062.45245  25054003.8174   25054011.4724   25054003.966
        39.0004         34.0004
 -16996347.93348 -13179023.83147  20801062.7564   20801069.1284   20801062.593
        52.0004         47.0004
 -17052974.74848 -13225183.08847  22007142.5204   22007149.4584   22007142.515
        51.0004         46.0004
 -11641186.71548  -9046979.76347  22359821.3824   22359831.4624   22359821.009
        48.0004         43.0004
  -2211493.93347  -1688339.02546  24264233.5594   24264242.0394   24264234.319
        42.0004         38.0004
 -25017644.45349 -19458001.65048  20125028.4934   20125033.5024   20125027.906
        54.0004         50.0004
  -6137426.11247  -4758574.31146  23916402.3644   23916407.6274   23916401.112
        42.0004         38.0004
 14  5  5  0  2  0.0000000  0 12G10G08G13G04G20G23G09G17G01G28G07G11
  -5706025.69946  -4435529.03246  24790689.5614   24790700.7364   24790689.063
        41.0004         36.0004
 -21083154.73348 -16372719.86348  20751362.5504   20751369.4674   20751363.024
        53.0004         48.0004
   8455272.84447   6581575.88346  22819884.8434   22819891.5934   22819884.733
        45.0004         41.0004
 -16415093.54047 -12736527.52447  22692042.8554   22692052.2264   22692042.570
        47.0004         42.0004
  -2156408.72447  -1602778.80946  23641565.2934   23641573.7984   23641565.354
        43.0004         39.0004
   6388035.84246   5001365.44945  25069707.9134   25069715.8474   25069708.229
        39.0004         35.0004
 -17063343.91248 -13231228.43847  20788313.4644   20788320.3454   20788313.664
        52.0004         47.0004
 -17025839.20348 -13204038.48347  22012305.8334   22012313.2314   22012305.471
        51.0004         46.0004
 -11567009.94448  -8989179.65647  22373937.4414   22373945.6344   22373936.292
        48.0004         43.0004
  -2238641.18747  -1709492.59446  24259069.2074   24259075.9534   24259068.550
        42.0004         37.0004
 -25023381.77849 -19462472.26548  20123936.7134   20123941.8024   20123936.205
        54.0004         50.0004
  -6035826.52147  -4679405.79146  23935734.4844   23935741.1744   23935735.212
        42.0004         38.0004
 14  5  5  0  2 30.0000000  0 12G10G08G13G04G20G23G09G17G01G28G07G11
  -5741799.12546  -4463404.27246  24783881.0644   24783893.6314   24783880.866
        41.0004         36.0004
 -21153077.90848 -16427205.39948  20738056.4794   20738063.4754   20738056.900
        53.0004         48.0004
   8537516.76547   6645662.07946  22835535.8374   22835543.7964   22835535.855
        45.0004         41.0004
 -16511199.16047 -12811414.88547  22673755.7104   22673765.3414   22673754.750
        47.0004         42.0004
  -2160113.43747  -1605665.51546  23640860.6774   23640867.7874   23640860.745
        43.0004         39.0004
   6470342.76746   5065500.70445  25085370.8214   25085377.8254   25085371.426
        39.0004         35.0004
 -17129903.19848 -13283092.75747  20775647.6614   20775654.7864   20775647.633
        52.0004         47.0004
 -16998429.57348 -13182680.29747  22017522.2234   22017529.5524   22017521.758
        51.0004         46.0004
 -11492434.41748  -8931068.82647  22388128.1184   22388138.3124   22388127.764
        48.0004         43.0004
  -2266068.26647  -1730864.22046  24253847.3864   24253856.3594   24253849.083
        42.0004         37.0004
 -25028529.19949 -19466483.21648  20122957.0394   20122962.2584   20122956.552
        54.0004         50.0004
  -5934082.97947  -4600125.09946  23955095.0804   23955103.3554   23955096.541
        42.0004         38.0004
 14  5  5  0  3  0.0000000  0 12G10G08G13G04G20G23G09G17G01G28G07G11
  -5777821.20146  -4491473.28046  24777025.8744   24777038.1084   24777027.211
        40.0004         36.0004
 -21222581.56948 -16481364.04348  20724830.1154   20724836.8714   20724830.688
        53.0004         48.0004
   8619741.56747   6709733.38346  22851184.0534   22851188.6624   22851182.749
        45.0004         41.0004
 -16607135.89147 -12886170.65347  22655499.4944   22655506.8564   22655498.597
        47.0004         42.0004
  -2163729.52047  -1608483.15346  23640171.8054   23640180.2004   23640172.158
        43.0004         39.0004
   6552432.50146   5129466.73345  25100994.1544   25100998.0044   25100992.614
        40.0004         35.0004
 -17196023.74748 -13334615.20247  20763065.4924   20763072.5164   20763065.458
        52.0004         47.0004
 -16970749.76948 -13161111.59847  22022789.2734   22022797.5294   22022789.066
        51.0004         46.0004
 -11417462.90148  -8872649.44347  22402393.4424   22402403.3584   22402393.864
        48.0004         43.0004
  -2293776.11547  -1752454.61246  24248575.2194   24248582.8734   24248575.898
        42.0004         37.0004
 -25033086.49449 -19470034.32948  20122089.8644   20122095.1724   20122089.291
        54.0004         50.0004
  -5832199.39247  -4520735.27546  23974484.6064   23974491.5214   23974484.600
        42.0004         38.0004
 14  5  5  0  3 30.0000000  0 12G10G08G13G04G20G23G09G17G01G28G07G11
  -5814092.73546  -4519736.66546  24770124.6414   24770137.4614   24770124.344
        41.0004         36.0004
 -21291663.28048 -16535193.90348  20711684.6254   20711691.4064   20711684.735
        53.0004         48.0004
   8701944.24747   6773787.44146  22866825.1994   22866832.1464   22866825.072
        45.0004         41.0004
 -16702901.35447 -12960792.94947  22637275.8774   22637283.3884   22637275.145
        47.0004         42.0004
  -2167255.55147  -1611230.62446  23639501.0934   23639508.8394   23639501.790
        43.0004         39.0004
   6634303.53046   5193262.33445  25116570.6014   25116576.6464   25116572.227
        40.0004         35.0004
 -17261703.41048 -13385794.11147  20750567.1064   20750573.4454   20750566.728
        52.0004         47.0004
 -16942802.64448 -13139334.59547  22028107.5244   22028114.5124   22028107.042
        51.0004         46.0004
 -11342097.93848  -8813923.45647  22416736.6244   22416744.7704   22416736.059
        48.0004         43.0004
  -2321764.68147  -1774263.76346  24243250.4594   24243257.0374   24243249.785
        42.0004         37.0004
 -25037053.93849 -19473125.82148  20121334.9554   20121339.8764   20121334.612
        54.0004         50.0004
  -5730178.80147  -4441238.69546  23993897.9444   23993904.5774   23993898.322
        42.0004         38.0004
 14  5  5  0  4  0.0000000  0 12G10G08G13G04G20G23G09G17G01G28G07G11
  -5850611.84846  -4548192.96046  24763174.0504   24763185.9954   24763174.717
        41.0004         36.0004
 -21360317.87748 -16588690.94248  20698620.2144   20698626.5354   20698620.374
        53.0004         48.0004
   8784124.42547   6837823.99646  22882462.7164   22882470.9004   22882462.793
        45.0004         40.0004
 -16798491.04247 -13035278.29047  22619086.0354   22619092.4454   22619084.978
        47.0004         42.0004
  -2170687.58747  -1613904.84446  23638846.9834   23638854.8064   23638847.885
        43.0004         38.0004
   6715956.15846   5256887.75545  25132110.1284   25132116.1224   25132108.811
        40.0004         35.0004
 -17326937.62348 -13436625.91247  20738153.2384   20738159.3874   20738153.135
        52.0004         47.0004
 -16914588.68148 -13117349.66747  22033476.1964   22033483.2994   22033475.843
        51.0004         46.0004
 -11266339.74748  -8754891.07147  22431153.0314   22431161.8194   22431151.872
        48.0004         43.0004
  -2350031.95047  -1796290.08946  24237871.1694   24237876.4894   24237871.014
        42.0004         38.0004
 -25040428.77949 -19475755.54048  20120692.4724   20120697.4764   20120692.178
        54.0004         50.0004
  -5628021.85147  -4361635.87046  24013338.4394   24013343.6354   24013338.243
        42.0004         37.0004
 14  5  5  0  4 30.0000000  0 12G10G08G13G04G20G23G09G17G01G28G07G11
  -5887381.47746  -4576844.48146  24756178.3284   24756189.1324   24756177.949
        41.0004         36.0004
 -21428544.52248 -16641854.51548  20685637.0614   20685643.8494   20685637.417
        53.0004         48.0004
   8866277.01847   6901839.05246  22898095.7814   22898102.4764   22898096.377
        45.0004         40.0004
 -16893904.83947 -13109626.57347  22600928.4084   22600935.6594   22600928.084
        47.0004         42.0004
  -2174026.38047  -1616506.40846  23638213.1394   23638221.4794   23638213.193
        43.0004         39.0004
   6797386.83746   5320340.24945  25147605.3674   25147613.2784   25147605.662
        40.0004         35.0004
 -17391726.27148 -13487110.51948  20725824.3144   20725830.8994   20725824.467
        52.0004         48.0004
 -16886113.05948 -13095160.84847  22038894.9894   22038903.2954   22038894.682
        51.0004         46.0004
 -11190192.87847  -8695555.82847  22445643.3564   22445652.5304   22445641.734
        47.0004         43.0004
  -2378579.79147  -1818535.04646  24232437.4334   24232445.3064   24232438.344
        42.0004         38.0004
 -25043212.76849 -19477924.85748  20120162.7214   20120167.5494   20120162.480
        54.0004         50.0004
  -5525733.56547  -4281930.69046  24032804.6574   24032810.2364   24032803.075
        42.0004         37.0004
 14  5  5  0  5  0.0000000  0 12G10G08G13G04G20G23G09G17G01G28G07G11
  -5924398.10846  -4605688.45246  24749131.7074   24749145.5304   24749133.091
        41.0004         36.0004
 -21496336.44048 -16694679.33248  20672736.7394   20672743.3104   20672736.862
        53.0004         48.0004
   8948403.08047   6965833.43346  22913724.6634   22913731.6534   22913724.494
        45.0004         41.0004
 -16989136.01647 -13183832.54847  22582806.7664   22582813.8194   22582806.202
        47.0004         42.0004
  -2177266.42647  -1619031.04646  23637595.9094   23637602.5534   23637596.406
        43.0004         38.0004
   6878597.83746   5383621.55245  25163058.8484   25163067.5944   25163058.846
        40.0004         35.0004
 -17456063.04748 -13537243.01448  20713581.3574   20713588.2914   20713581.277
        52.0004         48.0004
 -16857374.31248 -13072766.99547  22044363.7844   22044371.4844   22044363.373
        51.0004         46.0004
 -11113655.71948  -8635916.45347  22460208.3884   22460217.0434   22460207.113
        48.0004         43.0004
  -2407404.39247  -1840995.62946  24226951.9064   24226958.2174   24226953.367
        42.0004         38.0004
 -25045401.57549 -19479630.39448  20119746.3384   20119751.1654   20119745.911
        54.0004         50.0004
  -5423312.95547  -4202122.40846  24052293.2884   24052299.1864   24052292.425
        42.0004         37.0004
 14  5  5  0  5 30.0000000  0 12G10G08G13G04G20G23G09G17G01G28G07G11
  -5961664.98446  -4634727.42846  24742041.3624   24742053.3354   24742042.426
        41.0004         36.0004
 -21563693.88848 -16747165.60348  20659918.8904   20659925.3714   20659919.239
        53.0004         48.0004
   9030496.70047   7029802.53346  22929345.3554   22929352.4464   22929346.143
        45.0004         40.0004
 -17084185.44547 -13257896.90847  22564719.6824   22564725.9834   22564718.707
        47.0004         43.0004
  -2180409.12347  -1621479.81746  23636997.2054   23637005.6814   23636998.222
        43.0004         38.0004
   6959584.83046   5446728.26545  25178467.0254   25178476.9574   25178470.228
        40.0004         35.0004
 -17519948.58548 -13587023.89047  20701423.9904   20701430.7384   20701424.180
        52.0004         47.0004
 -16828378.33748 -13050172.71047  22049881.9074   22049888.3564   22049881.364
        51.0004         46.0004
 -11036733.75748  -8575977.23547  22474844.9174   22474854.3384   22474844.574
        48.0004         43.0004
  -2436508.75947  -1863674.23646  24221414.8614   24221420.6404   24221414.818
        42.0004         38.0004
 -25046997.91549 -19480874.26948  20119442.5684   20119447.3204   20119441.971
        54.0004         50.0004
  -5320765.85447  -4122215.55546  24071806.4764   24071814.3754   24071806.642
        42.0004         37.0004
 14  5  5  0  6  0.0000000  0 12G10G08G13G04G20G23G09G17G01G28G07G11
  -5999181.78146  -4663961.13146  24734903.0784   24734913.3984   24734903.132
        41.0004         36.0004
 -21630612.91748 -16799310.25148  20647184.4934   20647191.3174   20647184.766
        53.0004         48.0004
   9112556.17647   7093745.02546  22944961.5634   22944967.5884   22944961.444
        45.0004         41.0004
 -17179049.72147 -13331816.99847  22546667.4804   22546675.7324   22546666.907
        47.0004         43.0004
  -2183451.98547  -1623850.78246  23636418.5954   23636426.5504   23636418.928
        43.0004         38.0004
   7040347.34246   5509660.07745  25193838.5284   25193848.3284   25193839.368
        40.0004         35.0004
 -17583379.76548 -13636450.72848  20689353.6624   20689360.4364   20689353.697
        52.0004         48.0004
 -16799126.72048 -13027379.21547  22055448.3844   22055455.2914   22055447.757
        51.0004         46.0004
 -10959428.43247  -8515739.29047  22489554.9364   22489564.5124   22489554.988
        47.0004         43.0004
  -2465891.68147  -1886569.90146  24215823.1014   24215830.6754   24215822.692
        42.0004         38.0004
 -25048000.25749 -19481655.29348  20119251.6994   20119256.7604   20119251.266
        54.0004         50.0004
  -5218094.46746  -4042211.85746  24091343.8194   24091352.7384   24091344.527
        41.0004         37.0004
 14  5  5  0  6 30.0000000  0 12G10G08G13G04G20G23G09G17G01G28G07G11
  -6036946.92846  -4693388.38046  24727714.6454   24727727.4574   24727716.186
        41.0004         36.0004
 -21697088.72448 -16851109.53848  20634534.4784   20634541.0824   20634535.041
        53.0004         48.0004
   9194580.42647   7157660.08146  22960570.1944   22960577.4614   22960569.808
        45.0004         41.0004
 -17273724.57347 -13405589.47847  22528650.4184   22528657.8334   22528650.129
        47.0004         43.0004
  -2186391.52347  -1626141.25246  23635859.8864   23635866.9294   23635860.088
        43.0004         38.0004
   7120885.57546   5572417.11246  25209165.0734   25209171.3174   25209164.881
        40.0004         36.0004
 -17646352.34148 -13685520.21248  20677370.1484   20677376.7404   20677370.427
        52.0004         48.0004
 -16769621.30748 -13004387.96047  22061062.5454   22061069.8454   22061062.208
        51.0004         46.0004
 -10881740.30547  -8455203.06047  22504340.1004   22504347.3314   22504338.880
        47.0004         43.0004
  -2495551.50547  -1909681.32646  24210178.2374   24210186.0954   24210179.072
        42.0004         38.0004
 -25048406.64149 -19481971.93348  20119173.9674   20119179.2454   20119173.888
        54.0004         49.0004
  -5115299.95346  -3962112.21846  24110904.6344   24110911.9654   24110905.952
        41.0004         36.0004
 14  5  5  0  7  0.0000000  0 12G10G08G13G04G20G23G09G17G01G28G07G11
  -6074961.07046  -4723009.63646  24720482.1844   24720492.2094   24720482.993
        41.0004         36.0004
 -21763118.94848 -16902561.61848  20621969.6984   20621975.8964   20621969.646
        53.0004         48.0004
   9276566.97947   7221545.75946  22976172.8884   22976179.5124   22976171.114
        45.0004         40.0004
 -17368207.56247 -13479212.44947  22510672.1824   22510678.3124   22510671.140
        47.0004         43.0004
  -2189226.17547  -1628349.99846  23635319.9124   23635328.3284   23635320.473
        43.0004         39.0004
   7201197.90946   5634998.11646  25224449.0404   25224454.6094   25224447.861
        41.0004         36.0004
 -17708864.21548 -13734230.70948  20665474.6394   20665481.2974   20665474.559
        52.0004         48.0004
 -16739864.29248 -12981200.65047  22066724.8154   22066732.5314   22066724.622
        51.0004         46.0004
 -10803671.95747  -8394370.55447  22519195.6604   22519203.0224   22519194.409
        47.0004         43.0004
  -2525487.96047  -1933008.30546  24204482.2894   24204488.9884   24204482.267
        43.0004         38.0004
 -25048217.05049 -19481824.18148  20119210.3414   20119215.3354   20119209.789
        54.0004         49.0004
  -5012385.01346  -3881918.74446  24130490.2554   24130496.9954   24130489.934
        41.0004         36.0004
 14  5  5  0  7 30.0000000  0 12G10G08G13G04G20G23G09G17G01G28G07G11
  -6113224.68646  -4752825.28446  24713200.6054   24713209.9594   24713200.839
        41.0004         36.0004
 -21828700.85048 -16953664.35448  20609489.4834   20609495.9534   20609489.869
        53.0004         48.0004
   9358512.90147   7285399.77846  22991766.7454   22991771.9084   22991765.388
        45.0004         40.0004
 -17462496.29147 -13552684.04847  22492728.1794   22492735.5594   22492728.184
        47.0004         43.0004
  -2191954.56647  -1630475.93746  23634800.6774   23634807.7484   23634800.900
        43.0004         38.0004
   7281282.81046   5697401.88746  25239687.4474   25239695.2014   25239687.793
        41.0004         36.0004
 -17770913.04048 -13782580.38848  20653667.2604   20653673.6654   20653667.233
        52.0004         48.0004
 -16709858.26248 -12957819.29747  22072434.5244   22072442.5074   22072434.945
        51.0004         46.0004
 -10725225.84947  -8333243.69147  22534122.6614   22534131.7504   22534122.331
        47.0004         43.0004
  -2555700.84347  -1956550.68746  24198732.0984   24198739.1654   24198732.580
        42.0004         38.0004
 -25047430.95549 -19481211.61748  20119359.8474   20119365.0714   20119359.387
        54.0004         49.0004
  -4909352.64346  -3801633.75746  24150097.2644   24150104.1374   24150096.238
        41.0004         36.0004
 14  5  5  0  8  0.0000000  0 12G10G08G13G04G20G23G09G17G01G28G07G11
  -6151737.94846  -4782835.46546  24705873.0604   24705881.9414   24705871.625
        41.0004         36.0004
 -21893831.37248 -17004415.37148  20597095.9924   20597102.0244   20597096.009
        53.0004         48.0004
   9440415.26047   7349219.84046  23007352.0914   23007358.5534   23007351.015
        45.0004         40.0004
 -17556588.30347 -13626002.36747  22474823.5944   22474831.2894   22474822.932
        47.0004         43.0004
  -2194574.85547  -1632517.64046  23634302.3644   23634309.9794   23634301.898
        43.0004         39.0004
   7361139.02946   5759627.47946  25254882.9604   25254890.5024   25254883.654
        41.0004         36.0004
 -17832496.73548 -13830567.62548  20641947.9124   20641954.5044   20641948.366
        52.0004         48.0004
 -16679606.68148 -12934246.61447  22078192.1744   22078199.0194   22078191.575
        51.0004         46.0004
 -10646404.35747  -8271824.32447  22549121.9034   22549130.1754   22549121.234
        47.0004         42.0004
  -2586190.02447  -1980308.35746  24192930.5954   24192938.3864   24192930.794
        42.0004         38.0004
 -25046047.37149 -19480133.47748  20119623.1084   20119628.2054   20119622.559
        54.0004         50.0004
  -4806205.72946  -3721259.52246  24169723.5664   24169729.0684   24169724.225
        41.0004         36.0004
 14  5  5  0  8 30.0000000  0 12G10G08G13G04G20G23G09G17G01G28G07G11
  -6190499.58446  -4813039.17046  24698494.8774   24698505.8944   24698495.428
        41.0004         36.0004
 -21958506.09348 -17054811.20848  20584788.2274   20584795.3114   20584788.505
        53.0004         48.0004
   9522273.40747   7413005.45746  23022927.9294   23022935.5734   23022927.886
        45.0004         40.0004
 -17650479.67847 -13699164.35547  22456956.3434   22456965.0414   22456955.862
        47.0004         43.0004
  -2197083.92047  -1634472.67946  23633824.9694   23633832.0134   23633824.699
        43.0004         38.0004
   7440766.99946   5821675.20146  25270037.3574   25270044.1164   25270036.939
        40.0004         36.0004
 -17893611.24348 -13878189.26948  20630318.5584   20630324.7624   20630318.339
        52.0004         48.0004
 -16649110.37048 -12910483.23347  22083995.4814   22084002.4774   22083994.824
        51.0004         46.0004
 -10567208.27347  -8210113.07247  22564192.8774   22564202.3184   22564192.040
        47.0004         42.0004
  -2616953.75347  -2004279.96746  24187076.3044   24187083.1494   24187076.367
        42.0004         38.0004
 -25044065.77149 -19478589.35348  20120000.3524   20120005.3344   20119999.899
        54.0004         50.0004
  -4702945.36446  -3640796.90746  24189372.6524   24189379.7024   24189373.894
        41.0004         36.0004
 14  5  5  0  9  0.0000000  0 12G10G08G13G04G20G23G09G17G01G28G07G11
  -6229511.45646  -4843437.88146  24691072.4304   24691084.2114   24691071.850
        41.0004         36.0004
 -22022724.04548 -17104851.12548  20572567.7934   20572575.0054   20572568.226
        53.0004         48.0004
   9604082.19947   7476752.63346  23038495.8164   23038503.7984   23038495.209
        44.0004         40.0004
 -17744169.45747 -13772169.24847  22439126.9324   22439136.4324   22439127.364
        47.0004         43.0004
  -2199481.66947  -1636341.00746  23633367.6254   23633374.9084   23633368.055
        43.0004         38.0004
   7520163.56146   5883542.59045  25285144.7064   25285152.0794   25285145.116
        40.0004         35.0004
 -17954256.14748 -13925444.98748  20618777.9734   20618784.3144   20618777.998
        52.0004         48.0004
 -16618373.40148 -12886532.32447  22089844.1464   22089851.3954   22089843.900
        51.0004         46.0004
 -10487641.81047  -8148113.20147  22579333.7964   22579341.8754   22579332.745
        47.0004         42.0004
  -2647993.62347  -2028466.75446  24181168.7264   24181175.6874   24181168.798
        42.0004         38.0004
 -25041487.47749 -19476580.26848  20120490.8874   20120495.8184   20120490.612
        54.0004         50.0004
  -4599576.43046  -3560249.67246  24209044.2134   24209051.1904   24209044.494
        41.0004         36.0004
 14  5  5  0  9 30.0000000  0 12G10G08G13G04G20G23G09G17G01G28G07G11
  -6268772.47746  -4874030.73146  24683601.1264   24683610.3724   24683601.368
        41.0004         36.0004
 -22086480.92248 -17154531.75748  20560435.1654   20560441.9774   20560435.561
        53.0004         48.0004
   9685840.97847   7540460.82846  23054053.4574   23054060.8514   23054053.156
        44.0004         40.0004
 -17837653.99848 -13845014.22647  22421338.4254   22421345.0984   22421337.444
        48.0004         43.0004
  -2201765.27447  -1638120.35446  23632932.3984   23632941.3534   23632933.171
        43.0004         38.0004
   7599328.58346   5945229.57245  25300208.1684   25300217.0584   25300209.603
        40.0004         35.0004
 -18014427.68848 -13972331.85248  20607327.6714   20607334.3174   20607327.959
        53.0004         48.0004
 -16587398.05348 -12862395.66747  22095738.8474   22095745.7234   22095738.254
        51.0004         46.0004
 -10407706.03647  -8085825.55447  22594544.7794   22594553.1674   22594544.048
        47.0004         42.0004
  -2679308.08447  -2052867.50046  24175209.3504   24175217.9904   24175210.362
        43.0004         38.0004
 -25038310.66449 -19474104.80948  20121095.6204   20121100.7224   20121095.195
        54.0004         50.0004
  -4496100.21346  -3479618.83746  24228735.3334   24228739.6954   24228735.677
        41.0004         36.0004
 14  5  5  0 10  0.0000000  0 11G10G08G13G04G20G09G17G01G28G07G11
  -6308280.65746  -4904816.17446  24676082.3324   24676093.4874   24676082.784
        41.0004         36.0004
 -22149771.68148 -17203849.18548  20548391.4874   20548398.3584   20548391.855
        53.0004         48.0004
   9767548.86347   7604129.35946  23069602.4074   23069608.6174   23069601.682
        44.0004         39.0004
 -17930928.25248 -13917695.34047  22403588.8844   22403595.9514   22403587.826
        48.0004         43.0004
  -2203930.80247  -1639807.71546  23632521.6314   23632530.2134   23632521.768
        43.0004         39.0004
 -18074121.45648 -14018846.42248  20595968.4594   20595974.6854   20595968.298
        53.0004         48.0004
 -16556184.30548 -12838073.24447  22101678.3204   22101685.3414   22101678.067
        51.0004         46.0004
 -10327401.17347  -8023250.31947  22609826.2874   22609835.8654   22609825.796
        47.0004         42.0004
  -2710894.39547  -2077480.09246  24169199.8364   24169206.8564   24169199.332
        42.0004         38.0004
 -25034532.93849 -19471161.10248  20121814.5834   20121819.0714   20121813.848
        54.0004         50.0004
  -4392517.39146  -3398904.96746  24248446.6164   24248456.1004   24248446.337
        40.0004         36.0004
 14  5  5  0 10 30.0000000  0 11G10G08G13G04G20G09G17G01G28G07G11
  -6348040.37946  -4935797.60446  24668515.1874   24668525.6394   24668516.306
        41.0004         37.0004
 -22212597.46848 -17252804.30148  20536436.1994   20536442.3614   20536436.511
        53.0004         48.0004
   9849200.03647   7667753.70746  23085140.1424   23085145.7044   23085139.547
        44.0004         40.0004
 -18023993.84048 -13990213.86047  22385879.0454   22385885.9814   22385878.291
        48.0004         43.0004
  -2205980.40647  -1641404.73846  23632131.4944   23632139.6254   23632131.687
        43.0004         39.0004
 -18133338.87148 -14064989.81248  20584699.6214   20584705.5804   20584699.548
        53.0004         48.0004
 -16524738.92948 -12813570.32747  22107662.0414   22107669.3254   22107661.742
        51.0004         46.0004
 -10246733.50247  -7960392.37647  22625177.2914   22625185.8104   22625176.245
        47.0004         43.0004
  -2742756.12147  -2102307.28646  24163136.4114   24163143.7344   24163136.283
        42.0004         38.0004
 -25030157.71149 -19467751.82148  20122647.0694   20122652.0154   20122646.673
        54.0004         49.0004
  -4288834.44946  -3318113.06546  24268175.9194   24268183.6264   24268177.121
        40.0004         36.0004
 14  5  5  0 11  0.0000000  0 11G10G08G13G04G20G09G17G01G28G07G11
  -6388047.19646  -4966971.56546  24660902.5324   24660914.2814   24660902.765
        41.0004         37.0004
 -22274951.08448 -17301391.49348  20524570.7364   20524577.1934   20524571.161
        53.0004         49.0004
   9930795.80747   7731334.88346  23100667.1584   23100673.6384   23100666.907
        44.0004         40.0004
 -18116843.62948 -14062564.22647  22368209.8544   22368216.4594   22368209.089
        48.0004         43.0004
  -2207908.19447  -1642906.84146  23631765.1674   23631772.1664   23631764.723
        43.0004         38.0004
 -18192073.44348 -14110756.95348  20573522.6624   20573528.9664   20573522.804
        53.0004         48.0004
 -16493059.87648 -12788885.33147  22113689.6964   22113697.8694   22113689.835
        51.0004         46.0004
 -10165701.01047  -7897250.14447  22640596.4054   22640605.0134   22640596.232
        47.0004         43.0004
  -2774888.78647  -2127345.59946  24157021.4774   24157028.3754   24157021.716
        43.0004         38.0004
 -25025180.80249 -19463873.68448  20123594.1384   20123599.0454   20123593.432
        54.0004         49.0004
  -4185049.82146  -3237241.92346  24287927.4454   24287933.4984   24287926.169
        40.0004         36.0004
 14  5  5  0 11 30.0000000  0 11G10G08G13G04G20G09G17G01G28G07G11
  -6428303.86746  -4998340.22946  24653242.0904   24653254.4614   24653242.284
        41.0004         37.0004
 -22336831.93948 -17349610.29748  20512795.1224   20512801.8424   20512795.671
        53.0004         49.0004
  10012331.42247   7794869.17946  23116182.4274   23116189.5114   23116182.806
        44.0004         39.0004
 -18209477.73548 -14134746.53347  22350582.3264   22350589.1864   22350581.720
        48.0004         43.0004
  -2209714.63547  -1644314.38646  23631420.4204   23631428.9074   23631421.564
        43.0004         38.0004
 -18250325.46248 -14156148.08248  20562437.4174   20562444.4314   20562437.551
        53.0004         48.0004
 -16461152.70248 -12764022.57947  22119761.6424   22119769.3534   22119761.804
        51.0004         46.0004
 -10084308.62347  -7833827.49047  22656084.8264   22656093.4174   22656084.344
        47.0004         42.0004
  -2807294.28847  -2152596.53646  24150855.3554   24150860.5754   24150855.641
        43.0004         38.0004
 -25019604.24049 -19459528.29648  20124655.1624   20124660.0804   20124654.512
        54.0004         49.0004
  -4081168.83846  -3156295.68646  24307692.8844   24307700.5474   24307694.087
        40.0004         36.0004
 14  5  5  0 12  0.0000000  0 11G10G08G13G04G20G09G17G01G28G07G11
  -6468808.50446  -5029902.11946  24645534.4214   24645545.2204   24645533.961
        41.0004         37.0004
 -22398235.33348 -17397457.05348  20501110.5324   20501117.1344   20501110.731
        53.0004         49.0004
  10093806.31147   7858356.16246  23131685.8634   23131692.4094   23131686.630
        44.0004         39.0004
 -18301891.24148 -14206756.92547  22332997.0654   22333003.7834   22332996.083
        48.0004         43.0004
  -2211396.16547  -1645624.60246  23631101.4674   23631107.9174   23631101.568
        43.0004         38.0004
 -18308090.66048 -14201159.86848  20551445.2494   20551451.8894   20551445.274
        53.0004         48.0004
 -16429018.06948 -12738982.58447  22125877.0704   22125884.1544   22125876.919
        51.0004         46.0004
 -10002556.69147  -7770124.66247  22671641.7644   22671651.3154   22671641.120
        47.0004         42.0004
  -2839970.47147  -2178058.37546  24144637.2634   24144643.5384   24144636.794
        43.0004         38.0004
 -25013426.46149 -19454714.41748  20125830.5524   20125836.0254   20125829.975
        54.0004         49.0004
  -3977192.21246  -3075274.91346  24327478.7164   24327486.4514   24327479.799
        40.0004         36.0004
 14  5  5  0 12 30.0000000  0 11G10G08G13G04G20G09G17G01G28G07G11
  -6509563.57446  -5061659.14346  24637777.1304   24637789.3814   24637778.797
        41.0004         37.0004
 -22459160.65848 -17444931.28948  20489516.4564   20489523.2824   20489517.004
        53.0004         49.0004
  10175215.74847   7921792.15146  23147179.3114   23147185.4834   23147178.195
        44.0004         39.0004
 -18394084.00148 -14278595.32647  22315452.5464   22315458.5004   22315451.341
        48.0004         43.0004
  -2212953.40947  -1646837.98646  23630804.7884   23630811.8044   23630804.556
        43.0004         38.0004
 -18365369.08848 -14245792.34748  20540545.7074   20540552.0534   20540545.557
        53.0004         48.0004
 -16396660.92748 -12713769.20547  22132033.7894   22132042.1094   22132034.020
        51.0004         46.0004
  -9920449.93347  -7706145.35047  22687266.8544   22687275.7044   22687265.860
        47.0004         42.0004
  -2872918.78047  -2203732.29546  24138366.6174   24138373.5914   24138367.349
        43.0004         38.0004
 -25006649.21549 -19449433.42748  20127120.2104   20127125.3014   20127119.543
        54.0004         49.0004
  -3873124.72146  -2994183.32246  24347281.0704   24347289.7934   24347282.994
        40.0004         36.0004
 14  5  5  0 13  0.0000000  0 11G10G08G13G04G20G09G17G01G28G07G11
  -6550565.93347  -5093608.85246  24629976.9464   24629986.7944   24629976.010
        42.0004         37.0004
 -22519602.25948 -17492028.59348  20478015.1564   20478021.3974   20478015.470
        53.0004         49.0004
  10256560.02347   7985177.35046  23162657.0154   23162663.1134   23162657.325
        44.0004         39.0004
 -18486050.52748 -14350257.42947  22297951.3114   22297958.4364   22297951.204
        48.0004         43.0004
  -2214381.56147  -1647950.77046  23630531.8854   23630540.1564   23630532.274
        43.0004         38.0004
 -18422155.50148 -14290041.45048  20529739.6124   20529745.4984   20529739.685
        53.0004         48.0004
 -16364080.95248 -12688382.18547  22138234.1794   22138240.8404   22138233.652
        51.0004         46.0004
  -9837987.83547  -7641889.14847  22702958.9024   22702966.6364   22702957.884
        47.0004         42.0004
  -2906136.02147  -2229615.74346  24132045.7424   24132053.0414   24132045.791
        43.0004         38.0004
 -24999269.33649 -19443682.85048  20128524.4014   20128529.6894   20128524.305
        54.0004         49.0004
  -3768966.30246  -2913020.89746  24367102.6504   24367109.9554   24367103.607
        40.0004         36.0004
 14  5  5  0 13 30.0000000  0 11G10G08G13G04G20G09G17G01G28G07G11
  -6591817.84147  -5125753.02446  24622124.6844   24622135.8044   24622126.621
        42.0004         37.0004
 -22579559.39848 -17538748.40248  20466605.9204   20466611.9094   20466605.920
        53.0004         49.0004
  10337835.11347   8048508.66546  23178123.2394   23178130.4134   23178123.474
        44.0004         39.0004
 -18577790.03548 -14421742.64347  22280494.2274   22280501.0584   22280493.713
        48.0004         43.0004
  -2215680.57447  -1648962.91946  23630285.7044   23630292.4414   23630285.508
        43.0004         38.0004
 -18478449.53248 -14333906.87648  20519026.9144   20519033.2314   20519026.855
        53.0004         48.0004
 -16331282.73648 -12662825.11847  22144475.8844   22144482.7194   22144475.174
        51.0004         46.0004
  -9755174.75947  -7577359.46047  22718717.1644   22718725.1454   22718716.883
        47.0004         42.0004
  -2939623.81947  -2255710.02246  24125673.4604   24125680.9394   24125673.561
        43.0004         39.0004
 -24991288.83949 -19437464.25848  20130042.9724   20130048.1474   20130042.752
        54.0004         49.0004
  -3664721.35146  -2831791.00846  24386940.0394   24386945.4104   24386941.025
        40.0004         36.0004
 14  5  5  0 14  0.0000000  0 11G10G08G13G04G20G09G17G01G28G07G11
  -6633319.03847  -5158091.41946  24614227.6254   24614239.0714   24614228.258
        42.0004         37.0004
 -22639028.97348 -17585088.29048  20455288.4484   20455295.3064   20455288.721
        53.0004         49.0004
  10419038.49147   8111784.07046  23193576.3174   23193583.8834   23193575.896
        44.0004         39.0004
 -18669300.09848 -14493049.05847  22263079.9084   22263087.7324   22263079.403
        48.0004         43.0004
  -2216848.82647  -1649873.18346  23630062.3184   23630068.9494   23630063.633
        43.0004         38.0004
 -18534248.98548 -14377386.91648  20508408.9784   20508415.4554   20508408.736
        53.0004         48.0004
 -16298269.03948 -12637100.13747  22150757.7124   22150765.1164   22150757.296
        51.0004         46.0004
  -9672013.03347  -7512558.08247  22734542.8744   22734551.3234   22734541.645
        47.0004         42.0004
  -2973381.57347  -2282014.66246  24119247.8634   24119255.1224   24119249.193
        43.0004         38.0004
 -24982707.68149 -19430777.62448  20131676.2744   20131681.2684   20131675.587
        54.0004         49.0004
  -3560392.62246  -2750495.86246  24406794.1654   24406800.0954   24406794.047
        40.0004         36.0004
 14  5  5  0 14 30.0000000  0 11G10G08G13G04G20G09G17G01G28G07G11
  -6675066.36047  -5190621.61446  24606282.2364   24606295.3954   24606283.719
        42.0004         37.0004
 -22698004.85748 -17631043.49148  20444065.8444   20444072.5614   20444066.106
        53.0004         49.0004
  10500170.97147   8175004.24846  23209015.7084   23209022.8004   23209014.252
        44.0004         39.0004
 -18760574.61748 -14564171.93947  22245711.2324   22245718.6384   22245711.220
        48.0004         43.0004
  -2217881.41747  -1650677.73846  23629868.1414   23629875.0654   23629866.733
        43.0004         38.0004
 -18589548.33648 -14420477.26848  20497885.3354   20497891.9594   20497885.652
        53.0004         48.0004
 -16265039.35748 -12611206.84347  22157080.6374   22157088.0214   22157080.641
        50.0004         46.0004
  -9588501.92847  -7447484.48547  22750433.7954   22750442.5624   22750433.092
        46.0004         42.0004
  -3007405.34547  -2308526.59846  24112775.1934   24112781.8904   24112774.718
        43.0004         38.0004
 -24973522.79249 -19423620.55248  20133424.1564   20133429.0054   20133423.557
        54.0004         49.0004
  -3455979.67946  -2669135.11146  24426663.5004   24426667.3474   24426662.705
        40.0004         36.0004
 14  5  5  0 15  0.0000000  0 11G10G08G13G04G20G09G17G01G28G07G11
  -6717055.46547  -5223340.20946  24598292.8614   24598304.5004   24598293.034
        42.0004         37.0004
 -22756480.32748 -17676608.75548  20432938.2764   20432944.7364   20432938.706
        53.0004         49.0004
  10581234.40247   8238170.61546  23224441.4234   23224447.9784   23224440.670
        44.0004         39.0004
 -18851606.81548 -14635105.99047  22228387.8274   22228394.7484   22228387.533
        48.0004         43.0004
  -2218772.26147  -1651371.83946  23629697.8424   23629704.0374   23629697.749
        43.0004         38.0004
 -18644340.97048 -14463172.77548  20487458.3894   20487465.3444   20487458.746
        53.0004         48.0004
 -16231591.79148 -12585143.78347  22163446.6174   22163453.0044   22163445.600
        50.0004         46.0004
  -9504639.38847  -7382137.02147  22766392.0394   22766401.2004   22766392.013
        46.0004         42.0004
  -3041690.54047  -2335242.22746  24106251.7004   24106257.4414   24106250.269
        43.0004         38.0004
 -24963729.85649 -19415989.67548  20135287.7514   20135292.3424   20135287.254
        54.0004         49.0004
  -3351480.84146  -2587707.40345  24446548.1324   24446555.1974   24446548.688
        40.0004         35.0004
 14  5  5  0 15 30.0000000  0 11G10G08G13G04G20G09G17G01G28G07G11
  -6759300.95647  -5256258.56746  24590252.8654   24590266.0564   24590254.510
        42.0004         37.0004
 -22814467.12648 -17721793.24048  20421904.1474   20421910.6504   20421904.785
        53.0004         49.0004
  10662212.22247   8301270.27146  23239851.1284   23239858.7074   23239850.059
        44.0004         39.0004
 -18942408.30248 -14705860.26547  22211109.3934   22211116.3254   22211108.613
        48.0004         44.0004
  -2219533.97447  -1651965.31446  23629551.8784   23629558.7704   23629551.642
        43.0004         38.0004
 -18698639.17948 -14505483.02248  20477126.1514   20477132.9514   20477126.032
        53.0004         48.0004
 -16197943.52948 -12558924.32947  22169849.5424   22169856.1554   22169848.933
        50.0004         46.0004
  -9420442.54647  -7316529.06746  22782413.4184   22782422.1144   22782413.891
        46.0004         41.0004
  -3076250.85747  -2362172.25046  24099674.0244   24099678.8164   24099674.043
        43.0004         39.0004
 -24953342.94949 -19407895.96448  20137264.1094   20137268.8014   20137263.519
        54.0004         49.0004
  -3246913.09046  -2506225.99845  24466448.0344   24466454.1044   24466446.404
        40.0004         35.0004
 14  5  5  0 16  0.0000000  0 11G10G08G13G04G20G09G17G01G28G07G11
  -6801792.04547  -5289368.29046  24582168.4684   24582180.0614   24582168.611
        42.0004         37.0004
 -22871951.51148 -17766586.22348  20410964.8174   20410971.2214   20410965.717
        53.0004         49.0004
  10743112.12747   8364309.20646  23255245.8914   23255252.1154   23255244.770
        44.0004         39.0004
 -19032965.98448 -14776424.56347  22193876.4064   22193883.6944   22193876.197
        48.0004         44.0004
  -2220154.15047  -1652448.52746  23629434.2814   23629440.1564   23629434.923
        43.0004         38.0004
 -18752430.35848 -14547398.17248  20466889.9714   20466896.4604   20466889.777
        53.0004         48.0004
 -16164086.81148 -12532542.45147  22176291.9004   22176298.7184   22176291.435
        50.0004         46.0004
  -9335903.07647  -7250654.12346  22798502.0384   22798509.9164   22798500.804
        46.0004         41.0004
  -3111075.31747  -2389308.09346  24093047.1174   24093053.9404   24093047.165
        43.0004         38.0004
 -24942351.77449 -19399331.39848  20139355.8084   20139360.6274   20139355.211
        54.0004         49.0004
  -3142268.35646  -2424684.61845  24486360.2314   24486368.7614   24486360.626
        39.0004         34.0004
 14  5  5  0 16 30.0000000  0 11G10G08G13G04G20G09G17G01G28G07G11
  -6844530.35547  -5322670.67746  24574035.6394   24574045.8474   24574036.022
        42.0004         37.0004
 -22928932.44748 -17810986.90748  20400122.1674   20400128.3594   20400122.609
        53.0004         49.0004
  10823930.50747   8427284.63146  23270625.5144   23270630.7374   23270624.344
        44.0004         39.0004
 -19123278.89548 -14846798.13547  22176689.5784   22176698.1234   22176689.547
        48.0004         44.0004
  -2220632.77747  -1652821.42346  23629343.1304   23629351.0034   23629342.341
        43.0004         38.0004
 -18805713.86548 -14588917.73848  20456750.6274   20456756.8794   20456750.512
        53.0004         48.0004
 -16130025.50448 -12506001.14547  22182773.6954   22182780.5154   22182773.234
        50.0004         46.0004
  -9251025.11847  -7184515.43946  22814653.6514   22814662.2084   22814652.885
        46.0004         41.0004
  -3146165.02547  -2416650.61446  24086368.7234   24086375.6814   24086369.640
        43.0004         38.0004
 -24930758.10849 -19390297.35748  20141561.7564   20141566.9494   20141561.103
        54.0004         49.0004
  -3037551.31846  -2343086.88445  24506287.2214   24506291.3094   24506286.701
        39.0004         34.0004
 14  5  5  0 17  0.0000000  0 11G10G08G13G04G20G09G17G01G28G07G11
  -6887516.14747  -5356165.89446  24565855.1384   24565865.7714   24565855.987
        42.0004         37.0004
 -22985407.39648 -17854993.32148  20389374.9264   20389381.4364   20389375.325
        53.0004         49.0004
  10904664.75647   8490194.49546  23285987.3564   23285994.2934   23285988.008
        44.0004         39.0004
 -19213344.57748 -14916979.04547  22159551.4014   22159558.1444   22159551.285
        48.0004         44.0004
  -2220968.26947  -1653082.78746  23629279.1564   23629286.4144   23629279.559
        43.0004         38.0004
 -18858487.89848 -14630040.31948  20446707.9864   20446713.7184   20446707.976
        53.0004         48.0004
 -16095763.01048 -12479303.07047  22189293.3604   22189300.4294   22189292.817
        50.0004         46.0004
  -9165811.34847  -7118115.09346  22830869.0944   22830878.0144   22830868.935
        46.0004         41.0004
  -3181519.39347  -2444199.37246  24079640.3574   24079647.9644   24079641.471
        43.0004         38.0004
 -24918562.33349 -19380794.14248  20143882.5154   20143887.4114   20143882.116
        54.0004         49.0004
  -2932764.48646  -2261434.75945  24526225.4614   24526233.8284   24526227.483
        39.0004         34.0004
 14  5  5  0 17 30.0000000  0 11G10G08G13G04G20G09G17G01G28G07G11
  -6930749.54046  -5389854.02546  24557628.9534   24557637.2474   24557628.764
        41.0004         37.0004
 -23041373.62348 -17898603.33448  20378725.0324   20378731.3774   20378725.547
        53.0004         49.0004
  10985312.72747   8553037.13246  23301334.1094   23301341.3304   23301334.206
        43.0004         39.0004
 -19303160.18248 -14986965.10047  22142459.9454   22142467.2764   22142459.768
        48.0004         44.0004
  -2221158.80147  -1653231.19546  23629243.1864   23629249.8334   23629242.508
        43.0004         38.0004
 -18910750.07648 -14670764.05748  20436763.2204   20436768.8104   20436762.753
        53.0004         48.0004
 -16061301.84148 -12452450.18147  22195850.9344   22195858.0074   22195850.680
        50.0004         46.0004
  -9080264.11647  -7051454.89946  22847147.8184   22847157.6214   22847147.955
        46.0004         41.0004
  -3217137.95847  -2471953.99946  24072863.6434   24072869.7934   24072863.591
        43.0004         39.0004
 -24905764.40849 -19370821.71548  20146317.9094   20146322.8304   20146317.658
        54.0004         49.0004
  -2827910.46946  -2179730.31945  24546182.5704   24546188.9004   24546180.723
        38.0004         34.0004
 14  5  5  0 18  0.0000000  0 11G10G08G13G04G20G09G17G01G28G07G11
  -6974230.17846  -5423734.83546  24549353.0334   24549365.4844   24549354.522
        41.0004         37.0004
 -23096828.96249 -17941815.25648  20368172.1734   20368178.5974   20368172.518
        54.0004         49.0004
  11065871.57447   8615810.32346  23316664.5554   23316668.8784   23316664.278
        43.0004         39.0004
 -19392723.50648 -15056754.57947  22125416.3054   22125424.2964   22125416.097
        49.0004         44.0004
  -2221202.80447  -1653265.41446  23629234.4424   23629242.1774   23629234.218
        43.0004         38.0004
 -18962498.84348 -14711087.73148  20426915.1674   20426921.5564   20426915.357
        53.0004         49.0004
 -16026644.73448 -12425444.61447  22202446.7784   22202453.3144   22202445.625
        50.0004         46.0004
  -8994386.26747  -6984537.08046  22863489.9894   22863498.3864   22863489.888
        46.0004         41.0004
  -3253020.32847  -2499914.18446  24066034.4384   24066042.0434   24066035.315
        43.0004         39.0004
 -24892364.51949 -19360380.22848  20148867.8454   20148872.5324   20148867.274
        54.0004         49.0004
  -2722992.23046  -2097975.82545  24566144.1614   24566152.5044   24566145.676
        38.0004         33.0004
 14  5  5  0 18 30.0000000  0 11G10G08G13G04G20G09G17G01G28G07G11
  -7017956.94847  -5457807.44746  24541032.7634   24541044.2054   24541033.460
        42.0004         37.0004
 -23151769.17949 -17984625.77448  20357717.2574   20357723.6714   20357717.568
        54.0004         49.0004
  11146340.73147   8678513.61446  23331975.9544   23331984.5704   23331976.603
        43.0004         39.0004
 -19482030.55948 -15126344.35747  22108422.1904   22108430.0764   22108422.048
        49.0004         44.0004
  -2221097.31947  -1653183.16246  23629253.7274   23629261.8204   23629254.897
        43.0004         38.0004
 -19013730.79648 -14751008.68648  20417166.1044   20417172.2274   20417165.899
        53.0004         48.0004
 -15991793.16348 -12398287.51647  22209078.2124   22209084.7154   22209077.650
        50.0004         46.0004
  -8908178.86547  -6917362.46146  22879894.7404   22879903.2384   22879894.121
        46.0004         41.0004
  -3289164.31847  -2528078.24146  24059157.4794   24059162.8114   24059157.305
        43.0004         38.0004
 -24878362.01149 -19349469.16648  20151532.3484   20151537.2264   20151531.767
        54.0004         49.0004
                  -2016172.27845                  24586129.7594   24586122.994
                        32.0004
 14  5  5  0 19  0.0000000  0 11G10G08G13G04G20G09G17G01G28G07G11
  -7061929.64146  -5492071.63946  24532665.4484   24532674.8564   24532665.701
        41.0004         37.0004
 -23206191.33249 -18027032.61548  20347360.8124   20347367.9004   20347361.326
        54.0004         49.0004
  11226717.84447   8741145.19646  23347271.9454   23347279.1124   23347271.187
        43.0004         39.0004
 -19571078.60548 -15195732.31747  22091476.7554   22091483.5094   22091476.447
        49.0004         44.0004
  -2220840.39047  -1652982.90246  23629302.6274   23629310.5144   23629303.019
        43.0004         38.0004
 -19064443.69448 -14790525.19048  20407515.4504   20407521.9424   20407515.553
        53.0004         48.0004
 -15956749.67548 -12370980.86647  22215746.7054   22215753.6304   22215746.548
        51.0004         46.0004
  -8821644.29947  -6849932.91046  22896361.1164   22896370.4474   22896361.171
        46.0004         41.0004
  -3325569.68047  -2556445.94746  24052228.3674   24052236.1784   24052229.572
        43.0004         38.0004
 -24863756.94749 -19338088.57848  20154311.6944   20154316.7644   20154311.184
        54.0004         49.0004
                  -1934321.55145                  24606123.3024   24606111.925
                        32.0004
 14  5  5  0 19 30.0000000  0 11G10G08G13G04G20G09G17G01G28G07G11
  -7106147.59647  -5526526.96746  24524249.2874   24524260.7374   24524249.669
        42.0004         37.0004
 -23260092.43949 -18069033.43948  20337104.3924   20337110.2834   20337104.561
        54.0004         49.0004
  11307000.68647   8803703.31046  23362549.3464   23362555.9054   23362548.612
        43.0004         39.0004
 -19659864.35648 -15264915.89147  22074580.6654   22074588.5134   22074580.784
        49.0004         44.0004
  -2220429.76047  -1652662.88446  23629380.7784   23629388.3684   23629381.691
        43.0004         38.0004
 -19114634.89848 -14829635.17548  20397964.4504   20397970.9724   20397964.568
        53.0004         49.0004
 -15921516.66048 -12343526.54347  22222451.8414   22222458.3224   22222451.012
        50.0004         46.0004
  -8734784.55847  -6782249.97346  22912891.1954   22912899.8304   22912890.322
        46.0004         41.0004
  -3362234.80847  -2585016.07646  24045251.8914   24045258.5534   24045252.382
        43.0004         38.0004
 -24848548.79049 -19326238.04848  20157205.1004   20157210.5354   20157205.035
        54.0004         49.0004
                                                                  24626111.344

 14  5  5  0 20  0.0000000  0 11G10G08G13G04G20G09G17G01G28G07G11
  -7150613.26847  -5561175.32346  24515788.7664   24515799.2074   24515788.585
        42.0004         37.0004
 -23313472.41949 -18110628.19648  20326946.4244   20326952.3114   20326946.610
        54.0004         49.0004
  11387185.39847   8866184.95346  23377808.0414   23377813.4024   23377808.044
        43.0004         39.0004
 -19748388.12348 -15333895.31547  22057735.5474   22057743.6224   22057735.173
        49.0004         44.0004
  -2219866.30547  -1652223.76846  23629487.2784   23629496.4084   23629488.020
        43.0004         38.0004
 -19164305.03648 -14868339.13748  20388512.2014   20388518.9674   20388512.529
        53.0004         49.0004
 -15886098.53248 -12315927.97647  22229191.2244   22229197.8924   22229190.729
        50.0004         46.0004
  -8647604.84547  -6714317.72246  22929480.1094   22929489.5124   22929479.524
        46.0004         41.0004
  -3399161.58247  -2613790.08446  24038224.7944   24038231.4834   24038225.090
        43.0004         38.0004
 -24832740.47649 -19313919.86648  20160213.5054   20160218.7274   20160213.485
        54.0004         49.0004
                                                                  24646121.406

 14  5  5  0 20 30.0000000  0 11G10G08G13G04G20G09G17G01G28G07G11
  -7195322.33847  -5596013.32346  24507280.8924   24507291.1364   24507280.597
        42.0004         37.0004
 -23366324.45749 -18151811.56248  20316888.8934   20316894.8674   20316889.287
        54.0004         49.0004
  11467273.35847   8928591.20646  23393048.5754   23393055.5814   23393048.332
        44.0004         39.0004
 -19836642.76548 -15402665.04047  22040940.5224   22040948.6054   22040940.554
        49.0004         44.0004
  -2219143.90047  -1651660.80646  23629626.1154   23629633.2694   23629626.286
        43.0004         38.0004
 -19213447.96448 -14906632.28348  20379160.9264   20379166.9654   20379160.842
        53.0004         49.0004
 -15850494.62848 -12288184.64647  22235966.1164   22235974.3844   22235965.720
        50.0004         46.0004
  -8560103.43547  -6646134.79846  22946131.0644   22946139.4004   22946131.027
        46.0004         41.0004
  -3436344.97847  -2642764.04046  24031149.3924   24031155.6624   24031149.654
        43.0004         38.0004
 -24816328.31149 -19301131.14948  20163336.8204   20163341.7024   20163336.695
        54.0004         49.0004
                                                                  24666141.572

 14  5  5  0 21  0.0000000  0 11G10G08G13G04G20G09G17G01G28G07G11
  -7240278.11347  -5631043.56546  24498724.7274   24498736.6694   24498725.530
        42.0004         37.0004
 -23418649.37749 -18192584.19248  20306931.4804   20306938.1694   20306931.913
        54.0004         49.0004
  11547258.93247   8990917.66646  23408268.5194   23408275.3824   23408268.946
        44.0004         39.0004
 -19924629.29748 -15471225.84847  22024197.5944   22024204.5644   22024197.579
        49.0004         44.0004
  -2218264.37247  -1650975.40946  23629792.2514   23629800.3984   23629793.080
        43.0004         38.0004
 -19262064.79748 -14944515.49148  20369909.4624   20369915.6724   20369909.517
        53.0004         49.0004
 -15814711.14448 -12260301.38547  22242775.7484   22242782.0754   22242774.985
        50.0004         46.0004
  -8472286.23847  -6577705.79446  22962842.2014   22962850.6444   22962842.008
        46.0004         41.0004
  -3473788.12147  -2671940.41746  24024023.9164   24024030.1694   24024023.955
        43.0004         38.0004
 -24799315.43449 -19287874.34648  20166574.3314   20166579.1494   20166574.002
        54.0004         49.0004
                                                                  24686171.992

 14  5  5  0 21 30.0000000  0 11G10G08G13G04G20G09G17G01G28G07G11
  -7285478.39047  -5666264.34446  24490123.5614   24490133.2984   24490124.537
        42.0004         37.0004
 -23470442.49449 -18232942.42748  20297075.8774   20297081.8464   20297076.055
        54.0004         49.0004
  11627142.26047   9053164.46046  23423471.0414   23423476.2324   23423470.574
        44.0004         39.0004
 -20012342.78148 -15539573.89047  22007506.8534   22007513.1564   22007505.586
        49.0004         44.0004
  -2217223.67747  -1650164.42746  23629990.5314   23629999.6584   23629992.022
        43.0004         38.0004
 -19310151.47248 -14981985.59048  20360759.1694   20360764.8694   20360759.003
        53.0004         49.0004
 -15778747.82248 -12232277.98647  22249619.3944   22249625.8454   22249618.652
        50.0004         46.0004
  -8384153.57847  -6509030.97546  22979612.8464   22979622.0694   22979612.805
        46.0004         41.0004
  -3511487.94047  -2701316.80546  24016850.0814   24016855.9454   24016849.810
        43.0004         38.0004
 -24781700.78349 -19274148.62648  20169926.2734   20169931.3264   20169925.811
        54.0004         49.0004
                                                                  24706211.146

 14  5  5  0 22  0.0000000  0 10G10G08G13G04G20G09G17G01G28G07
  -7330923.10247  -5701675.57146  24481476.1174   24481486.1184   24481477.085
        42.0004         37.0004
 -23521701.87049 -18272884.76948  20287321.3544   20287327.2424   20287321.608
        54.0004         49.0004
  11706920.10447   9115329.06546  23438651.7514   23438658.4094   23438651.789
        44.0004         39.0004
 -20099781.36548 -15607707.72547  21990866.9314   21990874.1434   21990866.805
        49.0004         44.0004
  -2216021.00247  -1649227.21546  23630220.2094   23630226.9184   23630220.537
        43.0004         38.0004
 -19357706.97148 -15019041.78548  20351709.4944   20351715.4384   20351709.443
        53.0004         49.0004
 -15742608.57648 -12204117.51347  22256496.5534   22256503.5994   22256495.700
        50.0004         46.0004
  -8295708.60447  -6440112.80846  22996444.5374   22996453.7294   22996443.707
        46.0004         41.0004
  -3549444.46947  -2730893.22746  24009627.1464   24009633.1454   24009626.629
        43.0004         38.0004
 -24763485.43949 -19259954.83948  20173392.6734   20173397.6234   20173392.393
        54.0004         49.0004
 14  5  5  0 22 30.0000000  0 10G10G08G13G04G20G09G17G01G28G07
  -7376611.80947  -5737276.93546  24472781.9684   24472791.4904   24472782.380
        42.0004         37.0004
 -23572424.85249 -18312409.13248  20277668.9764   20277675.2244   20277669.304
        54.0004         49.0004
  11786590.96847   9177410.29846  23453812.4324   23453819.5364   23453812.147
        43.0004         38.0004
 -20186941.79048 -15675624.81847  21974281.4254   21974288.8134   21974280.782
        49.0004         44.0004
  -2214654.20047  -1648162.12846  23630479.8304   23630487.3184   23630480.378
        43.0004         38.0004
 -19404729.12848 -15055682.38548  20342761.3904   20342767.4494   20342761.360
        53.0004         49.0004
 -15706295.62448 -12175821.67947  22263405.8684   22263413.0994   22263405.871
        50.0004         46.0004
  -8206953.67647  -6370953.11046  23013334.1604   23013342.7864   23013332.751
        46.0004         41.0004
  -3587656.58847  -2760668.81746  24002354.2944   24002361.7854   24002354.838
        43.0004         38.0004
 -24744669.14749 -19245292.77548  20176973.1404   20176978.0594   20176972.797
        54.0004         49.0004
 14  5  5  0 23  0.0000000  0 10G10G08G13G04G20G09G17G01G28G07
  -7422544.56647  -5773068.45646  24464040.6374   24464050.4364   24464040.643
        42.0004         37.0004
 -23622608.69349 -18351513.39748  20268118.8374   20268125.3344   20268119.426
        54.0004         49.0004
  11866152.45147   9239406.32346  23468953.7754   23468960.0054   23468952.679
        43.0004         39.0004
 -20273821.75848 -15743323.36247  21957747.8214   21957755.4984   21957747.746
        49.0004         45.0004
  -2213121.39947  -1646967.67946  23630771.6004   23630777.6564   23630771.582
        43.0004         38.0004
 -19451215.91448 -15091905.81648  20333915.0244   20333920.9334   20333915.089
        53.0004         49.0004
 -15669811.53048 -12147392.48947  22270349.0894   22270355.3274   22270348.477
        50.0004         46.0004
  -8117891.32447  -6301553.86346  23030281.1564   23030290.5834   23030281.179
        45.0004         41.0004
  -3626123.74047  -2790643.13046  23995036.0374   23995040.5934   23995035.118
        43.0004         39.0004
 -24725252.57049 -19230162.95648  20180668.1394   20180672.8184   20180667.634
        54.0004         49.0004
 14  5  5  0 23 30.0000000  0 10G10G08G13G04G20G09G17G01G28G07
  -7468719.85947  -5809048.97446  24455253.4784   24455262.5704   24455254.140
        42.0004         38.0004
 -23672249.56449 -18390194.55748  20258672.8184   20258679.0054   20258673.193
        54.0004         49.0004
  11945603.85647   9301316.55846  23484071.8804   23484077.7214   23484071.258
        43.0004         39.0004
 -20360417.04348 -15810800.08847  21941269.9084   21941276.0704   21941269.114
        49.0004         45.0004
  -2211419.56447  -1645641.52146  23631095.4884   23631103.1034   23631095.311
        42.0004         38.0004
 -19497164.21848 -15127709.64648  20325171.5044   20325177.3894   20325171.341
        53.0004         49.0004
 -15633158.17748 -12118831.40847  22277324.2034   22277330.9784   22277323.494
        50.0004         46.0004
  -8028522.69547  -6231915.96446  23047287.6394   23047296.4364   23047287.482
        46.0004         41.0004
  -3664843.39447  -2820814.19246  23987667.6414   23987673.3934   23987667.069
        43.0004         39.0004
 -24705234.71349 -19214564.60748  20184477.2794   20184481.9084   20184476.937
        54.0004         49.0004
 14  5  5  0 24  0.0000000  0 10G10G08G13G04G20G09G17G01G28G07
  -7515139.21447  -5845219.66446  24446420.9374   24446430.2494   24446420.734
        42.0004         38.0004
 -23721346.58549 -18428451.94648  20249329.9524   20249336.2264   20249330.217
        54.0004         49.0004
  12024941.27947   9363137.97646  23499168.6794   23499175.4664   23499168.531
        43.0004         39.0004
 -20446727.00248 -15878054.47347  21924845.2524   21924852.3894   21924844.759
        49.0004         44.0004
  -2209548.55047  -1644183.52646  23631450.7084   23631457.2464   23631450.988
        42.0004         38.0004
 -19542573.61248 -15163093.54748  20316530.2174   20316536.5254   20316530.047
        53.0004         49.0004
 -15596338.91348 -12090141.04747  22284330.5994   22284336.9184   22284330.059
        50.0004         46.0004
  -7938852.09947  -6162042.74946  23064351.3854   23064360.9704   23064350.947
        46.0004         41.0004
  -3703816.69647  -2851182.92546  23980249.7214   23980256.5504   23980250.614
        43.0004         39.0004
 -24684618.02949 -19198499.64348  20188400.3334   20188405.5864   20188399.894
        54.0004         49.0004
 14  5  5  0 24 30.0000000  0 10G10G08G13G04G20G09G17G01G28G07
  -7561801.03047  -5881579.27846  24437541.3244   24437549.9604   24437541.389
        42.0004         38.0004
 -23769896.46949 -18466282.99048  20240091.3894   20240097.8694   20240091.633
        54.0004         49.0004
  12104163.49047   9424869.62346  23514243.1384   23514252.4054   23514243.835
        43.0004         38.0004
 -20532747.95548 -15945083.66847  21908475.9614   21908481.5744   21908475.223
        49.0004         45.0004
  -2207505.96547  -1642591.86546  23631839.6034   23631847.7514   23631839.743
        42.0004         38.0004
 -19587441.41148 -15198055.42548  20307992.2004   20307998.3044   20307992.248
        53.0004         49.0004
 -15559355.97748 -12061323.15147  22291368.2534   22291375.2944   22291367.580
        50.0004         46.0004
  -7848881.17247  -6091935.53346  23081472.7094   23081481.0844   23081472.071
        46.0004         41.0004
  -3743041.68547  -2881747.77546  23972786.5334   23972792.0874   23972786.579
        43.0004         38.0004
 -24663401.83949 -19181967.53248  20192437.5804   20192442.4934   20192437.485
        54.0004         49.0004
 14  5  5  0 25  0.0000000  0 10G10G08G13G04G20G09G17G01G28G07
  -7608704.36247  -5918127.09046  24428614.8664   24428624.6964   24428615.764
        42.0004         38.0004
 -23817896.08949 -18503685.25748  20230957.4214   20230963.6804   20230957.573
        54.0004         49.0004
  12183269.35147   9486510.59846  23529297.6934   23529302.3984   23529297.481
        43.0004         38.0004
 -20618476.53148 -16011885.04247  21892162.3384   21892168.6644   21892161.867
        49.0004         45.0004
  -2205289.09047  -1640864.38046  23632260.3784   23632269.1364   23632260.429
        42.0004         37.0004
 -19631765.19748 -15232593.40048  20299557.5644   20299563.5584   20299557.637
        53.0004         49.0004
 -15522211.24448 -12032379.18247  22298436.4104   22298443.6324   22298435.939
        50.0004         45.0004
  -7758611.63547  -6021595.62446  23098650.1454   23098659.1374   23098649.342
        45.0004         41.0004
  -3782516.92647  -2912507.64046  23965273.5164   23965281.2234   23965274.267
        43.0004         39.0004
 -24641585.99949 -19164968.16448  20196589.3484   20196594.0294   20196589.017
        54.0004         49.0004
 14  5  5  0 25 30.0000000  0 10G10G08G13G04G20G09G17G01G28G07
  -7655850.74647  -5954864.27946  24419642.9584   24419652.8854   24419643.676
        42.0004         38.0004
 -23865344.54049 -18540658.04648  20221928.0014   20221933.8574   20221928.527
        54.0004         49.0004
  12262254.88747   9548057.81446  23544327.7034   23544333.4634   23544328.174
        43.0004         38.0004
 -20703911.91348 -16078457.94847  21875903.9234   21875911.4674   21875903.876
        49.0004         45.0004
  -2202897.85447  -1639001.02546  23632717.2884   23632724.5184   23632716.832
        42.0004         37.0004
 -19675544.77348 -15266707.31548  20291226.8594   20291232.4874   20291226.513
        53.0004         49.0004
 -15484909.14248 -12003312.57947  22305534.1034   22305541.2974   22305534.089
        50.0004         45.0004
  -7668047.80847  -5951026.39146  23115884.0674   23115892.8454   23115883.384
        45.0004         40.0004
  -3822243.39047  -2943463.25246  23957714.3514   23957720.3284   23957714.556
        43.0004         39.0004
 -24619172.76449 -19147503.29548  20200854.3464   20200859.2634   20200854.074
        54.0004         49.0004
 14  5  5  0 26  0.0000000  0 10G10G08G13G04G20G09G17G01G28G07
  -7703237.65747  -5991788.93046  24410625.3664   24410634.1024   24410626.212
        42.0004         38.0004
 -23912237.18149 -18577197.74148  20213004.7474   20213011.0944   20213005.021
        54.0004         49.0004
  12341120.41547   9609511.50646  23559335.1384   23559340.7184   23559335.182
        43.0004         38.0004
 -20789049.08248 -16144798.48647  21859702.8094   21859708.9764   21859702.534
        49.0004         45.0004
  -2200328.91947  -1636999.21046  23633205.9974   23633213.3434   23633205.303
        42.0004         37.0004
 -19718776.06748 -15300393.99748  20282999.9604   20283005.9994   20282999.879
        53.0004         49.0004
 -15447450.23548 -11974123.79147  22312662.8934   22312670.4854   22312662.502
        50.0004         46.0004
  -7577190.15747  -5880228.22046  23133173.4154   23133182.3274   23133173.478
        45.0004         41.0004
  -3862217.91047  -2974612.16646  23950107.3114   23950114.3554   23950108.097
        43.0004         39.0004
 -24596160.73149 -19129571.82848  20205233.5614   20205238.1324   20205233.143
        54.0004         49.0004
 14  5  5  0 26 30.0000000  0 10G10G08G13G04G20G09G17G01G28G07
  -7750865.30247  -6028901.12846  24401561.9674   24401572.4034   24401562.685
        42.0004         37.0004
 -23958572.30449 -18613303.00248  20204187.5004   20204193.1534   20204187.790
        54.0004         49.0004
  12419863.05847   9670869.45646  23574319.6714   23574325.9884   23574319.363
        43.0004         38.0004
 -20873886.03248 -16210905.07747  21843558.7244   21843565.4874   21843558.602
        49.0004         45.0004
  -2197580.53047  -1634857.55846  23633728.4554   23633734.8954   23633728.898
        42.0004         37.0004
 -19761458.16848 -15333652.73548  20274877.6864   20274883.9514   20274877.658
        53.0004         49.0004
 -15409837.63848 -11944815.25447  22319820.2314   22319827.4654   22319819.840
        50.0004         45.0004
  -7486041.73447  -5809203.45246  23150518.3674   23150527.2384   23150517.770
        45.0004         40.0004
  -3902440.07247  -3005954.03946  23942453.4244   23942460.3384   23942454.077
        43.0004         39.0004
 -24572550.94249 -19111174.57548  20209726.4184   20209730.8314   20209725.858
        54.0004         49.0004
 14  5  5  0 27  0.0000000  0 10G10G08G13G04G20G09G17G01G28G07
  -7798732.37247  -6066199.90746  24392453.0864   24392462.6424   24392453.852
        42.0004         37.0004
 -24004346.84949 -18648971.45848  20195476.8594   20195482.7564   20195477.176
        54.0004         49.0004
  12498481.72847   9732130.79646  23589280.7174   23589287.8724   23589279.822
        43.0004         38.0004
 -20958419.46048 -16276775.17647  21827472.5364   21827480.0214   21827471.893
        49.0004         45.0004
  -2194650.03247  -1632573.99846  23634284.9024   23634293.4244   23634286.153
        42.0004         37.0004
 -19803588.33048 -15366481.39748  20266860.9064   20266866.5564   20266860.573
        53.0004         49.0004
 -15372072.94348 -11915388.19847  22327006.4544   22327013.3764   22327006.168
        50.0004         45.0004
  -7394604.32247  -5737953.51346  23167918.6174   23167926.9344   23167917.793
        45.0004         40.0004
  -3942908.68147  -3037487.94946  23934752.6534   23934758.1894   23934752.895
        43.0004         39.0004
 -24548343.39649 -19092311.54448  20214332.9334   20214337.2144   20214332.530
        54.0004         49.0004
 14  5  5  0 27 30.0000000  0 10G10G08G13G04G20G09G17G01G28G07
  -7846841.77247  -6103687.51246  24383298.0944   24383307.2044   24383298.611
        42.0004         38.0004
 -24049561.37149 -18684203.52548  20186872.4304   20186879.0084   20186873.043
        54.0004         49.0004
  12576971.41147   9793291.63746  23604216.2854   23604222.1644   23604216.521
        43.0004         38.0004
 -21042649.88848 -16342409.17147  21811444.1674   21811451.0744   21811443.514
        49.0004         45.0004
  -2191538.82947  -1630149.63746  23634877.8964   23634883.8974   23634878.546
        42.0004         37.0004
 -19845167.79748 -15398880.94248  20258948.6284   20258954.4164   20258948.177
        53.0004         49.0004
 -15334161.94448 -11885847.14047  22334220.6274   22334228.2964   22334220.073
        50.0004         45.0004
  -7302883.50347  -5666482.74046  23185371.7464   23185381.1384   23185371.359
        45.0004         40.0004
  -3983625.16747  -3069215.03746  23927005.0874   23927010.3914   23927004.883
        43.0004         39.0004
 -24523541.50549 -19072985.38248  20219052.3104   20219057.3924   20219051.969
        54.0004         49.0004
 14  5  5  0 28  0.0000000  0 10G10G08G13G04G20G09G17G01G28G07
  -7895188.92047  -6141360.38446  24374098.3484   24374107.3854   24374098.500
        42.0004         38.0004
 -24094209.58749 -18718994.32148  20178376.3614   20178382.2574   20178376.655
        54.0004         49.0004
  12655334.16247   9854353.56546  23619128.9274   23619134.1124   23619128.224
        42.0004         38.0004
 -21126570.20448 -16407801.51547  21795474.4614   21795480.5624   21795473.912
        49.0004         45.0004
  -2188241.40247  -1627580.15346  23635505.1374   23635513.7734   23635504.742
        42.0004         37.0004
 -19886190.87249 -15430846.93748  20251142.0124   20251147.9164   20251141.932
        54.0004         49.0004
 -15296103.35848 -11856191.07647  22341462.8454   22341469.3724   22341462.698
        50.0004         45.0004
  -7210877.96947  -5594790.09146  23202880.5264   23202888.9594   23202879.613
        45.0004         40.0004
  -4024584.60847  -3101131.41546  23919210.1514   23919216.5334   23919210.084
        44.0004         39.0004
 -24498142.27249 -19053193.76248  20223885.3314   20223890.1594   20223885.068
        54.0004         49.0004
 14  5  5  0 28 30.0000000  0 10G10G08G13G04G20G09G17G01G28G07
  -7943775.81047  -6179220.06246  24364851.6554   24364861.3924   24364852.400
        42.0004         37.0004
 -24138291.39549 -18753343.75348  20169987.7794   20169994.3774   20169988.142
        54.0004         49.0004
  12733565.75147   9915313.27946  23634014.5294   23634021.6754   23634014.669
        42.0004         38.0004
 -21210180.38148 -16472952.20847  21779563.9234   21779569.8924   21779563.234
        49.0004         45.0004
  -2184757.84547  -1624865.64246  23636167.5154   23636175.1644   23636168.694
        42.0004         37.0004
 -19926658.01449 -15462379.73648  20243440.9674   20243447.2844   20243441.007
        54.0004         49.0004
 -15257902.05348 -11826423.80547  22348733.0324   22348739.2614   22348732.128
        50.0004         45.0004
  -7118592.36347  -5522879.21946  23220441.9334   23220450.7624   23220441.041
        45.0004         40.0004
  -4065788.41747  -3133238.20546  23911368.9604   23911374.9184   23911369.421
        44.0004         39.0004
 -24472148.56249 -19032938.91248  20228832.1724   20228837.0564   20228831.639
        54.0004         49.0004
 14  5  5  0 29  0.0000000  0 10G10G08G13G04G20G09G17G01G28G07
  -7992600.92847  -6217265.35946  24355561.2184   24355569.3534   24355561.072
        42.0004         38.0004
 -24181803.74749 -18787249.46148  20161708.1854   20161713.8634   20161708.124
        54.0004         49.0004
  12811664.64047   9976169.61046  23648876.7124   23648883.2884   23648876.583
        42.0004         38.0004
 -21293476.88448 -16537858.46347  21763713.1154   21763719.7224   21763713.121
        50.0004         45.0004
  -2181085.87247  -1622004.32146  23636866.6754   23636874.0084   23636866.702
        42.0004         38.0004
 -19966566.72649 -15493477.39948  20235846.8704   20235852.7974   20235846.840
        54.0004         49.0004
 -15219559.87148 -11796546.75447  22356028.7694   22356034.9134   22356028.226
        50.0004         45.0004
  -7026028.48347  -5450751.50846  23238056.2544   23238064.6514   23238055.157
        45.0004         40.0004
  -4107234.89247  -3165534.09546  23903481.2914   23903486.8124   23903482.574
        44.0004         39.0004
 -24445560.24049 -19012220.72248  20233891.7354   20233896.5514   20233891.421
        54.0004         49.0004
 14  5  5  0 29 30.0000000  0 10G10G08G13G04G20G09G17G01G28G07
  -8041664.39647  -6255496.41846  24346223.9524   24346231.8884   24346224.582
        42.0004         37.0004
 -24224744.70549 -18820709.92348  20153536.2974   20153542.1654   20153536.625
        54.0004         49.0004
  12889628.95047  10036921.04446  23663712.1544   23663717.9914   23663712.127
        42.0004         38.0004
 -21376457.74648 -16602518.78047  21747922.0334   21747928.2204   21747921.211
        50.0004         45.0004
  -2177224.46347  -1618995.38146  23637601.5554   23637609.3224   23637602.412
        42.0004         37.0004
 -20005915.93348 -15524139.08448  20228358.6154   20228364.8454   20228358.621
        53.0004         49.0004
 -15181079.59948 -11766562.10747  22363350.9494   22363358.3074   22363350.928
        50.0004         45.0004
  -6933189.47047  -5378409.42246  23255722.7704   23255731.7914   23255722.853
        45.0004         40.0004
  -4148923.64947  -3198018.77846  23895549.0674   23895555.2474   23895549.060
        43.0004         39.0004
 -24418378.71449 -18991040.30548  20239063.9714   20239068.9194   20239063.661
        54.0004         49.0004
 14  5  5  0 30  0.0000000  0 10G10G08G13G04G20G09G17G01G28G07
  -8090964.68547  -6293911.99946  24336841.7804   24336851.4704   24336842.943
        42.0004         37.0004
 -24267110.42649 -18853722.15848  20145474.4024   20145480.6564   20145474.759
        54.0004         49.0004
  12967457.87047  10097567.00546  23678522.7504   23678528.2084   23678523.186
        42.0004         38.0004
 -21459118.72348 -16666929.82047  21732192.3484   21732198.7974   21732192.328
        50.0004         45.0004
  -2173170.29947  -1615836.23546  23638373.0954   23638380.7184   23638373.042
        42.0004         38.0004
 -20044702.79349 -15554362.57748  20220977.8584   20220984.0344   20220977.698
        54.0004         49.0004
 -15142462.72548 -11736471.01447  22370699.6844   22370707.1324   22370699.320
        50.0004         45.0004
  -6840076.50547  -5305853.85746  23273441.8114   23273450.4204   23273441.231
        45.0004         40.0004
  -4190852.09747  -3230690.23046  23887569.9354   23887576.5974   23887570.496
        43.0004         39.0004
 -24390603.28449 -18969397.10348  20244349.7104   20244354.4604   20244349.390
        54.0004         49.0004
 14  5  5  0 30 30.0000000  0 10G10G08G13G04G20G09G17G01G28G07
  -8140501.11647  -6332511.57146  24327415.1024   24327422.9184   24327416.514
        42.0004         37.0004
 -24308898.56149 -18886284.31948  20137522.5294   20137528.5514   20137522.710
        54.0004         49.0004
  13045149.67347  10158106.12446  23693307.4934   23693315.1524   23693307.296
        42.0004         37.0004
 -21541457.21248 -16731089.58247  21716523.8624   21716530.1694   21716523.183
        50.0004         45.0004
  -2168921.54847  -1612525.47546  23639182.2724   23639187.9794   23639182.826
        42.0004         38.0004
 -20082925.26049 -15584146.28248  20213704.5084   20213710.2734   20213704.266
        54.0004         49.0004
 -15103711.61348 -11706275.32747  22378074.2884   22378080.9384   22378073.618
        50.0004         45.0004
  -6746692.02647  -5233086.70846  23291212.0484   23291220.6154   23291211.824
        45.0004         40.0004
  -4233018.93547  -3263547.45446  23879546.4204   23879552.3334   23879546.342
        43.0004         39.0004
 -24362234.59649 -18947291.62348  20249747.8854   20249752.9724   20249747.555
        54.0004         49.0004
 14  5  5  0 31  0.0000000  0 10G10G08G13G04G20G09G17G01G28G07
  -8190274.36147  -6371295.67046  24317942.4124   24317952.2044   24317944.799
        42.0004         37.0004
 -24350108.48949 -18918395.93548  20129680.4624   20129686.2574   20129680.884
        54.0004         49.0004
  13122701.27847  10218535.98446  23708064.6614   23708070.7614   23708064.969
        42.0004         38.0004
 -21623471.79048 -16794996.95347  21700916.8374   21700922.7094   21700916.594
        50.0004         45.0004
  -2164477.61647  -1609062.62146  23640028.8274   23640034.7484   23640027.428
        42.0004         38.0004
 -20120583.14048 -15613490.05248  20206538.1784   20206544.1004   20206538.215
        53.0004         49.0004
 -15064830.00848 -11675977.95547  22385472.8344   22385479.7654   22385472.389
        50.0004         45.0004
  -6653039.93347  -5160111.03246  23309032.7574   23309042.3284   23309032.427
        45.0004         40.0004
  -4275424.60747  -3296590.76646  23871476.1834   23871482.6424   23871476.833
        43.0004         39.0004
 -24333275.02749 -18924725.71648  20255258.3204   20255263.6674   20255258.193
        54.0004         49.0004
 14  5  5  0 31 30.0000000  0 10G10G08G13G04G20G09G17G01G28G07
  -8240284.42747  -6410264.31646  24308426.3274   24308435.7024   24308427.051
        42.0004         37.0004
 -24390738.32449 -18950055.52448  20121948.9494   20121954.8244   20121949.250
        54.0004         49.0004
  13200109.95347  10278854.48646  23722795.0304   23722800.3194   23722795.370
        42.0004         38.0004
 -21705160.31848 -16858650.24447  21685371.3224   21685377.6804   21685371.462
        50.0004         45.0004
  -2159837.42147  -1605446.84146  23640909.3084   23640917.0734   23640911.697
        42.0004         38.0004
 -20157675.77649 -15642393.37148  20199479.8874   20199485.6314   20199479.817
        54.0004         49.0004
 -15025821.20048 -11645581.46647  22392896.3474   22392903.2654   22392895.358
        50.0004         45.0004
  -6559123.37847  -5086929.28746  23326904.9634   23326913.5444   23326904.475
        45.0004         40.0004
  -4318068.79347  -3329819.92946  23863360.9954   23863366.8584   23863361.085
        43.0004         39.0004
 -24303725.75149 -18901700.29648  20260881.4604   20260886.4454   20260881.235
        54.0004         49.0004
 14  5  5  0 32  0.0000000  0 10G10G08G13G04G20G09G17G01G28G07
  -8290527.51747  -6449414.54246  24298865.1144   24298874.8504   24298865.601
        42.0004         37.0004
 -24430782.74349 -18981258.95248  20114328.6634   20114335.0244   20114328.729
        54.0004         49.0004
  13277376.88647  10339062.52846  23737497.7994   23737505.5674   23737498.286
        42.0004         38.0004
 -21786517.37648 -16922045.25847  21669889.8574   21669895.9304   21669889.469
        50.0004         45.0004
  -2154996.27047  -1601674.48746  23641830.3484   23641839.1794   23641831.528
        42.0004         37.0004
 -20194198.50349 -15670852.61148  20192529.7294   20192535.7684   20192529.445
        54.0004         49.0004
 -14986684.82748 -11615085.57147  22400343.2174   22400349.8564   22400342.734
        50.0004         45.0004
  -6464941.90347  -5013541.11146  23344827.1964   23344835.4994   23344826.584
        45.0004         40.0004
  -4360947.26147  -3363231.65046  23855202.2104   23855208.1014   23855202.420
        44.0004         39.0004
 -24273584.92749 -18878213.93148  20266617.5284   20266622.4214   20266616.851
        54.0004         49.0004
 14  5  5  0 32 30.0000000  0 10G10G08G13G04G20G09G17G01G28G07
  -8341006.96947  -6488748.94546  24289259.4534   24289270.1654   24289259.007
        42.0004         37.0004
 -24470243.19049 -19012007.32948  20106819.5814   20106825.4784   20106819.851
        54.0004         49.0004
  13354497.19447  10399156.31946  23752174.4384   23752180.3634   23752174.093
        42.0004         38.0004
 -21867543.65948 -16985182.52847  21654471.6804   21654476.9944   21654471.006
        50.0004         45.0004
  -2149955.80047  -1597746.80846  23642790.2204   23642796.8034   23642792.004
        42.0004         38.0004
 -20230152.99449 -15698869.06748  20185687.7294   20185693.7134   20185687.958
        54.0004         49.0004
 -14947427.07548 -11584495.09947  22407814.1324   22407819.9104   22407813.196
        49.0004         45.0004
  -6370501.50947  -4939951.19246  23362798.4184   23362807.1164   23362797.609
        45.0004         40.0004
  -4404062.37547  -3396827.78346  23846997.9074   23847003.7864   23846997.184
        44.0004         39.0004
 -24242856.55149 -18854269.73748  20272464.8814   20272469.5394   20272464.485
        54.0004         49.0004
 14  5  5  0 33  0.0000000  0 10G10G08G13G04G20G09G17G01G28G07
  -8391720.12747  -6528265.46546  24279609.1524   24279616.1294   24279609.008
        42.0004         37.0004
 -24509115.55349 -19042297.46148  20099421.9354   20099428.4834   20099422.426
        54.0004         49.0004
  13431470.83347  10459135.81546  23766820.9974   23766827.7574   23766821.822
        42.0004         37.0004
 -21948234.46948 -17048058.39847  21639117.2194   21639123.1184   21639115.992
        50.0004         45.0004
  -2144712.07247  -1593660.73746  23643788.0114   23643794.9504   23643788.332
        42.0004         38.0004
 -20265535.79649 -15726440.05448  20178954.4374   20178960.3844   20178954.303
        54.0004         49.0004
 -14908048.05948 -11553810.13547  22415307.5844   22415314.8414   22415306.854
        49.0004         45.0004
  -6275802.75147  -4866159.94746  23380818.3044   23380827.7354   23380818.435
        45.0004         40.0004
  -4447410.63147  -3430605.59046  23838748.4374   23838755.2974   23838748.388
        44.0004         39.0004
 -24211539.69349 -18829866.97948  20278424.3284   20278428.8204   20278423.810
        54.0004         49.0004
 14  5  5  0 33 30.0000000  0 11G10G08G13G04G20G26G09G17G01G28G07
  -8442672.25347  -6567968.18846  24269912.4474   24269920.1314   24269913.806
        42.0004         37.0004
 -24547403.84549 -19072132.47348  20092136.1564   20092142.2634   20092136.697
        54.0004         49.0004
  13508289.69847  10518994.70146  23781438.6144   23781447.4254   23781439.020
        42.0004         37.0004
 -22028593.45548 -17110675.70147  21623823.7044   21623830.5754   21623823.920
        50.0004         45.0004
  -2139269.71147  -1589419.88946  23644824.6094   23644831.2014   23644825.203
        42.0004         38.0004
   -358897.16548   -259011.49046  24169589.8274   24169600.6474   24169588.497
        49.0004         36.0004
 -20300351.65749 -15753569.26748  20172329.6074   20172335.1954   20172329.483
        54.0004         49.0004
 -14868556.33048 -11523037.35247  22422821.8144   22422829.5564   22422821.919
        49.0004         45.0004
  -6180854.32547  -4792174.15446  23398887.3154   23398896.2944   23398886.673
        45.0004         40.0004
  -4490997.19347  -3464569.07046  23830453.8984   23830460.7254   23830454.385
        44.0004         39.0004
 -24179641.74148 -18805011.42148  20284494.3404   20284499.0134   20284493.866
        53.0004         49.0004
 14  5  5  0 34  0.0000000  0 11G10G08G13G04G20G26G09G17G01G28G07
  -8493854.37547  -6607850.14446  24260172.9174   24260181.2314   24260173.770
        42.0004         37.0004
 -24585097.52849 -19101504.14748  20084963.4654   20084969.2454   20084963.547
        54.0004         49.0004
  13584960.57247  10578738.27746  23796029.7124   23796035.8664   23796029.512
        42.0004         37.0004
 -22108609.40148 -17173025.70047  21608597.9794   21608604.4344   21608597.496
        50.0004         45.0004
  -2133618.51247  -1585016.28746  23645899.4984   23645906.2544   23645899.884
        42.0004         38.0004
   -380119.11647   -275547.97446  24165549.3014   24165563.1824   24165549.120
        44.0004         37.0004
 -20334590.46949 -15780248.83248  20165813.5024   20165819.9214   20165813.764
        54.0004         49.0004
 -14828946.35448 -11492172.42547  22430359.9644   22430366.4914   22430359.303
        49.0004         45.0004
  -6085650.43747  -4717989.30646  23417003.8784   23417012.8744   23417003.451
        45.0004         40.0004
  -4534812.44147  -3498710.74746  23822116.0374   23822121.5494   23822116.442
        44.0004         39.0004
 -24147154.85048 -18779696.95148  20290676.0184   20290681.4104   20290675.635
        53.0004         49.0004
 14  5  5  0 34 30.0000000  0 11G10G08G13G04G20G26G09G17G01G28G07
  -8545266.86547  -6647911.59646  24250388.5494   24250398.1504   24250389.990
        42.0004         37.0004
 -24622195.37649 -19130411.54248  20077904.1794   20077910.0474   20077904.404
        54.0004         49.0004
  13661480.62047  10638364.31546  23810590.1164   23810597.3644   23810591.011
        42.0004         37.0004
 -22188281.07048 -17235107.43547  21593436.3674   21593443.6694   21593435.959
        50.0004         45.0004
  -2127758.08047  -1580449.68646  23647015.1754   23647021.3664   23647015.972
        42.0004         38.0004
   -400977.29247   -291801.01446  24161580.2644   24161592.8434   24161580.436
        42.0004         37.0004
 -20368252.01449 -15806478.58148  20159408.7724   20159414.4524   20159408.446
        54.0004         49.0004
 -14789221.94548 -11461218.33447  22437918.8964   22437925.7414   22437918.481
        49.0004         44.0004
  -5990194.82847  -4643608.30646  23435167.8214   23435176.9274   23435168.230
        45.0004         40.0004
  -4578856.34647  -3533030.59346  23813734.9064   23813740.6944   23813735.534
        44.0004         39.0004
 -24114081.32648 -18753925.36248  20296970.2204   20296974.7514   20296969.749
        53.0004         49.0004
 14  5  5  0 35  0.0000000  0 11G10G08G13G04G20G26G09G17G01G28G07
  -8596911.31147  -6688153.79846  24240561.9644   24240568.9394   24240562.797
        42.0004         38.0004
 -24658697.35449 -19158854.61448  20070957.6724   20070963.7664   20070957.730
        54.0004         49.0004
  13737846.06947  10697869.88746  23825121.5544   23825128.5784   23825122.719
        42.0004         37.0004
 -22267607.53048 -17296920.17547  21578340.3164   21578347.5414   21578340.943
        50.0004         46.0004
  -2121688.59947  -1575720.17746  23648169.0024   23648175.9444   23648169.521
        42.0004         37.0004
   -421474.45246   -307772.73546  24157679.1294   24157691.9284   24157679.549
        41.0004         37.0004
 -20401336.94449 -15832259.01948  20153112.5354   20153118.2264   20153112.527
        54.0004         49.0004
 -14749387.15448 -11430178.22147  22445499.1974   22445506.6344   22445498.688
        49.0004         44.0004
  -5894491.99247  -4569034.67146  23453380.4364   23453389.2334   23453379.391
        45.0004         40.0004
  -4623129.82047  -3567529.33146  23805309.0054   23805316.4664   23805310.465
        44.0004         39.0004
 -24080424.16248 -18727698.98948  20303374.6944   20303379.3004   20303374.208
        53.0004         49.0004
 14  5  5  0 35 30.0000000  0 11G10G08G13G04G20G26G09G17G01G28G07
  -8648784.11647  -6728573.95446  24230690.8784   24230699.5294   24230691.168
        42.0004         38.0004
 -24694598.63349 -19186829.62148  20064125.8984   20064132.0174   20064126.554
        54.0004         49.0004
  13814058.32447  10757256.10046  23839626.5764   23839632.7284   23839625.325
        42.0004         37.0004
 -22346583.42448 -17358459.75247  21563312.3114   21563319.2394   21563312.303
        50.0004         46.0004
  -2115405.22147  -1570823.99546  23649364.9434   23649372.2234   23649365.943
        42.0004         38.0004
   -441608.68947   -323461.65246  24153848.6084   24153860.7494   24153848.434
        42.0004         37.0004
 -20433840.65349 -15857586.55748  20146927.3114   20146932.6734   20146926.985
        54.0004         49.0004
 -14709441.66648 -11399051.86347  22453101.0534   22453107.5554   22453100.376
        49.0004         45.0004
  -5798541.49747  -4494268.05346  23471638.4534   23471648.3014   23471638.221
        45.0004         40.0004
  -4667628.44747  -3602203.51246  23796841.8274   23796847.6164   23796842.231
        44.0004         39.0004
 -24046181.46748 -18701016.35848  20309890.8484   20309895.6184   20309890.520
        53.0004         49.0004
 14  5  5  0 36  0.0000000  0 11G10G08G13G04G20G26G09G17G01G28G07
  -8700887.33447  -6769173.65146  24220776.2954   24220783.6474   24220775.547
        42.0004         38.0004
 -24729899.89249 -19214337.06948  20057408.2304   20057414.5614   20057408.519
        54.0004         49.0004
  13890112.67147  10816519.25446  23854098.7754   23854104.8154   23854097.428
        42.0004         37.0004
 -22425209.01648 -17419726.37347  21548350.4624   21548356.4254   21548350.155
        50.0004         46.0004
  -2108908.91547  -1565761.89546  23650601.1644   23650607.5124   23650601.591
        42.0004         38.0004
   -461383.84246   -338870.75546  24150086.6584   24150098.6654   24150084.322
        41.0004         37.0004
 -20465764.58349 -15882462.31948  20140852.4374   20140858.3614   20140852.491
        54.0004         49.0004
 -14669391.13148 -11367843.65047  22460721.9184   22460728.7474   22460721.678
        49.0004         45.0004
  -5702348.81947  -4419312.72146  23489943.4934   23489952.6394   23489943.706
        44.0004         40.0004
  -4712353.95347  -3637054.49246  23788331.3444   23788336.5234   23788331.141
        44.0004         39.0004
 -24011357.13148 -18673880.50148  20316517.6764   20316522.5154   20316517.215
        53.0004         49.0004
 14  5  5  0 36 30.0000000  0 11G10G08G13G04G20G26G09G17G01G28G07
  -8753220.66947  -6809952.66046  24210816.5114   24210824.6394   24210817.415
        43.0004         38.0004
 -24764599.24049 -19241375.50548  20050805.1814   20050811.2544   20050805.422
        54.0004         49.0004
  13966007.37347  10875658.01546  23868541.0954   23868546.8844   23868540.142
        42.0004         37.0004
 -22503481.70348 -17480717.99547  21533455.9784   21533462.3954   21533455.575
        50.0004         46.0004
  -2102198.23547  -1560532.75946  23651878.3844   23651886.9644   23651879.264
        42.0004         37.0004
   -480801.10146   -354000.99146  24146390.5614   24146403.6774   24146389.970
        41.0004         37.0004
 -20497107.72149 -15906885.51748  20134887.5834   20134893.5274   20134887.806
        54.0004         49.0004
 -14629238.01648 -11336555.49747  22468362.8214   22468370.7874   22468362.694
        49.0004         45.0004
  -5605916.73547  -4344170.83846  23508293.7784   23508303.4674   23508293.595
        44.0004         40.0004
  -4757305.28647  -3672081.44146  23779777.9734   23779783.3384   23779777.358
        44.0004         39.0004
 -23975952.29648 -18646292.31048  20323255.0704   20323259.5774   20323254.619
        53.0004         49.0004
 14  5  5  0 37  0.0000000  0 11G10G08G13G04G20G26G09G17G01G28G07
  -8805781.03147  -6850908.56846  24200814.8244   24200822.8774   24200815.531
        43.0004         39.0004
 -24798692.62749 -19267941.76048  20044317.5614   20044323.6064   20044317.859
        54.0004         49.0004
  14041742.75847  10934672.63246  23882951.9674   23882959.3494   23882952.706
        42.0004         37.0004
 -22581396.66848 -17541430.88547  21518629.1674   21518635.8534   21518628.323
        50.0004         46.0004
  -2095269.51847  -1555133.72146  23653195.9194   23653204.7044   23653197.410
        42.0004         37.0004
   -499859.50746   -368851.59446  24142763.4944   24142775.9914   24142762.871
        41.0004         36.0004
 -20527866.59349 -15930853.44348  20129034.7284   20129040.5234   20129034.732
        54.0004         49.0004
 -14588982.44648 -11305187.51347  22476024.1104   22476030.4654   22476023.136
        49.0004         45.0004
  -5509245.61847  -4268842.70446  23526690.1524   23526698.6664   23526689.705
        44.0004         40.0004
  -4802478.93947  -3707281.61246  23771179.8394   23771187.0074   23771181.076
        44.0004         39.0004
 -23939966.04048 -18618251.06148  20330103.0754   20330107.6574   20330102.709
        53.0004         49.0004
 14  5  5  0 37 30.0000000  0 11G10G08G13G04G20G26G09G17G01G28G07
  -8858569.35947  -6892042.13746  24190770.1304   24190778.0444   24190769.760
        43.0004         38.0004
 -24832180.10249 -19294035.87348  20037944.8734   20037950.9134   20037945.195
        54.0004         49.0004
  14117315.44047  10993560.46046  23897334.1394   23897339.7654   23897333.495
        42.0004         37.0004
 -22658953.46148 -17601864.67647  21503870.0374   21503877.0994   21503870.172
        50.0004         46.0004
  -2088122.78047  -1549564.79946  23654556.6914   23654563.7754   23654557.246
        42.0004         37.0004
   -518561.76046   -383424.67046  24139204.2384   24139217.7054   24139203.960
        41.0004         36.0004
 -20558041.74749 -15954366.51848  20123292.5844   20123298.3964   20123292.356
        54.0004         49.0004
 -14548628.96548 -11273743.24047  22483703.4684   22483709.1964   22483702.214
        49.0004         45.0004
  -5412339.84447  -4193331.71246  23545130.5084   23545139.2924   23545130.284
        44.0004         40.0004
  -4847875.51447  -3742655.50146  23762541.5464   23762548.7884   23762542.093
        44.0004         39.0004
 -23903401.63148 -18589759.30148  20337060.7834   20337066.0374   20337060.536
        53.0004         49.0004
 14  5  5  0 38  0.0000000  0 11G10G08G13G04G20G26G09G17G01G28G07
  -8911584.67647  -6933352.56846  24180680.5974   24180688.3864   24180681.772
        43.0004         39.0004
 -24865059.06649 -19319655.82748  20031688.5384   20031694.1844   20031688.536
        54.0004         49.0004
  14192724.00747  11052320.42046  23911682.5204   23911689.7964   23911682.958
        42.0004         37.0004
 -22736148.85848 -17662016.86347  21489180.2794   21489186.5044   21489179.653
        50.0004         46.0004
  -2080756.08247  -1543824.47546  23655956.8894   23655965.9854   23655959.175
        42.0004         37.0004
   -536908.53046   -397720.75246  24135713.0254   24135725.9414   24135711.964
        41.0004         37.0004
 -20587631.32649 -15977423.31148  20117661.7684   20117667.6984   20117661.746
        54.0004         49.0004
 -14508179.43948 -11242224.12547  22491399.5814   22491407.5584   22491399.538
        49.0004         45.0004
  -5315201.69647  -4117639.65546  23563615.1734   23563623.7394   23563614.843
        44.0004         40.0004
  -4893493.10847  -3778201.60246  23753861.3954   23753867.6744   23753861.439
        44.0004         39.0004
 -23866259.28348 -18560817.20248  20344128.8554   20344133.6554   20344128.472
        53.0004         49.0004
 14  5  5  0 38 30.0000000  0 11G10G08G13G04G20G26G09G17G01G28G07
  -8964826.22047  -6974839.27946  24170548.9834   24170556.2364   24170549.583
        43.0004         39.0004
 -24897327.71749 -19344800.21148  20025547.6874   20025553.9154   20025547.939
        54.0004         49.0004
  14267967.06647  11110951.40046  23926002.4964   23926007.7114   23926001.212
        42.0004         37.0004
 -22812980.29648 -17721885.44247  21474559.5774   21474565.6804   21474559.769
        50.0004         46.0004
  -2073167.39947  -1537911.18446  23657401.7004   23657409.2064   23657403.660
        42.0004         37.0004
   -554901.08346   -411740.81846  24132289.3104   24132303.3214   24132288.832
        41.0004         37.0004
 -20616634.07249 -16000022.83048  20112142.5044   20112148.2744   20112142.756
        54.0004         49.0004
 -14467636.48948 -11210632.20947  22499114.0164   22499121.4834   22499114.618
        49.0004         44.0004
  -5217833.58347  -4041768.40046  23582143.6724   23582152.8274   23582143.226
        44.0004         40.0004
  -4939330.60147  -3813919.06046  23745137.2794   23745145.0854   23745138.747
        43.0004         39.0004
 -23828540.44148 -18531425.88448  20351306.4434   20351311.2194   20351305.964
        53.0004         49.0004
 14  5  5  0 39  0.0000000  0 11G10G08G13G04G20G26G09G17G01G28G07
  -9018294.21947  -7016502.46746  24160374.4814   24160382.8184   24160374.410
        43.0004         39.0004
 -24928985.31549 -19369468.44748  20019523.6684   20019529.6254   20019523.851
        54.0004         49.0004
  14343041.77147  11169451.18946  23940287.7004   23940293.2604   23940287.664
        42.0004         37.0004
 -22889446.30048 -17781469.27047  21460009.0184   21460015.0444   21460008.314
        51.0004         46.0004
  -2065356.11546  -1531824.42046  23658888.9724   23658896.6294   23658889.667
        41.0004         37.0004
   -572541.50746   -425486.49946  24128931.6114   24128945.4934   24128931.679
        41.0004         37.0004
 -20645049.82149 -16022164.94948  20106735.1234   20106741.3674   20106735.168
        54.0004         49.0004
 -14427004.03648 -11178970.54547  22506845.8574   22506854.3824   22506846.368
        49.0004         44.0004
  -5120239.36947  -3965720.97346  23600715.1594   23600724.4114   23600714.978
        44.0004         40.0004
  -4985387.81547  -3849807.73346  23736373.4644   23736379.9704   23736374.110
        43.0004         39.0004
 -23790247.54848 -18501587.26348  20358593.5534   20358598.1074   20358593.014
        53.0004         49.0004
 14  5  5  0 39 30.0000000  0 11G10G08G13G04G20G26G09G17G01G28G07
  -9071987.09247  -7058340.87046  24150156.1384   24150164.9074   24150156.886
        43.0004         39.0004
 -24960028.86749 -19393658.21348  20013615.7794   20013622.2634   20013616.118
        54.0004         49.0004
  14417947.50047  11227819.31246  23954541.0374   23954549.5954   23954541.599
        42.0004         37.0004
 -22965543.27048 -17840765.54047  21445528.2914   21445534.3684   21445527.620
        51.0004         46.0004
  -2057319.73947  -1525562.24246  23660418.6124   23660427.7784   23660418.546
        42.0004         37.0004
   -589829.89546   -438957.84846  24125642.0264   24125654.1754   24125641.481
        41.0004         37.0004
 -20672876.26749 -16043847.86348  20101440.1144   20101445.5584   20101440.281
        54.0004         49.0004
 -14386283.26748 -11147240.06847  22514595.5284   22514602.0114   22514595.201
        49.0004         44.0004
  -5022420.45047  -3889498.45246  23619329.9084   23619338.8894   23619329.532
        44.0004         40.0004
  -5031662.26347  -3885865.69546  23727569.0974   23727573.2874   23727568.817
        43.0004         39.0004
 -23751380.84148 -18471301.50248  20365989.4174   20365994.1684   20365988.977
        53.0004         49.0004
 14  5  5  0 40  0.0000000  0 11G10G08G13G04G20G26G09G17G01G28G07
  -9125903.13947  -7100353.18546  24139896.8414   24139904.9044   24139897.151
        43.0004         39.0004
 -24990455.98549 -19417367.63648  20007825.8394   20007831.9664   20007826.352
        54.0004         49.0004
  14492683.50947  11286055.17546  23968763.4084   23968769.9014   23968763.056
        42.0004         37.0004
 -23041268.08948 -17899771.81447  21431118.1934   21431123.9034   21431117.838
        51.0004         46.0004
  -2049055.71046  -1519122.70446  23661989.9464   23661998.0804   23661990.945
        41.0004         37.0004
   -606766.69647   -452155.23446  24122419.0884   24122432.9154   24122418.923
        42.0004         37.0004
 -20700111.84749 -16065070.36748  20096257.5034   20096263.0124   20096257.420
        54.0004         49.0004
 -14345475.68348 -11115441.94647  22522361.0644   22522368.1334   22522361.006
        49.0004         44.0004
  -4924378.84647  -3813102.40146  23637987.1654   23637995.0104   23637986.301
        44.0004         40.0004
  -5078151.96747  -3922091.40446  23718722.3974   23718727.5114   23718721.720
        43.0004         39.0004
 -23711940.64348 -18440568.87748  20373494.5174   20373499.3354   20373494.091
        53.0004         49.0004
 14  5  5  0 40 30.0000000  0 11G10G08G13G04G20G26G09G17G01G28G07
  -9180041.91747  -7142539.05846  24129594.7804   24129602.5774   24129594.546
        43.0004         38.0004
 -25020264.91149 -19440595.35948  20002153.2064   20002159.8334   20002153.636
        54.0004         49.0004
  14567247.66746  11344157.14146  23982952.7404   23982959.8274   23982951.994
        41.0004         37.0004
 -23116618.41648 -17958486.29247  21416779.3384   21416785.6514   21416778.889
        51.0004         46.0004
  -2040562.78547  -1512504.81246  23663608.2994   23663613.7994   23663607.399
        42.0004         37.0004
   -623353.36647   -465079.78446  24119261.7794   24119276.5344   24119262.487
        42.0004         37.0004
 -20726755.63349 -16085831.73948  20091187.2984   20091192.7214   20091187.356
        54.0004         49.0004
 -14304584.10448 -11083578.37947  22530142.9584   22530149.8294   22530142.243
        49.0004         45.0004
  -4826117.40947  -3736535.05446  23656685.2404   23656694.5644   23656685.107
        44.0004         40.0004
  -5124855.70547  -3958483.87546  23709833.7464   23709840.6544   23709834.423
        44.0004         39.0004
 -23671928.66748 -18409390.70648  20381108.5814   20381113.5884   20381108.170
        53.0004         49.0004
 14  5  5  0 41  0.0000000  0 11G10G08G13G04G20G26G09G17G01G28G07
  -9234403.96547  -7184898.91246  24119249.4744   24119256.5244   24119249.680
        43.0004         38.0004
 -25049455.59749 -19463341.33548  19996598.9014   19996604.7764   19996599.100
        54.0004         49.0004
  14641637.07546  11402122.95246  23997108.6544   23997113.4904   23997108.430
        41.0004         37.0004
 -23191593.22848 -18016908.15247  21402512.0794   21402518.2624   21402511.885
        51.0004         46.0004
  -2031840.60246  -1505708.22646  23665266.2004   23665272.8374   23665265.997
        41.0004         37.0004
   -639592.55247   -477733.54746  24116172.9994   24116185.6294   24116171.691
        42.0004         37.0004
 -20752807.92349 -16106132.20448  20086229.6274   20086235.3454   20086229.700
        54.0004         49.0004
 -14263612.50048 -11051652.43947  22537938.6824   22537946.2564   22537938.663
        49.0004         44.0004
  -4727640.19247  -3659799.56746  23675424.4274   23675433.1254   23675424.581
        44.0004         40.0004
  -5171773.59647  -3995043.21246  23700905.6434   23700912.6444   23700906.117
        44.0004         39.0004
 -23631347.60548 -18377769.09248  20388830.4634   20388835.6184   20388830.264
        53.0004         49.0004
 14  5  5  0 41 30.0000000  0 11G10G08G13G04G20G26G09G17G01G28G07
  -9288987.23947  -7227431.15646  24108862.1844   24108869.1454   24108862.975
        43.0004         38.0004
 -25078025.01149 -19485603.19748  19991161.9754   19991168.1864   19991162.176
        54.0004         49.0004
  14715851.56446  11459952.43546  24011231.6954   24011237.0004   24011230.816
        41.0004         37.0004
 -23266188.79748 -18075034.50147  21388316.6294   21388322.8124   21388316.402
        51.0004         46.0004
  -2022886.65046  -1498731.09446  23666969.4834   23666975.5434   23666970.966
        41.0004         37.0004
   -655484.27447   -490116.55446  24113147.6564   24113161.6404   24113148.190
        42.0004         38.0004
 -20778266.53049 -16125970.05548  20081385.1894   20081391.1684   20081384.895
        54.0004         49.0004
 -14222562.39248 -11019665.33647  22545750.0024   22545758.7974   22545750.004
        49.0004         44.0004
  -4628948.68247  -3582897.09346  23694206.3094   23694213.6274   23694204.811
        44.0004         40.0004
  -5218903.05447  -4031767.41246  23691936.9054   23691942.3134   23691937.886
        44.0004         39.0004
 -23590197.95648 -18345704.42548  20396661.6294   20396666.1154   20396661.051
        53.0004         49.0004
 14  5  5  0 42  0.0000000  0 11G10G08G13G04G20G26G09G17G01G28G07
  -9343790.94347  -7270135.15146  24098432.6984   24098440.3014   24098433.828
        43.0004         38.0004
 -25105971.33649 -19507379.54248  19985843.9384   19985850.3894   19985844.414
        54.0004         49.0004
  14789889.48246  11517644.34746  24025320.1394   24025326.0294   24025319.144
        41.0004         37.0004
 -23340402.25048 -18132863.08847  21374194.8304   21374200.9994   21374194.317
        51.0004         46.0004
  -2013698.82546  -1491571.68646  23668718.2924   23668725.6084   23668718.782
        41.0004         36.0004
   -671029.37947   -502229.49246  24110190.6344   24110203.9354   24110189.404
        42.0004         37.0004
 -20803130.02449 -16145344.18148  20076653.4104   20076659.3244   20076653.374
        54.0004         49.0004
 -14181435.79248 -10987618.63247  22553577.2124   22553583.7164   22553576.440
        49.0004         44.0004
  -4530045.13447  -3505829.39346  23713026.2224   23713035.3524   23713025.547
        44.0004         39.0004
  -5266242.61447  -4068655.34146  23682928.6934   23682934.4754   23682929.113
        43.0004         39.0004
 -23548480.64148 -18313197.42048  20404599.8084   20404604.7694   20404599.724
        53.0004         49.0004
 14  5  5  0 42 30.0000000  0 11G10G08G13G04G20G26G09G17G01G28G07
  -9398814.68247  -7313010.60846  24087962.0664   24087970.6604   24087963.250
        43.0004         38.0004
 -25133293.44749 -19528669.48348  19980644.6564   19980651.0874   19980644.956
        54.0004         49.0004
  14863748.81746  11575197.09246  24039374.6164   24039382.4064   24039374.608
        41.0004         37.0004
 -23414231.98048 -18190392.67747  21360145.5254   21360150.6824   21360144.783
        51.0004         46.0004
  -2004276.15346  -1484229.30646  23670510.6864   23670518.6964   23670511.704
        41.0004         36.0004
   -686230.00447   -514073.98546  24107298.1664   24107309.6464   24107297.628
        42.0004         38.0004
 -20827398.08049 -16164254.32948  20072035.4324   20072041.5494   20072035.482
        54.0004         49.0004
 -14140235.85048 -10955514.78347  22561417.3654   22561424.5074   22561416.555
        49.0004         44.0004
  -4430932.95547  -3428599.11946  23731886.5624   23731894.7934   23731885.983
        44.0004         40.0004
  -5313791.27347  -4105706.19446  23673880.3274   23673885.7174   23673881.405
        43.0004         38.0004
 -23506197.75348 -18280249.70348  20412646.3314   20412651.0154   20412645.736
        53.0004         49.0004
 14  5  5  0 43  0.0000000  0 11G10G08G13G04G20G26G09G17G01G28G07
  -9454057.00747  -7356056.39546  24077449.9594   24077458.5774   24077450.835
        43.0004         38.0004
 -25159989.26649 -19549471.40748  19975564.6684   19975570.8944   19975565.050
        54.0004         49.0004
  14937428.62446  11632609.93046  24053396.6954   24053402.7124   24053395.276
        41.0004         36.0004
 -23487674.70348 -18247620.70347  21346169.1154   21346175.4464   21346169.324
        51.0004         46.0004
  -1994616.48946  -1476702.22346  23672349.4444   23672357.2474   23672349.465
        41.0004         36.0004
   -701086.70147   -525650.48146  24104468.3894   24104484.0604   24104469.938
        42.0004         38.0004
 -20851069.13149 -16182699.28348  20067530.9594   20067536.8744   20067530.771
        54.0004         49.0004
 -14098964.50048 -10923355.28147  22569270.2134   22569277.5944   22569269.947
        49.0004         44.0004
  -4331614.07047  -3351207.79046  23750786.3824   23750794.7834   23750785.412
        44.0004         40.0004
  -5361547.11947  -4142918.49146  23664791.6774   23664798.0824   23664793.030
        43.0004         38.0004
 -23463350.33348 -18246862.09748  20420799.6614   20420804.6284   20420799.417
        53.0004         49.0004
 14  5  5  0 43 30.0000000  0 11G10G08G13G04G20G26G09G17G01G28G07
  -9509518.93047  -7399273.28946  24066896.2584   24066902.5424   24066896.985
        43.0004         38.0004
 -25186059.02649 -19569785.48848  19970603.9734   19970610.2384   19970604.254
        54.0004         49.0004
  15010925.63046  11689880.33446  24067382.0364   24067385.7474   24067381.166
        41.0004         36.0004
 -23560730.13048 -18304546.94147  21332268.2474   21332273.0524   21332266.791
        51.0004         46.0004
  -1984720.09546  -1468990.70646  23674233.4544   23674238.6174   23674232.915
        41.0004         36.0004
   -715602.64147   -536961.45046  24101707.6934   24101720.3824   24101707.286
        42.0004         38.0004
 -20874144.08149 -16200679.74148  20063140.0514   20063145.8924   20063139.934
        54.0004         49.0004
 -14057626.14648 -10891143.57047  22577137.0074   22577143.9334   22577136.426
        49.0004         44.0004
  -4232093.08547  -3273658.97446  23769724.3594   23769732.6504   23769723.811
        44.0004         40.0004
  -5409510.68747  -4180292.66346  23655666.3424   23655672.2334   23655665.942
        43.0004         38.0004
 -23419941.78848 -18213037.24948  20429060.3984   20429065.2764   20429059.797
        53.0004         49.0004
 14  5  5  0 44  0.0000000  0 11G10G08G13G04G20G26G09G17G01G28G07
  -9565195.73647  -7442657.63546  24056301.2394   24056308.6424   24056301.818
        43.0004         38.0004
 -25211497.31449 -19589607.52248  19965762.8784   19965768.9334   19965763.377
        54.0004         49.0004
  15084241.65046  11747009.69346  24081333.5244   24081338.5734   24081332.383
        41.0004         37.0004
 -23633391.89048 -18361166.42047  21318440.4394   21318446.5504   21318440.118
        51.0004         46.0004
  -1974581.71846  -1461090.61946  23676161.5524   23676168.5614   23676162.104
        41.0004         36.0004
   -729775.31447   -548004.93346  24099011.2964   24099022.3074   24099010.229
        42.0004         37.0004
 -20896618.34449 -16218192.13548  20058862.8514   20058868.9244   20058863.060
        54.0004         49.0004
 -14016219.33948 -10858878.51747  22585015.8804   22585022.6834   22585016.021
        49.0004         44.0004
  -4132368.85747  -3195951.78846  23788701.0934   23788709.8684   23788700.343
        45.0004         40.0004
  -5457676.88347  -4217824.71646  23646500.4674   23646506.1424   23646499.797
        43.0004         38.0004
 -23375969.61348 -18178773.20848  20437427.6194   20437432.2714   20437427.316
        53.0004         49.0004
 14  5  5  0 44 30.0000000  0 11G10G08G13G04G20G26G09G17G01G28G07
  -9621090.73647  -7486212.00046  24045663.5654   24045671.4204   24045665.382
        43.0004         38.0004
 -25236306.88449 -19608939.64148  19961041.8604   19961047.9654   19961042.342
        54.0004         49.0004
  15157371.51546  11803994.02246  24095249.6074   24095256.2174   24095249.125
        41.0004         37.0004
 -23705661.54148 -18417480.36147  21304687.9034   21304694.1564   21304687.149
        51.0004         46.0004
  -1964203.84646  -1453003.91246  23678137.3934   23678142.7494   23678136.881
        41.0004         36.0004
   -743610.07547   -558785.10746  24096379.0424   24096390.2334   24096377.634
        42.0004         38.0004
 -20918494.93749 -16235238.80648  20054700.0354   20054705.9714   20054700.066
        54.0004         49.0004
 -13974750.67048 -10826565.28147  22592908.1034   22592914.1014   22592907.645
        49.0004         44.0004
  -4032448.03047  -3118091.41546  23807715.3274   23807724.9834   23807714.733
        45.0004         40.0004
  -5506048.07447  -4255516.50246  23637295.4444   23637301.1424   23637295.828
        43.0004         39.0004
 -23331439.37648 -18144074.31948  20445901.5704   20445906.3054   20445901.363
        53.0004         49.0004
 14  5  5  0 45  0.0000000  0 11G10G08G13G04G20G26G09G17G01G28G07
  -9677199.50447  -7529932.94546  24034987.4004   24034994.7884   24034988.466
        43.0004         38.0004
 -25260482.43649 -19627777.72448  19956441.6644   19956447.3804   19956442.013
        54.0004         49.0004
  15230317.27246  11860834.86146  24109130.1384   24109137.1774   24109129.875
        41.0004         37.0004
 -23777533.06448 -18473484.07447  21291010.6284   21291017.4904   21291010.757
        51.0004         46.0004
  -1953581.18146  -1444726.44146  23680157.4434   23680164.4104   23680158.962
        41.0004         36.0004
   -757104.58847   -569300.13346  24093809.8544   24093821.8344   24093810.144
        42.0004         37.0004
 -20939769.24549 -16251816.16548  20050651.9034   20050657.5314   20050651.937
        54.0004         49.0004
 -13933218.95448 -10794202.90647  22600811.0564   22600817.9664   22600810.835
        49.0004         44.0004
  -3932329.53047  -3040077.00746  23826766.7134   23826776.4494   23826766.745
        44.0004         40.0004
  -5554619.12947  -4293364.02846  23628052.0904   23628058.0904   23628052.694
        43.0004         38.0004
 -23286348.90248 -18108938.87948  20454482.3084   20454486.5344   20454481.518
        53.0004         49.0004
 14  5  5  0 45 30.0000000  0 12G10G08G13G04G20G26G09G17G01G28G07G02
  -9733525.56347  -7573823.20746  24024267.6774   24024276.3164   24024269.414
        43.0004         39.0004
 -25284027.28249 -19646124.35048  19951961.2124   19951967.0444   19951961.461
        54.0004         49.0004
  15303072.90046  11917527.54746  24122975.1844   24122981.1114   24122975.084
        41.0004         37.0004
 -23849008.59648 -18529179.22947  21277409.2594   21277415.3324   21277408.738
        51.0004         46.0004
  -1942716.85946  -1436260.68446  23682227.5054   23682233.7184   23682226.001
        41.0004         36.0004
   -770264.80447   -579554.69446  24091303.6864   24091317.0554   24091304.224
        42.0004         37.0004
 -20960445.28049 -16267927.34048  20046717.2574   20046723.0874   20046717.158
        54.0004         49.0004
 -13891631.19848 -10761796.87047  22608725.0624   22608731.7774   22608724.569
        49.0004         44.0004
  -3832020.70547  -2961914.30046  23845855.2224   23845863.7094   23845855.243
        44.0004         40.0004
  -5603393.22347  -4331369.77146  23618770.7854   23618776.4654   23618771.096
        43.0004         39.0004
 -23240704.60248 -18073371.89048  20463167.6034   20463172.2674   20463167.517
        53.0004         49.0004
  -1744295.21447  -1309010.15846  24089777.1714   24089783.6754   24089778.229
        47.0004         37.0004
 14  5  5  0 46  0.0000000  0 12G10G08G13G04G20G26G09G17G01G28G07G02
  -9790062.69847  -7617877.93346  24013509.2044   24013516.5374   24013509.981
        43.0004         39.0004
 -25306934.58549 -19663974.18748  19947602.1394   19947607.8554   19947602.451
        54.0004         49.0004
  15375642.13446  11974074.98846  24136785.5674   24136792.5154   24136784.751
        41.0004         36.0004
 -23920080.48048 -18584559.85547  21263884.8734   21263890.5684   21263884.599
        51.0004         46.0004
  -1931604.19346  -1427601.41346  23684341.6734   23684346.8394   23684341.090
        41.0004         36.0004
   -783086.80247   -589545.68846  24088864.3564   24088877.5784   24088865.119
        42.0004         37.0004
 -20980516.73749 -16283567.41548  20042898.1214   20042903.4184   20042897.719
        54.0004         49.0004
 -13849984.57748 -10729344.94447  22616650.8924   22616656.9164   22616649.698
        49.0004         44.0004
  -3731518.84047  -2883601.16446  23864979.6284   23864989.4834   23864980.534
        44.0004         40.0004
  -5652363.61747  -4369528.47146  23609452.2854   23609457.4404   23609452.772
        43.0004         39.0004
 -23194502.67048 -18037370.38348  20471959.8084   20471964.5614   20471959.194
        53.0004         48.0004
  -1838033.48947  -1382052.68346  24071939.2664   24071946.7024   24071939.547
        44.0004         37.0004
 14  5  5  0 46 30.0000000  0 12G10G08G13G04G20G26G09G17G01G28G07G02
  -9846814.88147  -7662100.25446  24002710.6234   24002717.0374   24002710.674
        43.0004         39.0004
 -25329207.51549 -19681329.71148  19943363.7494   19943369.4874   19943363.936
        54.0004         49.0004
  15448018.82446  12030472.41446  24150556.1284   24150564.3144   24150557.064
        41.0004         37.0004
 -23990751.13148 -18639627.82247  21250436.5204   21250442.6554   21250436.317
        51.0004         46.0004
  -1920245.82846  -1418750.70246  23686500.0574   23686509.3894   23686502.283
        41.0004         36.0004
   -795576.64746   -599277.88246  24086489.0344   24086501.8554   24086487.550
        41.0004         37.0004
 -20999987.70449 -16298739.58148  20039192.4344   20039198.1384   20039192.633
        54.0004         49.0004
 -13808286.18948 -10696852.69547  22624584.6574   22624592.0834   22624584.698
        49.0004         44.0004
  -3630831.36647  -2805143.39946  23884140.9664   23884148.9924   23884139.714
        44.0004         39.0004
  -5701533.42847  -4407842.55546  23600095.9154   23600101.7744   23600095.644
        43.0004         39.0004
 -23147749.52748 -18000939.36548  20480856.5574   20480861.3754   20480856.091
        53.0004         48.0004
  -1931615.59347  -1454973.54746  24054132.1794   24054138.4514   24054130.880
        43.0004         37.0004
 14  5  5  0 47  0.0000000  0 12G10G08G13G04G20G26G09G17G01G28G07G02
  -9903776.16347  -7706485.48846  23991870.2664   23991876.9964   23991871.847
        43.0004         39.0004
 -25350839.79649 -19698186.02648  19939246.9154   19939253.3134   19939247.371
        54.0004         49.0004
  15520206.71046  12086722.69246  24164292.8114   24164299.8624   24164294.478
        41.0004         36.0004
 -24061013.10148 -18694377.34547  21237066.1554   21237072.6614   21237065.816
        51.0004         46.0004
  -1908635.52046  -1409703.65246  23688711.6304   23688716.8734   23688711.424
        41.0004         36.0004
   -807730.80446   -608748.47846  24084175.4054   24084187.2874   24084175.092
        41.0004         37.0004
 -21018852.42949 -16313439.35148  20035602.5644   20035608.3814   20035602.794
        54.0004         49.0004
 -13766533.55548 -10664318.17547  22632531.0484   22632537.3064   22632529.713
        49.0004         44.0004
  -3529955.93647  -2726539.18046  23903337.3444   23903345.9564   23903336.209
        44.0004         39.0004
  -5750896.16347  -4446306.98046  23590702.7294   23590708.1974   23590702.418
        43.0004         39.0004
 -23100442.06448 -17964076.41148  20489858.7484   20489863.6074   20489858.424
        53.0004         48.0004
  -2025034.65647  -1527767.35246  24036353.5694   24036359.9814   24036354.459
        42.0004         38.0004
 14  5  5  0 47 30.0000000  0 12G10G08G13G04G20G26G09G17G01G28G07G02
  -9960949.40347  -7751035.89546  23980989.9604   23980996.4514   23980991.147
        43.0004         39.0004
 -25371834.43949 -19714545.48548  19935252.1024   19935257.7094   19935252.294
        54.0004         49.0004
  15592199.85346  12142821.21946  24177993.9244   24178001.2934   24177994.977
        41.0004         36.0004
 -24130868.37448 -18748809.96147  21223773.1714   21223779.4624   21223772.842
        51.0004         47.0004
  -1896776.24146  -1400462.59746  23690969.3104   23690976.0454   23690968.840
        41.0004         36.0004
   -819554.95746   -617961.93846  24081925.8294   24081936.8024   24081925.007
        41.0004         37.0004
 -21037114.59049 -16327669.58848  20032127.6224   20032133.1504   20032127.475
        54.0004         49.0004
 -13724733.37548 -10631746.60147  22640485.0764   22640491.0954   22640483.888
        49.0004         44.0004
  -3428899.48447  -2647793.90746  23922566.7934   23922576.4494   23922566.477
        44.0004         39.0004
  -5800455.03047  -4484924.22646  23581270.8944   23581278.4394   23581271.981
        44.0004         39.0004
 -23052585.96548 -17926785.94248  20498965.5954   20498969.9984   20498965.055
        53.0004         48.0004
  -2118292.56447  -1600435.58846  24018608.0744   24018614.2264   24018607.905
        43.0004         38.0004
 14  5  5  0 48  0.0000000  0 12G10G08G13G04G20G26G09G17G01G28G07G02
 -10018329.97947  -7795747.86646  23970071.7264   23970079.5284   23970072.481
        43.0004         39.0004
 -25392186.33449 -19730404.10048  19931379.4724   19931385.3564   19931379.633
        54.0004         49.0004
  15664000.58846  12198769.83046  24191659.2184   24191665.7654   24191657.424
        41.0004         36.0004
 -24200310.92848 -18802920.98247  21210558.4574   21210564.3424   21210558.199
        51.0004         47.0004
  -1884662.72246  -1391023.42246  23693271.9234   23693279.7444   23693273.495
        41.0004         37.0004
   -831046.68347   -626916.35246  24079737.7794   24079751.4214   24079737.346
        42.0004         37.0004
 -21054769.92549 -16341426.97348  20028767.9294   20028773.2834   20028767.941
        54.0004         49.0004
 -13682884.31948 -10599136.95247  22648448.1674   22648454.9844   22648447.750
        49.0004         44.0004
  -3327660.95347  -2568906.75146  23941832.3214   23941840.9854   23941831.592
        44.0004         39.0004
  -5850204.36147  -4523689.88646  23571804.5514   23571811.3324   23571804.607
        44.0004         39.0004
 -23004179.23248 -17889066.40348  20508176.8724   20508181.8424   20508176.475
        53.0004         48.0004
  -2211383.38047  -1672973.62846  24000893.4034   24000899.3894   24000893.264
        43.0004         38.0004
 14  5  5  0 48 30.0000000  0 12G10G08G13G04G20G26G09G17G01G28G07G02
 -10075919.51847  -7840622.67046  23959112.2354   23959119.5844   23959112.140
        43.0004         39.0004
 -25411896.83649 -19745762.92248  19927628.3384   19927634.1714   19927628.726
        54.0004         49.0004
  15735605.23546  12254565.63746  24205283.0174   24205289.9734   24205282.748
        41.0004         36.0004
 -24269340.59248 -18856710.27447  21197422.7964   21197429.0754   21197422.264
        51.0004         47.0004
  -1872295.67046  -1381386.70146  23695625.5854   23695632.5684   23695627.082
        41.0004         36.0004
   -842210.00047   -635614.87046  24077615.7684   24077627.0114   24077614.020
        42.0004         37.0004
 -21071819.91749 -16354712.66448  20025523.1744   20025529.2564   20025523.290
        54.0004         49.0004
 -13640991.22848 -10566492.99747  22656420.0234   22656428.4744   22656419.416
        49.0004         44.0004
  -3226245.38047  -2489881.63246  23961131.1014   23961139.9494   23961130.208
        44.0004         39.0004
  -5900144.79347  -4562604.46946  23562301.5294   23562306.2484   23562301.548
        44.0004         39.0004
 -22955226.30248 -17850921.26548  20517492.3084   20517497.2674   20517491.779
        53.0004         48.0004
  -2304306.95047  -1745381.35546  23983210.3974   23983215.7284   23983210.450
        43.0004         38.0004
 14  5  5  0 49  0.0000000  0 12G10G08G13G04G20G26G09G17G01G28G07G02
 -10133716.85747  -7885659.38846  23948113.5354   23948121.4514   23948113.797
        43.0004         39.0004
 -25430964.36349 -19760620.72648  19923999.7434   19924005.9264   19924000.058
        54.0004         49.0004
  15807012.37846  12310207.55846  24218873.2714   24218877.0274   24218871.543
        41.0004         36.0004
 -24337955.18048 -18910176.12647  21184365.7114   21184371.3454   21184365.406
        51.0004         47.0004
  -1859673.83546  -1371551.41946  23698026.1074   23698035.1424   23698028.292
        41.0004         36.0004
   -853046.14947   -644058.43946  24075552.9924   24075564.0454   24075551.724
        42.0004         37.0004
 -21088263.97249 -16367526.19748  20022394.2994   20022399.7314   20022394.013
        54.0004         49.0004
 -13599056.43248 -10533816.53247  22664399.4894   22664407.0814   22664399.343
        49.0004         44.0004
  -3124655.29047  -2410720.53146  23980462.8854   23980471.0504   23980462.151
        44.0004         39.0004
  -5950275.01247  -4601666.93046  23552761.0794   23552766.8944   23552761.222
        44.0004         39.0004
 -22905728.57348 -17812351.60148  20526911.7664   20526916.4054   20526911.249
        53.0004         48.0004
  -2397060.99147  -1817656.98946  23965558.9464   23965565.0314   23965559.403
        43.0004         38.0004
 14  5  5  0 49 30.0000000  0 12G10G08G13G04G20G26G09G17G01G28G07G02
 -10191721.11647  -7930857.35546  23937075.3144   23937082.4344   23937075.742
        43.0004         39.0004
 -25449387.69249 -19774976.55948  19920494.1124   19920500.0534   19920494.358
        54.0004         49.0004
  15878220.80746  12365694.62246  24232422.3304   24232428.7374   24232422.239
        40.0004         36.0004
 -24406152.21648 -18963316.61047  21171387.8774   21171394.2004   21171387.982
        51.0004         47.0004
  -1846795.12846  -1361516.01346  23700479.1264   23700486.8324   23700478.652
        41.0004         36.0004
   -863556.50647   -652248.13546  24073551.2684   24073563.6144   24073550.467
        42.0004         37.0004
 -21104101.20149 -16379866.87748  20019380.3554   20019386.0594   20019380.398
        54.0004         49.0004
 -13557082.28248 -10501109.40747  22672387.2294   22672394.1094   22672387.062
        49.0004         44.0004
  -3022893.34347  -2331425.50746  23999827.6904   23999835.9414   23999826.942
        44.0004         39.0004
  -6000593.26547  -4640875.90446  23543186.2664   23543191.8544   23543186.434
        44.0004         40.0004
 -22855687.62948 -17773358.65148  20536434.1444   20536439.1174   20536433.517
        53.0004         48.0004
  -2489642.93147  -1889798.51846  23947941.8424   23947947.1254   23947941.593
        43.0004         38.0004
 14  5  5  0 50  0.0000000  0 12G10G08G13G04G20G26G09G17G01G28G07G02
 -10249930.67647  -7976215.30146  23925997.6994   23926006.2774   23925998.859
        43.0004         39.0004
 -25467165.24949 -19788829.18848  19917111.0264   19917116.9804   19917111.333
        54.0004         49.0004
  15949229.43946  12421026.00646  24245935.3034   24245942.1454   24245934.910
        40.0004         36.0004
 -24473929.04148 -19016129.66147  21158491.1134   21158496.6944   21158490.442
        51.0004         47.0004
  -1833658.10146  -1351279.29946  23702977.9574   23702986.6294   23702979.191
        40.0004         36.0004
   -873742.13847   -660184.81646  24071613.4424   24071625.4304   24071612.720
        42.0004         37.0004
 -21119330.79649 -16391734.07048  20016482.2614   20016487.9334   20016482.291
        54.0004         49.0004
 -13515070.75548 -10468373.15047  22680381.9504   22680388.7054   22680381.723
        49.0004         44.0004
  -2920961.68447  -2251998.24546  24019224.9424   24019233.6944   24019223.865
        44.0004         39.0004
  -6051097.58947  -4680229.88646  23533576.8394   23533580.7684   23533576.203
        44.0004         40.0004
 -22805105.29948 -17733943.85248  20546059.4214   20546064.4304   20546059.054
        53.0004         48.0004
  -2582050.27147  -1961804.00746  23930357.1094   23930363.1124   23930357.372
        43.0004         38.0004
 14  5  5  0 50 30.0000000  0 12G10G08G13G04G20G26G09G17G01G28G07G02
 -10308344.46547  -8021732.38246  23914883.1994   23914888.9544   23914883.150
        43.0004         39.0004
 -25484295.67949 -19802177.56648  19913851.6064   19913857.6334   19913851.530
        54.0004         49.0004
  16020037.22646  12476200.86646  24259409.5714   24259416.4864   24259408.755
        40.0004         36.0004
 -24541282.93948 -19068613.16647  21145673.6414   21145679.8304   21145673.383
        52.0004         47.0004
  -1820260.95946  -1340839.90346  23705527.6874   23705536.8994   23705526.998
        41.0004         36.0004
   -883604.32447   -667869.41846  24069735.0724   24069747.9524   24069735.275
        42.0004         37.0004
 -21133951.86849 -16403127.10048  20013699.8844   20013705.6764   20013699.922
        54.0004         49.0004
 -13473023.74148 -10435609.25447  22688383.7424   22688390.4544   22688382.722
        49.0004         44.0004
  -2818862.81947  -2172440.69646  24038653.2134   24038662.4894   24038652.662
        44.0004         39.0004
  -6101786.19847  -4719727.45846  23523929.5974   23523935.3794   23523930.280
        44.0004         40.0004
 -22753982.80948 -17694108.14148  20555787.7774   20555792.5194   20555787.481
        53.0004         48.0004
  -2674280.44347  -2033671.44346  23912805.8484   23912810.9134   23912805.729
        43.0004         38.0004
 14  5  5  0 51  0.0000000  0 12G10G08G13G04G20G26G09G17G01G28G07G02
 -10366960.81947  -8067407.30146  23903727.5904   23903734.7954   23903728.480
        43.0004         39.0004
 -25500777.27049 -19815020.35348  19910715.1544   19910720.8174   19910715.357
        54.0004         49.0004
  16090643.26646  12531218.55446  24272846.0984   24272852.9374   24272845.347
        41.0004         36.0004
 -24608211.54648 -19120765.26447  21132937.5514   21132943.3584   21132937.109
        51.0004         47.0004
  -1806601.68046  -1330196.24746  23708126.8534   23708133.6934   23708128.772
        40.0004         36.0004
   -893144.17347   -675302.86246  24067920.7844   24067932.7154   24067920.192
        42.0004         37.0004
 -21147963.58049 -16414045.30348  20011033.5304   20011039.2294   20011033.567
        54.0004         49.0004
 -13430943.46948 -10402819.43847  22696392.0414   22696397.9674   22696390.610
        49.0004         44.0004
  -2716598.92147  -2092754.54846  24058114.1134   24058122.1204   24058113.185
        44.0004         39.0004
  -6152656.80447  -4759366.84646  23514249.4064   23514254.6714   23514249.591
        44.0004         40.0004
 -22702321.71948 -17653852.74648  20565618.9294   20565623.2724   20565618.335
        53.0004         48.0004
  -2766330.71047  -2105398.70846  23895288.9294   23895295.7224   23895288.863
        43.0004         38.0004
 14  5  5  0 51 30.0000000  0 12G10G08G13G04G20G26G09G17G01G28G07G02
 -10425781.00947  -8113241.05146  23892534.6144   23892542.0084   23892534.865
        43.0004         39.0004
 -25516611.45149 -19827358.66948  19907702.0194   19907707.7784   19907702.094
        54.0004         49.0004
  16161044.19546  12586076.37546  24286241.5434   24286246.9574   24286241.549
        41.0004         36.0004
 -24674714.47848 -19172585.67947  21120282.5094   21120288.0474   21120282.243
        51.0004         47.0004
  -1792681.22846  -1319349.06646  23710776.8244   23710782.8254   23710776.267
        40.0004         36.0004
   -902365.42847   -682488.04546  24066164.9784   24066177.8134   24066165.418
        42.0004         37.0004
 -21161367.65049 -16424490.02048  20008482.8574   20008488.5804   20008482.643
        54.0004         49.0004
 -13388834.47748 -10370007.24247  22704403.0684   22704410.9414   22704403.645
        49.0004         44.0004
  -2614174.95247  -2012943.67446  24077604.8084   24077612.3564   24077603.914
        44.0004         39.0004
  -6203710.33847  -4799148.79046  23504534.1144   23504538.2744   23504534.719
        45.0004         40.0004
 -22650126.08148 -17613180.81748  20575551.0494   20575556.0034   20575550.790
        53.0004         48.0004
  -2858200.70647  -2176985.48746  23877806.2324   23877813.0404   23877806.623
        43.0004         38.0004
 14  5  5  0 52  0.0000000  0 12G10G08G13G04G20G26G09G17G01G28G07G02
 -10484801.60647  -8159230.96846  23881302.9754   23881309.5194   23881303.702
        43.0004         39.0004
 -25531794.94849 -19839189.95348  19904812.7274   19904818.2964   19904812.725
        54.0004         49.0004
  16231240.74846  12640774.94346  24299599.3564   24299606.8914   24299599.943
        41.0004         36.0004
 -24740787.49748 -19224071.08847  21107708.7024   21107714.8034   21107708.527
        51.0004         47.0004
  -1778495.86946  -1308295.48246  23713474.7264   23713482.9714   23713476.280
        40.0004         36.0004
   -911267.24946   -689424.32346  24064470.6354   24064482.4724   24064470.602
        41.0004         37.0004
 -21174161.19949 -16434459.00748  20006048.3834   20006053.8744   20006048.366
        54.0004         50.0004
 -13346696.92148 -10337172.79247  22712422.4654   22712429.5394   22712422.080
        49.0004         44.0004
  -2511591.12447  -1933008.23146  24097124.9304   24097134.0194   24097124.583
        44.0004         39.0004
  -6254942.58347  -4839069.97846  23494784.9484   23494791.1584   23494785.155
        45.0004         40.0004
 -22597395.53448 -17572092.07648  20585585.2274   20585590.2694   20585584.681
        53.0004         48.0004
  -2949885.96347  -2248428.34346  23860359.2934   23860365.6764   23860359.595
        43.0004         38.0004
 14  5  5  0 52 30.0000000  0 12G10G08G13G04G20G26G09G17G01G28G07G02
 -10544021.50047  -8205376.19146  23870033.9864   23870040.7884   23870034.646
        43.0004         39.0004
 -25546326.15349 -19850512.95648  19902047.2854   19902053.1824   19902047.523
        54.0004         49.0004
  16301231.78646  12695313.36546  24312918.6984   24312925.9264   24312918.632
        41.0004         36.0004
 -24806428.22648 -19275219.65847  21095217.9284   21095223.7394   21095217.718
        51.0004         47.0004
  -1764043.92746  -1297034.15446  23716224.0474   23716228.4454   23716225.485
        40.0004         36.0004
   -919850.99847   -696112.74846  24062836.9794   24062849.2684   24062838.008
        42.0004         37.0004
 -21186343.75549 -16443951.88848  20003729.8324   20003735.7194   20003729.898
        54.0004         49.0004
 -13304532.96848 -10304317.76547  22720446.1134   22720453.3804   22720445.614
        49.0004         44.0004
  -2408850.05847  -1852950.27546  24116676.1064   24116685.3414   24116675.479
        44.0004         39.0004
  -6306351.91747  -4879129.16846  23485001.7914   23485007.9114   23485002.219
        45.0004         40.0004
 -22544131.82748 -17530587.88948  20595721.1444   20595725.9434   20595720.716
        53.0004         48.0004
  -3041383.93647  -2319725.25046  23842947.7214   23842952.9104   23842948.128
        43.0004         39.0004
 14  5  5  0 53  0.0000000  0 12G10G08G13G04G20G26G09G17G01G28G07G02
 -10603440.55047  -8251676.59146  23858726.3954   23858734.3914   23858727.412
        43.0004         39.0004
 -25560205.58049 -19861328.08148  19899406.1814   19899412.0304   19899406.224
        54.0004         49.0004
  16371014.96946  12749689.84446  24326198.3724   24326205.2444   24326197.717
        40.0004         36.0004
 -24871635.53948 -19326030.49647  21082809.3984   21082815.0394   21082808.992
        52.0004         47.0004
  -1749325.46846  -1285565.15645  23719025.2214   23719033.4924   23719026.427
        40.0004         35.0004
   -928119.84247   -702555.80446  24061265.8394   24061276.4074   24061264.131
        42.0004         37.0004
 -21197916.42449 -16452969.53648  20001527.9604   20001533.3134   20001527.985
        54.0004         49.0004
 -13262346.33348 -10271445.07347  22728473.1904   22728480.7774   22728473.163
        49.0004         44.0004
  -2305955.67947  -1772772.84446  24136256.0644   24136265.4014   24136255.625
        44.0004         39.0004
  -6357937.77947  -4919325.90346  23475185.6384   23475190.9204   23475185.691
        45.0004         41.0004
 -22490338.22348 -17488670.78948  20605957.1744   20605962.1354   20605957.062
        53.0004         48.0004
  -3132693.82847  -2390875.61046  23825572.2094   23825577.3084   23825572.345
        43.0004         39.0004
 14  5  5  0 53 30.0000000  0 12G10G08G13G04G20G26G09G17G01G28G07G02
 -10663057.86647  -8298131.49646  23847381.7634   23847388.4834   23847382.374
        43.0004         38.0004
 -25573432.59249 -19871634.82648  19896888.6764   19896894.8404   19896889.133
        54.0004         49.0004
  16440588.83246  12803903.20545  24339439.0404   24339443.3744   24339437.260
        40.0004         35.0004
 -24936407.43348 -19376502.05147  21070484.0884   21070489.1954   21070483.668
        52.0004         47.0004
  -1734339.08846  -1273887.40646  23721877.3664   23721885.0674   23721878.013
        40.0004         36.0004
   -936075.09747   -708754.50846  24059750.2874   24059762.3974   24059750.824
        42.0004         37.0004
 -21208878.77949 -16461511.60948  19999441.7034   19999447.5384   19999441.806
        54.0004         49.0004
 -13220139.41748 -10238556.58547  22736506.3334   22736512.1434   22736505.240
        49.0004         44.0004
  -2202910.78047  -1692478.12846  24155865.6384   24155873.3924   24155864.500
        44.0004         39.0004
  -6409698.76447  -4959659.09646  23465335.6274   23465340.7304   23465335.753
        45.0004         40.0004
 -22436016.92648 -17446342.50548  20616294.7604   20616299.5294   20616294.294
        53.0004         48.0004
  -3223813.53547  -2461877.78846  23808232.9254   23808238.3084   23808232.516
        43.0004         39.0004
 14  5  5  0 54  0.0000000  0 12G10G08G13G04G20G26G09G17G01G28G07G02
 -10722870.94047  -8344738.94446  23836000.2014   23836006.9194   23835999.908
        43.0004         38.0004
 -25586004.82949 -19881431.35948  19894496.7154   19894502.2304   19894497.016
        54.0004         49.0004
  16509953.26746  12857953.34446  24352637.5764   24352642.7714   24352637.467
        40.0004         36.0004
 -25000740.35748 -19426631.55647  21058241.1084   21058246.6684   21058240.951
        52.0004         47.0004
  -1719082.06046  -1261998.76045  23724780.9724   23724788.7264   23724781.890
        40.0004         35.0004
   -943717.26647   -714709.24346  24058295.0994   24058309.2204   24058295.152
        42.0004         37.0004
 -21219229.22849 -16469576.87248  19997472.0184   19997478.0694   19997472.076
        54.0004         49.0004
 -13177913.30048 -10205653.13247  22744540.5624   22744548.5924   22744540.598
        49.0004         44.0004
  -2099716.65447  -1612067.13346  24175501.6804   24175511.3374   24175501.765
        43.0004         39.0004
  -6461631.85247  -5000126.39746  23455453.5134   23455460.0204   23455453.713
        45.0004         41.0004
 -22381168.25948 -17403603.28148  20626732.2604   20626737.2314   20626731.578
        53.0004         48.0004
  -3314739.03847  -2532728.63046  23790928.6734   23790935.1994   23790928.848
        44.0004         39.0004
 14  5  5  0 54 30.0000000  0 12G10G08G13G04G20G26G09G17G01G28G07G02
 -10782880.20347  -8391499.25846  23824580.3644   23824587.5524   23824581.072
        43.0004         38.0004
 -25597922.85749 -19890718.11248  19892228.7164   19892234.6544   19892228.958
        54.0004         49.0004
  16579105.70746  12911838.33645  24365796.1514   24365803.7674   24365796.856
        40.0004         35.0004
 -25064633.90748 -19476418.68947  21046082.9764   21046088.9434   21046082.294
        52.0004         47.0004
  -1703554.57746  -1249899.34345  23727734.8304   23727740.6484   23727736.098
        40.0004         35.0004
   -951049.37947   -720422.38146  24056900.4124   24056913.2104   24056900.010
        42.0004         37.0004
 -21228969.09349 -16477166.36048  19995618.7804   19995624.5244   19995618.753
        54.0004         49.0004
 -13135671.78748 -10172737.67647  22752579.0574   22752586.4384   22752579.000
        48.0004         44.0004
  -1996377.48347  -1531543.11646  24195166.5874   24195176.1964   24195166.049
        43.0004         38.0004
  -6513736.78147  -5040727.60946  23445537.1394   23445543.0694   23445537.817
        45.0004         40.0004
 -22325796.06648 -17360456.11448  20637269.1794   20637273.7754   20637268.501
        53.0004         48.0004
  -3405469.82047  -2603427.74746  23773663.3584   23773669.5104   23773663.814
        44.0004         39.0004
 14  5  5  0 55  0.0000000  0 12G10G08G13G04G20G26G09G17G01G28G07G02
 -10843083.26747  -8438410.60746  23813123.9784   23813131.0684   23813124.876
        43.0004         38.0004
 -25609184.60249 -19899493.48448  19890085.7024   19890091.7234   19890086.046
        54.0004         49.0004
  16648045.89946  12965557.92646  24378916.6434   24378920.8744   24378915.597
        40.0004         36.0004
 -25128084.40048 -19525860.59047  21034008.6894   21034014.5984   21034008.436
        52.0004         47.0004
  -1687754.45346  -1237587.48945  23730742.6934   23730749.3214   23730743.380
        40.0004         35.0004
   -958071.86647   -725894.25046  24055564.2554   24055575.0154   24055563.852
        42.0004         37.0004
 -21238096.84449 -16484278.87348  19993881.4324   19993887.4154   19993881.565
        54.0004         49.0004
 -13093416.05148 -10139811.14047  22760620.6054   22760626.6194   22760619.880
        48.0004         44.0004
  -1892894.75447  -1450907.23846  24214860.0034   24214869.1904   24214858.180
        43.0004         38.0004
  -6566010.72647  -5081460.51846  23435591.4094   23435595.9724   23435590.396
        45.0004         41.0004
 -22269900.99448 -17316901.51548  20647905.2964   20647910.4194   20647904.994
        53.0004         48.0004
  -3496002.24947  -2673972.30446  23756435.0754   23756441.9704   23756436.296
        44.0004         39.0004
 14  5  5  0 55 30.0000000  0 12G10G08G13G04G20G26G09G17G01G28G07G02
 -10903478.16447  -8485471.44546  23801630.0364   23801637.6404   23801631.478
        43.0004         39.0004
 -25619788.52849 -19907756.26448  19888067.8644   19888073.5304   19888068.220
        54.0004         49.0004
  16716773.83346  13019112.11745  24391995.8144   24391999.5914   24391994.959
        40.0004         35.0004
 -25191088.92748 -19574954.98847  21022019.0114   21022025.3384   21022018.871
        52.0004         47.0004
  -1671678.88646  -1225060.99045  23733802.0644   23733809.0554   23733802.394
        40.0004         35.0004
   -964785.35847   -731125.32546  24054286.3444   24054297.0684   24054286.666
        42.0004         37.0004
 -21246611.31449 -16490913.51048  19992261.4584   19992266.8284   19992261.433
        54.0004         49.0004
 -13051147.74048 -10106874.80647  22768662.4084   22768670.6994   22768663.770
        48.0004         44.0004
  -1789270.13047  -1370160.79146  24234580.1174   24234586.8634   24234577.558
        43.0004         38.0004
  -6618450.87147  -5122322.95146  23425610.2444   23425617.3694   23425611.689
        45.0004         41.0004
 -22213484.25748 -17272940.42148  20658641.1334   20658645.9094   20658640.858
        52.0004         48.0004
  -3586333.03447  -2744359.75646  23739245.9514   23739251.5294   23739246.056
        44.0004         39.0004
 14  5  5  0 56  0.0000000  0 12G10G08G13G04G20G26G09G17G01G28G07G02
 -10964066.79147  -8532683.22546  23790100.9934   23790108.4384   23790101.987
        43.0004         39.0004
 -25629737.07549 -19915508.35548  19886174.5174   19886180.4794   19886174.854
        54.0004         49.0004
  16785284.99446  13072497.38645  24405031.4384   24405037.4894   24405031.324
        40.0004         35.0004
 -25253648.45348 -19623702.61947  21010114.8124   21010119.8334   21010114.157
        52.0004         47.0004
  -1655329.85946  -1212321.43345  23736913.1334   23736920.8394   23736912.970
        40.0004         35.0004
   -971194.66347   -736119.38246  24053067.3304   24053077.7524   24053066.381
        42.0004         37.0004
 -21254515.47449 -16497072.58148  19990757.2024   19990762.8374   19990757.196
        54.0004         49.0004
 -13008871.86248 -10073932.57147  22776708.9584   22776715.7974   22776707.995
        48.0004         44.0004
  -1685509.33947  -1289308.22346  24254323.2974   24254331.8444   24254322.842
        42.0004         38.0004
  -6671058.74547  -5163316.07346  23415600.7184   23415605.7664   23415600.437
        45.0004         40.0004
 -22156550.88248 -17228576.75148  20669475.0464   20669480.1714   20669474.596
        52.0004         48.0004
  -3676463.10647  -2814590.81346  23722094.4444   23722099.7994   23722095.223
        43.0004         39.0004
 14  5  5  0 56 30.0000000  0 12G10G08G13G04G20G26G09G17G01G28G07G02
 -11024845.74947  -8580043.33746  23778536.3884   23778541.3644   23778536.511
        43.0004         39.0004
 -25639026.83249 -19922747.10648  19884406.8964   19884412.5354   19884407.137
        54.0004         49.0004
  16853580.40346  13125714.52545  24418028.6784   24418033.9674   24418028.021
        40.0004         35.0004
 -25315758.76448 -19672100.22747  20998295.1194   20998300.8624   20998295.021
        52.0004         47.0004
  -1638703.74946  -1199365.96146  23740075.6094   23740084.4204   23740077.849
        40.0004         36.0004
   -977299.17947   -740875.94446  24051904.6564   24051916.8264   24051904.365
        42.0004         38.0004
 -21261806.84349 -16502754.15848  19989369.9684   19989375.2634   19989369.692
        54.0004         50.0004
 -12966588.68248 -10040984.65647  22784754.2824   22784761.2594   22784754.253
        48.0004         44.0004
  -1581612.89047  -1208349.96346  24274094.7004   24274101.6454   24274093.807
        42.0004         37.0004
  -6723830.34047  -5204436.78146  23405558.9934   23405562.8194   23405558.707
        45.0004         40.0004
 -22099100.87848 -17183810.51348  20680407.4664   20680412.0874   20680406.947
        52.0004         48.0004
  -3766387.84147  -2884661.85546  23704983.0664   23704988.2204   23704983.180
        43.0004         39.0004
 14  5  5  0 57  0.0000000  0 12G10G08G13G04G20G26G09G17G01G28G07G02
 -11085813.53347  -8627550.59246  23766932.3704   23766939.5194   23766934.020
        43.0004         39.0004
 -25647656.93349 -19929471.83948  19882764.2914   19882770.5834   19882764.816
        54.0004         49.0004
  16921659.05046  13178762.80245  24430981.0544   24430990.4084   24430982.333
        40.0004         35.0004
 -25377417.32548 -19720145.81947  20986562.5034   20986567.8114   20986561.681
        52.0004         47.0004
  -1621799.11646  -1186193.44946  23743292.7154   23743301.7794   23743293.821
        40.0004         36.0004
   -983100.58047   -745396.30646  24050800.4544   24050811.5364   24050800.880
        42.0004         38.0004
 -21268485.15549 -16507958.01848  19988099.0704   19988104.6404   19988099.031
        54.0004         50.0004
 -12924300.42048 -10008032.77247  22792802.1014   22792809.4464   22792801.147
        48.0004         43.0004
  -1477583.30547  -1127287.94146  24293889.3084   24293899.2434   24293889.881
        42.0004         37.0004
  -6776763.69047  -5245683.52746  23395485.9654   23395490.2254   23395485.773
        45.0004         40.0004
 -22041136.37448 -17138643.35948  20691437.7404   20691442.6364   20691437.735
        52.0004         48.0004
  -3856104.89247  -2954571.08446  23687909.1754   23687915.4944   23687910.541
        44.0004         39.0004
 14  5  5  0 57 30.0000000  0 12G10G08G13G04G20G26G09G17G01G28G07G02
 -11146968.21947  -8675203.46646  23755295.1424   23755303.0034   23755295.919
        43.0004         39.0004
 -25655626.12949 -19935681.57948  19881248.1774   19881254.2304   19881248.434
        54.0004         49.0004
  16989520.76146  13231642.00045  24443896.9944   24443904.3804   24443895.630
        40.0004         35.0004
 -25438621.37848 -19767837.24247  20974914.8854   20974920.8134   20974914.799
        52.0004         47.0004
  -1604614.07646  -1172802.46346  23746562.0184   23746571.1824   23746563.890
        40.0004         36.0004
   -988599.51947   -749680.98246  24049754.1024   24049765.0894   24049753.798
        42.0004         38.0004
 -21274549.66349 -16512683.59548  19986944.6384   19986950.6274   19986944.881
        54.0004         50.0004
 -12882008.53948  -9975078.07747  22800849.2584   22800856.4724   22800849.000
        48.0004         43.0004
  -1373422.38446  -1046123.59246  24313711.4674   24313721.2784   24313711.089
        41.0004         37.0004
  -6829856.03447  -5287054.15246  23385382.8244   23385388.0234   23385382.351
        45.0004         40.0004
 -21982658.59848 -17093076.26048  20702565.4964   20702570.7694   20702565.262
        52.0004         48.0004
  -3945611.25247  -3024316.14546  23670877.2154   23670882.8284   23670877.929
        44.0004         39.0004
 14  5  5  0 58  0.0000000  0 12G10G08G13G04G20G26G09G17G01G28G07G02
 -11208311.67947  -8723003.45146  23743621.4874   23743629.5674   23743623.270
        43.0004         39.0004
 -25662936.84049 -19941378.21348  19879856.5804   19879862.6844   19879856.880
        54.0004         49.0004
  17057161.11046  13284348.71445  24456770.8324   24456774.6504   24456767.343
        40.0004         35.0004
 -25499372.05348 -19815175.38347  20963354.5914   20963360.3664   20963354.636
        52.0004         47.0004
  -1587150.37646  -1159194.32646  23749885.1124   23749893.3514   23749887.039
        40.0004         36.0004
   -993800.90447   -753733.80446  24048763.4494   24048776.7604   24048763.850
        43.0004         38.0004
 -21280003.25349 -16516933.12548  19985907.3024   19985912.6774   19985907.069
        54.0004         50.0004
 -12839718.27048  -9942124.62247  22808896.7944   22808904.3734   22808896.818
        48.0004         43.0004
  -1269135.91746   -964861.39546  24333557.1744   24333566.9964   24333556.299
        41.0004         36.0004
  -6883109.18647  -5328550.08746  23375248.6464   23375253.4954   23375248.921
        45.0004         40.0004
 -21923672.78548 -17047113.28748  20713790.6494   20713795.0034   20713790.377
        52.0004         48.0004
  -4034907.85347  -3093897.75646  23653884.7864   23653888.9844   23653885.206
        44.0004         39.0004
 14  5  5  0 58 30.0000000  0 12G10G08G13G04G20G26G09G17G01G28G07G02
 -11269840.09847  -8770947.56946  23731913.6104   23731920.6624   23731915.205
        44.0004         39.0004
 -25669585.84349 -19946559.23448  19878591.4714   19878597.4234   19878591.937
        54.0004         49.0004
  17124581.62946  13336884.12845  24469597.9694   24469602.9344   24469596.851
        40.0004         35.0004
 -25559664.65948 -19862156.58647  20951881.7274   20951886.6394   20951881.341
        52.0004         47.0004
  -1569403.96046  -1145365.88746  23753265.5304   23753268.6444   23753264.105
        40.0004         36.0004
   -998703.79447   -757554.02446  24047831.3774   24047841.3344   24047830.879
        43.0004         38.0004
 -21284843.35949 -16520704.62048  19984985.9854   19984991.6204   19984986.164
        54.0004         50.0004
 -12797429.59348  -9909172.41247  22816945.2334   22816951.8534   22816944.064
        48.0004         43.0004
  -1164723.87946   -883501.37446  24353426.7634   24353435.1124   24353424.906
        41.0004         36.0004
  -6936518.26547  -5370167.53746  23365086.5324   23365090.2664   23365085.520
        45.0004         40.0004
 -21864178.53148 -17000754.13148  20725112.0134   20725116.5994   20725111.307
        52.0004         48.0004
  -4123989.50647  -3163311.87946  23636932.9364   23636937.8134   23636933.281
        44.0004         39.0004
 14  5  5  0 59  0.0000000  0 12G10G08G13G04G20G26G09G17G01G28G07G02
 -11331551.22447  -8819034.03846  23720170.8554   23720177.0704   23720171.518
        44.0004         39.0004
 -25675571.93949 -19951223.70748  19877452.6854   19877458.0104   19877452.642
        54.0004         49.0004
  17191781.94946  13389247.94345  24482384.9374   24482390.1424   24482385.440
        40.0004         35.0004
 -25619496.44448 -19908778.70947  20940496.0084   20940501.9574   20940495.570
        52.0004         47.0004
  -1551372.66146  -1131315.48446  23756693.9784   23756701.6014   23756695.446
        40.0004         36.0004
  -1003309.08347   -761142.34946  24046954.7874   24046965.8434   24046954.238
        43.0004         38.0004
 -21289069.09049 -16523997.37548  19984182.1034   19984187.3044   19984182.042
        54.0004         50.0004
 -12755144.08048  -9876222.66947  22824991.4944   22824998.7844   22824990.801
        48.0004         43.0004
  -1060188.09146   -802044.92146  24373318.5144   24373327.5544   24373317.091
        41.0004         36.0004
  -6990080.81747  -5411904.55946  23354891.8754   23354898.1634   23354892.947
        45.0004         40.0004
 -21804177.03548 -16953999.71348  20736529.7914   20736534.3714   20736529.519
        52.0004         48.0004
  -4212853.08547  -3232556.07446  23620023.1864   23620027.2364   23620022.731
        44.0004         39.0004
 14  5  5  0 59 30.0000000  0 12G10G08G13G04G20G26G09G17G01G28G07G02
 -11393447.70347  -8867264.96146  23708391.9314   23708399.1104   23708393.123
        44.0004         39.0004
 -25680898.21949 -19955374.03848  19876438.9734   19876444.8064   19876439.220
        54.0004         49.0004
  17258757.29646  13441436.46745  24495130.8444   24495136.0924   24495130.317
        40.0004         35.0004
 -25678868.95348 -19955042.95447  20929197.2384   20929203.3904   20929197.188
        52.0004         47.0004
  -1533059.17446  -1117045.16546  23760180.7974   23760186.9784   23760180.538
        40.0004         36.0004
  -1007622.36547   -764503.13646  24046133.7544   24046144.6594   24046133.159
        43.0004         38.0004
 -21292684.17349 -16526814.30948  19983494.0514   19983499.5004   19983494.128
        54.0004         50.0004
 -12712867.30548  -9843279.73447  22833036.1254   22833042.6014   22833036.089
        48.0004         44.0004
   -955535.03146   -720497.09146  24393230.8244   24393241.2904   24393232.153
        41.0004         36.0004
  -7043798.85447  -5453762.75146  23344670.5964   23344674.7904   23344670.333
        45.0004         40.0004
 -21743674.52348 -16906854.89748  20748042.8294   20748047.5754   20748042.420
        52.0004         48.0004
  -4301500.15647  -3301631.57246  23603153.8514   23603159.2464   23603154.094
        44.0004         39.0004
 14  5  5  1  0  0.0000000  0 12G10G08G13G04G20G26G09G17G01G28G07G02
 -11455524.60647  -8915636.47146  23696579.7174   23696584.8114   23696580.043
        44.0004         39.0004
 -25685560.01249 -19959006.58848  19875551.5924   19875557.3174   19875551.844
        54.0004         49.0004
  17325510.61646  13493451.98345  24507835.6834   24507840.1464   24507833.276
        40.0004         35.0004
 -25737776.52548 -20000944.91247  20917987.5784   20917993.3464   20917987.324
        52.0004         47.0004
  -1514458.52246  -1102551.08846  23763718.3744   23763727.9764   23763719.944
        40.0004         36.0004
  -1011641.47647   -767634.70446  24045368.2324   24045379.6304   24045368.861
        43.0004         38.0004
 -21295684.63249 -16529152.30448  19982923.2824   19982928.6744   19982923.165
        54.0004         50.0004
 -12670597.88948  -9810342.53347  22841079.9684   22841087.3774   22841079.550
        48.0004         44.0004
   -850763.37046   -638856.82146  24413170.2394   24413180.1874   24413169.359
        41.0004         36.0004
  -7097666.51647  -5495737.53046  23334418.6734   23334424.6634   23334419.898
        45.0004         40.0004
 -21682669.21648 -16859318.30148  20759651.9314   20759656.6954   20759651.921
        52.0004         48.0004
  -4389924.63147  -3370533.61746  23586327.2244   23586332.2954   23586327.912
        44.0004         39.0004
 14  5  5  1  0 30.0000000  0 12G10G08G13G04G20G26G09G17G01G28G07G02
 -11517782.95347  -8964149.37746  23684732.7804   23684739.1944   23684732.648
        44.0004         39.0004
 -25689559.80249 -19962123.30148  19874790.5934   19874796.3994   19874790.955
        54.0004         49.0004
  17392037.86246  13545291.34245  24520494.1304   24520501.0284   24520493.647
        40.0004         35.0004
 -25796219.59048 -20046484.91947  20906866.5964   20906871.9134   20906866.159
        52.0004         47.0004
  -1495571.91846  -1087834.20546  23767315.6584   23767320.6764   23767313.225
        40.0004         36.0004
  -1015370.67147   -770540.35146  24044659.2484   24044670.0224   24044658.639
        43.0004         38.0004
 -21298073.33449 -16531013.61048  19982468.4624   19982473.8604   19982468.193
        54.0004         50.0004
 -12628340.82648  -9777414.95447  22849121.0504   22849128.5654   22849121.003
        48.0004         44.0004
   -745878.45746   -557128.33646  24433129.3174   24433137.7664   24433127.942
        41.0004         36.0004
  -7151684.60647  -5537829.52946  23324140.7434   23324146.4794   23324140.721
        45.0004         40.0004
 -21621165.74048 -16811393.50548  20771355.6624   20771360.0864   20771355.156
        52.0004         48.0004
  -4478126.70547  -3439262.36646  23569541.9484   23569547.3994   23569543.178
        44.0004         39.0004
 14  5  5  1  1  0.0000000  0 12G10G08G13G04G20G26G09G17G01G28G07G02
 -11580218.86947  -9012800.64846  23672850.7104   23672857.1534   23672851.622
        44.0004         39.0004
 -25692894.56749 -19964721.80848  19874156.2114   19874161.8254   19874156.422
        54.0004         49.0004
  17458340.61746  13596955.76445  24533111.7864   24533119.0334   24533109.644
        40.0004         35.0004
 -25854193.67448 -20091659.47947  20895834.6314   20895839.8754   20895833.998
        52.0004         47.0004
  -1476395.50246  -1072891.49845  23770963.3184   23770967.5314   23770963.232
        40.0004         35.0004
  -1018809.21047   -773219.52946  24044004.7274   24044015.2144   24044004.723
        43.0004         38.0004
 -21299847.77349 -16532396.27048  19982130.8684   19982136.4094   19982130.798
        54.0004         50.0004
 -12586095.58948  -9744496.59747  22857160.4044   22857166.6424   22857160.206
        48.0004         44.0004
   -640880.22846   -475311.53146  24453109.7414   24453117.5134   24453108.873
        41.0004         36.0004
  -7205848.51047  -5580035.14446  23313832.8594   23313838.4404   23313833.169
        45.0004         40.0004
 -21559164.16948 -16763080.59648  20783154.3654   20783158.8224   20783153.907
        52.0004         48.0004
  -4566101.87447  -3507814.30246  23552801.6804   23552806.6034   23552801.178
        44.0004         39.0004
 14  5  5  1  1 30.0000000  0 12G10G08G13G04G20G26G09G17G01G28G07G02
 -11642832.77147  -9061590.60346  23660936.1984   23660941.2514   23660936.643
        44.0004         39.0004
 -25695565.67249 -19966803.17748  19873647.8044   19873653.5194   19873648.051
        54.0004         49.0004
  17524416.01046  13648442.99445  24545683.0414   24545690.8114   24545683.914
        40.0004         35.0004
 -25911698.74148 -20136468.58547  20884891.7774   20884896.8394   20884891.271
        52.0004         47.0004
  -1456930.07146  -1057723.56745  23774668.5574   23774672.7694   23774667.060
        40.0004         35.0004
  -1021960.64947   -775674.98746  24043404.8894   24043415.4984   24043403.552
        43.0004         38.0004
 -21301009.91449 -16533301.81848  19981909.8274   19981915.0504   19981909.703
        54.0004         50.0004
 -12543866.11848  -9711590.51247  22865196.4064   22865203.4484   22865196.292
        48.0004         44.0004
   -535773.12346   -393409.87946  24473110.4734   24473119.5324   24473110.483
        41.0004         37.0004
  -7260158.38647  -5622354.51046  23303499.6344   23303503.5484   23303498.836
        45.0004         40.0004
 -21496668.55748 -16714382.71248  20795046.5574   20795051.3334   20795046.416
        52.0004         48.0004
  -4653849.48847  -3576188.93946  23536103.9174   23536108.5244   23536103.166
        44.0004         39.0004
 14  5  5  1  2  0.0000000  0 12G10G08G13G04G20G26G09G17G01G28G07G02
 -11705623.99747  -9110518.73946  23648986.7504   23648992.7354   23648987.387
        44.0004         39.0004
 -25697573.40349 -19968367.62948  19873266.0434   19873271.6394   19873266.146
        54.0004         49.0004
  17590262.75246  13699752.09245  24558215.2314   24558221.6474   24558213.470
        40.0004         35.0004
 -25968733.22248 -20180910.99147  20874038.2994   20874043.3054   20874037.855
        52.0004         47.0004
  -1437174.59946  -1042329.64145  23778424.7814   23778434.9224   23778425.802
        40.0004         35.0004
  -1024827.24147   -777908.49346  24042859.5094   24042869.1304   24042858.935
        42.0004         38.0004
 -21301560.50449 -16533730.82948  19981804.9864   19981810.3904   19981804.731
        54.0004         50.0004
 -12501655.34348  -9678698.99647  22873229.0394   22873235.6404   22873228.400
        48.0004         44.0004
   -430560.37446   -311425.91046  24493131.4584   24493139.9314   24493131.166
        41.0004         37.0004
  -7314612.57847  -5664786.33746  23293136.1174   23293141.3334   23293136.002
        45.0004         40.0004
 -21433681.40148 -16665301.80448  20807032.8254   20807037.4064   20807032.173
        52.0004         48.0004
  -4741367.75747  -3644384.85246  23519448.1614   23519454.1164   23519449.185
        44.0004         39.0004
 14  5  5  1  2 30.0000000  0 12G10G08G13G04G20G26G09G17G01G28G07G02
 -11768589.01947  -9159582.31546  23637004.9544   23637011.3364   23637005.059
        44.0004         39.0004
 -25698915.25349 -19969413.21448  19873010.5584   19873016.4024   19873010.730
        54.0004         49.0004
  17655881.47246  13750883.48045  24570701.2904   24570708.6624   24570700.439
        39.0004         35.0004
 -26025293.61348 -20224983.98048  20863274.5474   20863280.6884   20863274.539
        52.0004         48.0004
  -1417126.37946  -1026707.59945  23782239.1104   23782246.2044   23782240.942
        40.0004         35.0004
  -1027409.06647   -779920.08146  24042366.9814   24042378.4494   24042366.691
        42.0004         38.0004
 -21301497.80149 -16533681.95248  19981816.8774   19981822.2324   19981816.706
        54.0004         50.0004
 -12459463.65748  -9645822.35847  22881257.3584   22881264.5234   22881257.369
        48.0004         44.0004
   -325242.71546   -229360.20146  24513174.6824   24513179.9684   24513172.138
        41.0004         37.0004
  -7369207.89247  -5707328.12846  23282747.2464   23282752.4594   23282746.869
        45.0004         40.0004
 -21370203.53148 -16615838.52448  20819112.3724   20819116.9244   20819111.819
        52.0004         48.0004
  -4828652.51347  -3712398.81246  23502838.5864   23502844.6594   23502839.393
        44.0004         39.0004
 14  5  5  1  3  0.0000000  0 12G10G08G13G04G20G26G09G17G01G28G07G02
 -11831729.15147  -9208782.33346  23624989.5204   23624995.7954   23624990.072
        44.0004         39.0004
 -25699593.78049 -19969941.92248  19872881.2404   19872887.2564   19872881.362
        54.0004         49.0004
  17721268.48946  13801834.34645  24583142.4414   24583149.7114   24583143.660
        39.0004         35.0004
 -26081380.42548 -20268687.95447  20852601.8964   20852607.5894   20852601.230
        52.0004         47.0004
  -1396786.82746  -1010858.53945  23786110.6644   23786117.5954   23786111.515
        40.0004         35.0004
  -1029710.56347   -781713.23846  24041929.4224   24041940.7494   24041928.788
        42.0004         38.0004
 -21300824.86449 -16533157.56648  19981944.6944   19981950.3664   19981944.877
        54.0004         50.0004
 -12417296.01748  -9612964.45147  22889281.5764   22889288.8604   22889281.015
        48.0004         44.0004
   -219825.45246   -147216.86346  24533233.8674   24533242.7234   24533232.853
        41.0004         37.0004
  -7423944.58047  -5749980.08646  23272330.1484   23272337.3784   23272331.266
        45.0004         40.0004
 -21306239.75748 -16565996.62248  20831284.1384   20831288.9554   20831283.728
        52.0004         48.0004
  -4915704.43347  -3780231.36546  23486273.2724   23486280.1474   23486273.815
        44.0004         39.0004
 14  5  5  1  3 30.0000000  0 12G10G08G13G04G20G26G09G17G01G28G07G02
 -11895039.03347  -9258114.62246  23612941.6074   23612948.5274   23612942.908
        44.0004         39.0004
 -25699604.48849 -19969950.25848  19872879.2744   19872885.1124   19872879.379
        54.0004         49.0004
  17786426.94546  13852607.09245  24595541.8164   24595549.0484   24595542.857
        39.0004         35.0004
 -26136987.62248 -20312018.19747  20842019.8964   20842025.8814   20842019.851
        52.0004         47.0004
  -1376150.56946   -994778.27645  23790038.8084   23790045.8634   23790038.500
        40.0004         35.0004
  -1031729.19647   -783285.98346  24041544.5754   24041553.9884   24041544.297
        42.0004         38.0004
 -21299537.51349 -16532154.42148  19982189.4594   19982195.1374   19982189.495
        54.0004         49.0004
 -12375149.92648  -9580123.32547  22897303.1124   22897308.4254   22897301.652
        48.0004         44.0004
   -114306.93446    -64994.62446  24553312.6784   24553321.5174   24553312.510
        41.0004         37.0004
  -7478816.48347  -5792737.40946  23261888.3314   23261894.8564   23261889.050
        45.0004         40.0004
 -21241788.35248 -16515774.74548  20843549.1424   20843553.1684   20843548.657
        52.0004         48.0004
  -5002516.93847  -3847877.34946  23469753.2304   23469757.8074   23469753.722
        44.0004         39.0004
 14  5  5  1  4  0.0000000  0 12G10G08G13G04G20G26G09G17G01G28G07G02
 -11958520.51547  -9307580.62046  23600861.7224   23600867.6624   23600862.822
        44.0004         39.0004
 -25698950.20849 -19969440.41048  19873003.6964   19873009.5854   19873004.145
        54.0004         49.0004
  17851352.62146  13903198.46645  24607899.6034   24607904.6304   24607896.803
        39.0004         35.0004
 -26192116.55348 -20354975.78048  20831529.2524   20831534.8374   20831529.273
        52.0004         48.0004
  -1355219.34046   -978468.19245  23794020.4934   23794026.2064   23794021.445
        39.0004         34.0004
  -1033470.07147   -784642.30446  24041214.4674   24041223.0784   24041213.472
        42.0004         38.0004
 -21297639.07749 -16530675.10148  19982551.0424   19982556.4824   19982550.914
        54.0004         50.0004
 -12333031.42948  -9547303.71247  22905316.9794   22905323.8894   22905316.444
        48.0004         44.0004
     -8692.94347     17302.01946  24573410.6614   24573418.7124   24573409.759
        42.0004         37.0004
  -7533825.00747  -5835601.18346  23251421.3424   23251426.8824   23251421.561
        45.0004         40.0004
 -21176854.76248 -16465177.13048  20855905.1054   20855910.1414   20855905.052
        52.0004         48.0004
  -5089090.90247  -3915337.46346  23453278.8174   23453284.8694   23453279.462
        44.0004         39.0004
 14  5  5  1  4 30.0000000  0 12G10G08G13G04G20G26G09G17G01G28G07G02
 -12022172.10247  -9357179.17946  23588749.7924   23588755.1004   23588749.694
        44.0004         39.0004
 -25697630.67349 -19968412.19348  19873255.1044   19873260.5564   19873254.833
        54.0004         49.0004
  17916045.07846  13953608.06045  24620206.3374   24620214.3044   24620207.753
        39.0004         35.0004
 -26246765.33148 -20397559.19747  20821130.0544   20821135.9454   20821128.891
        52.0004         47.0004
  -1333992.07646   -961927.38745  23798060.3734   23798066.2604   23798059.535
        39.0004         34.0004
  -1034934.93047   -785783.53746  24040935.0204   24040944.3584   24040934.584
        42.0004         38.0004
 -21295129.94549 -16528719.91748  19983028.4554   19983033.8324   19983028.523
        54.0004         50.0004
 -12290942.26548  -9514506.95347  22913326.0494   22913334.6794   22913325.813
        48.0004         44.0004
     97013.93047     99671.02646  24593525.8394   24593536.6204   24593525.216
        42.0004         37.0004
  -7588968.25647  -5878569.93946  23240927.2024   23240934.3774   23240927.915
        45.0004         40.0004
 -21111441.23648 -16414205.55348  20868353.1574   20868358.0184   20868352.675
        52.0004         48.0004
  -5175423.91947  -3982609.82746  23436849.6134   23436854.4154   23436850.691
        44.0004         40.0004
 14  5  5  1  5  0.0000000  0 12G10G08G13G04G20G26G09G17G01G28G07G02
 -12085991.75147  -9406908.69246  23576604.6174   23576610.6594   23576605.495
        44.0004         39.0004
 -25695645.27149 -19966865.11248  19873632.4894   19873638.0684   19873632.948
        54.0004         49.0004
  17980503.60146  14003835.42245  24632475.6524   24632481.3254   24632473.671
        39.0004         35.0004
 -26300931.23748 -20439766.36347  20810822.8094   20810828.0764   20810823.139
        52.0004         47.0004
  -1312467.51046   -945154.98245  23802158.7404   23802162.4304   23802157.879
        39.0004         34.0004
  -1036125.01947   -786710.65746  24040706.7074   24040720.4414   24040707.116
        42.0004         38.0004
 -21292009.95249 -16526288.73648  19983622.1454   19983627.5374   19983621.915
        54.0004         50.0004
 -12248883.96648  -9481734.24147  22921328.8104   22921337.0364   22921329.107
        48.0004         44.0004
    202811.66846    182110.83346  24613659.0454   24613667.5324   24613657.349
        41.0004         37.0004
  -7644243.28347  -5921641.38546  23230408.8094   23230415.6894   23230409.618
        45.0004         41.0004
 -21045549.67848 -16362861.47848  20880891.7494   20880896.4184   20880891.531
        52.0004         48.0004
  -5261513.28347  -4049692.33446  23420468.1394   23420472.2564   23420467.720
        44.0004         39.0004
 14  5  5  1  5 30.0000000  0 12G10G08G13G04G20G26G09G17G01G28G07G02
 -12149977.18147  -9456767.38546  23564429.1544   23564435.5194   23564429.835
        44.0004         39.0004
 -25692992.94249 -19964798.35348  19874137.0194   19874143.0434   19874137.381
        54.0004         49.0004
  18044728.25746  14053880.53545  24644696.7454   24644701.5744   24644695.997
        40.0004         35.0004
 -26354611.90948 -20481595.43547  20800607.3464   20800612.8954   20800606.758
        52.0004         47.0004
  -1290643.37846   -928149.09945  23806309.6954   23806315.0964   23806310.180
        39.0004         35.0004
  -1037041.30147   -787424.43846  24040533.1784   24040543.7624   24040532.786
        42.0004         38.0004
 -21288278.60349 -16523381.17348  19984332.0114   19984337.7624   19984332.166
        54.0004         50.0004
 -12206858.12048  -9448986.80447  22929327.3614   22929333.8864   22929326.505
        48.0004         44.0004
    308698.55646    264620.14046  24633807.0124   24633817.4844   24633807.122
        41.0004         37.0004
  -7699647.48647  -5964813.48646  23219865.9394   23219871.9054   23219866.603
        45.0004         41.0004
 -20979181.69048 -16311146.16148  20893521.1064   20893526.1614   20893521.127
        52.0004         48.0004
  -5347355.98447  -4116582.64346  23404132.8364   23404137.5764   23404132.871
        44.0004         39.0004
 14  5  5  1  6  0.0000000  0 12G10G08G13G04G20G26G09G17G01G28G07G02
 -12214124.67147  -9506752.36446  23552221.7874   23552227.4784   23552222.706
        44.0004         40.0004
 -25689671.65549 -19962210.32848  19874768.8904   19874774.9614   19874769.684
        54.0004         49.0004
  18108720.01346  14103744.15845  24656872.9794   24656880.4884   24656873.412
        40.0004         35.0004
 -26407803.67348 -20523043.52148  20790485.4414   20790490.7954   20790484.977
        52.0004         48.0004
  -1268516.61246   -910907.40645  23810520.7014   23810525.9014   23810519.737
        39.0004         34.0004
  -1037683.74947   -787924.82446  24040410.9424   24040422.3384   24040410.054
        42.0004         38.0004
 -21283934.42949 -16519996.08648  19985158.7224   19985164.3614   19985158.805
        54.0004         50.0004
 -12164864.53548  -9416264.52247  22937318.9014   22937324.3934   22937317.594
        48.0004         44.0004
    414673.92946    347198.36146  24653973.1554   24653980.7994   24653973.688
        41.0004         37.0004
  -7755176.95847  -6008083.20446  23209298.7964   23209305.2264   23209299.182
        45.0004         40.0004
 -20912337.90148 -16259060.08848  20906241.4154   20906245.8984   20906240.797
        52.0004         48.0004
  -5432947.99347  -4183277.59346  23387845.0554   23387849.3334   23387845.461
        44.0004         40.0004
 14  5  5  1  6 30.0000000  0 12G10G08G13G04G20G26G09G17G01G28G07G02
 -12278439.02047  -9556867.36546  23539983.0954   23539989.9874   23539983.837
        44.0004         40.0004
 -25685687.65849 -19959105.90448  19875527.2254   19875532.9374   19875527.629
        54.0004         49.0004
  18172471.67246  14153420.71946  24669005.3374   24669012.7704   24669004.634
        40.0004         36.0004
 -26460510.88148 -20564114.03948  20780455.7844   20780460.8794   20780455.504
        52.0004         48.0004
  -1246092.29246   -893433.85345  23814788.0564   23814794.1934   23814788.417
        39.0004         35.0004
  -1038060.58247   -788218.24446  24040338.5914   24040349.0024   24040338.070
        42.0004         38.0004
 -21278984.10649 -16516138.67548  19986100.5784   19986106.6094   19986100.575
        54.0004         50.0004
 -12122912.12848  -9383574.32447  22945300.6164   22945307.2154   22945300.954
        48.0004         44.0004
    520728.92846    429838.67246  24674156.1974   24674163.8994   24674155.732
        41.0004         36.0004
  -7810835.84047  -6051453.76646  23198707.8824   23198713.4294   23198708.479
        45.0004         40.0004
 -20845026.78848 -16206609.86948  20919050.3224   20919055.0864   20919050.001
        52.0004         48.0004
  -5518293.00047  -4249780.08246  23371604.1794   23371609.2474   23371604.519
        44.0004         40.0004
 14  5  5  1  7  0.0000000  0 12G10G08G13G04G20G26G09G17G01G28G07G02
 -12342915.03347  -9607108.33346  23527713.6044   23527720.2894   23527714.134
        45.0004         40.0004
 -25681036.65349 -19955481.73748  19876412.7394   19876418.3534   19876412.867
        54.0004         49.0004
  18235986.15046  14202912.43946  24681091.4414   24681099.4434   24681091.822
        40.0004         36.0004
 -26512727.78848 -20604802.51348  20770518.9234   20770524.7124   20770518.614
        52.0004         48.0004
  -1223365.33046   -875724.50045  23819110.0194   23819119.1214   23819112.015
        39.0004         34.0004
  -1038169.43247   -788302.83946  24040317.8034   24040328.7934   24040317.897
        42.0004         38.0004
 -21273423.71549 -16511805.89348  19987159.1474   19987164.7024   19987159.105
        54.0004         50.0004
 -12080998.90748  -9350914.66547  22953277.3404   22953284.0154   22953276.266
        48.0004         43.0004
    626865.07746    512542.19246  24694352.9704   24694361.4264   24694353.261
        41.0004         36.0004
  -7866617.94147  -6094920.32546  23188092.9984   23188099.8424   23188093.306
        45.0004         41.0004
 -20777246.65448 -16153794.17148  20931948.1604   20931953.0094   20931947.798
        52.0004         48.0004
  -5603384.74147  -4316085.22946  23355411.4724   23355416.2154   23355411.997
        44.0004         40.0004
 14  5  5  1  7 30.0000000  0 12G10G08G13G04G20G26G09G17G01G28G07G02
 -12407550.58347  -9657473.60746  23515414.1614   23515420.4304   23515414.274
        45.0004         40.0004
 -25675718.09149 -19951337.39848  19877424.5204   19877429.9164   19877424.885
        54.0004         49.0004
  18299263.63246  14252219.49845  24693134.3974   24693139.8894   24693133.185
        40.0004         35.0004
 -26564451.88748 -20645106.97248  20760675.9894   20760681.8174   20760675.820
        52.0004         48.0004
  -1200334.11846   -857778.05745  23823493.9364   23823501.1614   23823494.906
        39.0004         35.0004
  -1038011.63147   -788179.66646  24040348.2834   24040358.9004   24040348.135
        42.0004         38.0004
 -21267253.31949 -16506997.77248  19988332.8184   19988338.8274   19988332.790
        54.0004         50.0004
 -12039126.07348  -9318286.47547  22961244.6964   22961252.4794   22961244.465
        48.0004         44.0004
    733080.42246    595307.44245  24714567.8574   24714573.8514   24714564.640
        40.0004         35.0004
  -7922520.64847  -6138480.86846  23177455.4974   23177460.5034   23177455.461
        45.0004         41.0004
 -20708999.54848 -16100614.60948  20944935.3194   20944940.1004   20944934.919
        52.0004         48.0004
  -5688220.58247  -4382190.96946  23339267.9024   23339272.6254   23339268.362
        44.0004         40.0004
 14  5  5  1  8  0.0000000  0 12G10G08G13G04G20G26G09G17G01G28G07G02
 -12472345.62947  -9707963.18246  23503084.0834   23503090.3894   23503084.622
        45.0004         40.0004
 -25669733.71949 -19946674.24448  19878563.6014   19878568.9934   19878563.575
        54.0004         49.0004
  18362301.48946  14301339.81645  24705128.9204   24705135.6514   24705129.332
        39.0004         35.0004
 -26615683.06748 -20685027.34448  20750927.0754   20750932.8734   20750927.359
        52.0004         48.0004
  -1176999.05846   -839594.83645  23827935.1614   23827941.7934   23827935.753
        40.0004         35.0004
  -1037590.68747   -787851.43546  24040428.3914   24040438.5654   24040428.090
        43.0004         38.0004
 -21260475.17649 -16501716.09348  19989622.7984   19989628.3354   19989622.944
        54.0004         50.0004
 -11997297.45748  -9285692.74147  22969204.7124   22969212.2884   22969204.510
        48.0004         43.0004
    839370.83346    678131.17245  24734791.7874   24734799.2004   24734791.329
        40.0004         35.0004
  -7978543.50647  -6182135.04046  23166794.0544   23166798.7614   23166794.428
        46.0004         41.0004
 -20640289.50248 -16047074.30948  20958010.4394   20958015.1554   20958010.156
        52.0004         48.0004
  -5772799.87947  -4448096.80646  23323172.9254   23323177.1264   23323173.291
        45.0004         40.0004
 14  5  5  1  8 30.0000000  0 12G10G08G13G04G20G26G09G17G01G28G07G02
 -12537299.32047  -9758576.37946  23490723.6154   23490729.2604   23490724.340
        45.0004         40.0004
 -25663084.08049 -19941492.69448  19879828.7744   19879834.4454   19879829.161
        54.0004         49.0004
  18425098.02646  14350272.09445  24717080.2964   24717084.3094   24717079.206
        39.0004         35.0004
 -26666420.45248 -20724562.94848  20741271.9824   20741277.3104   20741271.252
        52.0004         48.0004
  -1153359.95546   -821174.71345  23832434.0154   23832442.5104   23832433.634
        39.0004         35.0004
  -1036909.13847   -787320.14646  24040557.7524   24040568.6534   24040557.495
        43.0004         38.0004
 -21253090.43449 -16495961.73048  19991028.3124   19991033.4054   19991028.391
        54.0004         50.0004
 -11955515.63548  -9253135.45647  22977155.4314   22977161.9834   22977155.098
        48.0004         44.0004
 -17959307.08246 -13970189.22745  24755031.2684   24755043.5204   24755031.773
        39.0004         35.0004
  -8034685.15147  -6225881.76546  23156110.7504   23156115.7574   23156110.936
        46.0004         41.0004
 -20571120.03448 -15993176.02248  20971172.8254   20971177.7424   20971172.543
        52.0004         48.0004
  -5857121.06047  -4513801.52046  23307127.0664   23307131.5414   23307127.962
        45.0004         40.0004
 14  5  5  1  9  0.0000000  0 12G10G08G13G04G20G26G09G17G01G28G07G02
 -12602406.97547  -9809309.54846  23478333.5814   23478339.1214   23478334.621
        45.0004         40.0004
 -25655766.17649 -19935790.42248  19881221.2204   19881226.9754   19881221.527
        54.0004         49.0004
  18487655.35246  14399017.98145  24728983.8294   24728989.1274   24728983.283
        39.0004         35.0004
 -26716659.15448 -20763709.96248  20731712.0614   20731718.0874   20731711.948
        52.0004         48.0004
  -1129412.62646   -802514.37545  23836990.3854   23836996.7144   23836991.470
        40.0004         35.0004
  -1035966.08747   -786585.09346  24040737.2484   24040748.4724   24040736.753
        43.0004         38.0004
 -21245096.66549 -16489732.80548  19992549.3444   19992554.6324   19992549.255
        54.0004         50.0004
 -11913780.08648  -9220614.23847  22985097.8744   22985105.0644   22985097.065
        48.0004         43.0004
 -17852872.85946 -13887253.46845  24775285.0044   24775296.7144   24775284.812
        39.0004         34.0004
  -8090940.64047  -6269717.21646  23145405.9954   23145410.6974   23145405.867
        46.0004         41.0004
 -20501490.42148 -15938919.18147  20984422.7904   20984427.6114   20984422.228
        52.0004         47.0004
  -5941179.05147  -4579301.14846  23291131.1854   23291136.5834   23291132.237
        45.0004         40.0004
 14  5  5  1  9 30.0000000  0 12G10G08G13G04G20G26G09G17G01G28G07G02
 -12667669.74047  -9860163.57646  23465914.2334   23465920.3184   23465915.832
        45.0004         40.0004
 -25647782.88949 -19929569.66648  19882740.5894   19882746.0014   19882740.762
        54.0004         49.0004
  18549970.13446  14447574.88445  24740842.1004   24740848.2294   24740841.235
        39.0004         35.0004
 -26766400.49748 -20802469.43848  20722246.8604   20722252.2544   20722246.428
        52.0004         48.0004
  -1105158.58546   -783615.08245  23841605.6244   23841612.4524   23841606.006
        39.0004         35.0004
  -1034765.89547   -785649.67146  24040965.1904   24040975.9524   24040964.606
        43.0004         38.0004
 -21236496.94549 -16483031.70548  19994185.9284   19994191.5454   19994185.879
        54.0004         50.0004
 -11872094.95748  -9188132.31647  22993030.2814   22993035.8274   22993029.615
        48.0004         43.0004
 -17746371.60456 -13804265.43455  24795554.7895   24795561.1315   24795551.217
        39.0004         34.0004
  -8147310.44647  -6313641.72046  23134678.8634   23134683.8164   23134679.085
        46.0004         41.0004
 -20431405.70248 -15884307.70547  20997759.4384   20997764.4874   20997759.255
        52.0004         47.0004
  -6024974.02947  -4644595.83146  23275185.8184   23275190.2874   23275185.990
        45.0004         40.0004
 14  5  5  1 10  0.0000000  0 12G10G08G13G04G20G26G09G17G01G28G07G02
 -12733086.37047  -9911137.50846  23453466.6224   23453472.1234   23453467.485
        45.0004         40.0004
 -25639134.68249 -19922830.78848  19884386.1584   19884391.7764   19884386.441
        54.0004         49.0004
  18612041.59946  14495942.17945  24752654.5754   24752659.7324   24752652.744
        39.0004         35.0004
 -26815642.65048 -20840839.91948  20712876.3064   20712881.9694   20712875.500
        52.0004         48.0004
  -1080597.36546   -764476.41445  23846277.0634   23846285.3644   23846280.068
        39.0004         35.0004
  -1033310.69847   -784515.54546  24041241.5484   24041252.2374   24041241.419
        43.0004         38.0004
 -21227291.93549 -16475858.94648  19995937.5634   19995943.1544   19995937.349
        54.0004         50.0004
 -11830462.99848  -9155691.82547  23000952.8474   23000959.9194   23000951.784
        48.0004         44.0004
 -17639805.95556 -13721227.23055  24815830.3015   24815839.1365   24815829.393
        38.0004         33.0004
  -8203792.65247  -6357653.82647  23123930.0424   23123934.8764   23123931.069
        46.0004         42.0004
 -20360868.56148 -15829343.69847  21011182.3924   21011187.0954   21011182.013
        52.0004         47.0004
  -6108504.14347  -4709684.13346  23259290.4314   23259295.0264   23259291.091
        45.0004         40.0004
 14  5  5  1 10 30.0000000  0 11G10G08G13G04G20G26G09G17G28G07G02
 -12798651.89547  -9962227.46746  23440989.6604   23440995.5924   23440990.554
        45.0004         40.0004
 -25629818.15049 -19915571.13648  19886158.9874   19886164.6234   19886159.090
        54.0004         49.0004
  18673872.23846  14544121.82245  24764419.3104   24764427.3454   24764418.700
        39.0004         35.0004
 -26864380.40448 -20878817.37448  20703601.5314   20703607.3674   20703601.741
        52.0004         48.0004
  -1055724.02146   -745094.55245  23851014.6644   23851018.5484   23851013.944
        39.0004         35.0004
  -1031598.86847   -783181.45446  24041567.5764   24041578.0924   24041566.456
        42.0004         38.0004
 -21217479.12449 -16468212.58148  19997804.5844   19997810.3344   19997804.493
        54.0004         50.0004
 -11788882.86948  -9123291.72947  23008864.9724   23008872.0154   23008864.713
        48.0004         43.0004
  -8260381.27947  -6401748.86446  23113161.9774   23113168.6824   23113162.184
        46.0004         41.0004
 -20289878.29448 -15774026.61747  21024691.3784   21024695.8814   21024690.920
        52.0004         47.0004
  -6191763.89547  -4774561.75846  23243445.7834   23243450.6644   23243447.383
        45.0004         40.0004
 14  5  5  1 11  0.0000000  0 11G10G08G13G04G20G26G09G17G28G07G02
 -12864369.09747 -10013435.61846  23428484.8024   23428490.5084   23428484.680
        45.0004         40.0004
 -25619838.74049 -19907794.95748  19888057.7714   19888063.7464   19888058.229
        54.0004         49.0004
  18735456.18146  14592109.24545  24776136.8434   24776146.9454   24776138.217
        39.0004         35.0004
 -26912617.53548 -20916404.73448  20694422.2484   20694428.0394   20694421.671
        52.0004         48.0004
  -1030543.19646   -725473.09645  23855805.5704   23855813.5364   23855805.526
        39.0004         35.0004
  -1029637.69347   -781653.07646  24041940.5904   24041951.3204   24041939.990
        42.0004         38.0004
 -21207064.42549 -16460097.20848  19999786.6064   19999792.1974   19999786.569
        54.0004         50.0004
 -11747361.59648  -9090937.47647  23016765.5174   23016772.6224   23016765.265
        48.0004         43.0004
  -8317079.52547  -6445929.30446  23102371.5574   23102378.3274   23102372.910
        46.0004         41.0004
 -20218442.40348 -15718362.28647  21038285.1764   21038289.9504   21038284.613
        52.0004         47.0004
  -6274756.05047  -4839230.88446  23227653.6454   23227656.9914   23227653.227
        45.0004         40.0004
 14  5  5  1 11 30.0000000  0 11G10G08G13G04G20G26G09G17G28G07G02
 -12930233.05847 -10064758.13146  23415950.4194   23415956.3344   23415950.684
        45.0004         40.0004
 -25609192.72349 -19899499.33848  19890083.6514   19890089.5404   19890084.033
        54.0004         49.0004
  18796796.79046  14639907.02545  24787811.1814   24787816.4794   24787810.711
        40.0004         35.0004
 -26960348.44848 -20953597.62848  20685339.9754   20685344.8134   20685339.323
        52.0004         48.0004
  -1005049.82946   -705608.06945  23860658.6214   23860662.7734   23860656.562
        39.0004         35.0004
  -1027424.99847   -779928.72046  24042361.0984   24042370.9454   24042361.333
        42.0004         38.0004
 -21196044.47649 -16451510.22448  20001883.6564   20001889.0144   20001883.472
        54.0004         50.0004
 -11705897.12348  -9058627.50447  23024657.3564   23024662.8604   23024655.959
        48.0004         43.0004
  -8373881.55547  -6490190.60546  23091563.6704   23091568.9754   23091563.961
        46.0004         41.0004
 -20146559.70248 -15662349.79847  21051964.4374   21051968.8534   21051963.953
        52.0004         47.0004
  -6357474.60947  -4903686.81346  23211913.0544   23211917.2704   23211913.232
        45.0004         41.0004
 14  5  5  1 12  0.0000000  0 11G10G08G13G04G20G26G09G17G28G07G02
 -12996240.64947 -10116192.56346  23403389.0664   23403395.3694   23403389.603
        45.0004         40.0004
 -25597878.79249 -19890683.27248  19892236.6634   19892242.4584   19892236.896
        54.0004         49.0004
  18857894.64646  14687515.65045  24799440.5964   24799445.5044   24799437.837
        39.0004         34.0004
 -27007570.01848 -20990393.64148  20676353.6314   20676358.6374   20676353.359
        52.0004         48.0004
 -18308861.14646 -14189097.37245  23865564.7184   23865573.9514   23865565.846
        39.0004         34.0004
  -1024961.21147   -778008.70846  24042831.0034   24042839.3624   24042829.233
        42.0004         38.0004
 -21184418.18249 -16442450.76048  20004095.8654   20004101.6834   20004095.899
        54.0004         50.0004
 -11664489.88448  -9026362.11947  23032536.1694   23032542.1954   23032535.780
        48.0004         43.0004
  -8430783.36647  -6534529.66246  23080735.6104   23080740.7554   23080735.580
        46.0004         41.0004
 -20074231.29148 -15605989.99847  21065727.7154   21065733.0284   21065727.024
        52.0004         47.0004
  -6439915.50047  -4967926.37546  23196225.4284   23196229.2144   23196225.264
        45.0004         41.0004
 14  5  5  1 12 30.0000000  0 11G10G08G13G04G20G26G09G17G28G07G02
 -13062397.88047 -10167743.60546  23390800.5404   23390806.1534   23390800.802
        45.0004         41.0004
 -25585905.01849 -19881353.04948  19894515.0194   19894520.7674   19894515.371
        54.0004         49.0004
  18918741.57346  14734928.73845  24811014.3124   24811021.3834   24811016.455
        39.0004         34.0004
 -27054288.28248 -21026797.46248  20667463.2404   20667468.9624   20667462.634
        53.0004         48.0004
 -18282744.27446 -14168746.52245  23870536.3454   23870544.8854   23870537.539
        39.0004         34.0004
  -1022256.03847   -775900.61346  24043345.0164   24043355.5704   24043344.956
        42.0004         38.0004
 -21172194.09249 -16432925.48348  20006421.9934   20006427.5404   20006422.125
        54.0004         50.0004
 -11623149.55848  -8994148.86747  23040401.8254   23040409.6024   23040402.187
        48.0004         43.0004
  -8487790.59547  -6578950.86046  23069886.6264   23069892.8614   23069887.618
        46.0004         41.0004
 -20001466.83748 -15549290.42947  21079574.0584   21079578.7034   21079573.913
        52.0004         47.0004
  -6522084.49647  -5031954.06746  23180587.3844   23180593.1484   23180588.897
        45.0004         41.0004
 14  5  5  1 13  0.0000000  0 11G10G08G13G04G20G26G09G17G28G07G02
 -13128696.56047 -10219404.86446  23378183.9944   23378190.3084   23378184.530
        45.0004         41.0004
 -25573265.37949 -19871503.96548  19896920.2264   19896926.4044   19896920.816
        54.0004         49.0004
  18979343.14246  14782150.63545  24822550.4644   24822556.4274   24822548.939
        39.0004         34.0004
 -27100495.37948 -21062802.97748  20658670.7724   20658675.9584   20658670.357
        53.0004         48.0004
 -18256311.75446 -14148149.68145  23875564.8594   23875572.9984   23875565.603
        39.0004         34.0004
  -1019305.04247   -773600.96846  24043905.7674   24043917.2144   24043905.837
        42.0004         38.0004
 -21159366.66749 -16422930.07148  20008863.0214   20008868.5234   20008862.926
        54.0004         50.0004
 -11581872.16048  -8961984.65247  23048256.5424   23048264.7304   23048256.845
        48.0004         43.0004
  -8544894.70047  -6623447.55546  23059020.5234   23059026.2174   23059021.291
        46.0004         41.0004
 -19928263.30748 -15492248.72147  21093504.3524   21093509.1024   21093503.712
        52.0004         47.0004
  -6603973.03847  -5095763.22446  23165005.1284   23165009.6404   23165005.665
        45.0004         41.0004
 14  5  5  1 13 30.0000000  0 11G10G08G13G04G20G26G09G17G28G07G02
 -13195128.84347 -10271170.22546  23365542.2484   23365548.6914   23365543.318
        45.0004         41.0004
 -25559954.12549 -19861131.54548  19899453.1684   19899459.5334   19899453.718
        54.0004         49.0004
  19039704.53546  14829185.38345  24834034.5374   24834041.5604   24834035.191
        39.0004         34.0004
 -27146183.85948 -21098404.37648  20649976.1994   20649981.4014   20649975.918
        53.0004         48.0004
 -18229556.37746 -14127301.29745  23880659.5854   23880664.8884   23880658.305
        39.0004         34.0004
  -1016104.10347   -771106.56046  24044514.6904   24044524.3044   24044515.314
        42.0004         38.0004
 -21145930.52849 -16412460.33148  20011420.1774   20011425.5344   20011419.951
        54.0004         50.0004
 -11540653.35148  -8929866.10347  23056101.2254   23056108.0334   23056100.467
        48.0004         43.0004
  -8602087.25047  -6668013.17646  23048138.2314   23048143.2234   23048137.776
        46.0004         41.0004
 -19854617.11248 -15434862.08147  21107518.7094   21107523.1984   21107518.424
        52.0004         47.0004
  -6685572.85447  -5159347.40346  23149477.5724   23149481.1714   23149477.270
        45.0004         41.0004
 14  5  5  1 14  0.0000000  0 11G10G08G13G04G20G26G09G17G28G07G02
 -13261708.55647 -10323050.47046  23352872.5434   23352879.1754   23352873.386
        45.0004         41.0004
 -25545987.05449 -19850248.09948  19902111.3724   19902117.2484   19902111.381
        54.0004         49.0004
  14373549.81646  11193220.56445  24845469.9194   24845480.3844   24845472.454
        39.0004         34.0004
 -27191367.47948 -21133612.38048  20641378.3804   20641383.5354   20641377.671
        53.0004         48.0004
 -18202492.70546 -14106212.69545  23885807.6484   23885816.1724   23885807.648
        39.0004         34.0004
  -1012670.52347   -768430.86146  24045168.7404   24045178.4654   24045167.045
        42.0004         37.0004
 -21131901.99649 -16401528.98948  20014089.1394   20014094.8794   20014089.365
        54.0004         50.0004
 -11499510.53848  -8897806.75547  23063931.1044   23063937.5004   23063929.834
        48.0004         43.0004
  -8659381.38647  -6712657.94846  23037235.0714   23037240.8434   23037235.157
        45.0004         41.0004
 -19780546.12448 -15377144.43847  21121614.4134   21121618.4204   21121613.639
        52.0004         47.0004
  -6766897.35847  -5222717.04346  23134001.1274   23134006.2184   23134002.278
        45.0004         41.0004
 14  5  5  1 14 30.0000000  0 11G10G08G13G04G20G26G09G17G28G07G02
 -13328425.65347 -10375037.75446  23340176.4244   23340182.4824   23340177.371
        45.0004         41.0004
 -25531356.37649 -19838847.56748  19904895.0874   19904901.1894   19904895.705
        54.0004         49.0004
  14433406.58146  11239862.09745  24856859.3594   24856868.4744   24856862.833
        38.0004         34.0004
 -27236036.57148 -21168419.46348  20632878.3784   20632883.0484   20632877.682
        53.0004         48.0004
 -18175111.82046 -14084876.87045  23891020.5804   23891027.3114   23891018.575
        39.0004         34.0004
  -1008998.18747   -765569.12346  24045868.2284   24045876.1914   24045868.011
        42.0004         38.0004
 -21117273.93549 -16390130.47648  20016872.9994   20016878.0844   20016873.094
        54.0004         50.0004
 -11458437.45748  -8865801.74047  23071746.0374   23071753.0664   23071745.842
        48.0004         43.0004
  -8716766.59847  -6757373.68946  23026315.0994   23026320.6684   23026315.136
        45.0004         41.0004
 -19706045.00448 -15319091.61947  21135791.1534   21135795.7004   21135790.675
        52.0004         47.0004
  -6847936.08347  -5285864.00546  23118580.5454   23118584.9774   23118580.668
        46.0004         41.0004
 14  5  5  1 15  0.0000000  0 11G10G08G13G04G20G26G09G17G28G07G02
 -13395279.88147 -10427131.92146  23327453.2454   23327460.5234   23327455.447
        45.0004         41.0004
 -25516063.82449 -19826931.28448  19907805.6914   19907811.5604   19907805.668
        54.0004         49.0004
  14493012.85546  11286308.42745  24868205.4524   24868213.1954   24868205.464
        38.0004         34.0004
 -27280190.95348 -21202825.47148  20624475.6864   20624481.2264   20624475.310
        53.0004         48.0004
 -18147413.79146 -14063293.95845  23896286.9364   23896296.1694   23896290.009
        39.0004         34.0004
  -1005090.39947   -762523.90546  24046610.3184   24046619.5334   24046609.340
        42.0004         38.0004
 -21102048.48049 -16378266.46248  20019770.3704   20019776.3824   20019770.315
        54.0004         50.0004
 -11417437.22747  -8833853.51647  23079548.5884   23079555.6604   23079548.155
        47.0004         43.0004
  -8774242.03547  -6802159.73046  23015378.4304   23015383.1174   23015378.314
        45.0004         41.0004
 -19631117.45648 -15260706.52447  21150049.1164   21150054.1584   21150048.955
        52.0004         47.0004
  -6928688.48547  -5348787.88146  23103214.5124   23103217.9244   23103213.372
        46.0004         41.0004
 14  5  5  1 15 30.0000000  0 11G10G08G13G04G20G26G09G17G28G07G02
 -13462268.50747 -10479330.79046  23314707.4504   23314713.3744   23314707.478
        45.0004         41.0004
 -25500109.19449 -19814499.09748  19910841.8564   19910847.2724   19910841.696
        54.0004         49.0004
  14552368.82546  11332559.72245  24879499.8894   24879509.2624   24879501.073
        38.0004         34.0004
 -27323828.34948 -21236828.63748  20616171.3374   20616177.1484   20616171.002
        53.0004         48.0004
 -18119397.07146 -14041462.69545  23901618.4134   23901626.5794   23901619.515
        39.0004         34.0004
  -1000948.21447   -759296.05346  24047399.5564   24047409.2754   24047399.060
        42.0004         38.0004
 -21086225.67849 -16365936.98548  20022781.4434   20022786.8154   20022781.116
        54.0004         50.0004
 -11376511.11848  -8801963.03447  23087336.3314   23087344.6184   23087335.844
        48.0004         43.0004
  -8831804.76647  -6847013.81246  23004423.5464   23004428.9424   23004424.157
        46.0004         41.0004
 -19555765.46348 -15201990.69047  21164387.9714   21164393.4534   21164387.978
        52.0004         47.0004
  -7009151.00747  -5411485.86946  23087901.4334   23087906.2784   23087902.842
        46.0004         41.0004
 14  5  5  1 16  0.0000000  0 11G10G08G13G04G20G26G09G17G28G07G02
 -13529390.42947 -10531633.54146  23301933.9724   23301941.0294   23301934.583
        45.0004         41.0004
 -25483493.49648 -19801551.78848  19914003.2664   19914009.0304   19914003.721
        53.0004         49.0004
  14611473.31546  11378615.04345  24890749.6034   24890755.5234   24890748.223
        38.0004         34.0004
 -27366947.67048 -21270428.10748  20607966.3564   20607971.5274   20607966.323
        53.0004         48.0004
 -18091061.43246 -14019383.00745  23907013.8954   23907015.2364   23907013.019
        39.0004         35.0004
   -996574.19447   -755887.53946  24048230.6374   24048240.4974   24048230.309
        43.0004         38.0004
 -21069806.91949 -16353143.11748  20025905.8594   20025911.0974   20025905.922
        54.0004         50.0004
 -11335661.46148  -8770132.11547  23095109.5034   23095116.6274   23095109.441
        48.0004         43.0004
  -8889452.95047  -6891934.47346  22993453.6674   22993459.2874   22993453.898
        46.0004         41.0004
 -19479992.26948 -15142946.64747  21178807.6744   21178812.6514   21178807.139
        52.0004         47.0004
  -7089321.94847  -5473956.63146  23072645.3394   23072650.9804   23072646.582
        46.0004         41.0004
 14  5  5  1 16 30.0000000  0 11G10G08G13G04G20G26G09G17G28G07G02
 -13596643.86747 -10584038.78146  23289136.6544   23289143.0424   23289136.526
        45.0004         41.0004
 -25466217.78249 -19788090.17948  19917290.6464   19917296.8544   19917291.285
        54.0004         49.0004
  14670325.71346  11424473.95645  24901946.7324   24901954.9164   24901946.943
        38.0004         34.0004
 -27409547.74548 -21303622.96948  20599859.5894   20599865.6794   20599859.042
        53.0004         48.0004
 -18062406.04746 -13997054.08645  23912464.8684   23912469.4704   23912465.005
        39.0004         35.0004
   -991970.40747   -752299.98846  24049107.3774   24049116.9954   24049107.315
        43.0004         38.0004
 -21052793.33049 -16339885.75248  20029142.9994   20029148.6684   20029143.025
        54.0004         50.0004
 -11294890.29548  -8738362.37347  23102868.1984   23102874.8314   23102868.019
        48.0004         43.0004
  -8947184.09847  -6936919.78646  22982467.6444   22982473.4724   22982467.953
        46.0004         41.0004
 -19403800.52548 -15083576.46747  21193306.1494   21193310.9004   21193305.937
        52.0004         47.0004
  -7169199.75847  -5536198.99846  23057445.9504   23057450.3974   23057445.562
        46.0004         41.0004
 14  5  5  1 17  0.0000000  0 11G10G08G13G04G20G26G09G17G28G07G02
 -13664026.05047 -10636544.33446  23276314.4224   23276319.6424   23276314.534
        45.0004         41.0004
 -25448281.21849 -19774113.62948  19920703.9824   19920709.6484   19920704.494
        54.0004         49.0004
  14728926.38846  11470136.70545  24913097.4634   24913105.0184   24913098.778
        39.0004         34.0004
 -27451626.00748 -21336411.21948  20591852.5214   20591858.2484   20591852.279
        53.0004         48.0004
 -18033428.84346 -13974474.41245  23917979.8864   23917985.2514   23917980.101
        39.0004         34.0004
   -987137.78347   -748534.12946  24050026.2954   24050036.4094   24050025.362
        43.0004         38.0004
 -21035184.87749 -16326164.85548  20032493.9974   20032499.1934   20032494.135
        54.0004         50.0004
 -11254198.48348  -8706654.44147  23110611.4374   23110618.4464   23110611.294
        48.0004         43.0004
  -9004994.93247  -6981967.18146  22971467.1484   22971473.9654   22971466.969
        46.0004         41.0004
 -19327191.74148 -15023881.31147  21207884.5144   21207889.3214   21207884.365
        51.0004         47.0004
  -7248781.16347  -5598210.39746  23042301.7934   23042306.0254   23042301.412
        46.0004         41.0004
 14  5  5  1 17 30.0000000  0 11G10G08G13G04G20G26G09G17G28G07G02
 -13731535.59447 -10689149.14046  23263467.3124   23263472.3164   23263467.892
        45.0004         41.0004
 -25429685.00449 -19759623.06248  19924242.9014   19924248.5124   19924243.234
        54.0004         49.0004
  14787274.37046  11515602.57145  24924200.9264   24924209.7784   24924201.894
        39.0004         34.0004
 -27493181.80848 -21368792.37048  20583944.9524   20583950.0544   20583944.554
        53.0004         48.0004
 -18004129.54546 -13951643.76745  23923558.0934   23923562.5524   23923555.026
        39.0004         34.0004
   -982078.94447   -744591.98646  24050989.2854   24050997.5554   24050989.216
        43.0004         38.0004
 -21016982.89149 -16311981.46348  20035957.4714   20035963.5124   20035957.634
        54.0004         50.0004
 -11213588.26147  -8675010.10347  23118339.8634   23118346.1224   23118338.918
        47.0004         43.0004
  -9062883.87647  -7027075.46646  22960451.2984   22960456.8644   22960451.080
        46.0004         41.0004
 -19250169.43648 -14963863.93847  21222541.4754   21222546.1854   21222540.996
        51.0004         47.0004
  -7328064.51447  -5659989.54846  23027214.4584   23027217.5914   23027215.672
        46.0004         41.0004
 14  5  5  1 18  0.0000000  0 11G10G08G13G04G20G26G09G17G28G07G02
 -13799172.32747 -10741853.05046  23250595.9884   23250603.1654   23250597.167
        45.0004         41.0004
 -25410431.53349 -19744620.34548  19927906.4544   19927912.3724   19927906.892
        54.0004         49.0004
  14845367.48246  11560869.82045  24935257.8224   24935267.3634   24935257.293
        39.0004         34.0004
 -27534215.46048 -21400766.64348  20576135.9314   20576141.5704   20576135.652
        53.0004         48.0004
 -17974509.02046 -13928562.81645  23929191.6514   23929197.7654   23929191.686
        39.0004         34.0004
   -976797.57447   -740476.45046  24051994.3884   24052004.1244   24051993.229
        43.0004         38.0004
 -20998190.21549 -16297337.80548  20039533.8044   20039539.2414   20039533.725
        54.0004         50.0004
 -11173063.04947  -8643432.00247  23126051.3074   23126057.9274   23126050.506
        47.0004         43.0004
  -9120850.28147  -7072244.07946  22949420.2314   22949426.7614   22949420.118
        46.0004         41.0004
 -19172737.70348 -14903527.52547  21237275.8944   21237280.9974   21237275.734
        51.0004         47.0004
  -7407049.57447  -5721536.25446  23012183.1634   23012188.0934   23012184.086
        46.0004         41.0004
 14  5  5  1 18 30.0000000  0 11G10G08G13G04G20G26G09G17G28G07G02
 -13866931.81547 -10794652.59946  23237702.3974   23237708.6134   23237703.138
        46.0004         41.0004
 -25390518.82949 -19729103.94148  19931695.9754   19931701.7144   19931696.134
        54.0004         49.0004
  14903207.76146  11605940.06045  24946262.6864   24946271.3854   24946263.899
        39.0004         34.0004
 -27574722.87648 -21432330.87548  20568428.2084   20568433.3614   20568427.942
        53.0004         48.0004
 -17944563.95146 -13905228.99445  23934889.0914   23934895.4004   23934890.226
        39.0004         35.0004
   -971292.97947   -736186.98346  24053040.4414   24053050.2894   24053040.884
        43.0004         38.0004
 -20978805.22249 -16282232.59748  20043222.7284   20043228.2064   20043222.924
        54.0004         50.0004
 -11132622.44647  -8611919.83847  23133746.5274   23133753.6304   23133746.483
        47.0004         43.0004
  -9178888.82547  -7117468.92746  22938376.2034   22938381.4654   22938376.246
        46.0004         41.0004
 -19094896.87248 -14842872.33647  21252088.7924   21252093.3174   21252088.747
        51.0004         47.0004
  -7485731.36347  -5782846.67346  22997211.4904   22997214.8054   22997211.434
        46.0004         41.0004
 14  5  5  1 19  0.0000000  0 11G10G08G13G04G20G26G09G17G28G07G02
 -13934815.01847 -10847548.55746  23224784.5374   23224790.1644   23224785.420
        46.0004         41.0004
 -25369950.38849 -19713076.57848  19935609.7404   19935616.0734   19935610.190
        54.0004         49.0004
  14960791.82646  11650810.66245  24957223.1414   24957227.9104   24957221.910
        39.0004         34.0004
 -27614705.74248 -21463486.36048  20560819.3604   20560824.8384   20560819.066
        53.0004         48.0004
 -17914296.32346 -13881643.76145  23940650.6074   23940652.2494   23940650.336
        39.0004         34.0004
   -965570.06747   -731727.42646  24054129.2694   24054139.5384   24054129.637
        43.0004         38.0004
 -20958831.86449 -16266668.92248  20047023.4704   20047028.7544   20047023.269
        54.0004         50.0004
 -11092271.45547  -8580477.49547  23141426.0354   23141432.7354   23141425.257
        47.0004         43.0004
  -9237000.27047  -7162750.56946  22927317.4894   22927323.2864   22927317.942
        46.0004         41.0004
 -19016652.30948 -14781902.54847  21266978.5384   21266982.5094   21266977.870
        51.0004         47.0004
  -7564110.60047  -5843921.30946  22982296.7254   22982300.9584   22982297.328
        46.0004         41.0004
 14  5  5  1 19 30.0000000  0 11G10G08G13G04G20G26G09G17G28G07G02
 -14002818.88747 -10900538.54646  23211843.6024   23211849.3134   23211844.233
        46.0004         41.0004
 -25348725.67249 -19696537.83548  19939648.9624   19939654.7664   19939649.314
        54.0004         49.0004
  15018120.60646  11695482.33445  24968130.9884   24968141.7544   24968131.089
        39.0004         34.0004
 -27654161.09548 -21494230.79048  20553311.1594   20553316.6424   20553311.081
        53.0004         48.0004
 -17883703.95946 -13857805.56545  23946469.4114   23946476.8014   23946470.895
        39.0004         34.0004
   -959629.49947   -727098.22446  24055260.3144   24055270.5254   24055259.763
        43.0004         38.0004
 -20938269.93749 -16250646.62348  20050936.5514   20050941.4774   20050936.380
        54.0004         50.0004
 -11052010.16447  -8549105.02847  23149087.4244   23149093.9154   23149086.478
        47.0004         43.0004
  -9295180.77347  -7208086.01847  22916246.8634   22916252.1284   22916246.733
        46.0004         42.0004
 -18938005.36148 -14720619.21847  21281944.3274   21281949.0254   21281944.130
        51.0004         46.0004
  -7642183.56847  -5904757.31946  22967439.6064   22967443.8094   22967438.938
        46.0004         41.0004
 14  5  5  1 20  0.0000000  0 11G10G08G13G04G20G26G09G17G28G07G02
 -14070939.41047 -10953619.44046  23198881.9764   23198886.3984   23198881.334
        46.0004         41.0004
 -25326843.61949 -19679486.88048  19943812.8144   19943818.6704   19943813.288
        54.0004         49.0004
  15075195.42046  11739956.09745  24978994.2044   24979001.0284   24978992.410
        39.0004         34.0004
 -27693085.88848 -21524561.80148  20545904.6014   20545909.4344   20545903.914
        53.0004         48.0004
 -17852784.09546 -13833712.12745  23952355.3564   23952361.6684   23952355.986
        39.0004         35.0004
   -953471.34347   -722299.51846  24056431.6774   24056441.4054   24056432.115
        43.0004         38.0004
 -20917118.86449 -16234165.25448  20054960.7554   20054966.2804   20054960.874
        54.0004         49.0004
 -11011837.94847  -8517801.98747  23156731.0534   23156737.7614   23156730.832
        47.0004         42.0004
  -9353425.99547  -7253471.91047  22905162.0154   22905168.7154   22905162.825
        46.0004         42.0004
 -18858957.06848 -14659023.14147  21296986.8194   21296991.2424   21296986.057
        51.0004         46.0004
  -7719946.83247  -5965351.99447  22952641.5544   22952645.6034   22952642.224
        46.0004         42.0004
 14  5  5  1 20 30.0000000  0 11G10G08G13G04G20G26G09G17G28G07G02
 -14139178.31147 -11006792.57846  23185895.0224   23185900.7234   23185895.359
        45.0004         41.0004
 -25304308.26949 -19661926.86248  19948101.1504   19948106.6054   19948101.733
        54.0004         49.0004
  15132012.31446  11784228.88045  24989803.0374   24989811.2344   24989804.526
        39.0004         34.0004
 -27731482.29148 -21554481.07848  20538597.8774   20538603.0284   20538597.100
        53.0004         48.0004
 -17821539.52546 -13809365.65245  23958301.5684   23958304.1924   23958300.850
        39.0004         35.0004
   -947101.12347   -717335.54546  24057643.2364   24057653.4854   24057643.011
        42.0004         38.0004
 -20895383.07149 -16217228.25448  20059097.4334   20059102.5154   20059097.356
        54.0004         50.0004
 -10971761.03747  -8486573.21647  23164357.4694   23164364.9424   23164357.340
        47.0004         43.0004
  -9411736.84147  -7298908.94146  22894066.9164   22894072.7004   22894066.501
        46.0004         41.0004
 -18779513.64548 -14597119.17247  21312104.2834   21312109.2434   21312103.821
        51.0004         46.0004
  -7797401.60147  -6025706.27447  22937902.6394   22937906.6894   22937903.059
        46.0004         42.0004
 14  5  5  1 21  0.0000000  0 11G10G08G13G04G20G26G09G17G28G07G02
 -14207532.87647 -11060055.83846  23172887.8754   23172893.0084   23172888.680
        45.0004         41.0004
 -25281119.75149 -19643857.88348  19952513.9774   19952519.2984   19952513.909
        54.0004         49.0004
  15188571.53046  11828300.89845  25000567.9374   25000574.9584   25000567.436
        39.0004         34.0004
 -27769348.51548 -21583987.22648  20531392.4094   20531397.6114   20531391.518
        53.0004         48.0004
 -17789968.88446 -13784765.14745  23964308.4364   23964314.3774   23964309.278
        39.0004         35.0004
   -940520.18347   -712207.37446  24058896.7914   24058906.3604   24058896.662
        43.0004         38.0004
 -20873063.00249 -16199835.97548  20063344.4114   20063349.9994   20063344.570
        54.0004         50.0004
 -10931779.86547  -8455419.04047  23171965.6604   23171973.6974   23171965.293
        47.0004         43.0004
  -9470110.19747  -7344394.67246  22882959.6204   22882962.7964   22882958.581
        46.0004         41.0004
 -18699677.04548 -14534908.83347  21327295.9714   21327301.5054   21327295.804
        51.0004         46.0004
  -7874545.15647  -6085818.05647  22923222.3274   22923226.4374   22923223.202
        46.0004         42.0004
 14  5  5  1 21 30.0000000  0 11G10G08G13G04G20G26G09G17G28G07G02
 -14276001.12347 -11113407.68746  23159858.2184   23159863.9614   23159859.246
        45.0004         41.0004
 -25257279.12449 -19625280.76748  19957050.6864   19957055.9024   19957051.078
        54.0004         49.0004
  15244873.00046  11872172.06845  25011283.9414   25011287.2574   25011281.791
        39.0004         34.0004
 -27806683.21748 -21613079.20948  20524287.4114   20524292.6974   20524287.110
        53.0004         48.0004
 -17758071.34846 -13759909.89445  23970377.2354   23970384.0764   23970378.830
        40.0004         35.0004
   -933730.58747   -706916.61446  24060187.8984   24060198.6404   24060187.600
        43.0004         38.0004
 -20850159.90449 -16181989.38848  20067702.9944   20067708.3084   20067702.844
        54.0004         50.0004
 -10891896.49547  -8424341.07947  23179555.5434   23179562.0564   23179554.747
        47.0004         43.0004
  -9528543.87047  -7389927.41146  22871839.5214   22871844.1294   22871839.213
        46.0004         41.0004
 -18619450.22748 -14472394.42547  21342562.9264   21342567.3104   21342562.589
        51.0004         46.0004
  -7951375.06947  -6145685.44747  22908601.4704   22908605.6814   22908601.841
        46.0004         42.0004
 14  5  5  1 22  0.0000000  0 11G10G08G13G04G20G26G09G17G28G07G02
 -14344577.88047 -11166844.10146  23146808.9814   23146814.4944   23146809.052
        45.0004         41.0004
 -25232784.17649 -19606193.78648  19961711.6784   19961717.5894   19961712.108
        54.0004         49.0004
  15300918.99146  11915844.15045  25021946.9834   25021954.8554   25021946.763
        39.0004         35.0004
 -27843482.10348 -21641753.67448  20517285.2074   20517289.9694   20517284.482
        53.0004         48.0004
 -17725842.90646 -13734796.80145  23976509.4054   23976517.3704   23976511.603
        39.0004         35.0004
   -926731.20447   -701462.36346  24061520.0164   24061529.3574   24061520.426
        43.0004         38.0004
 -20826671.90049 -16163687.02448  20072172.6184   20072177.7204   20072172.572
        54.0004         49.0004
 -10852109.52347  -8393338.21647  23187126.8694   23187134.2794   23187126.264
        47.0004         43.0004
  -9587032.21947  -7435502.75146  22860708.7414   22860712.8244   22860709.164
        46.0004         41.0004
 -18538832.52748 -14409575.44347  21357904.6434   21357909.2404   21357903.722
        51.0004         46.0004
  -8027886.48347  -6205304.66047  22894041.9434   22894046.8204   22894042.709
        46.0004         42.0004
 14  5  5  1 22 30.0000000  0 11G10G08G13G04G20G26G09G17G28G07G02
 -14413267.01947 -11220368.07446  23133738.0074   23133744.9644   23133738.085
        45.0004         41.0004
 -25207641.30048 -19586601.93248  19966496.1184   19966502.1414   19966496.449
        53.0004         49.0004
  15356703.82646  11959312.73145  25032560.0604   25032568.6694   25032561.777
        39.0004         34.0004
 -27879749.57348 -21670014.05348  20510383.4324   20510388.4834   20510383.111
        53.0004         48.0004
 -17693288.72646 -13709429.87445  23982706.1544   23982709.9964   23982706.702
        39.0004         35.0004
   -919529.57447   -695850.53046  24062890.1244   24062899.2784   24062889.999
        43.0004         38.0004
 -20802605.88649 -16144934.26848  20076752.0124   20076757.3164   20076751.957
        54.0004         49.0004
 -10812426.45047  -8362416.32947  23194677.5094   23194684.6244   23194678.005
        47.0004         43.0004
  -9645578.43347  -7481123.17847  22849567.8134   22849573.6244   22849568.026
        46.0004         42.0004
 -18457832.33448 -14346458.39947  21373317.1684   21373322.9944   21373317.167
        51.0004         46.0004
  -8104082.87747  -6264678.39747  22879542.8254   22879546.2804   22879542.928
        46.0004         42.0004
 14  5  5  1 23  0.0000000  0 11G10G08G13G04G20G26G09G17G28G07G02
 -14482061.21747 -11273973.91146  23120647.0904   23120651.5684   23120646.812
        45.0004         41.0004
 -25181846.70148 -19566502.24048  19971404.7434   19971410.4844   19971405.098
        53.0004         49.0004
  15412232.13046  12002581.42945  25043127.8404   25043133.8664   25043128.461
        39.0004         34.0004
 -27915479.45648 -21697855.53248  20503584.2784   20503589.5014   20503584.346
        53.0004         49.0004
 -17660402.82846 -13683804.45645  23988965.7594   23988970.3464   23988964.207
        39.0004         35.0004
   -912122.84347   -690078.86846  24064299.4894   24064308.6274   24064299.139
        43.0004         38.0004
 -20777958.14249 -16125728.21348  20081442.2384   20081447.8614   20081442.194
        54.0004         49.0004
 -10772843.53247  -8331572.48347  23202210.8234   23202217.2094   23202210.357
        47.0004         43.0004
  -9704174.58447  -7526782.50447  22838417.1054   22838422.3594   22838417.018
        46.0004         42.0004
 -18376447.43048 -14283041.59647  21388805.0004   21388809.8354   21388804.424
        51.0004         46.0004
  -8179957.02747  -6323801.05247  22865103.7974   22865108.3114   22865104.595
        47.0004         42.0004
 14  5  5  1 23 30.0000000  0 11G10G08G13G04G20G26G09G17G28G07G02
 -14550961.70547 -11327662.57946  23107534.2024   23107540.6014   23107535.964
        46.0004         41.0004
 -25155404.45948 -19545897.89148  19976436.5214   19976442.1514   19976436.866
        53.0004         49.0004
  15467500.10246  12045647.28645  25053646.0724   25053654.2144   25053645.844
        39.0004         34.0004
 -27950673.99248 -21725279.85548  20496887.0224   20496892.2664   20496886.279
        53.0004         48.0004
 -17627187.56946 -13657922.46245  23995284.1404   23995293.8334   23995285.368
        39.0004         35.0004
   -904516.51347   -684151.67946  24065746.5444   24065755.4414   24065746.603
        43.0004         38.0004
 -20752733.17949 -16106072.38248  20086242.4634   20086247.9804   20086242.361
        54.0004         49.0004
 -10733365.63547  -8300810.48247  23209722.2024   23209730.0144   23209722.381
        47.0004         43.0004
  -9762821.62147  -7572481.49847  22827257.4224   22827263.0414   22827257.361
        46.0004         42.0004
 -18294684.09748 -14219329.90647  21404363.7254   21404368.4234   21404363.697
        51.0004         46.0004
  -8255510.44547  -6382673.75947  22850727.4044   22850729.6394   22850727.871
        47.0004         42.0004
 14  5  5  1 24  0.0000000  0 11G10G08G13G04G20G26G09G17G28G07G02
 -14619966.89947 -11381432.82646  23094403.8194   23094410.3224   23094404.598
        46.0004         41.0004
 -25128315.63148 -19524789.70948  19981591.6624   19981597.2984   19981591.868
        53.0004         49.0004
  15522507.08446  12088509.73245  25064116.8524   25064122.1014   25064114.074
        39.0004         34.0004
 -27985332.13948 -21752286.20448  20490291.6554   20490297.3344   20490291.384
        53.0004         49.0004
 -17593642.87546 -13631783.69545  24001668.3484   24001673.2404   24001667.975
        39.0004         35.0004
   -896712.45647   -678070.41646  24067231.2834   24067240.7604   24067231.849
        43.0004         38.0004
 -20726932.53649 -16085967.97048  20091152.4374   20091157.3934   20091152.288
        54.0004         49.0004
 -10693995.11647  -8270132.15247  23217213.6854   23217221.8584   23217214.205
        47.0004         43.0004
  -9821517.34447  -7618218.42747  22816087.8344   22816093.1344   22816087.699
        46.0004         42.0004
 -18212545.15048 -14155325.52747  21419994.9904   21419999.4404   21419994.304
        51.0004         46.0004
  -8330741.04247  -6441294.93947  22836410.8394   22836415.3614   22836410.708
        47.0004         42.0004
 14  5  5  1 24 30.0000000  0 11G10G08G13G04G20G26G09G17G28G07G02
 -14689074.07847 -11435282.54846  23081253.3824   23081258.9494   23081253.847
        46.0004         41.0004
 -25100580.72048 -19503178.07848  19986869.5794   19986875.2844   19986869.506
        53.0004         49.0004
  15577253.66746  12131169.31045  25074530.8814   25074537.9334   25074531.119
        39.0004         34.0004
 -28019452.02248 -21778873.13648  20483799.0074   20483804.2814   20483798.501
        53.0004         49.0004
 -17559767.14846 -13605387.00445  24008113.6314   24008120.4904   24008113.749
        39.0004         35.0004
   -888712.09747   -671836.20046  24068753.3234   24068762.9934   24068753.426
        43.0004         38.0004
 -20700556.67549 -16065415.33148  20096171.6024   20096176.3094   20096171.376
        54.0004         50.0004
 -10654732.89847  -8239538.19947  23224686.0294   23224692.8134   23224685.522
        47.0004         43.0004
  -9880258.72547  -7663990.92547  22804909.7374   22804915.6784   22804909.632
        46.0004         42.0004
 -18130032.49448 -14091029.94247  21435696.1694   21435701.3394   21435695.748
        51.0004         46.0004
  -8405645.88147  -6499662.28547  22822156.9994   22822160.6144   22822157.042
        47.0004         42.0004
 14  5  5  1 25  0.0000000  0 11G10G08G13G04G20G26G09G17G28G07G02
 -14758280.63647 -11489209.71147  23068083.3104   23068089.5834   23068084.550
        46.0004         42.0004
 -25072200.36948 -19481063.52048  19992270.0424   19992275.3644   19992270.047
        53.0004         49.0004
  15631740.19746  12173626.22445  25084900.9574   25084909.3404   25084900.019
        39.0004         34.0004
 -28053032.05848 -21805039.40948  20477408.6924   20477414.4694   20477408.178
        53.0004         48.0004
 -17525559.45046 -13578731.65945  24014624.7874   24014631.3524   24014623.591
        39.0004         35.0004
   -880517.13447   -665450.33446  24070313.4154   24070322.4384   24070313.130
        43.0004         38.0004
 -20673606.64449 -16044415.29648  20101300.0294   20101305.2284   20101299.948
        54.0004         50.0004
 -10615580.31647  -8209029.67047  23232137.0594   23232143.0164   23232135.921
        47.0004         42.0004
  -9939042.62547  -7709796.56447  22793723.5794   22793728.0164   22793723.240
        46.0004         42.0004
 -18047148.52648 -14026445.03547  21451467.9344   21451473.8234   21451468.299
        51.0004         46.0004
  -8480222.64647  -6557773.99147  22807965.7764   22807969.1104   22807966.357
        47.0004         42.0004
 14  5  5  1 25 30.0000000  0 11G10G08G13G04G20G26G09G17G28G07G02
 -14827584.94647 -11543213.04447  23054896.0864   23054900.9074   23054896.355
        46.0004         42.0004
 -25043175.78348 -19458446.95148  19997792.9654   19997798.8044   19997793.405
        53.0004         49.0004
  15685965.83446  12215879.87845  25095219.0164   25095228.0424   25095219.150
        39.0004         34.0004
 -28086071.63348 -21830784.54348  20471121.7904   20471127.1054   20471121.473
        53.0004         48.0004
 -17491019.13846 -13551817.08745  24021196.1064   24021204.1084   24021197.269
        39.0004         35.0004
   -872129.80747   -658914.58746  24071909.4214   24071919.0444   24071908.540
        43.0004         38.0004
 -20646084.02049 -16022969.07648  20106537.1324   20106542.3824   20106537.081
        54.0004         49.0004
 -10576538.81247  -8178607.69847  23239565.4344   23239572.7084   23239565.369
        47.0004         43.0004
  -9997866.21747  -7755633.13947  22782529.7964   22782534.9074   22782529.640
        46.0004         42.0004
 -17963896.59648 -13961573.39747  21467310.6574   21467315.6834   21467310.450
        51.0004         46.0004
  -8554469.73247  -6615628.78647  22793835.9404   22793840.2404   22793837.193
        47.0004         42.0004
 14  5  5  1 26  0.0000000  0 11G10G08G13G04G20G26G09G17G28G07G02
 -14896985.55747 -11597291.42046  23041689.3614   23041693.8414   23041690.052
        46.0004         41.0004
 -25013508.71048 -19435329.74448  20003438.4704   20003444.0794   20003438.541
        53.0004         49.0004
  15739929.77546  12257929.59245  25105487.1604   25105496.3874   25105488.507
        39.0004         34.0004
 -28118570.35648 -21856108.23748  20464937.1924   20464942.7044   20464936.651
        53.0004         48.0004
 -17456146.44046 -13524643.54045  24027831.7994   24027837.1294   24027833.008
        39.0004         35.0004
   -863552.98347   -652231.17946  24073541.8954   24073550.6854   24073541.465
        43.0004         38.0004
 -20617990.96849 -16001078.37648  20111883.1064   20111888.4374   20111882.912
        54.0004         50.0004
 -10537610.96747  -8148274.30347  23246973.1144   23246980.1664   23246973.063
        47.0004         43.0004
 -10056728.20447  -7801499.63846  22771328.8124   22771333.2514   22771328.834
        46.0004         41.0004
 -17880279.93648 -13896417.55547  21483222.6484   21483227.6354   21483222.191
        51.0004         46.0004
  -8628385.75647  -6673225.63047  22779771.0564   22779775.2104   22779770.030
        47.0004         42.0004
 14  5  5  1 26 30.0000000  0 11G10G08G13G04G20G26G09G17G28G07G02
 -14966479.64947 -11651442.64846  23028465.4734   23028470.0244   23028465.671
        46.0004         41.0004
 -24983199.91048 -19411712.49448  20009206.2374   20009211.9394   20009206.333
        53.0004         49.0004
  15793632.14246  12299775.49345  25115711.2944   25115715.1774   25115707.780
        39.0004         35.0004
 -28150526.73348 -21881009.31948  20458855.8764   20458861.5144   20458856.169
        53.0004         48.0004
 -17420939.88646 -13497209.84345  24034534.5104   24034538.2424   24034533.472
        39.0004         35.0004
   -854787.96447   -645401.12546  24075208.9574   24075218.8404   24075208.638
        43.0004         38.0004
 -20589328.43849 -15978743.91048  20117337.0864   20117342.4764   20117337.270
        54.0004         49.0004
 -10498797.92147  -8118030.35747  23254359.3384   23254366.7624   23254359.272
        47.0004         43.0004
 -10115624.96447  -7847393.22847  22760119.9484   22760126.2534   22760121.035
        46.0004         42.0004
 -17796300.79548 -13830979.25247  21499202.8484   21499208.1414   21499202.528
        50.0004         46.0004
  -8701968.24747  -6730562.57247  22765768.1194   22765772.2994   22765770.106
        47.0004         42.0004
 14  5  5  1 27  0.0000000  0 11G10G08G13G04G20G26G09G17G28G07G02
 -15036066.06747 -11705665.81446  23015222.7554   23015227.7284   23015223.234
        46.0004         41.0004
 -24952251.26148 -19387596.65048  20015095.2784   20015101.1764   20015095.726
        53.0004         49.0004
  15847071.90346  12341416.76445  25125878.5284   25125886.1804   25125876.909
        39.0004         34.0004
 -28181940.27748 -21905487.41148  20452878.7194   20452883.9284   20452877.907
        53.0004         48.0004
 -17385400.08346 -13469516.45345  24041295.9904   24041301.0644   24041296.074
        40.0004         35.0004
   -845837.76347   -638426.79346  24076913.2814   24076921.1324   24076912.261
        43.0004         38.0004
 -20560098.74949 -15955967.51748  20122899.5834   20122904.9614   20122899.748
        54.0004         50.0004
 -10460102.18347  -8087877.81547  23261722.9404   23261729.3084   23261722.613
        47.0004         43.0004
 -10174555.04447  -7893312.77947  22748907.2624   22748912.4914   22748907.357
        46.0004         42.0004
 -17711962.94448 -13765261.44747  21515252.2154   21515257.2114   21515251.852
        50.0004         46.0004
  -8775215.71347  -6787638.47047  22751829.5934   22751833.4394   22751829.844
        47.0004         43.0004
 14  5  5  1 27 30.0000000  0 11G10G08G13G04G20G26G09G17G28G07G02
 -15105741.50547 -11759958.34446  23001963.9684   23001970.3824   23001965.204
        46.0004         41.0004
 -24920663.27748 -19362982.62548  20021106.0314   20021111.9754   20021106.647
        53.0004         49.0004
  15900249.91746  12382854.07145  25135995.2084   25136002.1624   25135996.599
        39.0004         34.0004
 -28212809.44348 -21929541.31048  20447004.4614   20447009.7364   20447003.965
        53.0004         49.0004
 -17349525.29646 -13441562.06845  24048122.9994   24048126.0444   24048121.774
        40.0004         35.0004
   -836703.46647   -631309.00746  24078650.4964   24078658.9184   24078650.406
        43.0004         38.0004
 -20530302.12949 -15932749.35148  20128569.6384   20128574.9234   20128569.623
        54.0004         49.0004
 -10421524.21847  -8057817.04747  23269063.9274   23269070.7694   23269063.755
        47.0004         43.0004
 -10233514.96947  -7939255.60247  22737686.9564   22737692.4004   22737687.767
        47.0004         42.0004
 -17627268.22148 -13699265.55347  21531368.3654   21531373.4824   21531368.494
        50.0004         46.0004
  -8848125.36947  -6844451.13747  22737956.1184   22737959.4214   22737956.339
        47.0004         42.0004
 14  5  5  1 28  0.0000000  0 11G10G08G13G04G20G26G09G17G28G07G02
 -15175505.80347 -11814320.10647  22988688.3304   22988694.8414   22988689.438
        46.0004         42.0004
 -24888438.99348 -19337872.77948  20027238.3774   20027244.1344   20027238.736
        53.0004         49.0004
  15953164.07546  12424085.78245  25146067.3894   25146074.4254   25146065.808
        38.0004         34.0004
 -28243134.82748 -21953171.49748  20441233.4124   20441239.2564   20441233.139
        53.0004         49.0004
 -17313316.63146 -13413347.48745  24055014.3424   24055019.5594   24055012.742
        39.0004         35.0004
   -827388.90347   -624050.76246  24080422.3824   24080431.3394   24080422.422
        43.0004         38.0004
 -20499941.89449 -15909092.01448  20134346.9714   20134352.4254   20134347.060
        54.0004         49.0004
 -10383067.44547  -8027850.72547  23276381.8004   23276389.6744   23276381.796
        47.0004         43.0004
 -10292503.73547  -7985220.89447  22726461.7164   22726467.0464   22726462.032
        47.0004         42.0004
 -17542221.22348 -13632995.16147  21547552.5664   21547557.6234   21547552.199
        50.0004         46.0004
  -8920697.05047  -6901000.43947  22724145.8514   22724149.2894   22724145.617
        47.0004         42.0004
 14  5  5  1 28 30.0000000  0 11G10G08G13G04G20G26G09G17G28G07G02
 -15245356.08147 -11868748.87647  22975396.2674   22975401.4004   22975396.686
        46.0004         42.0004
 -24855578.92048 -19312267.52348  20033491.4734   20033497.2734   20033491.674
        53.0004         49.0004
  16005814.98046  12465112.34145  25156084.4724   25156091.7604   25156085.578
        38.0004         34.0004
 -28272914.51248 -21976376.46048  20435566.7544   20435571.9334   20435566.299
        53.0004         49.0004
 -17276772.65646 -13384871.63745  24061967.0194   24061972.0414   24061967.182
        39.0004         35.0004
   -817895.26247   -616652.95246  24082229.0894   24082237.7474   24082229.631
        43.0004         38.0004
 -20469018.81049 -15884996.08048  20140231.4314   20140236.8584   20140231.466
        54.0004         50.0004
 -10344732.69047  -7997979.47047  23283676.3484   23283683.3044   23283676.651
        47.0004         43.0004
 -10351517.76547  -8031205.86947  22715232.2424   22715236.8984   22715232.156
        47.0004         42.0004
 -17456823.53648 -13566451.51147  21563803.8834   21563808.7114   21563803.472
        50.0004         46.0004
  -8992927.72847  -6957284.04047  22710399.8694   22710404.6534   22710400.931
        47.0004         42.0004
 14  5  5  1 29  0.0000000  0 11G10G08G13G04G20G26G09G17G28G07G02
 -15315290.50847 -11923243.20647  22962088.6494   22962093.9574   22962088.632
        46.0004         42.0004
 -24822084.94748 -19286168.32448  20039865.3644   20039870.9214   20039865.794
        53.0004         49.0004
  16058201.61746  12505932.98045  25166055.7444   25166061.8744   25166054.210
        38.0004         33.0004
 -28302148.78948 -21999156.43848  20430003.2444   20430008.5634   20430003.217
        53.0004         49.0004
 -17239893.55346 -13356134.65245  24068982.4264   24068990.5394   24068984.376
        39.0004         35.0004
   -808225.43547   -609117.86446  24084068.7434   24084076.8914   24084068.825
        43.0004         38.0004
 -20437535.52549 -15860463.63548  20146222.3694   20146227.7724   20146222.501
        54.0004         50.0004
 -10306522.09047  -7968204.95847  23290947.9774   23290956.2214   23290947.493
        47.0004         42.0004
 -10410555.23247  -8077209.11947  22703997.4374   22704003.5604   22703997.794
        47.0004         42.0004
 -17371079.37648 -13499637.87047  21580120.0684   21580124.5404   21580119.580
        50.0004         46.0004
  -9064816.58147  -7013301.26747  22696721.2944   22696725.3944   22696720.879
        47.0004         42.0004
 14  5  5  1 29 30.0000000  0 11G10G08G13G04G20G26G09G17G28G07G02
 -15385304.55447 -11977799.58547  22948764.7794   22948770.8124   22948765.271
        46.0004         42.0004
 -24787955.77748 -19259574.16548  20046359.8044   20046365.6034   20046360.096
        53.0004         49.0004
                  12546549.72645                  25175981.4214   25175973.446
                        32.0004
 -28330834.04148 -22021508.60448  20424544.7114   20424549.9834   20424544.582
        53.0004         49.0004
 -17202676.54146 -13327134.39945  24076067.1254   24076070.4964   24076066.918
        39.0004         35.0004
   -798379.00147   -601445.15646  24085942.8864   24085950.7994   24085942.806
        43.0004         38.0004
 -20405491.21749 -15835494.03548  20152320.4124   20152325.8254   20152320.472
        54.0004         50.0004
 -10268434.75847  -7938526.50147  23298196.0994   23298202.7394   23298195.395
        47.0004         42.0004
 -10469611.10147  -8123226.70847  22692760.7904   22692765.8974   22692760.050
        47.0004         42.0004
 -17284988.95348 -13432554.42447  21596503.0274   21596507.0404   21596502.714
        50.0004         46.0004
  -9136358.97747  -7069048.53747  22683106.7764   22683109.7034   22683106.609
        47.0004         43.0004
 14  5  5  1 30  0.0000000  0 11G10G08G13G04G20G26G09G17G28G07G02
 -15455400.99747 -12032420.16147  22935426.5324   22935431.9044   22935426.690
        46.0004         42.0004
 -24753197.57648 -19232489.84348  20052974.2674   20052979.4774   20052974.387
        53.0004         49.0004
                  12586958.34745                  25185848.4004   25185841.044
                        32.0004
 -28358974.22348 -22043436.04048  20419190.2984   20419195.6194   20419190.031
        53.0004         49.0004
 -17165125.83246 -13297874.06945  24083211.2894   24083220.3554   24083211.493
        39.0004         34.0004
   -788362.72147   -593640.11846  24087848.9154   24087856.8984   24087848.543
        43.0004         38.0004
 -20372891.85749 -15810091.91948  20158523.6414   20158529.1914   20158523.640
        54.0004         50.0004
 -10230477.23347  -7908949.19847  23305418.7694   23305426.4534   23305418.951
        47.0004         42.0004
 -10528687.64347  -8169260.40347  22681517.1954   22681523.7584   22681518.301
        47.0004         43.0004
 -17198559.78548 -13365207.03047  21612949.9514   21612954.0704   21612949.249
        50.0004         45.0004
  -9207557.72647  -7124528.04247  22669558.0554   22669560.3234   22669558.580
        47.0004         42.0004
 14  5  5  1 30 30.0000000  0 11G10G08G13G04G20G26G09G17G28G07G02
 -15525572.95247 -12087099.58747  22922072.3764   22922078.4554   22922073.752
        46.0004         42.0004
 -24717807.30548 -19204913.00148  20059708.7464   20059714.4034   20059708.731
        53.0004         49.0004
                  12627162.65245                  25195669.7914   25195659.294
                        33.0004
 -28386563.89948 -22064934.51348  20413939.8464   20413944.8934   20413939.339
        53.0004         48.0004
 -17127236.13846 -13268349.64145  24090420.7744   24090426.3984   24090423.576
        39.0004         34.0004
   -778174.09347   -585700.76946  24089786.9894   24089794.7854   24089786.684
        43.0004         38.0004
 -20339734.40149 -15784254.93048  20164833.5294   20164838.5074   20164833.321
        54.0004         49.0004
 -10192646.17447  -7879470.43947  23312618.0674   23312624.3314   23312617.642
        47.0004         42.0004
 -10587777.36947  -8215304.36747  22670273.8764   22670279.9274   22670273.802
        47.0004         42.0004
 -17111789.99348 -13297594.20547  21629461.4694   21629465.6884   21629460.844
        50.0004         46.0004
  -9278406.31947  -7179734.67647  22656075.5304   22656079.4054   22656075.765
        47.0004         42.0004
 14  5  5  1 31  0.0000000  0 11G10G08G13G04G20G26G09G17G28G07G02
 -15595822.10847 -12141839.16847  22908706.4124   22908710.8634   22908704.865
        46.0004         42.0004
 -24681789.93948 -19176847.51148  20066562.5424   20066567.7944   20066562.789
        53.0004         49.0004
  14689689.61546  11439559.59645  25205429.8664   25205432.0154   25205426.749
        37.0004         33.0004
 -28413605.86148 -22086006.19048  20408794.0934   20408799.1614   20408794.038
        53.0004         48.0004
 -17089010.94046 -13238563.79045  24097696.6544   24097699.6914   24097697.153
        39.0004         34.0004
   -767819.16847   -577631.86146  24091758.2924   24091765.0064   24091757.424
        43.0004         38.0004
 -20306024.42649 -15757987.40048  20171248.5204   20171253.3964   20171248.465
        54.0004         49.0004
 -10154947.14047  -7850094.53947  23319791.6194   23319798.1774   23319791.435
        47.0004         42.0004
 -10646881.22347  -8261359.34747  22659025.4934   22659031.3344   22659026.913
        47.0004         42.0004
 -17024686.48748 -13229721.34847  21646036.3784   21646041.7224   21646036.172
        50.0004         46.0004
  -9348906.80947  -7234670.06547  22642659.8374   22642662.6954   22642659.888
        47.0004         42.0004
 14  5  5  1 31 30.0000000  0  9G10G08G04G26G09G17G28G07G02
 -15666136.69147 -12196629.73547  22895325.2614   22895330.0364   22895325.354
        47.0004         42.0004
 -24645137.74448 -19148287.34448  20073536.8814   20073543.0004   20073537.083
        53.0004         49.0004
 -28440090.59048 -22106643.66348  20403753.9794   20403759.4704   20403753.614
        53.0004         48.0004
   -757290.60347   -569427.61246  24093761.2824   24093769.9884   24093761.158
        43.0004         38.0004
 -20271754.35649 -15731283.44448  20177769.6924   20177774.9864   20177769.564
        54.0004         49.0004
 -10117372.12547  -7820815.27947  23326941.3394   23326947.6804   23326941.693
        47.0004         42.0004
 -10705986.99347  -8307415.80947  22647778.7904   22647784.6144   22647779.056
        47.0004         42.0004
 -16937242.62448 -13161583.27647  21662676.4774   21662681.4604   21662676.387
        50.0004         45.0004
  -9419047.79047  -7289325.33547  22629312.3144   22629316.7384   22629312.502
        47.0004         43.0004
 14  5  5  1 32  0.0000000  0 10G10G08G13G04G26G09G17G28G07G02
 -15736530.78547 -12251482.25447  22881929.5974   22881935.0414   22881929.493
        47.0004         42.0004
 -24607868.39848 -19119246.28448  20080629.5514   20080634.5924   20080629.686
        53.0004         49.0004
                  11518939.91045                  25224822.5674   25224813.372
                        32.0004
 -28466032.79548 -22126858.39648  20398817.6924   20398823.0854   20398817.098
        53.0004         48.0004
   -746606.53747   -561102.22446  24095794.0884   24095802.6484   24095794.172
        43.0004         38.0004
 -20236941.95449 -15704156.88948  20184394.3734   20184399.3374   20184394.188
        54.0004         50.0004
 -10079938.75047  -7791646.38147  23334065.8694   23334072.8204   23334065.095
        47.0004         42.0004
 -10765108.63147  -8353484.63447  22636529.3554   22636534.3374   22636529.008
        47.0004         42.0004
 -16849477.20248 -13093194.63647  21679377.7634   21679382.4504   21679377.295
        50.0004         45.0004
  -9488843.44947  -7343711.50547  22616030.8564   22616034.8754   22616030.719
        47.0004         43.0004
 14  5  5  1 32 30.0000000  0 10G10G08G13G04G26G09G17G28G07G02
 -15806993.62847 -12306388.35547  22868519.6444   22868525.6044   22868520.928
        47.0004         42.0004
 -24569975.38148 -19089719.24448  20087839.9884   20087845.7814   20087840.447
        53.0004         49.0004
                  11558317.02545                  25234438.9814   25234429.120
                        32.0004
 -28491423.96848 -22146643.75948  20393985.6784   20393990.9984   20393985.545
        53.0004         48.0004
   -735760.87147   -552650.92546  24097858.3324   24097866.6084   24097857.104
        42.0004         38.0004
 -20201580.64849 -15676602.61348  20191123.4164   20191128.2954   20191123.079
        54.0004         49.0004
 -10042640.33447  -7762582.65747  23341164.1594   23341169.7474   23341162.754
        47.0004         42.0004
 -10824235.13547  -8399557.26147  22625276.0644   22625281.8874   22625277.169
        47.0004         42.0004
 -16761385.20448 -13024551.53547  21696142.0394   21696145.6704   21696141.481
        50.0004         45.0004
  -9558283.70147  -7397820.73947  22602816.4934   22602819.9384   22602816.942
        47.0004         43.0004
 14  5  5  1 33  0.0000000  0  9G10G08G04G26G09G17G28G07G02
 -15877523.66947 -12361346.80347  22855099.0844   22855104.6274   22855099.634
        47.0004         42.0004
 -24531460.53248 -19059707.66748  20095169.1284   20095175.1384   20095169.327
        53.0004         49.0004
 -28516263.49848 -22165999.26448  20389258.8674   20389264.7434   20389258.400
        53.0004         48.0004
   -724756.15247   -544075.67846  24099951.8114   24099959.6364   24099952.297
        42.0004         38.0004
 -20165672.58849 -15648622.30048  20197956.2164   20197961.6114   20197956.302
        54.0004         49.0004
 -10005479.17947  -7733625.89247  23348234.4114   23348241.2714   23348234.423
        47.0004         42.0004
 -10883364.01647  -8445631.73547  22614025.0884   22614031.8164   22614025.330
        47.0004         42.0004
 -16672969.78348 -12955656.40347  21712966.2844   21712970.6834   21712965.924
        50.0004         45.0004
  -9627367.12847  -7451651.93647  22589669.9754   22589674.1154   22589670.244
        47.0004         42.0004
 14  5  5  1 33 30.0000000  0  9G10G08G04G26G09G17G28G07G02
 -15948118.49447 -12416355.74747  22841664.7604   22841671.3314   22841665.057
        47.0004         42.0004
 -24492325.47048 -19029212.80348  20102616.2154   20102622.1274   20102616.751
        53.0004         49.0004
 -28540550.84248 -22184924.49648  20384637.4204   20384642.4964   20384637.261
        53.0004         48.0004
   -713594.65647   -535378.26646  24102075.8744   24102082.2264   24102075.655
        43.0004         38.0004
 -20129219.75949 -15620217.48548  20204892.8924   20204898.2934   20204892.663
        54.0004         49.0004
  -9968456.16747  -7704776.76347  23355280.3214   23355286.0304   23355279.735
        46.0004         42.0004
 -10942492.55447  -8491705.95247  22602773.3024   22602779.6414   22602773.571
        47.0004         43.0004
 -16584233.99848 -12886511.62947  21729852.1854   21729856.5324   21729851.888
        50.0004         45.0004
  -9696091.79847  -7505203.58747  22576592.5794   22576595.6184   22576592.660
        47.0004         42.0004
 14  5  5  1 34  0.0000000  0  9G10G08G04G26G09G17G28G07G02
 -16018775.88647 -12471413.43347  22828219.5304   22828224.9284   22828220.184
        47.0004         42.0004
 -24452571.77148 -18998235.88848  20110181.1064   20110187.0514   20110181.091
        53.0004         49.0004
 -28564285.58748 -22203419.13648  20380120.5924   20380126.1204   20380120.101
        53.0004         48.0004
   -702278.41347   -526560.27646  24104229.5154   24104237.4924   24104229.131
        43.0004         38.0004
 -20092223.89549 -15591389.52648  20211932.8244   20211938.2084   20211932.788
        54.0004         49.0004
  -9931572.79947  -7676036.44947  23362298.3394   23362305.5024   23362297.827
        47.0004         42.0004
 -11001618.17047  -8537777.88447  22591523.4784   22591528.7404   22591522.686
        47.0004         43.0004
 -16495180.82548 -12817119.55047  21746797.9234   21746802.6724   21746798.176
        50.0004         45.0004
  -9764456.15847  -7558474.47047  22563583.2754   22563587.9164   22563582.281
        47.0004         43.0004
 14  5  5  1 34 30.0000000  0  9G10G08G04G26G09G17G28G07G02
 -16089494.26747 -12526518.65047  22814761.9674   22814768.1484   22814762.098
        47.0004         42.0004
 -24412201.77848 -18966778.74548  20117863.4124   20117869.0664   20117863.662
        53.0004         49.0004
 -28587467.81948 -22221483.24848  20375709.1104   20375714.8064   20375708.976
        53.0004         48.0004
   -690810.28547   -517623.93646  24106410.3404   24106421.4134   24106410.496
        43.0004         38.0004
 -20054687.63149 -15562140.47448  20219075.8474   20219081.2934   20219075.871
        54.0004         49.0004
  -9894831.49147  -7647406.82547  23369290.3394   23369296.5574   23369289.984
        47.0004         42.0004
 -11060738.64947  -8583845.80647  22580272.6874   22580277.9964   22580272.416
        47.0004         43.0004
 -16405813.69948 -12747482.83947  21763804.9374   21763808.8704   21763803.540
        50.0004         45.0004
  -9832459.08047  -7611463.70947  22550642.1924   22550645.4774   22550643.241
        47.0004         43.0004
 14  5  5  1 35  0.0000000  0  9G10G08G04G26G09G17G28G07G02
 -16160272.35347 -12581670.38647  22801293.4084   22801299.6384   22801294.184
        47.0004         42.0004
 -24371217.96148 -18934843.29148  20125661.9284   20125668.0624   20125662.380
        53.0004         48.0004
 -28610097.64348 -22239116.91448  20371403.2324   20371408.4254   20371402.771
        53.0004         48.0004
   -679193.16147   -508571.48646  24108621.7454   24108629.6324   24108621.591
        42.0004         38.0004
 -20016613.44149 -15532472.25648  20226321.2384   20226326.5974   20226321.028
        54.0004         49.0004
  -9858234.41547  -7618889.59647  23376253.9594   23376260.6764   23376253.943
        47.0004         42.0004
 -11119852.17847  -8629908.30047  22569023.8444   22569028.3324   22569023.319
        47.0004         43.0004
 -16316136.32148 -12677604.36747  21780869.0604   21780874.3984   21780869.287
        50.0004         45.0004
  -9900099.44747  -7664170.44247  22537771.0324   22537775.1674   22537770.939
        47.0004         43.0004
 14  5  5  1 35 30.0000000  0  9G10G08G04G26G09G17G28G07G02
 -16231104.53847 -12636864.26947  22787814.0484   22787819.7454   22787815.265
        47.0004         42.0004
 -24329618.85948 -18902428.39848  20133578.4444   20133583.6344   20133578.499
        53.0004         48.0004
 -28632171.40448 -22256317.27748  20367202.6924   20367208.3414   20367202.014
        53.0004         49.0004
   -667426.07847   -499402.19146  24110861.2564   24110869.0794   24110860.550
        42.0004         38.0004
 -19978000.04349 -15502383.87848  20233669.0094   20233674.3384   20233669.043
        54.0004         49.0004
  -9821780.41647  -7590483.84347  23383191.0604   23383198.0724   23383190.668
        47.0004         42.0004
 -11178953.05847  -8675960.93947  22557777.1144   22557782.7574   22557777.324
        47.0004         43.0004
 -16226148.59248 -12607484.06847  21797992.9784   21797998.9074   21797992.977
        50.0004         45.0004
  -9967372.49548  -7716590.96247  22524969.0574   22524972.3944   22524969.847
        48.0004         43.0004
 14  5  5  1 36  0.0000000  0  9G10G08G04G26G09G17G28G07G02
 -16301991.01247 -12692100.46847  22774325.2314   22774331.8194   22774325.717
        47.0004         42.0004
 -24287408.83348 -18869537.45648  20141610.7474   20141616.2964   20141610.775
        53.0004         48.0004
 -28653691.14348 -22273085.94548  20363107.3384   20363113.0264   20363107.384
        53.0004         49.0004
   -655513.68547   -490119.65246  24113127.9894   24113135.9354   24113127.433
        42.0004         38.0004
 -19938852.00349 -15471878.89748  20241118.7264   20241123.8764   20241118.537
        54.0004         49.0004
  -9785472.54847  -7562191.97447  23390100.3394   23390107.2294   23390100.013
        47.0004         42.0004
 -11238040.83547  -8722003.36447  22546533.1094   22546539.0774   22546532.684
        47.0004         43.0004
 -16135855.96748 -12537126.18847  21815175.4854   21815180.8244   21815174.709
        50.0004         45.0004
 -10034278.93948  -7768725.80847  22512237.7494   22512241.0394   22512237.731
        48.0004         43.0004
 14  5  5  1 36 30.0000000  0  9G10G08G04G26G09G17G28G07G02
 -16372931.82947 -12747379.00047  22760826.0624   22760831.9284   22760826.539
        47.0004         42.0004
 -24244592.10348 -18836173.76348  20149758.2444   20149764.1394   20149758.499
        53.0004         48.0004
 -28674658.70748 -22289424.33748  20359117.2794   20359122.9394   20359116.813
        53.0004         49.0004
   -643460.53747   -480727.45846  24115421.8264   24115429.9744   24115420.937
        42.0004         38.0004
 -19899173.53749 -15440960.59948  20248669.2134   20248674.6104   20248669.423
        54.0004         49.0004
  -9749314.83547  -7534017.09447  23396980.3274   23396987.6364   23396980.843
        47.0004         42.0004
 -11297115.14148  -8768035.31147  22535290.1264   22535297.0584   22535291.605
        48.0004         43.0004
 -16045263.73748 -12466534.84447  21832414.8254   21832419.3454   21832414.419
        49.0004         45.0004
 -10100819.48248  -7820575.55347  22499575.9414   22499578.7994   22499575.614
        48.0004         43.0004
 14  5  5  1 37  0.0000000  0  9G10G08G04G26G09G17G28G07G02
 -16443919.58947 -12802694.12847  22747316.6674   22747323.7034   22747317.310
        47.0004         42.0004
 -24201165.40748 -18802334.76348  20158022.0784   20158028.0554   20158022.277
        53.0004         48.0004
 -28695068.56948 -22305328.15948  20355233.8864   20355239.1534   20355233.582
        53.0004         49.0004
   -631263.66347   -471223.26346  24117741.5964   24117748.5454   24117741.477
        42.0004         38.0004
 -19858961.74749 -15409626.72148  20256321.3034   20256326.4384   20256321.304
        54.0004         49.0004
  -9713303.88747  -7505956.57547  23403833.2604   23403839.7134   23403832.932
        47.0004         42.0004
 -11356168.15848  -8814050.64947  22524055.4044   22524060.2774   22524054.137
        48.0004         43.0004
 -15954369.91148 -12395708.49447  21849711.5804   21849716.0774   21849710.882
        50.0004         45.0004
 -10166987.44748  -7872134.95847  22486983.7974   22486987.4534   22486984.487
        48.0004         43.0004
 14  5  5  1 37 30.0000000  0  9G10G08G04G26G09G17G28G07G02
 -16514956.24947 -12858047.34947  22733799.6764   22733805.1584   22733800.130
        47.0004         42.0004
 -24157134.83248 -18768025.21548  20166400.3924   20166406.5234   20166401.028
        53.0004         48.0004
 -28714924.44648 -22320800.30848  20351455.7004   20351460.9604   20351454.881
        53.0004         49.0004
   -618929.55147   -461612.12846  24120089.1304   24120098.2684   24120088.850
        42.0004         38.0004
 -19818222.86249 -15377882.11848  20264073.7524   20264078.4774   20264073.730
        54.0004         49.0004
  -9677445.24047  -7478014.73747  23410657.7354   23410662.9784   23410657.191
        47.0004         42.0004
 -11415201.65548  -8860050.79147  22512820.5694   22512826.3804   22512820.134
        48.0004         43.0004
 -15863181.50748 -12324652.60047  21867063.8814   21867068.6094   21867063.537
        50.0004         45.0004
 -10232784.91448  -7923405.67647  22474462.8184   22474467.0834   22474463.558
        48.0004         43.0004
 14  5  5  1 38  0.0000000  0  9G10G08G04G26G09G17G28G07G02
 -16586037.01947 -12913434.95647  22720273.0144   22720279.1984   22720273.517
        47.0004         42.0004
 -24112499.70648 -18733244.58748  20174894.6324   20174900.3394   20174895.004
        53.0004         48.0004
 -28734223.77648 -22335838.77248  20347782.7004   20347788.2974   20347782.435
        53.0004         49.0004
   -606457.92247   -451893.83246  24122462.8634   24122469.3934   24122461.406
        42.0004         38.0004
 -19776956.43149 -15345726.45048  20271926.4244   20271931.5494   20271926.456
        54.0004         49.0004
  -9641738.14547  -7450190.99147  23417452.1204   23417458.2354   23417452.229
        47.0004         42.0004
 -11474210.09848  -8906031.41647  22501591.7234   22501596.7824   22501591.041
        48.0004         43.0004
 -15771698.97648 -12253367.51947  21884471.6774   21884476.9614   21884471.791
        49.0004         45.0004
 -10298207.90248  -7974384.59447  22462013.5024   22462018.1294   22462013.805
        48.0004         43.0004
 14  5  5  1 38 30.0000000  0  9G10G08G04G26G09G17G28G07G02
 -16657160.87647 -12968856.13047  22706739.1884   22706744.2694   22706738.761
        47.0004         43.0004
 -24067263.03948 -18697995.22648  20183503.1264   20183508.6514   20183502.981
        53.0004         48.0004
 -28752967.09648 -22350443.98548  20344216.7674   20344221.7784   20344216.153
        53.0004         49.0004
   -593852.14047   -442071.01046  24124860.7844   24124868.6594   24124860.948
        42.0004         38.0004
 -19735165.54249 -15313162.09748  20279879.1294   20279884.3404   20279878.781
        54.0004         49.0004
  -9606184.92547  -7422487.14047  23424217.0364   23424224.6714   23424217.233
        47.0004         42.0004
 -11533191.92948  -8951991.30347  22490368.3534   22490372.7594   22490367.609
        48.0004         43.0004
 -15679926.79648 -12181856.72947  21901935.8274   21901940.0274   21901935.559
        49.0004         45.0004
 -10363256.13548  -8025071.49047  22449635.0874   22449638.5174   22449635.510
        48.0004         43.0004
 14  5  5  1 39  0.0000000  0  9G10G08G04G26G09G17G28G07G02
 -16728326.76747 -13024310.07347  22693195.8544   22693202.5444   22693196.871
        47.0004         42.0004
 -24021428.19248 -18662279.74248  20192224.8454   20192230.2274   20192225.200
        53.0004         48.0004
 -28771155.57648 -22364616.85848  20340755.0634   20340760.2374   20340754.744
        53.0004         49.0004
   -581115.65747   -432146.33146  24127283.1064   24127292.4864   24127283.741
        42.0004         37.0004
 -19692853.64849 -15280191.77448  20287930.5164   20287935.9014   20287930.597
        54.0004         49.0004
  -9570788.10347  -7394905.15547  23430952.9154   23430960.6014   23430952.786
        46.0004         42.0004
 -11592145.59447  -8997929.24147  22479148.9304   22479153.4574   22479149.139
        47.0004         43.0004
 -15587869.06948 -12110123.44047  21919454.0274   21919459.6474   21919453.151
        49.0004         45.0004
 -10427929.26348  -8075466.10947  22437328.3094   22437332.5794   22437328.506
        48.0004         43.0004
 14  5  5  1 39 30.0000000  0  9G10G08G04G26G09G17G28G07G02
 -16799530.87747 -13079793.78347  22679647.1324   22679652.9314   22679646.916
        47.0004         42.0004
 -23974996.12648 -18626098.90648  20201060.5404   20201066.5114   20201060.676
        53.0004         48.0004
 -28788787.63648 -22378356.15248  20337399.6694   20337405.2744   20337399.265
        53.0004         49.0004
   -568249.43347   -422120.57746  24129734.1084   24129740.2714   24129733.127
        42.0004         38.0004
 -19650021.44749 -15246816.03148  20296081.5144   20296086.6534   20296081.267
        54.0004         49.0004
  -9535548.10347  -7367445.37647  23437659.2704   23437666.0684   23437658.598
        46.0004         42.0004
 -11651067.22347  -9043842.21047  22467936.7334   22467940.8274   22467936.606
        47.0004         43.0004
 -15495528.12548 -12038169.46647  21937025.4414   21937030.7814   21937025.228
        49.0004         45.0004
 -10492224.11748  -8125565.96147  22425093.8974   22425096.3554   22425093.580
        48.0004         43.0004
 14  5  5  1 40  0.0000000  0  9G10G08G04G26G09G17G28G07G02
 -16870769.42247 -13135304.32547  22666089.0134   22666096.1354   22666090.741
        47.0004         43.0004
 -23927967.03848 -18589452.85348  20210009.8324   20210015.7624   20210010.138
        53.0004         48.0004
 -28805861.32648 -22391660.35248  20334151.2154   20334156.2974   20334150.492
        53.0004         49.0004
   -555254.10547   -411994.20846  24132205.4544   24132215.1234   24132205.457
        42.0004         38.0004
 -19606669.51649 -15213035.29848  20304331.1114   20304336.0484   20304330.957
        54.0004         49.0004
  -9500464.58647  -7340107.53147  23444334.7694   23444342.6744   23444334.788
        46.0004         42.0004
 -11709952.38547  -9089726.77247  22456730.6484   22456734.8004   22456730.876
        47.0004         43.0004
 -15402904.19648 -11965994.97847  21954651.3834   21954657.0714   21954650.968
        49.0004         45.0004
 -10556137.72548  -8175368.73547  22412929.8064   22412934.3134   22412931.393
        48.0004         43.0004
 14  5  5  1 40 30.0000000  0  9G10G08G04G26G09G17G28G07G02
 -16942041.28047 -13190840.82847  22652527.7274   22652533.5534   22652528.060
        47.0004         43.0004
 -23880344.10748 -18552344.06148  20219072.2024   20219077.9284   20219072.585
        53.0004         48.0004
 -28822377.76748 -22404530.34048  20331007.9814   20331013.2684   20331007.586
        53.0004         49.0004
   -542133.18747   -401769.98446  24134702.3804   24134709.7844   24134701.385
        42.0004         38.0004
 -19562801.34449 -15178852.28448  20312678.7614   20312684.1254   20312678.947
        54.0004         49.0004
  -9465540.20947  -7312893.68647  23450981.5074   23450987.8464   23450980.884
        46.0004         42.0004
 -11768799.81647  -9135581.93347  22445532.0314   22445538.5894   22445532.387
        47.0004         43.0004
 -15310001.98948 -11893603.66447  21972330.3984   21972335.2954   21972329.963
        49.0004         45.0004
 -10619670.01148  -8224874.38247  22400840.9794   22400844.5104   22400840.927
        48.0004         43.0004
 14  5  5  1 41  0.0000000  0  9G10G08G04G26G09G17G28G07G02
 -17013345.91347 -13246402.87147  22638957.8154   22638964.3804   22638959.092
        47.0004         42.0004
 -23832131.67248 -18514775.91448  20228246.5364   20228252.2864   20228247.268
        53.0004         48.0004
 -28838338.74648 -22416967.50648  20327970.5704   20327976.3284   20327970.171
        53.0004         49.0004
   -528890.93747   -391451.22246  24137222.0094   24137230.2054   24137222.260
        43.0004         38.0004
 -19518421.23449 -15144270.35948  20321123.8724   20321129.1104   20321123.936
        54.0004         49.0004
  -9430778.72147  -7285806.76847  23457596.7014   23457602.6874   23457596.288
        47.0004         42.0004
 -11827608.81747  -9181407.13847  22434341.3954   22434345.8634   22434341.476
        47.0004         43.0004
 -15216826.99548 -11820999.77947  21990060.2854   21990065.5364   21990060.303
        49.0004         44.0004
 -10682821.22448  -8274083.10647  22388823.9004   22388827.8164   22388824.347
        48.0004         44.0004
 14  5  5  1 41 30.0000000  0  9G10G08G04G26G09G17G28G07G02
 -17084679.12347 -13301987.16747  22625384.2984   22625390.5984   22625384.429
        47.0004         43.0004
 -23783329.89148 -18476748.54248  20237533.2834   20237539.0914   20237533.633
        53.0004         48.0004
 -28853742.36448 -22428970.36048  20325039.4864   20325044.9784   20325039.253
        53.0004         49.0004
   -515527.64547   -381038.13946  24139765.2144   24139772.4264   24139764.405
        42.0004         38.0004
 -19473529.39849 -15109289.69248  20329666.3984   20329671.5994   20329666.538
        54.0004         49.0004
  -9396178.59347  -7258845.57247  23464180.8464   23464187.9454   23464179.591
        47.0004         42.0004
 -11886374.02647  -9227198.23447  22423158.6844   22423165.3574   22423158.900
        47.0004         43.0004
 -15123380.05948 -11748184.00147  22007842.7944   22007847.8274   22007842.526
        49.0004         44.0004
 -10745587.99348  -8322992.25147  22376880.4214   22376883.2794   22376880.386
        48.0004         44.0004
 14  5  5  1 42  0.0000000  0  9G10G08G04G26G09G17G28G07G02
 -17156040.05047 -13357593.07947  22611805.3474   22611810.8624   22611805.758
        47.0004         43.0004
 -23733942.22048 -18438264.63248  20246931.9144   20246937.4934   20246932.097
        53.0004         48.0004
 -28868589.78648 -22440539.81048  20322214.0244   20322219.4934   20322213.388
        53.0004         49.0004
   -502047.04647   -370533.65446  24142330.4334   24142338.1324   24142329.678
        42.0004         38.0004
 -19428129.36549 -15073913.02048  20338306.0824   20338310.9204   20338305.776
        54.0004         49.0004
  -9361743.60147  -7232013.08247  23470733.2204   23470738.6674   23470732.678
        47.0004         42.0004
 -11945094.45047  -9272954.44147  22411985.7904   22411990.4744   22411985.304
        47.0004         43.0004
 -15029665.76248 -11675159.88047  22025676.5084   22025681.0834   22025676.068
        49.0004         44.0004
 -10807970.14948  -8371601.70647  22365008.7934   22365012.3404   22365008.645
        48.0004         44.0004
 14  5  5  1 42 30.0000000  0  9G10G08G04G26G09G17G28G07G02
 -17227424.07347 -13413216.97047  22598221.2774   22598225.9934   22598221.188
        47.0004         42.0004
 -23683968.77048 -18399324.27048  20256440.6914   20256446.6024   20256441.285
        53.0004         48.0004
 -28882878.57148 -22451673.95648  20319495.1314   20319500.2004   20319494.838
        53.0004         49.0004
   -488449.08547   -359937.71146  24144916.5194   24144924.6164   24144917.381
        42.0004         38.0004
 -19382221.39649 -15038140.55748  20347041.8384   20347047.2694   20347041.929
        54.0004         49.0004
  -9327472.47347  -7205308.26447  23477254.0394   23477261.5484   23477254.142
        47.0004         42.0004
 -12003765.41047  -9318672.09747  22400820.9664   22400825.7564   22400820.322
        47.0004         43.0004
 -14935684.75848 -11601927.94347  22043559.9944   22043565.1564   22043560.381
        49.0004         44.0004
 -10869963.90148  -8419908.50447  22353209.8474   22353215.6194   22353212.182
        48.0004         44.0004
 14  5  5  1 43  0.0000000  0  9G10G08G04G26G09G17G28G07G02
 -17298831.13247 -13468858.81147  22584633.1184   22584638.7054   22584632.799
        47.0004         43.0004
 -23633414.02848 -18359930.96448  20266061.1004   20266067.1364   20266062.028
        53.0004         48.0004
 -28896610.98548 -22462374.57148  20316881.8854   20316887.2254   20316881.401
        53.0004         49.0004
   -474738.21347   -349253.78346  24147527.5434   24147532.9004   24147526.202
        42.0004         38.0004
 -19335809.77649 -15001975.64548  20355873.9164   20355878.6634   20355873.599
        54.0004         50.0004
  -9293368.72547  -7178733.87447  23483744.4774   23483750.3564   23483744.326
        47.0004         42.0004
 -12062386.03847  -9364350.52447  22389663.6754   22389669.8024   22389664.838
        47.0004         43.0004
 -14841442.32948 -11528492.29747  22061494.0054   22061499.4734   22061494.058
        49.0004         44.0004
 -10931570.08248  -8467913.29447  22341488.6514   22341493.4324   22341488.730
        48.0004         44.0004
 14  5  5  1 43 30.0000000  0  9G10G08G04G26G09G17G28G07G02
 -17370256.15347 -13524514.65447  22571040.7674   22571047.4304   22571041.289
        47.0004         43.0004
 -23582277.60848 -18320084.38448  20275792.7944   20275797.9884   20275792.788
        53.0004         48.0004
 -28909784.30648 -22472639.51448  20314374.7224   20314380.5874   20314374.536
        53.0004         49.0004
   -460914.07547   -338481.59746  24150157.2794   24150165.1074   24150157.480
        42.0004         38.0004
 -19288894.13649 -14965417.99048  20364801.5714   20364806.5114   20364801.546
        54.0004         49.0004
  -9259431.34447  -7152289.11947  23490202.3404   23490209.1444   23490201.961
        47.0004         43.0004
 -12120951.05147  -9409985.61947  22378520.3844   22378526.7524   22378520.392
        47.0004         43.0004
 -14746939.07548 -11454853.40847  22079477.8614   22079482.5444   22079477.658
        49.0004         44.0004
 -10992784.67248  -8515612.97147  22329839.1634   22329842.6694   22329839.426
        48.0004         44.0004
 14  5  5  1 44  0.0000000  0  9G10G08G04G26G09G17G28G07G02
 -17441700.42247 -13580185.50747  22557445.3204   22557450.3824   22557446.362
        47.0004         43.0004
 -23530564.72148 -18279788.62248  20285632.7474   20285638.7584   20285633.302
        53.0004         48.0004
 -28922401.91048 -22482471.43748  20311973.9154   20311979.7024   20311973.674
        53.0004         49.0004
   -446982.38847   -327625.60546  24152807.5114   24152816.0594   24152807.822
        42.0004         38.0004
 -19241480.31949 -14928472.13648  20373823.9364   20373829.4324   20373823.883
        54.0004         49.0004
  -9225665.14147  -7125977.75247  23496627.9744   23496635.4444   23496627.331
        47.0004         42.0004
 -12179460.89648  -9455577.73247  22367386.9994   22367391.7494   22367386.474
        48.0004         43.0004
 -14652181.43548 -11381016.29247  22097510.5224   22097515.0334   22097508.904
        49.0004         44.0004
 -11053609.30948  -8563008.76647  22318264.0484   22318267.7574   22318265.242
        48.0004         44.0004
 14  5  5  1 44 30.0000000  0  9G10G08G04G26G09G17G28G07G02
 -17513159.96847 -13635868.25447  22543846.7174   22543852.4714   22543847.148
        47.0004         43.0004
 -23478276.73748 -18239044.72448  20295582.9964   20295589.1534   20295583.381
        53.0004         48.0004
 -28934462.53648 -22491869.35148  20309679.0874   20309684.4004   20309678.546
        53.0004         49.0004
   -432944.10547   -316686.56146  24155480.0434   24155486.8724   24155479.769
        43.0004         38.0004
 -19193569.49049 -14891139.00648  20382941.0174   20382945.8624   20382941.100
        54.0004         49.0004
  -9192069.66247  -7099799.41747  23503021.5344   23503027.1234   23503020.169
        47.0004         42.0004
 -12237911.64848  -9501123.79747  22356263.9974   22356268.7514   22356263.462
        48.0004         43.0004
 -14557170.97848 -11306982.17647  22115588.6464   22115595.0224   22115588.835
        49.0004         44.0004
 -11114041.60648  -8610098.85247  22306764.7474   22306768.8334   22306765.431
        49.0004         44.0004
 14  5  5  1 45  0.0000000  0  9G10G08G04G26G09G17G28G07G02
 -17584630.89847 -13691559.88447  22530245.9724   22530252.7674   22530246.732
        47.0004         43.0004
 -23425414.61448 -18197853.45948  20305642.4474   20305647.9854   20305642.716
        53.0004         48.0004
 -28945965.08948 -22500832.39848  20307489.9834   20307495.3594   20307489.739
        53.0004         49.0004
   -418800.14047   -305665.16746  24158170.8094   24158178.9264   24158170.478
        43.0004         38.0004
 -19145162.52949 -14853419.27848  20392152.5624   20392157.7174   20392152.630
        54.0004         49.0004
  -9158645.13947  -7073754.30047  23509381.9074   23509387.0384   23509381.369
        47.0004         42.0004
 -12296299.07648  -9546620.49947  22345152.7594   22345158.2514   22345152.758
        48.0004         43.0004
 -14461909.43548 -11232752.41947  22133717.1144   22133721.6754   22133717.048
        49.0004         44.0004
 -11174078.72148  -8656881.00147  22295340.7334   22295343.1064   22295340.790
        49.0004         44.0004
 14  5  5  1 45 30.0000000  0  9G10G08G04G26G09G17G28G07G02
 -17656112.35247 -13747259.70447  22516643.7494   22516649.8144   22516644.750
        47.0004         43.0004
 -23371982.07648 -18156217.70348  20315810.4374   20315815.9564   20315810.591
        53.0004         48.0004
 -28956910.71548 -22509361.47748  20305407.0604   20305412.8094   20305406.614
        53.0004         49.0004
   -404554.19147   -294564.30346  24160881.1924   24160890.3534   24160882.282
        43.0004         38.0004
 -19096263.32349 -14815315.97948  20401457.9764   20401462.6104   20401457.824
        54.0004         49.0004
  -9125393.97247  -7047844.25747  23515708.4884   23515716.4224   23515708.542
        47.0004         42.0004
 -12354621.87448  -9592066.83747  22334054.4334   22334060.1354   22334054.639
        48.0004         43.0004
 -14366401.30848 -11158330.52047  22151891.0344   22151897.3994   22151891.648
        49.0004         44.0004
 -11233720.73548  -8703355.29847  22283991.1194   22283994.4774   22283991.145
        49.0004         44.0004
 14  5  5  1 46  0.0000000  0  9G10G08G04G26G09G17G28G07G02
 -17727601.35347 -13802965.40547  22503040.0824   22503044.9394   22503040.678
        47.0004         43.0004
 -23317980.90148 -18114138.85748  20326086.5774   20326091.7744   20326086.648
        53.0004         48.0004
 -28967299.51748 -22517456.67148  20303430.4224   20303435.9334   20303430.174
        53.0004         49.0004
   -390208.01147   -283385.34646  24163612.0714   24163618.6284   24163611.338
        43.0004         38.0004
 -19046873.90249 -14776830.69648  20410856.2494   20410861.2914   20410856.400
        54.0004         49.0004
  -9092317.66847  -7022070.47546  23522002.8304   23522008.6654   23522002.416
        46.0004         41.0004
 -12412876.56448  -9637460.11347  22322968.6254   22322973.7424   22322969.517
        48.0004         43.0004
 -14270649.49948 -11083718.72447  22170112.5514   22170117.0164   22170112.129
        49.0004         44.0004
 -11292965.81348  -8749520.28847  22272717.2864   22272721.0364   22272717.244
        49.0004         44.0004
 14  5  5  1 46 30.0000000  0  9G10G08G04G26G09G17G28G07G02
 -17799096.61647 -13858675.99547  22489435.6304   22489441.0304   22489435.639
        47.0004         43.0004
 -23263414.48948 -18071619.55448  20336470.0594   20336475.8554   20336470.118
        53.0004         48.0004
 -28977132.23948 -22525118.55548  20301559.3184   20301564.7704   20301558.844
        53.0004         49.0004
   -375764.84047   -272130.79646  24166361.4274   24166366.9764   24166360.401
        43.0004         38.0004
 -18996997.57449 -14737966.00748  20420347.2464   20420352.4874   20420347.274
        54.0004         49.0004
  -9059417.88547  -6996434.24446  23528262.9424   23528269.6744   23528262.925
        46.0004         41.0004
 -12471061.35148  -9682798.91247  22311897.4024   22311902.5964   22311896.947
        48.0004         43.0004
 -14174657.77748 -11008919.99647  22188379.2434   22188384.3834   22188379.168
        49.0004         44.0004
 -11351813.41748  -8795375.56047  22261518.9114   22261521.7744   22261519.052
        49.0004         44.0004
 14  5  5  1 47  0.0000000  0  9G10G08G04G26G09G17G28G07G02
 -17870593.56148 -13914387.89947  22475829.2624   22475835.8564   22475830.258
        48.0004         43.0004
 -23208283.22748 -18028660.11948  20346961.2044   20346967.0404   20346961.284
        53.0004         48.0004
 -28986407.06648 -22532345.71648  20299794.4804   20299799.8634   20299793.654
        53.0004         49.0004
   -361225.06547   -260800.98246  24169126.0874   24169134.0654   24169126.802
        43.0004         38.0004
 -18946634.83049 -14698722.29348  20429930.9654   20429936.2594   20429931.017
        54.0004         49.0004
  -9026694.11747  -6970935.17446  23534490.6384   23534497.2834   23534490.128
        46.0004         41.0004
 -12529171.57448  -9728079.60347  22300839.5434   22300842.4704   22300839.005
        48.0004         43.0004
 -14078427.41648 -10933935.31047  22206691.2074   22206697.0694   22206691.145
        49.0004         44.0004
 -11410260.41048  -8840918.66547  22250397.2504   22250400.3104   22250397.038
        49.0004         44.0004
 14  5  5  1 47 30.0000000  0  9G10G08G04G26G09G17G28G07G02
 -17942090.16248 -13970099.53047  22462224.2594   22462230.2654   22462225.186
        48.0004         43.0004
 -23152590.30448 -17985263.02748  20357558.8344   20357564.6944   20357559.351
        53.0004         48.0004
 -28995124.77448 -22539138.76548  20298135.6004   20298140.9904   20298135.191
        53.0004         49.0004
   -346591.35647   -249397.96946  24171911.2204   24171919.3614   24171910.993
        43.0004         38.0004
 -18895788.22849 -14659101.54648  20439606.9064   20439611.9904   20439606.930
        54.0004         49.0004
  -8994147.94947  -6945574.48846  23540682.9164   23540690.4844   23540683.030
        46.0004         41.0004
 -12587204.74248  -9773300.25947  22289795.0114   22289801.1354   22289795.279
        48.0004         43.0004
 -13981961.75648 -10858767.27447  22225048.3234   22225052.6214   22225047.809
        49.0004         44.0004
 -11468305.81448  -8886148.85647  22239351.6914   22239353.9264   22239351.247
        49.0004         44.0004
 14  5  5  1 48  0.0000000  0  9G10G08G04G26G09G17G28G07G02
 -18013586.45848 -14025810.91847  22448618.6324   22448625.4334   22448619.649
        48.0004         43.0004
 -23096340.46248 -17941431.96648  20368263.0674   20368268.7614   20368263.312
        53.0004         48.0004
 -29003288.08248 -22545499.81948  20296581.8004   20296587.5094   20296581.284
        53.0004         49.0004
   -331868.45047   -237925.45146  24174713.3214   24174720.8114   24174713.207
        43.0004         38.0004
 -18844462.97049 -14619107.81048  20449373.6104   20449378.9204   20449373.667
        54.0004         49.0004
  -8961783.25647  -6920355.19646  23546842.2684   23546849.1424   23546841.279
        46.0004         41.0004
 -12645160.60348  -9818460.67147  22278766.1594   22278771.9414   22278766.724
        48.0004         43.0004
 -13885266.37048 -10783420.22947  22243448.7094   22243453.1284   22243448.539
        49.0004         44.0004
 -11525950.96048  -8931067.15347  22228381.2144   22228385.1774   22228382.181
        49.0004         45.0004
 14  5  5  1 48 30.0000000  0  9G10G08G04G26G09G17G28G07G02
 -18085076.81348 -14081517.68247  22435016.1224   22435020.3294   22435015.677
        48.0004         43.0004
 -23039532.89448 -17897166.32448  20379073.3034   20379078.9614   20379073.383
        53.0004         48.0004
 -29010893.70348 -22551426.30248  20295134.6484   20295140.2034   20295134.621
        53.0004         49.0004
   -317055.52447   -226382.77846  24177531.7334   24177538.2634   24177531.117
        43.0004         38.0004
 -18792658.54949 -14578740.70948  20459231.6444   20459237.2214   20459231.600
        54.0004         49.0004
  -8929598.10547  -6895275.82446  23552967.2874   23552973.8274   23552966.849
        46.0004         41.0004
 -12703033.20048  -9863556.18547  22267753.5674   22267758.2504   22267753.842
        48.0004         43.0004
 -13788341.00348 -10707893.97847  22261892.3764   22261897.7964   22261893.006
        48.0004         44.0004
 -11583191.29048  -8975670.00747  22217487.7244   22217491.8234   22217489.023
        49.0004         44.0004
 14  5  5  1 49  0.0000000  0  9G10G08G04G26G09G17G28G07G02
 -18156561.25848 -14137219.85347  22421412.8524   22421417.2234   22421412.643
        48.0004         43.0004
 -22982172.62948 -17852470.00448  20389988.6714   20389994.3854   20389989.003
        53.0004         48.0004
 -29017945.01848 -22556920.85648  20293792.9474   20293798.6024   20293792.496
        53.0004         49.0004
   -302157.27847   -214773.63846  24180366.6124   24180372.8814   24180366.392
        43.0004         38.0004
 -18740379.88849 -14538004.07248  20469180.0434   20469185.3034   20469179.902
        54.0004         49.0004
  -8897596.47247  -6870339.44546  23559056.5754   23559062.7144   23559056.407
        46.0004         41.0004
 -12760822.13348  -9908586.52747  22256756.9194   22256762.8144   22256757.484
        48.0004         43.0004
 -13691191.80348 -10632193.30747  22280380.4644   22280384.1974   22280379.643
        48.0004         44.0004
 -11640027.96148  -9019958.33147  22206673.2434   22206676.4164   22206673.966
        49.0004         44.0004
 14  5  5  1 49 30.0000000  0  9G10G08G04G26G09G17G28G07G02
 -18228035.55148 -14192914.11247  22407810.8444   22407817.0064   22407811.811
        48.0004         43.0004
 -22924260.77448 -17807343.87648  20401008.6444   20401014.8544   20401008.841
        52.0004         48.0004
 -29024440.54648 -22561982.33448  20292556.6974   20292562.3174   20292556.620
        53.0004         49.0004
   -287174.50147   -203098.62846  24183218.9394   24183225.5814   24183217.702
        43.0004         38.0004
 -18687627.87849 -14496898.59148  20479218.4554   20479223.5894   20479218.239
        54.0004         49.0004
  -8865777.58747  -6845545.47647  23565111.8864   23565118.3594   23565111.357
        46.0004         42.0004
 -12818522.89148  -9953548.16247  22245777.2014   22245782.5634   22245777.121
        48.0004         43.0004
 -13593819.91148 -10556319.13147  22298909.3774   22298914.7574   22298909.097
        48.0004         43.0004
 -11696458.36948  -9063930.08147  22195935.4024   22195939.0064   22195935.149
        49.0004         44.0004
 14  5  5  1 50  0.0000000  0  9G10G08G04G26G09G17G28G07G02
 -18299498.58748 -14248599.61147  22394211.5314   22394217.6154   22394212.391
        48.0004         43.0004
 -22865801.01148 -17761790.80948  20412133.1284   20412139.1484   20412133.835
        52.0004         48.0004
 -29030381.51648 -22566611.68448  20291426.7564   20291431.5944   20291425.972
        53.0004         49.0004
   -272110.52347   -191360.32946  24186084.4504   24186091.2224   24186084.231
        43.0004         38.0004
 -18634406.07049 -14455427.03548  20489345.8574   20489351.2554   20489346.002
        54.0004         49.0004
  -8834143.88747  -6820895.80447  23571131.4324   23571137.4354   23571131.084
        46.0004         42.0004
 -12876133.76148  -9998439.75347  22234813.9954   22234818.8454   22234814.118
        48.0004         44.0004
 -13496229.37648 -10480274.57147  22317480.1664   22317485.3984   22317479.915
        48.0004         44.0004
 -11752482.40448  -9107585.18447  22185273.5424   22185276.9214   22185273.963
        49.0004         44.0004
 14  5  5  1 50 30.0000000  0  9G10G08G04G26G09G17G28G07G02
 -18370945.77048 -14304272.74647  22380615.7314   22380621.8544   22380616.405
        48.0004         43.0004
 -22806793.76448 -17715811.12248  20423361.9484   20423367.7194   20423361.977
        52.0004         48.0004
 -29035766.28248 -22570807.63548  20290401.9554   20290407.4464   20290401.470
        53.0004         49.0004
   -256965.63947   -179558.99546  24188965.5754   24188973.2814   24188965.552
        43.0004         38.0004
 -18580715.10049 -14413589.89548  20499563.2884   20499568.3154   20499563.088
        54.0004         49.0004
  -8802694.55547  -6796389.79647  23577116.5584   23577122.6674   23577115.878
        47.0004         42.0004
 -12933649.85848 -10043257.49847  22223870.0524   22223875.3594   22223869.549
        48.0004         43.0004
 -13398421.46548 -10404060.63347  22336091.6244   22336096.8404   22336091.861
        48.0004         43.0004
 -11808096.58548  -9150920.91747  22174691.8174   22174694.7254   22174691.180
        49.0004         45.0004
 14  5  5  1 51  0.0000000  0  9G10G08G04G26G09G17G28G07G02
 -18442376.18448 -14359932.81347  22367023.2554   22367029.7804   22367023.476
        48.0004         43.0004
 -22747243.17448 -17669408.07648  20434694.2234   20434699.4834   20434694.418
        52.0004         48.0004
 -29040596.81148 -22574571.70548  20289482.6624   20289488.4994   20289482.032
        53.0004         49.0004
   -241743.53647   -167697.51246  24191862.6914   24191868.6804   24191861.921
        43.0004         38.0004
 -18526559.07649 -14371390.37348  20509868.7394   20509873.6674   20509868.721
        54.0004         49.0004
  -8771432.34547  -6772029.61147  23583065.3314   23583071.1154   23583064.455
        46.0004         42.0004
 -12991069.80548 -10088000.32447  22212942.6244   22212947.7174   22212942.995
        48.0004         44.0004
 -13300400.61648 -10327680.75647  22354745.5324   22354749.1934   22354744.689
        48.0004         43.0004
 -11863301.26048  -9193937.55747  22164185.4594   22164189.0974   22164185.928
        49.0004         45.0004
 14  5  5  1 51 30.0000000  0  9G10G08G04G26G09G17G28G07G02
 -18513787.59248 -14415578.05547  22353434.0674   22353439.2134   22353434.632
        48.0004         43.0004
 -22687152.41948 -17622584.10248  20446128.7164   20446134.5704   20446129.001
        52.0004         48.0004
 -29044874.13848 -22577904.71148  20288668.5184   20288674.5214   20288667.965
        53.0004         49.0004
   -226447.12947   -155778.11246  24194773.8504   24194779.2714   24194773.430
        43.0004         38.0004
 -18471941.22949 -14328831.00448  20520262.0684   20520267.1514   20520262.202
        54.0004         49.0004
  -8740358.76747  -6747816.40047  23588978.5984   23588983.9374   23588977.931
        46.0004         42.0004
 -13048391.51248 -10132666.59847  22202035.6754   22202040.2134   22202034.876
        49.0004         44.0004
 -13202170.75148 -10251138.02247  22373436.5124   22373441.6094   22373436.832
        48.0004         43.0004
 -11918095.68548  -9236634.52747  22153757.9624   22153761.5754   22153759.103
        49.0004         45.0004
 14  5  5  1 52  0.0000000  0  9G10G08G04G26G09G17G28G07G02
 -18585176.17648 -14471205.52347  22339849.0204   22339854.4924   22339849.678
        48.0004         43.0004
 -22626522.55648 -17575340.05648  20457666.7474   20457671.8724   20457667.031
        52.0004         48.0004
 -29048597.05648 -22580805.71448  20287960.4654   20287965.6734   20287959.956
        53.0004         49.0004
   -211077.06547   -143801.33646  24197698.3144   24197704.8434   24197697.813
        42.0004         37.0004
 -18416862.72449 -14285912.68348  20530743.2974   20530748.2164   20530743.153
        54.0004         49.0004
  -8709473.70347  -6723750.08347  23594855.4774   23594861.4994   23594854.822
        47.0004         42.0004
 -13105610.43148 -10177252.78247  22191146.0814   22191151.7204   22191146.076
        49.0004         44.0004
 -13103733.04748 -10174433.33547  22392169.1094   22392174.6014   22392169.233
        48.0004         43.0004
 -11972477.46448  -9279009.95447  22143410.4504   22143413.3754   22143410.724
        49.0004         45.0004
 14  5  5  1 52 30.0000000  0  9G10G08G04G26G09G17G28G07G02
 -18656540.56248 -14526814.13147  22326268.8444   22326273.9024   22326269.293
        48.0004         44.0004
 -22565357.80848 -17527679.20348  20469305.5944   20469311.3424   20469305.953
        52.0004         48.0004
 -29051767.39048 -22583276.12848  20287356.4844   20287362.7854   20287356.235
        53.0004         49.0004
   -195637.16747   -131770.12246  24200634.6764   24200642.5084   24200635.428
        42.0004         37.0004
 -18361327.41849 -14242638.40448  20541311.2774   20541316.5604   20541311.331
        54.0004         49.0004
  -8678779.46047  -6699832.45847  23600696.7384   23600703.0754   23600696.158
        47.0004         42.0004
 -13162724.91548 -10221757.59247  22180278.0424   22180283.1084   22180277.640
        48.0004         44.0004
 -13005092.04948 -10097570.23247  22410940.6354   22410945.1614   22410939.626
        48.0004         43.0004
 -12026446.89448  -9321064.06247  22133140.2604   22133142.7404   22133141.138
        49.0004         45.0004
 14  5  5  1 53  0.0000000  0  9G10G08G04G26G09G17G28G07G02
 -18727877.51648 -14582401.38047  22312693.1704   22312699.6384   22312694.441
        48.0004         43.0004
 -22503660.18548 -17479603.12748  20481046.3994   20481052.1454   20481046.760
        52.0004         48.0004
 -29054385.02448 -22585315.85948  20286858.5524   20286864.3014   20286858.456
        53.0004         49.0004
   -180129.02447   -119685.75646  24203586.9124   24203593.1914   24203586.147
        42.0004         38.0004
 -18305337.35949 -14199009.77148  20551966.0004   20551971.0784   20551965.818
        54.0004         49.0004
  -8648276.62047  -6676063.98047  23606500.3704   23606507.0834   23606500.337
        46.0004         42.0004
 -13219731.62348 -10266178.42647  22169429.5724   22169435.2594   22169430.127
        49.0004         44.0004
 -12906250.45048 -10020550.81847  22429748.7344   22429754.0064   22429748.459
        48.0004         43.0004
 -12080002.30048  -9362795.55447  22122948.8324   22122952.9894   22122949.321
        49.0004         45.0004
 14  5  5  1 53 30.0000000  0  9G10G08G04G26G09G17G28G07G02
 -18799184.14848 -14637965.02347  22299124.2214   22299130.1444   22299125.556
        48.0004         43.0004
 -22441432.00948 -17431113.64048  20492887.9794   20492893.8574   20492888.314
        52.0004         48.0004
 -29056449.92748 -22586924.89848  20286465.8244   20286471.4724   20286465.589
        53.0004         49.0004
   -164554.49647   -107549.64346  24206550.3204   24206557.7504   24206550.127
        42.0004         38.0004
 -18248894.70349 -14155028.47348  20562706.4444   20562711.8434   20562706.633
        54.0004         49.0004
  -8617965.78847  -6652445.11647  23612268.6444   23612274.6664   23612268.504
        46.0004         42.0004
 -13276627.03748 -10310512.54247  22158602.8114   22158608.6114   22158603.067
        49.0004         44.0004
 -12807210.75947  -9943377.04547  22448595.3984   22448601.1254   22448595.365
        47.0004         43.0004
 -12133141.87148  -9404203.01847  22112837.1564   22112840.4314   22112837.082
        49.0004         45.0004
 14  5  5  1 54  0.0000000  0  9G10G08G04G26G09G17G28G07G02
 -18870459.59648 -14693504.34047  22285561.8984   22285566.5284   22285562.121
        48.0004         44.0004
 -22378677.49448 -17382214.01748  20504830.1964   20504835.5724   20504830.297
        52.0004         48.0004
 -29057964.76548 -22588105.31648  20286177.6794   20286183.1124   20286176.813
        53.0004         49.0004
   -148917.37247    -95364.74946  24209526.5764   24209532.5494   24209526.726
        43.0004         38.0004
 -18192003.62949 -14110697.75848  20573532.1044   20573537.3754   20573532.224
        54.0004         49.0004
  -8587849.74647  -6628978.03647  23617999.4664   23618006.0114   23617999.218
        46.0004         42.0004
 -13333410.29748 -10354759.26147  22147797.8654   22147803.1484   22147797.894
        49.0004         44.0004
 -12707977.60047  -9866052.51947  22467478.8964   22467484.3334   22467478.699
        47.0004         43.0004
 -12185866.33948  -9445287.01547  22102803.3244   22102806.9314   22102804.173
        49.0004         45.0004
 14  5  5  1 54 30.0000000  0  9G10G08G04G26G09G17G28G07G02
 -18941700.35348 -14749016.62247  22272003.9634   22272010.2554   22272005.358
        48.0004         43.0004
 -22315398.76348 -17332905.91848  20516871.3904   20516876.9634   20516871.377
        52.0004         48.0004
 -29058928.88448 -22588856.59748  20285994.4594   20285999.6494   20285994.235
        53.0004         49.0004
   -133219.46647    -83132.49046  24212512.8554   24212519.3574   24212512.874
        43.0004         38.0004
 -18134666.35349 -14066019.35248  20584443.2734   20584448.3164   20584443.536
        54.0004         49.0004
  -8557929.18647  -6605663.28547  23623693.4814   23623699.1674   23623693.128
        46.0004         42.0004
 -13390077.62148 -10398915.65847  22137014.5814   22137019.8494   22137014.381
        49.0004         44.0004
 -12608553.19847  -9788578.97847  22486398.6584   22486403.9164   22486398.982
        47.0004         43.0004
 -12238173.54648  -9486045.88747  22092850.4454   22092853.6024   22092850.329
        49.0004         45.0004
 14  5  5  1 55  0.0000000  0  9G10G08G04G26G09G17G28G07G02
 -19012902.84148 -14804499.10547  22258456.8864   22258460.6424   22258456.230
        48.0004         44.0004
 -22251597.19848 -17283190.40747  20529012.3864   20529018.1244   20529012.436
        52.0004         47.0004
 -29059341.87448 -22589178.42848  20285915.7194   20285920.9754   20285914.844
        53.0004         49.0004
   -117461.50147    -70853.43746  24215510.6654   24215519.3154   24215511.409
        43.0004         38.0004
 -18076884.35649 -14020994.41148  20595439.0554   20595444.1554   20595438.889
        54.0004         49.0004
  -8528203.46747  -6582500.33046  23629349.9724   23629356.1864   23629349.438
        46.0004         41.0004
 -13446624.75148 -10442978.39847  22126253.8614   22126258.6624   22126253.987
        49.0004         44.0004
 -12508939.65847  -9710958.04647  22505355.1614   22505358.2844   22505354.828
        47.0004         42.0004
 -12290061.42848  -9526478.01147  22082975.8874   22082980.3954   22082976.598
        49.0004         45.0004
 14  5  5  1 55 30.0000000  0  9G10G08G04G26G09G17G28G07G02
 -19084064.00748 -14859949.39247  22244913.7864   22244919.1714   22244914.839
        48.0004         44.0004
 -22187275.38848 -17233069.51547  20541252.3274   20541258.0474   20541252.438
        52.0004         47.0004
 -29059203.79148 -22589070.85348  20285941.7774   20285947.6554   20285941.730
        53.0004         49.0004
   -101645.61147    -58529.25946  24218521.4954   24218528.0904   24218521.398
        42.0004         38.0004
 -18018659.86248 -13975624.68048  20606518.6894   20606523.6594   20606518.600
        53.0004         49.0004
  -8498673.47847  -6559489.91047  23634969.4204   23634974.6024   23634968.507
        46.0004         42.0004
 -13503048.38048 -10486944.90047  22115516.1344   22115521.8364   22115516.667
        49.0004         44.0004
 -12409139.58247  -9633191.76547  22524345.7784   22524351.6044   22524345.735
        47.0004         42.0004
 -12341528.57248  -9566582.28747  22073182.6234   22073185.8964   22073182.722
        49.0004         45.0004
 14  5  5  1 56  0.0000000  0  9G10G08G04G26G09G17G28G07G02
 -19155182.78248 -14915366.65247  22231381.6474   22231385.8044   22231380.786
        48.0004         44.0004
 -22122437.35548 -17182546.37647  20553590.8614   20553596.3414   20553590.927
        52.0004         47.0004
 -29058516.83848 -22588535.59048  20286072.2324   20286078.0144   20286072.006
        53.0004         49.0004
    -85775.48947    -46162.79646  24221542.1014   24221549.3124   24221540.581
        42.0004         38.0004
 -17959997.28348 -13929913.57048  20617681.6724   20617686.8854   20617681.865
        53.0004         49.0004
  -8469341.70947  -6536633.95347  23640550.6224   23640556.4824   23640550.151
        46.0004         42.0004
 -13559347.13048 -10530814.09047  22104803.6834   22104808.4754   22104803.293
        49.0004         44.0004
 -12309157.44947  -9555283.62947  22543372.0144   22543377.6954   22543372.251
        47.0004         42.0004
 -12392575.45748  -9606359.09047  22063468.0714   22063471.7424   22063468.637
        50.0004         45.0004
 14  5  5  1 56 30.0000000  0  9G10G08G04G26G09G17G28G07G02
 -19226258.49848 -14970750.34547  22217855.1404   22217861.2714   22217856.077
        48.0004         44.0004
 -22057088.19048 -17131624.95247  20566026.3714   20566031.7904   20566026.475
        52.0004         47.0004
 -29057283.89148 -22587574.87548  20286307.3094   20286312.9524   20286306.849
        53.0004         49.0004
    -69855.44947    -33757.46946  24224570.4204   24224577.3094   24224571.130
        42.0004         38.0004
 -17900901.24348 -13883864.70848  20628927.4284   20628932.5234   20628927.283
        53.0004         49.0004
  -8440211.30847  -6513934.89146  23646093.6494   23646099.9164   23646093.463
        46.0004         41.0004
 -13615520.35248 -10574585.47247  22094114.2344   22094118.2724   22094114.075
        49.0004         44.0004
 -12208998.39447  -9477237.63647  22562432.8374   22562436.3604   22562432.292
        47.0004         42.0004
 -12443203.34148  -9645809.40147  22053834.4084   22053837.5394   22053834.926
        50.0004         45.0004
 14  5  5  1 57  0.0000000  0 10G10G08G04G26G09G17G05G28G07G02
 -19297283.85448 -15026094.80047  22204339.7294   22204344.3894   22204340.433
        48.0004         44.0004
 -21991226.08448 -17080303.82747  20578558.9694   20578564.7964   20578559.598
        52.0004         47.0004
 -29055500.80448 -22586185.48348  20286646.7524   20286652.1864   20286646.302
        53.0004         49.0004
    -53883.15947    -21311.41346  24227610.3544   24227616.6534   24227610.300
        42.0004         38.0004
 -17841369.70648 -13837476.50348  20640255.7894   20640260.7024   20640255.821
        53.0004         49.0004
  -8411278.71447  -6491389.95647  23651599.5334   23651605.8644   23651598.913
        46.0004         42.0004
   -860161.46447   -630237.10045  25482699.1424   25482711.0074   25482702.666
        44.0004         35.0004
 -13671560.16948 -10618252.89447  22083449.3534   22083455.6694   22083449.763
        49.0004         44.0004
 -12108660.68647  -9399052.41447  22581525.7634   22581529.8964   22581525.324
        47.0004         42.0004
 -12493406.51348  -9684928.76947  22044280.4154   22044284.1874   22044280.904
        50.0004         45.0004
 14  5  5  1 57 30.0000000  0 10G10G08G04G26G09G17G05G28G07G02
 -19368258.56848 -15081399.80247  22190833.5434   22190839.9084   22190834.230
        48.0004         44.0004
 -21924856.41148 -17028587.19847  20591189.4544   20591194.6404   20591189.326
        52.0004         47.0004
 -29053170.79548 -22584369.92348  20287089.8624   20287095.5884   20287089.437
        53.0004         49.0004
    -37863.19647     -8828.21646  24230659.4494   24230666.0104   24230659.122
        42.0004         38.0004
 -17781407.95648 -13790753.05948  20651665.7374   20651671.3304   20651665.858
        53.0004         49.0004
  -8382547.53547  -6469001.98347  23657067.0264   23657073.1094   23657066.671
        46.0004         42.0004
   -940897.35547   -693147.91446  25467339.8564   25467347.3804   25467339.722
        42.0004         36.0004
 -13727466.50648 -10661816.32047  22072810.9574   22072817.3194   22072811.271
        49.0004         44.0004
 -12008150.03847  -9320732.44447  22600652.2524   22600656.6704   22600651.801
        47.0004         42.0004
 -12543186.19448  -9723718.14247  22034807.6054   22034811.8314   22034808.451
        50.0004         45.0004
