     2.11           OBSERVATION DATA    G (GPS)             RINEX VERSION / TYPE
teqc  2013Mar15     gpsops              20140508 00:23:28UTCPGM / RUN BY / DATE
Linux 2.4.21-27.ELsmp|Opteron|gcc -static|Linux x86_64|=+   COMMENT
BIT 2 OF LLI FLAGS DATA COLLECTED UNDER A/S CONDITION       COMMENT
GLPS                                                        MARKER NAME
42005M002                                                   MARKER NUMBER
GGN                 JPL                                     OBSERVER / AGENCY
ZR220013847         ASHTECH UZ-12       CQ00                REC # / TYPE / VERS
CR519992104         ASH701945B_M    SCIT                    ANT # / TYPE
   -33801.4662 -6377516.5323   -82154.3508                  APPROX POSITION XYZ
        0.0083        0.0000        0.0000                  ANTENNA: DELTA H/E/N
     1     1                                                WAVELENGTH FACT L1/2
     7    L1    L2    P1    P2    C1    S1    S2            # / TYPES OF OBSERV
    30.0000                                                 INTERVAL
                                                            COMMENT
This data is provided as a public service by NASA/JPL.      COMMENT
No warranty is expressed or implied regarding suitability   COMMENT
for use.  For further information, contact:                 COMMENT
Dave Stowers, NASA/JPL m/s 238-600                          COMMENT
4800 Oak Grove Drive, Pasadena CA 91109 USA                 COMMENT
                                                            COMMENT
Forced Modulo Decimation to 30 seconds                      COMMENT
 SNR is mapped to RINEX snr flag value [0-9]                COMMENT
  L1 & L2: min(max(int(snr_dBHz/6), 0), 9)                  COMMENT
pseudorange smoothing corrections not applied               COMMENT
  2014     5     7     0     0    0.0000000     GPS         TIME OF FIRST OBS
                                                            END OF HEADER
 14  5  7  0  0  0.0000000  0 12G09G01G20G13G10G07G28G08G23G17G04G11
 -11061162.98648  -8563048.51348  20638040.3284   20638047.7374   20638040.261
        52.0004         48.0004
 -12176952.80347  -9452419.40747  22553959.9424   22553972.1664   22553959.318
        47.0004         43.0004
  -5421647.15347  -4178769.03346  23628843.6574   23628853.5504   23628844.438
        43.0004         38.0004
  -7333461.76947  -5659445.32846  23016922.7474   23016930.4994   23016922.378
        44.0004         40.0004
  -5318587.90946  -4142039.31046  24705657.8284   24705671.8984   24705657.929
        41.0004         36.0004
 -24158318.70249 -18777458.84048  20119798.8364   20119804.5384   20119798.267
        54.0004         49.0004
     45353.69447     33966.43246  24190684.4534   24190696.7774   24190684.439
        42.0004         38.0004
 -18181255.19348 -14149248.19148  20585555.9134   20585564.4124   20585556.431
        53.0004         48.0004
   1835214.46546   1467746.64745  25268871.0324   25268877.7614   25268870.336
        40.0004         35.0004
 -15880537.03748 -12317506.09247  22079472.2414   22079480.8994   22079471.891
        51.0004         46.0004
 -17554536.21347 -13628231.60047  22472355.5154   22472362.4694   22472354.361
        47.0004         43.0004
  -5083326.30646  -3934348.26046  24175544.4964   24175554.8454   24175544.776
        41.0004         36.0004
 14  5  7  0  0 30.0000000  0 12G09G01G20G13G10G07G28G08G23G17G04G11
 -11122148.96748  -8610569.94848  20626434.7534   20626442.3254   20626434.722
        52.0004         48.0004
 -12097622.00147  -9390603.21947  22569055.7504   22569069.2514   22569055.469
        47.0004         42.0004
  -5424194.88047  -4180754.21646  23628359.6854   23628368.9524   23628360.494
        43.0004         38.0004
  -7251587.30547  -5595646.99946  23032502.7984   23032511.0194   23032502.853
        44.0004         40.0004
  -5357439.57646  -4172313.16646  24698266.0804   24698277.5864   24698265.233
        41.0004         36.0004
 -24156051.76749 -18775692.34748  20120229.5414   20120236.0664   20120229.250
        54.0004         49.0004
     14489.56047      9916.64146  24184810.6124   24184820.8534   24184811.296
        43.0004         38.0004
 -18245449.99748 -14199270.01848  20573340.2554   20573347.9664   20573340.573
        53.0004         48.0004
   1914736.86246   1529712.22346  25284002.2074   25284009.9054   25284002.556
        40.0004         36.0004
 -15849853.93448 -12293597.18347  22085310.9444   22085319.3454   22085310.440
        51.0004         46.0004
 -17648394.96947 -13701368.17347  22454494.1384   22454501.5124   22454493.961
        47.0004         43.0004
  -4980030.09246  -3853857.65146  24195200.6354   24195213.8334   24195201.224
        41.0004         36.0004
 14  5  7  0  1  0.0000000  0 12G09G01G20G13G10G07G28G08G23G17G04G11
 -11182663.68648  -8657724.15948  20614918.9734   20614926.8764   20614919.166
        52.0004         48.0004
 -12017920.72647  -9328498.35847  22584221.8534   22584235.5624   22584221.895
        47.0004         42.0004
  -5426630.56947  -4182652.11446  23627896.0674   23627905.3694   23627896.330
        43.0004         38.0004
  -7169762.14647  -5531887.08846  23048075.0014   23048081.4474   23048073.629
        44.0004         40.0004
  -5396540.82146  -4202781.51046  24690822.8004   24690835.6524   24690824.486
        41.0004         36.0004
 -24153186.62649 -18773459.71848  20120775.2104   20120780.8224   20120774.773
        54.0004         49.0004
    -16649.71447    -14347.56246  24178884.7604   24178896.1574   24178885.333
        43.0004         38.0004
 -18309184.40248 -14248933.08748  20561211.8234   20561220.1104   20561212.254
        53.0004         48.0004
   1994027.73746   1591497.36145  25299090.7824   25299098.1464   25299091.102
        40.0004         35.0004
 -15818931.08448 -12269501.45047  22091195.8434   22091204.3384   22091195.119
        51.0004         46.0004
 -17742050.87948 -13774346.67847  22436672.2614   22436679.9434   22436671.402
        48.0004         43.0004
  -4876625.37746  -3773282.51246  24214877.3684   24214889.0444   24214878.969
        41.0004         36.0004
 14  5  7  0  1 30.0000000  0 11G09G01G20G13G10G07G28G08G17G04G11
 -11242703.87548  -8704508.61248  20603493.4464   20603501.5344   20603493.771
        52.0004         48.0004
 -11937850.43147  -9266105.93547  22599458.5564   22599471.2544   22599459.007
        47.0004         42.0004
  -5428950.78447  -4184460.01646  23627453.6404   23627463.7234   23627454.466
        43.0004         38.0004
  -7087988.07247  -5468166.98746  23063634.2134   23063642.7724   23063634.603
        44.0004         39.0004
  -5435891.04046  -4233443.86346  24683336.1564   24683348.1134   24683336.525
        41.0004         36.0004
 -24149722.47549 -18770760.33148  20121434.3204   20121440.3104   20121433.827
        54.0004         49.0004
    -48062.71547    -38825.05946  24172908.4524   24172917.9484   24172907.333
        43.0004         38.0004
 -18372454.81948 -14298234.61348  20549172.1084   20549180.0944   20549172.424
        53.0004         48.0004
 -15787770.24748 -12245220.27947  22097124.5534   22097133.7864   22097124.760
        50.0004         46.0004
 -17835500.34048 -13847164.32547  22418889.0164   22418897.7634   22418887.994
        48.0004         43.0004
  -4773113.77146  -3692624.05646  24234575.4964   24234588.2044   24234576.093
        41.0004         36.0004
 14  5  7  0  2  0.0000000  0 11G09G01G20G13G10G07G28G08G17G04G11
 -11302267.75348  -8750921.90948  20592158.8494   20592166.8174   20592158.936
        52.0004         48.0004
 -11857414.19947  -9203428.38147  22614766.2564   22614777.5634   22614765.742
        47.0004         42.0004
  -5431154.97847  -4186177.51446  23627035.0394   23627045.7324   23627035.010
        43.0004         38.0004
  -7006268.32347  -5404489.19546  23079186.5054   23079192.8064   23079185.644
        44.0004         40.0004
  -5475490.92646  -4264300.73046  24675799.8634   24675813.1824   24675800.459
        41.0004         36.0004
 -24145659.62049 -18767594.41748  20122207.5014   20122213.1294   20122206.954
        54.0004         49.0004
    -79749.94247    -63516.23246  24166878.5544   24166887.8404   24166877.301
        42.0004         38.0004
 -18435258.93648 -14347172.78948  20537220.8774   20537228.8534   20537221.075
        53.0004         48.0004
 -15756375.07348 -12220756.49547  22103099.5404   22103107.7724   22103098.997
        50.0004         46.0004
 -17928741.51948 -13919819.66447  22401146.3754   22401154.1364   22401145.121
        48.0004         43.0004
  -4669498.77046  -3611885.03646  24254293.5364   24254302.9934   24254293.511
        41.0004         36.0004
 14  5  7  0  2 30.0000000  0 11G09G01G20G13G10G07G28G08G17G04G11
 -11361352.49248  -8796961.84848  20580915.5864   20580923.1544   20580915.636
        53.0004         48.0004
 -11776613.82247  -9140467.06947  22630142.3144   22630154.5264   22630141.667
        47.0004         42.0004
  -5433240.88247  -4187802.85946  23626638.5424   23626647.4004   23626638.407
        43.0004         38.0004
  -6924604.85347  -5340855.28846  23094726.0324   23094732.9304   23094725.952
        44.0004         40.0004
  -5515340.06946  -4295351.83446  24668216.5204   24668229.6194   24668217.122
        41.0004         37.0004
 -24140997.10949 -18763961.24248  20123094.2674   20123100.7244   20123094.027
        54.0004         49.0004
   -111711.00347    -88420.76946  24160795.6114   24160806.1174   24160795.691
        43.0004         38.0004
 -18497593.05648 -14395744.73148  20525358.7334   20525366.7924   20525359.288
        53.0004         49.0004
 -15724747.20848 -12196111.40147  22109117.2224   22109126.6604   22109116.975
        50.0004         46.0004
 -18021771.47348 -13992310.40647  22383441.9024   22383449.9354   22383442.509
        48.0004         43.0004
  -4565782.43946  -3531067.08346  24274030.3964   24274039.0814   24274029.889
        41.0004         36.0004
 14  5  7  0  3  0.0000000  0 11G09G01G20G13G10G07G28G08G17G04G11
 -11419954.85348  -8842625.90748  20569763.5664   20569771.3564   20569763.546
        53.0004         48.0004
 -11695450.51147  -9077222.94847  22645586.1364   22645599.6624   22645585.848
        47.0004         42.0004
  -5435205.59547  -4189333.75446  23626263.6014   23626272.8044   23626264.830
        43.0004         38.0004
  -6842999.05647  -5277266.28846  23110255.9774   23110262.4704   23110254.443
        44.0004         39.0004
  -5555437.84946  -4326596.66246  24660587.2534   24660599.1384   24660586.453
        41.0004         36.0004
 -24135734.10449 -18759860.14748  20124096.1504   20124101.8134   20124095.759
        54.0004         49.0004
   -143943.56447   -113536.86246  24154660.6664   24154672.3004   24154661.495
        43.0004         38.0004
 -18559453.36948 -14443947.47348  20513587.1994   20513595.1084   20513587.691
        53.0004         49.0004
 -15692888.43648 -12171286.37447  22115180.1064   22115188.5814   22115179.837
        50.0004         46.0004
 -18114585.94648 -14064633.25647  22365780.6624   22365788.6984   22365779.877
        48.0004         43.0004
  -4461966.48746  -3450171.47346  24293785.7884   24293796.5314   24293785.217
        41.0004         36.0004
 14  5  7  0  3 30.0000000  0 11G09G01G20G13G10G07G28G08G17G04G11
 -11478073.47348  -8887913.03048  20558704.1304   20558711.7474   20558703.906
        53.0004         48.0004
 -11613927.48047  -9013698.52747  22661099.7764   22661111.8564   22661099.314
        47.0004         42.0004
  -5437048.27847  -4190769.56446  23625913.6724   23625922.0544   23625914.091
        43.0004         38.0004
  -6761454.38647  -5213724.94346  23125771.6204   23125779.4594   23125771.988
        44.0004         40.0004
  -5595785.12146  -4358035.91446  24652908.7844   24652918.6224   24652907.965
        41.0004         37.0004
 -24129870.92649 -18755291.38748  20125211.7564   20125217.5814   20125211.202
        54.0004         49.0004
   -176448.08447   -138864.88046  24148475.4364   24148487.0094   24148475.624
        43.0004         38.0004
 -18620838.05748 -14491779.59448  20501905.8624   20501914.0584   20501906.280
        53.0004         49.0004
 -15660802.45748 -12146284.30447  22121285.7254   22121294.4654   22121285.852
        51.0004         46.0004
 -18207183.72448 -14136787.24947  22348160.0144   22348167.6144   22348159.347
        48.0004         43.0004
  -4358054.42646  -3369200.96846  24313559.2064   24313570.7204   24313558.576
        41.0004         36.0004
 14  5  7  0  4  0.0000000  0 11G09G01G20G13G10G07G28G08G17G04G11
 -11535704.96048  -8932820.56648  20547737.0544   20547745.1044   20547737.056
        53.0004         48.0004
 -11532046.18547  -8949894.94847  22676682.0774   22676694.3204   22676681.053
        47.0004         42.0004
  -5438766.16547  -4192108.14346  23625586.9424   23625595.3764   23625587.058
        43.0004         38.0004
  -6679972.00947  -5150232.11546  23141278.0684   23141284.4534   23141277.855
        44.0004         39.0004
  -5636380.81046  -4389668.73946  24645181.4164   24645195.6374   24645183.515
        41.0004         36.0004
 -24123406.45349 -18750254.08148  20126441.8554   20126447.5424   20126441.362
        54.0004         49.0004
   -209223.51747   -164404.01246  24142238.4254   24142250.2524   24142239.017
        43.0004         38.0004
 -18681743.21948 -14539238.06748  20490316.5734   20490323.8034   20490316.424
        53.0004         49.0004
 -15628491.19248 -12121106.69047  22127434.8234   22127444.0154   22127434.494
        51.0004         46.0004
 -18299561.06148 -14208769.46347  22330579.7714   22330588.3344   22330580.188
        48.0004         43.0004
  -4254048.02246  -3288156.95846  24333350.9184   24333362.1164   24333350.246
        40.0004         36.0004
 14  5  7  0  4 30.0000000  0 11G09G01G20G13G10G07G28G08G17G04G11
 -11592847.50748  -8977347.10648  20536862.9844   20536871.2104   20536862.979
        53.0004         48.0004
 -11449809.65747  -8885814.55447  22692330.9474   22692343.2544   22692330.218
        47.0004         42.0004
  -5440357.86147  -4193348.38146  23625283.7164   23625292.8954   23625284.128
        43.0004         38.0004
  -6598555.00947  -5086790.24946  23156770.9634   23156778.9174   23156770.969
        44.0004         39.0004
  -5677225.77146  -4421495.78846  24637409.5044   24637422.0324   24637410.555
        41.0004         37.0004
 -24116341.08749 -18744748.57048  20127786.3544   20127792.0974   20127785.749
        54.0004         49.0004
   -242269.95247   -190154.32546  24135950.1744   24135960.6954   24135950.301
        43.0004         38.0004
 -18742166.73848 -14586321.22548  20478817.5844   20478825.8724   20478817.963
        53.0004         49.0004
 -15595956.87448 -12095755.26447  22133625.9794   22133634.8974   22133625.323
        51.0004         46.0004
 -18391715.86348 -14280578.28247  22313043.9754   22313051.2644   22313043.385
        48.0004         43.0004
  -4149950.42746  -3207041.87846  24353158.0664   24353171.1104   24353159.167
        41.0004         36.0004
 14  5  7  0  5  0.0000000  0 11G09G01G20G13G10G07G28G08G17G04G11
 -11649497.72748  -9021490.02748  20526083.0804   20526090.1934   20526083.048
        53.0004         48.0004
 -11367219.05047  -8821458.26047  22708048.1184   22708059.4754   22708046.767
        47.0004         42.0004
  -5441820.77047  -4194488.27046  23625004.8894   23625014.6894   23625005.602
        43.0004         38.0004
  -6517204.70347  -5023400.31846  23172251.8964   23172258.8584   23172251.168
        44.0004         39.0004
  -5718318.59547  -4453515.98246  24629589.4994   24629603.3424   24629591.023
        42.0004         37.0004
 -24108673.64749 -18738773.89048  20129245.4774   20129251.5624   20129244.755
        54.0004         49.0004
   -275585.80647   -216114.54646  24129609.8274   24129620.1284   24129610.431
        43.0004         39.0004
 -18802104.43348 -14633025.82648  20467412.1204   20467419.6634   20467412.535
        53.0004         49.0004
 -15563202.09748 -12070232.04947  22139858.8054   22139867.0764   22139858.334
        51.0004         46.0004
 -18483644.28248 -14352210.70447  22295551.3144   22295558.4834   22295549.846
        48.0004         43.0004
  -4045763.42246  -3125857.14746  24372985.9994   24372993.6054   24372985.557
        40.0004         36.0004
 14  5  7  0  5 30.0000000  0 11G09G01G20G13G10G07G28G08G17G04G11
 -11705654.93948  -9065248.77648  20515396.5394   20515403.7814   20515396.212
        53.0004         48.0004
 -11284278.42347  -8756829.21847  22723830.5504   22723843.1354   22723830.132
        47.0004         42.0004
  -5443154.59447  -4195527.57946  23624751.4254   23624761.5004   23624752.033
        43.0004         38.0004
  -6435925.38647  -4960065.71746  23187717.9934   23187725.7184   23187718.061
        44.0004         39.0004
  -5759661.04847  -4485730.69346  24621724.2444   24621735.1874   24621724.481
        42.0004         37.0004
 -24100406.02349 -18732331.53348  20130818.6924   20130824.5314   20130818.303
        54.0004         49.0004
   -309171.92147   -242285.36946  24123218.5414   24123228.8804   24123218.985
        43.0004         38.0004
 -18861555.03148 -14679350.86948  20456098.7924   20456106.3074   20456099.337
        53.0004         49.0004
 -15530230.69148 -12044540.03147  22146133.0454   22146142.4784   22146132.678
        51.0004         46.0004
 -18575345.48648 -14423666.06047  22278100.2764   22278107.4984   22278099.824
        48.0004         43.0004
  -3941491.12246  -3044605.92846  24392826.3914   24392838.8704   24392827.643
        40.0004         36.0004
 14  5  7  0  6  0.0000000  0 11G09G01G20G13G10G07G28G08G17G04G11
 -11761314.46848  -9108619.72948  20504804.6214   20504812.1804   20504804.546
        53.0004         48.0004
 -11200987.76447  -8691927.43647  22739680.1384   22739692.2284   22739679.463
        47.0004         42.0004
  -5444354.94047  -4196462.88746  23624523.4844   23624531.1564   23624523.949
        43.0004         38.0004
  -6354716.85947  -4896786.26346  23203172.0624   23203179.0434   23203171.443
        44.0004         39.0004
  -5801250.74247  -4518138.05546  24613809.5604   24613820.8474   24613809.102
        42.0004         37.0004
 -24091535.35049 -18725419.26448  20132506.6834   20132512.1274   20132506.325
        54.0004         49.0004
   -343025.53347   -268664.63746  24116775.9374   24116786.4724   24116776.271
        43.0004         38.0004
 -18920513.14848 -14725292.15948  20444878.9904   20444887.1174   20444879.542
        53.0004         49.0004
 -15497042.74548 -12018679.28247  22152448.3634   22152457.3624   22152448.138
        51.0004         46.0004
 -18666814.21348 -14494940.28147  22260693.3554   22260702.0914   22260693.569
        48.0004         43.0004
  -3837133.77046  -2963288.44445  24412686.3664   24412698.0874   24412686.095
        40.0004         35.0004
 14  5  7  0  6 30.0000000  0 11G09G01G20G13G10G07G28G08G17G04G11
 -11816475.40748  -9151602.16948  20494307.7794   20494315.3364   20494307.704
        53.0004         48.0004
 -11117350.83747  -8626755.83547  22755596.7594   22755607.3694   22755595.217
        46.0004         42.0004
  -5445421.64747  -4197294.03946  23624320.2904   23624329.3794   23624320.668
        43.0004         38.0004
  -6273582.78147  -4833564.84346  23218610.4554   23218617.6664   23218610.271
        44.0004         39.0004
  -5843089.15747  -4550739.21546  24605846.3754   24605857.5284   24605847.425
        42.0004         37.0004
 -24082062.98449 -18718038.15148  20134309.0714   20134314.7164   20134308.584
        54.0004         49.0004
   -377147.43447   -295252.96946  24110284.2034   24110293.8204   24110283.060
        43.0004         38.0004
 -18978977.45048 -14770848.65948  20433753.6224   20433761.4704   20433753.613
        53.0004         48.0004
 -15463642.56648 -11992653.16047  22158804.2144   22158813.5744   22158803.678
        50.0004         46.0004
 -18758049.40648 -14566032.51647  22243332.9294   22243340.7874   22243332.368
        48.0004         43.0004
  -3732695.26946  -2881907.74746  24432558.7974   24432570.1564   24432559.760
        40.0004         36.0004
 14  5  7  0  7  0.0000000  0 11G09G01G20G13G10G07G28G08G17G04G11
 -11871129.02748  -9194189.29848  20483907.6744   20483914.6834   20483907.661
        53.0004         48.0004
 -11033363.34147  -8561311.05447  22771577.1964   22771590.6544   22771577.640
        46.0004         42.0004
  -5446346.33947  -4198014.55846  23624145.3324   23624152.2494   23624145.048
        43.0004         38.0004
  -6192518.95547  -4770398.14546  23234037.2334   23234043.0254   23234036.169
        44.0004         39.0004
  -5885169.58647  -4583528.96446  24597838.3734   24597849.7094   24597839.712
        42.0004         37.0004
 -24071982.36149 -18710183.06648  20136227.2994   20136232.7534   20136227.038
        54.0004         49.0004
   -411530.50547   -322044.79646  24103739.3554   24103750.4304   24103740.167
        43.0004         38.0004
 -19036938.60848 -14816013.10448  20422724.1574   20422731.6194   20422724.487
        53.0004         49.0004
 -15430026.09948 -11966458.49947  22165201.1584   22165210.6744   22165201.029
        50.0004         46.0004
 -18849041.64848 -14636935.43847  22226016.5794   22226025.3284   22226016.500
        48.0004         43.0004
  -3628171.72746  -2800460.75945  24452449.2144   24452462.1694   24452450.133
        40.0004         35.0004
 14  5  7  0  7 30.0000000  0 11G09G01G20G13G10G07G28G08G17G04G11
 -11925285.43148  -9236388.98248  20473601.6694   20473608.9644   20473601.452
        53.0004         48.0004
 -10949040.05247  -8495604.60046  22787623.7434   22787636.4444   22787623.413
        46.0004         41.0004
  -5447139.26447  -4198632.38346  23623993.4474   23624001.8544   23623993.108
        43.0004         38.0004
  -6111539.92747  -4707297.52446  23249445.9664   23249453.1284   23249445.801
        44.0004         39.0004
  -5927504.12647  -4616516.72146  24589782.5524   24589796.2254   24589783.292
        42.0004         37.0004
 -24061305.71449 -18701863.54748  20138258.7244   20138264.5014   20138258.538
        54.0004         49.0004
   -446186.55747   -349049.33746  24097145.1784   24097154.6524   24097145.638
        43.0004         39.0004
 -19094406.31548 -14860793.03748  20411788.4574   20411795.9284   20411788.540
        53.0004         48.0004
 -15396208.34148 -11940106.99647  22171637.0614   22171645.0924   22171636.354
        50.0004         46.0004
 -18939800.62048 -14707656.59447  22208745.3584   22208754.1114   22208745.938
        48.0004         43.0004
  -3523577.96646  -2718959.04345  24472354.7994   24472365.9534   24472354.173
        40.0004         35.0004
 14  5  7  0  8  0.0000000  0 11G09G01G20G13G10G07G28G08G17G04G11
 -11978934.77048  -9278193.55448  20463392.4194   20463400.0724   20463392.449
        53.0004         48.0004
 -10864375.63447  -8429632.35246  22803735.7744   22803747.9654   22803734.289
        46.0004         41.0004
  -5447791.12147  -4199140.30946  23623869.1284   23623878.7254   23623870.424
        43.0004         39.0004
  -6030640.51047  -4644258.94146  23264840.6994   23264849.5534   23264841.036
        44.0004         39.0004
  -5970085.22447  -4649696.60246  24581680.5134   24581689.4654   24581680.134
        42.0004         37.0004
 -24050025.40749 -18693073.64348  20140405.7024   20140411.1874   20140405.251
        54.0004         49.0004
   -481107.22647   -376260.06846  24090499.4474   24090510.2334   24090500.035
        43.0004         39.0004
 -19151369.87148 -14905180.12648  20400948.5334   20400956.3784   20400949.220
        53.0004         49.0004
 -15362184.08348 -11913594.58347  22178111.5374   22178119.5684   22178110.993
        50.0004         46.0004
 -19030315.94948 -14778187.89647  22191520.5894   22191530.0754   22191521.508
        48.0004         43.0004
  -3418909.04546  -2637398.78145  24492274.5634   24492282.3704   24492271.445
        39.0004         34.0004
 14  5  7  0  8 30.0000000  0 11G09G01G20G13G10G07G28G08G17G04G11
 -12032077.66548  -9319603.50348  20453279.3494   20453287.1874   20453279.670
        53.0004         48.0004
 -10779375.26547  -8363398.32346  22819909.9664   22819921.8514   22819909.850
        46.0004         41.0004
  -5448302.92047  -4199539.08746  23623770.7014   23623779.9334   23623771.683
        43.0004         38.0004
  -5949825.53047  -4581286.15946  23280219.0264   23280227.4104   23280219.417
        44.0004         39.0004
  -6012915.12946  -4683070.36346  24573530.3264   24573539.8524   24573530.499
        41.0004         37.0004
 -24038144.42949 -18683815.68348  20142666.2964   20142671.9464   20142666.063
        54.0004         49.0004
   -516294.40847   -403678.46746  24083805.1894   24083814.2814   24083803.989
        43.0004         38.0004
 -19207829.26348 -14949174.36048  20390204.6434   20390212.3404   20390205.068
        53.0004         49.0004
 -15327958.84048 -11886925.55147  22184623.7844   22184632.8294   22184623.525
        50.0004         46.0004
 -19120587.46148 -14848529.22447  22174344.2904   22174349.9954   22174342.732
        48.0004         44.0004
  -3314170.14446  -2555783.95945  24512202.2454   24512215.6884   24512202.306
        39.0004         34.0004
 14  5  7  0  9  0.0000000  0 11G09G01G20G13G10G07G28G08G17G04G11
 -12084709.30348  -9360615.07048  20443264.2984   20443271.1834   20443264.295
        53.0004         48.0004
 -10694038.86747  -8296902.46746  22836150.0394   22836161.1274   22836149.090
        46.0004         41.0004
  -5448669.91147  -4199825.03046  23623701.2144   23623709.8024   23623702.916
        43.0004         38.0004
  -5869094.92547  -4518379.09546  23295582.3394   23295589.3194   23295582.133
        43.0004         39.0004
  -6055991.60247  -4716636.26146  24565331.9754   24565343.3794   24565333.116
        42.0004         37.0004
 -24025660.16649 -18674087.62848  20145041.9644   20145047.6234   20145041.613
        54.0004         49.0004
   -551745.11847   -431302.21246  24077057.3184   24077068.4254   24077057.758
        43.0004         39.0004
 -19263779.22948 -14992771.64348  20379557.9654   20379565.0034   20379558.183
        53.0004         49.0004
 -15293532.39548 -11860099.73747  22191175.4054   22191183.8704   22191175.002
        50.0004         46.0004
 -19210610.19348 -14918676.67947  22157212.2014   22157219.9494   22157212.629
        48.0004         44.0004
  -3209361.36146  -2474114.70345  24532148.1254   24532159.4634   24532147.160
        39.0004         34.0004
 14  5  7  0  9 30.0000000  0 11G09G01G20G13G10G07G28G08G17G04G11
 -12136827.59048  -9401226.62448  20433346.4704   20433354.0674   20433346.315
        53.0004         48.0004
 -10608369.00847  -8230146.75946  22852451.7054   22852463.8774   22852450.823
        46.0004         41.0004
  -5448890.65547  -4199997.00546  23623660.6884   23623669.2284   23623660.163
        43.0004         38.0004
  -5788450.95247  -4455539.55146  23310927.6754   23310934.6114   23310928.365
        43.0004         39.0004
  -6099314.76847  -4750394.35946  24557088.4164   24557099.3704   24557088.629
        42.0004         37.0004
 -24012572.94349 -18663889.73148  20147532.2474   20147538.0114   20147532.097
        54.0004         49.0004
   -587458.85047   -459130.90846  24070261.3084   24070272.4074   24070261.131
        43.0004         39.0004
 -19319217.30049 -15035970.04948  20369007.9954   20369015.5484   20369008.299
        54.0004         49.0004
 -15258907.79948 -11833119.52447  22197764.2594   22197772.9594   22197763.596
        50.0004         46.0004
 -19300381.69548 -14988628.37347  22140128.5124   22140138.0564   22140129.129
        48.0004         44.0004
  -3104485.50246  -2392393.14045  24552108.8214   24552113.1544   24552104.549
        38.0004         33.0004
 14  5  7  0 10  0.0000000  0 11G09G01G20G13G10G07G28G08G17G04G11
 -12188432.38048  -9441438.04648  20423526.2514   20423533.6164   20423526.178
        53.0004         49.0004
 -10522369.96047  -8163134.55246  22868816.3914   22868827.9594   22868816.156
        46.0004         41.0004
  -5448965.45747  -4200055.25946  23623646.0694   23623654.1104   23623645.715
        43.0004         38.0004
  -5707897.98647  -4392770.92346  23326256.3414   23326263.8404   23326256.629
        43.0004         39.0004
  -6142886.31347  -4784346.01046  24548796.5164   24548806.8704   24548796.824
        42.0004         38.0004
 -23998884.82149 -18653223.60248  20150137.2004   20150142.8534   20150136.840
        54.0004         49.0004
   -623436.92147   -487165.60146  24063413.9944   24063424.6134   24063415.186
        43.0004         39.0004
 -19374142.45949 -15078768.77348  20358555.9674   20358563.7604   20358556.562
        54.0004         49.0004
 -15224089.57448 -11805988.42747  22204389.2964   22204398.2104   22204389.167
        50.0004         46.0004
 -19389900.91448 -15058383.48047  22123094.0734   22123102.1544   22123094.365
        48.0004         44.0004
  -2999546.85046  -2310622.68445  24572071.1654   24572082.2834   24572073.138
        38.0004         33.0004
 14  5  7  0 10 30.0000000  0 11G09G01G20G13G10G07G28G08G17G04G11
 -12239518.54048  -9481245.34248  20413804.8084   20413812.2144   20413804.761
        53.0004         48.0004
 -10436041.44447  -8095865.60146  22885244.4184   22885257.0994   22885243.762
        46.0004         41.0004
  -5448889.51847  -4199996.06146  23623660.9574   23623668.6424   23623661.089
        43.0004         38.0004
  -5627435.35647  -4330072.67446  23341568.8344   23341575.4234   23341567.273
        43.0004         39.0004
  -6186703.00647  -4818488.70946  24540458.5444   24540471.6664   24540458.613
        42.0004         37.0004
 -23984592.99949 -18642087.05848  20152856.2664   20152862.1954   20152856.213
        54.0004         49.0004
   -659675.66047   -515403.39746  24056518.9094   24056529.2974   24056518.798
        43.0004         39.0004
 -19428549.23349 -15121163.57948  20348202.6504   20348210.0794   20348203.095
        54.0004         49.0004
 -15189076.95048 -11778705.84347  22211052.7914   22211060.9104   22211052.512
        50.0004         46.0004
 -19479162.64148 -15127937.95247  22106108.3044   22106115.6894   22106108.453
        49.0004         44.0004
                  -2228803.16945                  24592066.7264   24592054.292
                        32.0004
 14  5  7  0 11  0.0000000  0 11G09G01G20G13G10G07G28G08G17G04G11
 -12290085.76548  -9520648.28048  20404182.0014   20404189.4744   20404182.068
        53.0004         48.0004
 -10349387.41447  -8028343.01246  22901734.0904   22901746.4764   22901733.961
        46.0004         41.0004
  -5448662.19947  -4199818.91146  23623702.3964   23623714.7334   23623703.773
        42.0004         38.0004
  -5547066.47647  -4267447.47646  23356861.1494   23356867.6194   23356861.428
        43.0004         39.0004
  -6230766.53947  -4852823.72746  24532074.0104   24532084.4074   24532073.880
        42.0004         37.0004
 -23969699.34349 -18630481.55248  20155690.7444   20155696.4824   20155690.305
        54.0004         49.0004
   -696176.08647   -543845.09946  24049574.1344   24049582.0894   24049572.799
        43.0004         38.0004
 -19482436.77449 -15163153.77848  20337948.0864   20337955.5994   20337948.687
        54.0004         49.0004
 -15153874.89848 -11751275.65847  22217750.9564   22217760.1514   22217750.922
        50.0004         46.0004
 -19568165.60048 -15197290.77547  22089171.8294   22089179.9854   22089171.629
        49.0004         44.0004
                                                                  24612046.833

 14  5  7  0 11 30.0000000  0 11G09G01G20G13G10G07G28G08G17G04G11
 -12340130.69048  -9559644.22248  20394658.9584   20394666.2624   20394659.057
        53.0004         49.0004
 -10262409.03847  -7960567.68046  22918285.4244   22918297.8024   22918285.447
        46.0004         41.0004
  -5448280.83247  -4199521.71646  23623775.4554   23623784.7494   23623776.129
        42.0004         38.0004
  -5466792.55647  -4204896.28046  23372138.1754   23372143.6554   23372137.106
        43.0004         38.0004
  -6275075.33947  -4887349.87046  24523641.2714   24523652.4034   24523641.945
        42.0004         37.0004
 -23954202.67549 -18618406.16948  20158639.4084   20158645.0084   20158639.165
        54.0004         49.0004
   -732935.94647   -572488.96446  24042577.9014   24042586.9004   24042577.767
        43.0004         38.0004
 -19535800.78049 -15204736.03248  20327793.1524   20327800.5084   20327793.745
        54.0004         49.0004
 -15118484.59248 -11723698.78347  22224485.8924   22224494.7504   22224485.336
        50.0004         46.0004
 -19656905.86048 -15266438.90747  22072284.9574   22072292.4134   22072284.535
        49.0004         44.0004
                                                                  24632049.496

 14  5  7  0 12  0.0000000  0 11G09G01G20G13G10G07G28G08G17G04G11
 -12389653.37948  -9598233.22948  20385234.7224   20385241.5984   20385234.790
        53.0004         49.0004
 -10175110.79247  -7892543.11146  22934898.4394   22934910.3924   22934897.613
        46.0004         41.0004
  -5447745.89147  -4199104.85946  23623876.8584   23623886.7404   23623877.584
        42.0004         38.0004
  -5386617.96147  -4142422.46946  23387393.0144   23387399.6864   23387393.881
        43.0004         39.0004
  -6319631.03147  -4922068.39046  24515161.8084   24515174.4534   24515163.195
        42.0004         37.0004
 -23938105.32249 -18605862.71348  20161702.6204   20161708.1914   20161702.379
        54.0004         49.0004
   -769956.96747   -601336.32146  24035532.2244   24035543.2994   24035532.485
        43.0004         38.0004
 -19588640.65849 -15245909.87248  20317738.1114   20317745.3364   20317738.591
        54.0004         49.0004
 -15082910.66348 -11695978.81247  22231255.3274   22231263.5854   22231254.585
        50.0004         46.0004
 -19745382.69748 -15335381.77547  22055448.4964   22055455.1244   22055447.799
        49.0004         44.0004
                                                                  24652063.209

 14  5  7  0 12 30.0000000  0 11G09G01G20G13G10G07G28G08G17G04G11
 -12438649.27548  -9636411.75048  20375910.9014   20375918.3184   20375911.024
        53.0004         49.0004
 -10087492.95547  -7824269.51046  22951571.3144   22951583.4904   22951570.772
        46.0004         41.0004
  -5447053.02047  -4198564.95246  23624009.8254   23624018.2954   23624009.877
        42.0004         37.0004
  -5306542.37447  -4080025.81946  23402632.2684   23402638.7854   23402632.118
        43.0004         39.0004
  -6364431.37647  -4956977.53846  24506637.5194   24506648.6374   24506637.865
        42.0004         37.0004
 -23921405.53249 -18592849.83148  20164880.5964   20164886.5074   20164880.074
        54.0004         49.0004
   -807235.90147   -630384.66246  24028437.7704   24028448.3464   24028438.707
        43.0004         39.0004
 -19640951.66449 -15286671.60848  20307783.7884   20307791.2004   20307784.048
        54.0004         49.0004
 -15047153.17448 -11668115.81847  22238059.3594   22238068.0894   22238059.089
        50.0004         46.0004
 -19833591.18848 -15404115.54947  22038662.2884   22038670.8264   22038662.411
        49.0004         44.0004
                                                                  24672085.880

 14  5  7  0 13  0.0000000  0 10G09G01G20G13G10G07G28G08G17G04
 -12487116.54448  -9674178.35848  20366687.9644   20366695.4004   20366688.022
        53.0004         49.0004
  -9999558.20947  -7755748.95146  22968304.8554   22968317.4164   22968304.515
        46.0004         41.0004
  -5446200.55447  -4197900.68446  23624169.6594   23624180.8184   23624171.594
        42.0004         38.0004
  -5226568.35347  -4017708.29646  23417849.9634   23417856.5774   23417850.448
        44.0004         39.0004
  -6409476.69047  -4992077.56546  24498064.7254   24498074.9104   24498065.502
        42.0004         37.0004
 -23904103.69649 -18579367.82248  20168173.3704   20168178.5214   20168172.820
        54.0004         49.0004
   -844772.08647   -659633.46946  24021294.2494   24021305.2494   24021295.557
        43.0004         39.0004
 -19692731.27349 -15327019.26048  20297930.4034   20297937.6114   20297930.725
        54.0004         49.0004
 -15011215.55948 -11640112.45747  22244897.8264   22244906.8044   22244897.877
        50.0004         46.0004
 -19921529.08848 -15472638.46747  22021928.4724   22021935.7294   22021928.066
        49.0004         44.0004
 14  5  7  0 13 30.0000000  0 10G09G01G20G13G10G07G28G08G17G04
 -12535055.05048  -9711532.93648  20357565.6894   20357572.6944   20357565.499
        53.0004         49.0004
  -9911310.85447  -7686984.80746  22985098.1444   22985110.1434   22985097.470
        46.0004         41.0004
  -5445188.84347  -4197112.33546  23624364.9634   23624371.7384   23624364.228
        42.0004         37.0004
  -5146700.05147  -3955473.16046  23433049.1014   23433056.4104   23433048.615
        44.0004         39.0004
  -6454768.16047  -5027369.41346  24489445.1454   24489457.4074   24489447.113
        42.0004         37.0004
 -23886201.80149 -18565418.23448  20171579.6074   20171585.1064   20171579.045
        54.0004         49.0004
   -882566.69147   -689083.64746  24014102.8704   24014113.3544   24014102.797
        43.0004         38.0004
 -19743978.69149 -15366952.22648  20288177.9754   20288185.2044   20288178.513
        54.0004         49.0004
 -14975101.92248 -11611971.94147  22251770.4934   22251779.0904   22251769.926
        50.0004         46.0004
 -20009195.42348 -15540949.76547  22005246.4064   22005254.1934   22005245.703
        49.0004         44.0004
 14  5  7  0 14  0.0000000  0 10G09G01G20G13G10G07G28G08G17G04
 -12582460.12248  -9748471.85148  20348544.4684   20348551.7664   20348544.645
        53.0004         49.0004
  -9822750.60847  -7617976.85146  23001950.1434   23001963.0504   23001949.674
        46.0004         41.0004
  -5444013.26847  -4196196.27346  23624588.8014   23624596.3534   23624587.980
        42.0004         37.0004
  -5066936.74747  -3893319.83046  23448227.3774   23448233.9164   23448227.139
        43.0004         39.0004
  -6500302.73647  -5062850.67946  24480781.6054   24480790.7104   24480781.454
        42.0004         37.0004
 -23867697.91549 -18550999.56148  20175101.0664   20175106.3634   20175100.536
        54.0004         49.0004
   -920616.24447   -718732.50946  24006862.2534   24006872.0644   24006862.481
        43.0004         39.0004
 -19794688.51649 -15406466.28148  20278528.2894   20278535.3394   20278528.659
        54.0004         49.0004
 -14938812.05648 -11583694.09647  22258677.0504   22258685.0124   22258675.756
        50.0004         46.0004
 -20096584.61048 -15609045.12147  21988616.3054   21988623.2194   21988615.799
        49.0004         44.0004
 14  5  7  0 14 30.0000000  0 10G09G01G20G13G10G07G28G08G17G04
 -12629331.29448  -9784994.74148  20339625.2724   20339632.1824   20339625.223
        53.0004         49.0004
  -9733881.45447  -7548728.19746  23018861.8474   23018872.9964   23018860.752
        46.0004         41.0004
  -5442673.12547  -4195152.01046  23624842.0514   23624850.1574   23624843.702
        42.0004         37.0004
  -4987281.75947  -3831250.89946  23463384.7664   23463392.1924   23463384.924
        43.0004         39.0004
  -6546081.89647  -5098522.53746  24472070.1784   24472081.5164   24472070.223
        42.0004         38.0004
 -23848593.47549 -18536112.92148  20178736.3134   20178741.4824   20178735.879
        54.0004         49.0004
   -958921.49547   -748580.60346  23999573.6364   23999582.7944   23999573.330
        43.0004         39.0004
 -19844859.85349 -15445560.74448  20268980.9324   20268988.4184   20268981.288
        54.0004         49.0004
 -14902350.10948 -11555282.16847  22265614.1964   22265623.3634   22265613.913
        50.0004         46.0004
 -20183695.63848 -15676923.72747  21972039.3694   21972046.8654   21972039.693
        49.0004         44.0004
 14  5  7  0 15  0.0000000  0 10G09G01G20G13G10G07G28G08G17G04
 -12675666.07848  -9821099.66748  20330808.1954   20330814.8874   20330807.869
        53.0004         49.0004
  -9644705.22147  -7479240.25046  23035831.7664   23035843.6104   23035830.428
        46.0004         41.0004
  -5441166.48947  -4193977.98246  23625130.2394   23625137.4344   23625129.835
        42.0004         37.0004
  -4907736.39547  -3769267.38546  23478522.3614   23478528.9594   23478521.423
        43.0004         38.0004
  -6592104.68047  -5134384.22346  24463310.3784   24463323.1324   24463311.499
        42.0004         38.0004
 -23828888.37349 -18520758.23248  20182486.0444   20182491.2134   20182485.581
        54.0004         49.0004
   -997480.71447   -778626.59146  23992235.9744   23992245.2204   23992235.380
        43.0004         39.0004
 -19894489.26149 -15484232.91748  20259536.4734   20259543.7754   20259536.884
        54.0004         49.0004
 -14865717.61748 -11526737.34047  22272585.4594   22272594.3214   22272585.398
        50.0004         46.0004
 -20270525.14148 -15744582.96047  21955516.9874   21955524.0134   21955516.029
        49.0004         44.0004
 14  5  7  0 15 30.0000000  0 10G09G01G20G13G10G07G28G08G17G04
 -12721462.97748  -9856785.45948  20322092.9274   20322100.2584   20322093.074
        53.0004         49.0004
  -9555224.85647  -7409515.32646  23052858.1344   23052871.4694   23052857.958
        46.0004         41.0004
  -5439491.49847  -4192672.79746  23625448.4294   23625457.5834   23625448.849
        42.0004         37.0004
  -4828303.83147  -3707371.76846  23493637.0754   23493643.6204   23493636.858
        43.0004         38.0004
  -6638371.06447  -5170435.74346  24454507.0924   24454517.4894   24454507.815
        42.0004         38.0004
 -23808583.56449 -18504936.23448  20186349.8114   20186354.8584   20186349.466
        54.0004         49.0004
  -1036293.59947   -808870.25746  23984850.0544   23984860.1364   23984849.461
        43.0004         39.0004
 -19943574.74849 -15522481.25748  20250195.8864   20250203.0194   20250196.155
        54.0004         49.0004
 -14828918.27048 -11498062.49747  22279587.9554   22279596.7074   22279587.904
        50.0004         46.0004
 -20357070.82148 -15812021.03547  21939047.5444   21939054.4044   21939046.732
        49.0004         45.0004
 14  5  7  0 16  0.0000000  0 10G09G01G20G13G10G07G28G08G17G04
 -12766718.61348  -9892049.49248  20313480.9374   20313488.6684   20313481.004
        53.0004         49.0004
  -9465441.42347  -7339554.23746  23069944.6264   23069956.0394   23069943.160
        46.0004         41.0004
  -5437645.08347  -4191234.01846  23625799.0214   23625809.2194   23625799.828
        42.0004         37.0004
  -4748984.43347  -3645564.33246  23508731.5254   23508738.7554   23508731.358
        43.0004         38.0004
  -6684879.37547  -5206675.75846  24445657.6604   24445667.0384   24445657.390
        42.0004         38.0004
 -23787677.97349 -18488646.10148  20190327.9234   20190332.8224   20190327.621
        54.0004         49.0004
  -1075358.00047   -839309.90646  23977414.6864   23977424.8574   23977415.796
        43.0004         39.0004
 -19992112.40249 -15560302.71348  20240959.4394   20240966.2954   20240959.642
        54.0004         49.0004
 -14791953.27048 -11469258.57747  22286622.7664   22286631.5744   22286622.019
        50.0004         46.0004
 -20443328.66248 -15879234.81747  21922632.8734   21922639.6954   21922632.424
        49.0004         45.0004
 14  5  7  0 16 30.0000000  0 10G09G01G20G13G10G07G28G08G17G04
 -12811433.13248  -9926891.87448  20304972.1514   20304979.3264   20304972.316
        53.0004         49.0004
  -9375359.53147  -7269360.59346  23087085.2074   23087097.8264   23087085.290
        46.0004         41.0004
  -5435627.60647  -4189661.97146  23626183.2014   23626190.9884   23626184.117
        42.0004         37.0004
  -4669782.27447  -3583848.23646  23523803.1134   23523807.8884   23523803.081
        43.0004         38.0004
  -6731631.26247  -5243105.56746  24436760.2424   24436771.2704   24436760.972
        42.0004         38.0004
 -23766173.77249 -18471889.51848  20194419.8694   20194424.9824   20194419.512
        54.0004         49.0004
  -1114674.83847   -869946.28546  23969933.3004   23969943.0344   23969933.988
        43.0004         38.0004
 -20040101.63449 -15597696.83248  20231827.2214   20231834.3104   20231827.547
        54.0004         49.0004
 -14754827.11348 -11440329.07447  22293687.4564   22293695.4764   22293687.089
        50.0004         46.0004
 -20529297.71348 -15946223.56447  21906273.5534   21906279.9504   21906272.536
        49.0004         45.0004
 14  5  7  0 17  0.0000000  0 10G09G01G20G13G10G07G28G08G17G04
 -12855603.57148  -9961310.29848  20296566.9154   20296573.4264   20296566.759
        53.0004         49.0004
  -9284980.55047  -7198935.44746  23104284.5864   23104295.8184   23104283.360
        45.0004         41.0004
  -5433436.37347  -4187954.51346  23626598.6174   23626608.5634   23626599.575
        42.0004         37.0004
  -4590698.33647  -3522224.26446  23538853.1374   23538857.8564   23538852.124
        43.0004         38.0004
  -6778625.45547  -5279724.19046  24427816.8614   24427828.5634   24427818.021
        42.0004         38.0004
 -23744071.02749 -18454666.53348  20198626.0344   20198631.4204   20198625.589
        54.0004         49.0004
  -1154242.21847   -900777.88946  23962403.9854   23962413.7724   23962404.646
        43.0004         39.0004
 -20087539.15049 -15634661.04048  20222800.2224   20222807.0314   20222800.507
        54.0004         49.0004
 -14717541.21748 -11411275.09647  22300782.7504   22300790.9114   22300782.201
        50.0004         45.0004
 -20614974.63848 -16012984.68747  21889970.5284   21889976.1734   21889969.494
        49.0004         45.0004
 14  5  7  0 17 30.0000000  0 10G09G01G20G13G10G07G28G08G17G04
 -12899226.95948  -9995302.44748  20288265.4684   20288272.2914   20288265.443
        53.0004         49.0004
  -9194306.14247  -7128280.09646  23121538.6574   23121551.3524   23121538.715
        45.0004         40.0004
  -5431068.55847  -4186109.47646  23627050.1784   23627060.6674   23627051.037
        42.0004         37.0004
  -4511733.69447  -3460693.26346  23553879.0894   23553883.3244   23553878.275
        43.0004         38.0004
  -6825860.83247  -5316530.76146  24418828.0224   24418838.6854   24418829.243
        42.0004         38.0004
 -23721369.32649 -18436976.83348  20202945.8374   20202951.2404   20202945.432
        54.0004         49.0004
  -1194058.44747   -931803.39046  23954827.9684   23954837.3004   23954827.909
        43.0004         39.0004
 -20134421.26749 -15671192.47148  20213878.9774   20213885.7164   20213879.032
        54.0004         49.0004
 -14680097.11548 -11382097.84547  22307907.9514   22307917.0734   22307907.570
        50.0004         46.0004
 -20700355.92848 -16079515.44147  21873721.8364   21873728.9474   21873721.167
        49.0004         45.0004
 14  5  7  0 18  0.0000000  0 10G09G01G20G13G10G07G28G08G17G04
 -12942302.86948 -10028867.99348  20280068.0884   20280075.0314   20280068.099
        53.0004         49.0004
  -9103339.99447  -7057397.41846  23138850.3934   23138861.9024   23138849.312
        45.0004         41.0004
  -5428523.26347  -4184126.14046  23627534.8964   23627543.6344   23627535.439
        42.0004         37.0004
  -4432891.63647  -3399257.77346  23568881.9674   23568886.9884   23568881.125
        43.0004         38.0004
  -6873337.95747  -5353525.69646  24409794.1354   24409803.0614   24409794.539
        42.0004         38.0004
 -23698070.23049 -18418821.62948  20207379.5104   20207384.6834   20207378.976
        54.0004         49.0004
  -1234123.58147   -963022.84846  23947204.2614   23947213.2504   23947203.407
        43.0004         39.0004
 -20180746.83349 -15707290.21548  20205062.8124   20205070.2294   20205063.182
        54.0004         49.0004
 -14642498.87448 -11352800.48547  22315062.6364   22315070.8544   22315062.108
        50.0004         45.0004
 -20785439.66848 -16145814.34347  21857530.5084   21857538.0234   21857530.180
        49.0004         45.0004
 14  5  7  0 18 30.0000000  0 10G09G01G20G13G10G07G28G08G17G04
 -12984829.43048 -10062005.47448  20271975.8164   20271982.5184   20271975.544
        53.0004         49.0004
  -9012084.66847  -6986289.40846  23156215.0534   23156227.3974   23156214.463
        45.0004         41.0004
  -5425798.90647  -4182003.25646  23628054.7844   23628061.3804   23628054.476
        42.0004         37.0004
  -4354173.80947  -3337919.08346  23583860.7344   23583867.2974   23583860.549
        43.0004         38.0004
  -6921056.32747  -5390708.60346  24400712.5714   24400724.2864   24400713.610
        42.0004         37.0004
 -23674174.25749 -18400201.32848  20211926.6474   20211931.9964   20211926.408
        54.0004         49.0004
  -1274436.84547   -994435.65546  23939531.5664   23939542.7734   23939532.391
        44.0004         39.0004
 -20226513.31149 -15742952.31548  20196354.2274   20196361.3584   20196354.328
        54.0004         49.0004
 -14604749.09948 -11323385.04547  22322246.4174   22322253.7834   22322245.529
        50.0004         45.0004
 -20870223.63148 -16211879.63747  21841395.9174   21841404.1204   21841396.309
        49.0004         45.0004
 14  5  7  0 19  0.0000000  0 10G09G01G20G13G10G07G28G08G17G04
 -13026803.54148 -10094712.47448  20263988.3604   20263994.7184   20263988.095
        53.0004         49.0004
  -8920541.32647  -6914956.97846  23173635.0554   23173647.8024   23173634.447
        45.0004         40.0004
  -5422892.45447  -4179738.49246  23628606.7194   23628616.5734   23628607.041
        42.0004         37.0004
  -4275581.16347  -3276677.94546  23598815.6784   23598822.0834   23598815.988
        43.0004         38.0004
  -6969014.24847  -5428078.18146  24391587.0184   24391596.8024   24391587.042
        42.0004         37.0004
 -23649680.77249 -18381115.43148  20216587.5864   20216592.9364   20216586.944
        54.0004         49.0004
  -1314996.06047  -1026040.12546  23931813.2254   23931821.8154   23931813.699
        44.0004         39.0004
 -20271717.04949 -15778175.90748  20187752.0474   20187759.2684   20187752.321
        54.0004         49.0004
 -14566848.85448 -11293852.35647  22329457.5694   22329466.6154   22329457.548
        50.0004         45.0004
 -20954703.27448 -16277707.81647  21825320.7934   21825327.7534   21825320.124
        49.0004         45.0004
 14  5  7  0 19 30.0000000  0 10G09G01G20G13G10G07G28G08G17G04
 -13068224.39548 -10126988.36548  20256106.1144   20256112.8014   20256105.947
        53.0004         49.0004
  -8828713.62847  -6843402.95846  23191109.1614   23191121.8544   23191108.863
        45.0004         40.0004
  -5419803.17547  -4177331.27246  23629194.5754   23629203.5994   23629195.249
        42.0004         37.0004
  -4197116.89247  -3215536.83046  23613746.9584   23613753.4054   23613747.263
        42.0004         38.0004
  -7017212.72147  -5465635.19846  24382414.5624   24382423.9674   24382415.243
        42.0004         37.0004
 -23624591.67649 -18361565.42148  20221361.8064   20221367.1374   20221361.321
        54.0004         49.0004
  -1355801.06047  -1057836.11646  23924049.2114   23924057.6264   23924048.851
        44.0004         39.0004
 -20316356.97249 -15812960.16648  20179256.8844   20179264.4214   20179257.656
        54.0004         49.0004
 -14528802.02648 -11264205.44447  22336697.8654   22336706.1864   22336697.654
        50.0004         45.0004
 -21038877.54848 -16343298.03947  21809302.9444   21809309.2344   21809302.523
        49.0004         45.0004
 14  5  7  0 20  0.0000000  0 10G09G01G20G13G10G07G28G08G17G04
 -13109087.37948 -10158829.55048  20248329.9194   20248336.7974   20248329.662
        53.0004         49.0004
  -8736600.97747  -6771626.90046  23208638.5214   23208650.2724   23208637.135
        45.0004         41.0004
  -5416526.12147  -4174777.71646  23629817.6744   23629828.7214   23629818.843
        42.0004         37.0004
  -4118779.80847  -3154494.82946  23628653.7774   23628659.0474   23628654.225
        42.0004         38.0004
  -7065647.74347  -5503376.54946  24373196.9854   24373207.4324   24373198.456
        42.0004         37.0004
 -23598904.47349 -18341549.35648  20226249.6824   20226255.2104   20226249.243
        54.0004         49.0004
  -1396848.02147  -1089820.62046  23916237.0014   23916246.2514   23916237.715
        44.0004         39.0004
 -20360427.42849 -15847300.68248  20170870.8504   20170877.6864   20170871.084
        54.0004         49.0004
 -14490607.79848 -11234443.67347  22343966.4384   22343974.7964   22343965.987
        50.0004         45.0004
 -21122740.37748 -16408645.57947  21793344.6964   21793351.6554   21793343.849
        49.0004         45.0004
 14  5  7  0 20 30.0000000  0 10G09G01G20G13G10G07G28G08G17G04
 -13149396.26748 -10190238.96948  20240659.3044   20240666.0944   20240659.092
        53.0004         49.0004
  -8644211.23547  -6699634.93846  23226219.2754   23226230.8614   23226218.385
        45.0004         40.0004
  -5413064.74447  -4172080.54846  23630477.4414   23630486.7144   23630477.965
        42.0004         38.0004
  -4040576.95447  -3093557.42546  23643535.6704   23643542.6204   23643535.839
        42.0004         37.0004
  -7114324.49647  -5541306.26046  24363934.8074   24363944.2264   24363934.697
        42.0004         37.0004
 -23572625.02749 -18321071.80748  20231250.5994   20231255.6924   20231250.041
        54.0004         49.0004
  -1438141.04947  -1121996.86046  23908378.9534   23908388.7694   23908379.484
        44.0004         39.0004
 -20403931.37449 -15881199.77248  20162592.3784   20162599.2924   20162592.751
        54.0004         49.0004
 -14452274.38048 -11204573.44147  22351260.5364   22351269.0194   22351260.526
        50.0004         45.0004
 -21206294.33148 -16473752.43547  21777443.9154   21777452.5454   21777443.720
        49.0004         45.0004
 14  5  7  0 21  0.0000000  0 10G09G01G20G13G10G07G28G08G17G04
 -13189146.39248 -10221212.99648  20233094.8264   20233101.6594   20233094.836
        53.0004         49.0004
  -8551544.30847  -6627426.99846  23243852.8714   23243864.8604   23243852.353
        45.0004         40.0004
  -5409414.90447  -4169236.52346  23631170.2754   23631180.8074   23631171.753
        42.0004         38.0004
  -3962507.71747  -3032724.14546  23658391.9884   23658397.3184   23658390.962
        42.0004         37.0004
  -7163239.89447  -5579421.93046  24354626.0834   24354635.6514   24354626.599
        42.0004         37.0004
 -23545751.48149 -18300131.32248  20236364.6884   20236369.9404   20236364.054
        54.0004         49.0004
  -1479676.53847  -1154362.03646  23900475.8484   23900484.6464   23900475.530
        44.0004         39.0004
 -20446863.68349 -15914653.42448  20154422.5204   20154429.4054   20154422.650
        54.0004         49.0004
 -14413801.58948 -11174594.60947  22358581.2024   22358590.7154   22358581.372
        50.0004         45.0004
 -21289534.50448 -16538614.78947  21761603.5954   21761610.9244   21761603.817
        49.0004         45.0004
 14  5  7  0 21 30.0000000  0 10G09G01G20G13G10G07G28G08G17G04
 -13228335.22848 -10251749.65248  20225637.5494   20225644.0124   20225637.526
        53.0004         49.0004
  -8458601.88647  -6555004.38946  23261540.1644   23261551.3044   23261539.305
        45.0004         40.0004
  -5405573.81947  -4166243.48146  23631903.0754   23631911.5424   23631903.044
        42.0004         38.0004
  -3884572.92147  -2971995.61446  23673221.7664   23673228.8014   23673222.253
        42.0004         38.0004
  -7212392.32947  -5617722.30746  24345272.7514   24345279.7084   24345272.795
        42.0004         37.0004
 -23518283.87249 -18278727.93448  20241591.6444   20241596.5364   20241591.278
        54.0004         49.0004
  -1521452.71247  -1186914.75946  23892525.8984   23892535.7804   23892525.782
        44.0004         39.0004
 -20489221.39349 -15947659.34248  20146362.0684   20146368.5774   20146362.294
        54.0004         49.0004
 -14375190.98748 -11144508.38947  22365929.2574   22365937.3624   22365929.073
        50.0004         45.0004
 -21372457.04048 -16603229.63947  21745824.1714   21745831.4964   21745823.773
        49.0004         45.0004
 14  5  7  0 22  0.0000000  0 10G09G01G20G13G10G07G28G08G17G04
 -13266961.70349 -10281848.10348  20218287.0414   20218294.0374   20218287.118
        54.0004         49.0004
  -8365387.03247  -6482369.47446  23279278.1814   23279290.6104   23279277.517
        45.0004         40.0004
  -5401540.24647  -4163100.44746  23632669.5134   23632679.4544   23632670.146
        42.0004         38.0004
  -3806775.42347  -2911374.08346  23688026.0954   23688032.9424   23688026.602
        42.0004         37.0004
  -7261781.87147  -5656207.43646  24335873.3994   24335883.0814   24335874.501
        42.0004         37.0004
 -23490223.33549 -18256862.52648  20246931.0824   20246935.9354   20246930.858
        54.0004         49.0004
  -1563468.77247  -1219654.40646  23884530.5204   23884539.3554   23884529.697
        43.0004         39.0004
 -20531002.61749 -15980216.04548  20138411.3924   20138418.2694   20138411.613
        54.0004         49.0004
 -14336445.77048 -11114317.27847  22373302.1754   22373310.4244   22373301.777
        50.0004         45.0004
 -21455059.97548 -16667595.44147  21730105.4004   21730112.4684   21730105.267
        50.0004         45.0004
 14  5  7  0 22 30.0000000  0 10G09G01G20G13G10G07G28G08G17G04
 -13305024.79849 -10311507.56148  20211044.3424   20211050.1234   20211043.922
        54.0004         49.0004
  -8271903.03447  -6409524.82846  23297067.7484   23297078.9864   23297066.761
        45.0004         40.0004
  -5397313.16447  -4159806.62346  23633476.3214   23633484.7424   23633475.655
        42.0004         38.0004
  -3729117.64247  -2850861.40146  23702805.4964   23702810.9434   23702804.333
        42.0004         38.0004
  -7311408.88847  -5694877.60146  24326430.2544   24326440.4104   24326430.831
        42.0004         37.0004
 -23461571.40949 -18234536.29448  20252383.4544   20252388.3064   20252382.820
        54.0004         49.0004
  -1605724.35247  -1252580.68746  23876488.9424   23876499.3154   23876488.894
        43.0004         38.0004
 -20572205.84149 -16012322.36448  20130570.4754   20130577.3104   20130570.906
        54.0004         49.0004
 -14297569.35948 -11084023.93447  22380700.4694   22380708.4364   22380699.892
        50.0004         45.0004
 -21537341.36748 -16731710.70247  21714447.1124   21714454.8484   21714447.485
        50.0004         45.0004
 14  5  7  0 23  0.0000000  0 10G09G01G20G13G10G07G28G08G17G04
 -13342521.36849 -10340725.56648  20203908.3404   20203915.0494   20203908.402
        54.0004         49.0004
  -8178150.79547  -6336471.17046  23314907.5914   23314919.7884   23314907.014
        45.0004         40.0004
  -5392888.75347  -4156359.04746  23634315.3214   23634325.6984   23634316.845
        42.0004         38.0004
  -3651599.71247  -2790457.70046  23717555.4274   23717560.4514   23717555.197
        42.0004         38.0004
  -7361271.25147  -5733731.15246  24316942.2444   24316951.4164   24316941.856
        42.0004         37.0004
 -23432327.46648 -18211748.75048  20257947.7984   20257953.1244   20257947.652
        53.0004         49.0004
  -1648216.99147  -1285691.68246  23868402.7864   23868412.2644   23868402.587
        43.0004         39.0004
 -20612827.25149 -16043975.31248  20122840.3264   20122847.1394   20122840.669
        54.0004         49.0004
 -14258562.49348 -11053628.94047  22388122.5434   22388132.1334   22388122.321
        50.0004         45.0004
 -21619296.91148 -16795572.05247  21698852.0974   21698858.8254   21698851.840
        50.0004         45.0004
 14  5  7  0 23 30.0000000  0 11G09G01G20G13G10G07G28G08G26G17G04
 -13379454.01748 -10369504.14948  20196880.1684   20196887.0534   20196880.165
        53.0004         49.0004
  -8084137.11847  -6263213.80046  23332796.8764   23332810.0274   23332797.636
        44.0004         40.0004
  -5388270.21947  -4152760.20546  23635195.1774   23635203.1734   23635197.122
        42.0004         38.0004
  -3574227.48747  -2730167.54146  23732278.1514   23732285.8734   23732278.264
        42.0004         38.0004
  -7411372.57447  -5772770.91746  24307407.2624   24307416.6094   24307407.277
        42.0004         37.0004
 -23402496.21148 -18188503.56048  20263624.5674   20263630.0574   20263624.456
        53.0004         49.0004
  -1690949.77347  -1318989.81146  23860271.6494   23860280.1794   23860271.015
        43.0004         39.0004
 -20652868.87149 -16075176.48348  20115220.4834   20115227.2964   20115220.897
        54.0004         49.0004
  -1139855.40348   -874795.39346  24186565.3584   24186580.9024   24186565.840
        50.0004         36.0004
 -14219431.90348 -11023137.53747  22395568.6164   22395577.6214   22395568.428
        50.0004         45.0004
 -21700928.17048 -16859180.70947  21683317.2964   21683325.0644   21683317.636
        50.0004         45.0004
 14  5  7  0 24  0.0000000  0 11G09G01G20G13G10G07G28G08G26G17G04
 -13415816.24848 -10397838.25548  20189960.5254   20189967.3024   20189960.416
        53.0004         49.0004
  -7989859.52147  -6189750.77346  23350739.4424   23350750.6874   23350737.783
        44.0004         40.0004
  -5383450.46247  -4149004.56846  23636111.9564   23636121.5104   23636112.591
        42.0004         37.0004
  -3496998.02447  -2669988.62746  23746974.9174   23746980.8224   23746974.867
        42.0004         38.0004
  -7461707.05347  -5811992.35846  24297829.1964   24297838.5194   24297827.943
        42.0004         37.0004
 -23372073.82748 -18164797.74848  20269413.9424   20269419.0764   20269413.390
        53.0004         49.0004
  -1733916.51347  -1352470.24846  23852093.9054   23852103.4334   23852094.452
        43.0004         39.0004
 -20692323.40249 -16105920.17948  20107712.7704   20107719.2844   20107712.921
        54.0004         49.0004
  -1162433.48147   -892388.48846  24182269.1624   24182284.8134   24182268.921
        45.0004         36.0004
 -14180175.22448 -10992547.87647  22403038.9714   22403047.6704   22403038.698
        50.0004         45.0004
 -21782227.45148 -16922530.69247  21667847.0454   21667854.3204   21667846.761
        50.0004         45.0004
 14  5  7  0 24 30.0000000  0 11G09G01G20G13G10G07G28G08G26G17G04
 -13451610.77148 -10425729.98948  20183148.5114   20183155.5114   20183148.988
        53.0004         49.0004
  -7895325.01647  -6116087.57746  23368727.1584   23368739.9294   23368727.333
        44.0004         40.0004
  -5378432.09447  -4145094.17946  23637068.0164   23637076.5254   23637068.905
        42.0004         38.0004
  -3419917.47647  -2609925.75246  23761643.3094   23761648.1944   23761642.700
        42.0004         38.0004
  -7512278.60647  -5851398.53346  24288204.3464   24288213.6034   24288203.956
        42.0004         37.0004
 -23341065.60548 -18140635.44248  20275314.5874   20275319.5044   20275313.984
        53.0004         49.0004
  -1777120.37047  -1386135.44646  23843872.5374   23843881.8224   23843872.611
        43.0004         39.0004
 -20731193.26949 -16136208.29848  20100315.6854   20100322.4764   20100316.071
        54.0004         49.0004
  -1184648.36147   -909698.61446  24178043.0954   24178056.3014   24178041.760
        42.0004         36.0004
 -14140799.44048 -10961865.40947  22410532.3834   22410541.2974   22410532.253
        49.0004         45.0004
 -21863196.35648 -16985623.23147  21652439.6174   21652446.6994   21652439.300
        50.0004         45.0004
 14  5  7  0 25  0.0000000  0 11G09G01G20G13G10G07G28G08G26G17G04
 -13486830.44548 -10453173.79048  20176446.7714   20176453.3584   20176446.773
        53.0004         49.0004
  -7800530.34047  -6042221.64146  23386766.5264   23386779.0454   23386765.999
        44.0004         40.0004
  -5373207.61047  -4141023.16046  23638062.8864   23638070.7734   23638061.773
        42.0004         38.0004
  -3342981.72847  -2549975.69946  23776282.0074   23776289.3794   23776282.136
        42.0004         37.0004
  -7563081.06847  -5890984.65946  24278537.0574   24278546.5674   24278537.443
        42.0004         37.0004
 -23309466.86448 -18116012.99248  20281327.3314   20281332.7134   20281327.068
        53.0004         49.0004
  -1820554.40247  -1419980.00646  23835606.9054   23835617.4004   23835607.669
        43.0004         39.0004
 -20769470.61749 -16166034.71448  20093031.8364   20093038.4464   20093032.347
        54.0004         49.0004
  -1206495.36446   -926722.05046  24173883.8134   24173901.1124   24173884.014
        41.0004         36.0004
 -14101301.35948 -10931087.65547  22418048.3044   22418056.3364   22418048.035
        49.0004         45.0004
 -21943826.66548 -17048451.93547  21637096.3394   21637103.2234   21637095.707
        50.0004         45.0004
 14  5  7  0 25 30.0000000  0 11G09G01G20G13G10G07G28G08G26G17G04
 -13521475.35749 -10480169.72948  20169853.9634   20169861.0574   20169854.133
        54.0004         49.0004
  -7705479.71447  -5968156.26046  23404853.9484   23404866.6894   23404853.526
        44.0004         40.0004
  -5367776.93347  -4136791.50046  23639095.5374   23639104.8644   23639096.604
        42.0004         38.0004
  -3266194.43447  -2490141.34346  23790894.8944   23790901.8434   23790894.941
        42.0004         37.0004
  -7614115.58547  -5930751.59846  24268825.7144   24268834.8614   24268825.873
        42.0004         37.0004
 -23277279.92748 -18090932.20048  20287452.4034   20287457.5674   20287452.115
        53.0004         49.0004
  -1864219.13647  -1454004.31546  23827298.1784   23827306.9284   23827298.380
        43.0004         39.0004
 -20807154.43349 -16195398.63948  20085860.9154   20085867.0954   20085861.004
        54.0004         49.0004
  -1227976.97346   -943460.76146  24169797.0544   24169812.0614   24169795.881
        41.0004         36.0004
 -14061684.86748 -10900217.62447  22425586.8544   22425595.1594   22425586.634
        49.0004         45.0004
 -22024117.35248 -17111015.99947  21621816.8414   21621824.1934   21621816.609
        50.0004         45.0004
 14  5  7  0 26  0.0000000  0 11G09G01G20G13G10G07G28G08G26G17G04
 -13555546.54749 -10506718.60748  20163370.5134   20163376.9444   20163370.631
        54.0004         49.0004
  -7610178.23447  -5893895.39846  23422988.9754   23423001.9904   23422988.664
        44.0004         40.0004
  -5362140.67747  -4132399.61946  23640167.7754   23640176.9044   23640167.474
        42.0004         37.0004
  -3189559.99047  -2430426.09146  23805478.2964   23805484.8284   23805477.901
        42.0004         37.0004
  -7665383.92147  -5970700.73946  24259069.1484   24259078.2524   24259070.018
        42.0004         37.0004
 -23244508.31448 -18065395.82148  20293688.7334   20293693.7994   20293688.236
        53.0004         49.0004
  -1908116.04647  -1488209.54346  23818945.6754   23818954.1714   23818944.903
        43.0004         39.0004
 -20844245.47149 -16224300.66148  20078802.6574   20078809.1154   20078802.981
        54.0004         49.0004
  -1249096.60046   -959917.43146  24165776.5174   24165791.6674   24165776.757
        41.0004         36.0004
 -14021954.76448 -10869259.06947  22433147.2794   22433156.5464   22433146.832
        49.0004         44.0004
 -22104068.30948 -17173315.33547  21606603.0294   21606609.9314   21606602.674
        50.0004         45.0004
 14  5  7  0 26 30.0000000  0 11G09G01G20G13G10G07G28G08G26G17G04
 -13589039.64549 -10532817.03048  20156997.1624   20157003.2894   20156997.023
        54.0004         49.0004
  -7514625.72547  -5819438.94246  23441171.6044   23441184.4814   23441172.017
        44.0004         40.0004
  -5356294.28047  -4127844.02246  23641281.4034   23641289.7034   23641281.710
        42.0004         37.0004
  -3113077.11947  -2370828.94146  23820032.9194   23820039.1204   23820032.210
        42.0004         37.0004
  -7716882.32447  -6010829.16146  24249269.3784   24249278.4964   24249269.937
        42.0004         37.0004
 -23211150.32748 -18039402.50348  20300036.6514   20300041.2334   20300035.950
        53.0004         49.0004
  -1952241.14947  -1522592.59446  23810548.1134   23810557.2094   23810548.419
        43.0004         39.0004
 -20880738.80949 -16252736.93848  20071858.0464   20071864.7894   20071858.237
        54.0004         49.0004
  -1269852.51046   -976090.66846  24161827.0104   24161841.3044   24161826.840
        41.0004         37.0004
 -13982111.70948 -10838212.49347  22440729.0844   22440738.3984   22440728.245
        49.0004         44.0004
 -22183674.30948 -17235345.87447  21591454.6424   21591461.3674   21591453.648
        50.0004         45.0004
 14  5  7  0 27  0.0000000  0 11G09G01G20G13G10G07G28G08G26G17G04
 -13621955.06649 -10558465.31448  20150733.5374   20150739.6794   20150733.380
        54.0004         49.0004
  -7418826.69247  -5744790.40046  23459401.8214   23459414.5794   23459401.423
        44.0004         39.0004
  -5350238.16847  -4123125.00746  23642431.4944   23642439.6854   23642432.724
        42.0004         37.0004
  -3036749.61747  -2311352.86346  23834556.4404   23834562.4784   23834556.597
        42.0004         37.0004
  -7768612.55547  -6051138.21446  24239425.4484   24239434.5294   24239425.925
        42.0004         38.0004
 -23177209.13548 -18012954.76148  20306495.2414   20306499.9984   20306494.851
        53.0004         49.0004
  -1996595.13347  -1557153.99846  23802107.4744   23802115.9864   23802108.023
        43.0004         39.0004
 -20916634.28949 -16280707.36248  20065027.5424   20065033.7914   20065027.881
        54.0004         49.0004
  -1290247.58446   -991982.72946  24157944.8344   24157961.5904   24157946.133
        41.0004         37.0004
 -13942159.63548 -10807080.97847  22448331.7144   22448341.8224   22448331.842
        49.0004         45.0004
 -22262934.44348 -17297106.91047  21576371.5294   21576378.4404   21576370.979
        50.0004         46.0004
 14  5  7  0 27 30.0000000  0 11G09G01G20G13G10G07G28G08G26G17G04
 -13654291.80249 -10583662.67348  20144579.6244   20144586.4134   20144579.552
        54.0004         49.0004
  -7322783.72447  -5669951.77346  23477678.9134   23477691.6244   23477677.690
        44.0004         39.0004
  -5343970.67347  -4118241.28546  23643626.7834   23643634.4414   23643626.101
        42.0004         37.0004
  -2960579.28047  -2251999.23846  23849051.0334   23849057.8204   23849050.936
        42.0004         37.0004
  -7820573.79847  -6091627.27946  24229534.9214   24229547.9614   24229537.865
        42.0004         38.0004
 -23142685.51748 -17986053.18648  20313065.0464   20313070.0184   20313064.418
        53.0004         49.0004
  -2041176.83647  -1591892.85246  23793623.3084   23793633.3114   23793623.730
        43.0004         39.0004
 -20951930.01149 -16308210.43148  20058310.6284   20058317.2294   20058310.923
        54.0004         49.0004
  -1310282.99246  -1007594.54346  24154133.8434   24154149.4954   24154133.499
        41.0004         37.0004
 -13902101.13348 -10775866.53347  22455954.9234   22455963.6314   22455954.293
        49.0004         45.0004
 -22341846.25048 -17358596.52947  21561354.9174   21561361.5114   21561354.758
        50.0004         46.0004
 14  5  7  0 28  0.0000000  0 11G09G01G20G13G10G07G28G08G26G17G04
 -13686048.10449 -10608407.75048  20138536.5224   20138542.9504   20138536.807
        54.0004         49.0004
  -7226499.23247  -5594924.95246  23496001.5734   23496014.1224   23496000.638
        44.0004         39.0004
  -5337489.84947  -4113191.31546  23644859.2454   23644868.4054   23644858.796
        42.0004         37.0004
  -2884567.27447  -2192768.99346  23863516.0914   23863522.1004   23863515.952
        42.0004         37.0004
  -7872764.91147  -6132295.46546  24219605.2184   24219614.4724   24219605.333
        42.0004         38.0004
 -23107580.43448 -17958698.52148  20319745.0424   20319750.2204   20319744.466
        53.0004         49.0004
  -2085984.79147  -1626808.02546  23785097.8184   23785106.4344   23785097.507
        43.0004         39.0004
 -20986623.82149 -16335244.49248  20051708.6644   20051714.8534   20051708.784
        54.0004         49.0004
  -1329959.50946  -1022926.68246  24150389.6524   24150405.1544   24150388.723
        41.0004         37.0004
 -13861938.59448 -10744571.02847  22463597.1964   22463606.2904   22463597.126
        49.0004         45.0004
 -22420406.98348 -17419812.57747  21546405.8714   21546412.3264   21546404.986
        50.0004         46.0004
 14  5  7  0 28 30.0000000  0 11G09G01G20G13G10G07G28G08G26G17G04
 -13717220.73649 -10632698.01748  20132604.8114   20132611.1704   20132604.649
        54.0004         49.0004
  -7129973.79147  -5519710.36246  23514369.2894   23514382.3674   23514368.605
        44.0004         39.0004
  -5330792.01447  -4107972.26346  23646133.6434   23646142.0404   23646133.987
        42.0004         37.0004
  -2808713.75147  -2133662.25146  23877950.5664   23877957.2364   23877950.275
        42.0004         37.0004
  -7925183.36447  -6173140.79446  24209630.1584   24209640.0504   24209631.040
        43.0004         38.0004
 -23071893.00348 -17930890.07448  20326535.8684   20326540.9304   20326535.530
        53.0004         49.0004
  -2131015.59847  -1661896.84446  23776527.7474   23776535.9174   23776528.577
        43.0004         39.0004
 -21020711.69849 -16361806.39348  20045221.8084   20045228.2794   20045221.976
        54.0004         49.0004
  -1349276.15446  -1037978.40146  24146712.2134   24146728.1474   24146712.383
        41.0004         37.0004
 -13821672.49848 -10713194.82647  22471260.8134   22471268.5524   22471259.510
        49.0004         45.0004
 -22498611.93548 -17480751.40047  21531523.2554   21531530.1154   21531522.958
        50.0004         46.0004
 14  5  7  0 29  0.0000000  0 11G09G01G20G13G10G07G28G08G26G17G04
 -13747812.09649 -10656535.34748  20126783.5134   20126789.6784   20126783.152
        54.0004         49.0004
  -7033213.55347  -5444312.82246  23532782.0704   23532795.6454   23532781.980
        44.0004         39.0004
  -5323878.86447  -4102585.43046  23647448.0374   23647459.0844   23647449.016
        42.0004         37.0004
  -2733023.81147  -2074682.97946  23892352.8064   23892359.4964   23892353.116
        42.0004         37.0004
  -7977832.03647  -6214165.50846  24199612.1584   24199622.2614   24199612.701
        43.0004         38.0004
 -23035628.01748 -17902631.58748  20333436.9814   20333441.9334   20333436.760
        53.0004         49.0004
  -2176271.68647  -1697161.20446  23767915.8744   23767924.5634   23767916.423
        43.0004         39.0004
 -21054195.30349 -16387897.43448  20038850.4404   20038856.5614   20038850.464
        54.0004         49.0004
  -1368237.58946  -1052753.36346  24143103.3974   24143115.8174   24143103.647
        41.0004         36.0004
 -13781308.64748 -10681742.44847  22478940.8764   22478949.5604   22478941.025
        49.0004         45.0004
 -22576461.99048 -17541413.68047  21516709.2114   21516715.5354   21516708.067
        50.0004         46.0004
 14  5  7  0 29 30.0000000  0 11G09G01G20G13G10G07G28G08G26G17G04
 -13777818.93449 -10679917.20848  20121073.1124   20121079.4484   20121073.218
        54.0004         49.0004
  -6936219.18947  -5368732.83346  23551240.5684   23551252.4194   23551239.122
        44.0004         39.0004
  -5316746.92647  -4097028.12446  23648806.3984   23648813.6544   23648806.539
        42.0004         37.0004
  -2657497.17047  -2015830.94146  23906725.1364   23906731.8864   23906725.584
        42.0004         37.0004
  -8030708.24547  -6255367.53546  24189548.6594   24189559.4004   24189549.786
        43.0004         38.0004
 -22998784.70748 -17873922.45548  20340448.1274   20340453.0384   20340447.656
        53.0004         49.0004
  -2221749.79147  -1732598.57746  23759261.7984   23759270.4974   23759261.878
        43.0004         39.0004
 -21087070.81649 -16413514.63948  20032593.7814   20032600.2714   20032594.273
        54.0004         49.0004
  -1386842.97346  -1067250.85146  24139563.5264   24139580.4204   24139563.745
        41.0004         37.0004
 -13740847.85148 -10650214.53547  22486640.4314   22486648.6994   22486640.250
        50.0004         45.0004
 -22653952.93348 -17601796.12547  21501962.4294   21501969.3734   21501962.332
        50.0004         46.0004
 14  5  7  0 30  0.0000000  0 11G09G01G20G13G10G07G28G08G26G17G04
 -13807239.15649 -10702841.96948  20115474.5864   20115480.6644   20115474.461
        54.0004         49.0004
  -6838992.64747  -5292971.93646  23569740.7404   23569753.4934   23569740.828
        44.0004         40.0004
  -5309393.89047  -4091298.51946  23650205.9954   23650213.6794   23650206.372
        42.0004         37.0004
  -2582134.77647  -1957106.90946  23921067.9534   23921073.5394   23921066.359
        42.0004         37.0004
  -8083810.72347  -6296745.86946  24179444.0314   24179453.5634   24179444.899
        43.0004         38.0004
 -22961363.61748 -17844763.11048  20347569.2474   20347573.7004   20347568.468
        53.0004         49.0004
  -2267448.03047  -1768207.46546  23750566.3314   23750575.6464   23750566.122
        43.0004         39.0004
 -21119335.62349 -16438655.97848  20026453.9364   20026460.7584   20026454.393
        54.0004         49.0004
  -1405092.82046  -1081471.31246  24136091.3164   24136105.4624   24136089.987
        41.0004         37.0004
 -13700292.21448 -10618612.71647  22494357.4654   22494366.8274   22494357.456
        50.0004         45.0004
 -22731081.15848 -17661895.94847  21487285.8434   21487292.7184   21487284.706
        50.0004         46.0004
 14  5  7  0 30 30.0000000  0 11G09G01G20G13G10G07G28G08G26G17G04
 -13836072.60949 -10725309.50748  20109987.6994   20109993.9934   20109987.744
        54.0004         49.0004
  -6741537.67647  -5217033.04446  23588286.0154   23588299.0744   23588285.511
        44.0004         39.0004
  -5301818.96347  -4085396.02846  23651648.0334   23651656.7744   23651648.106
        42.0004         37.0004
  -2506939.36647  -1898512.98246  23935375.4414   23935380.9424   23935376.019
        42.0004         37.0004
  -8137139.92347  -6338300.87546  24169295.5594   24169304.5564   24169296.326
        43.0004         38.0004
 -22923367.15948 -17815155.42348  20354799.0974   20354804.3884   20354799.016
        53.0004         49.0004
  -2313366.15347  -1803987.69946  23741827.5694   23741836.3464   23741827.697
        43.0004         39.0004
 -21150988.90549 -16463320.79748  20020430.9104   20020437.2004   20020431.284
        54.0004         49.0004
  -1422989.25246  -1095416.36846  24132685.7334   24132699.1734   24132684.979
        41.0004         37.0004
 -13659645.08048 -10586939.59747  22502092.6314   22502101.2414   22502092.268
        49.0004         45.0004
 -22807845.45348 -17721712.18147  21472677.5134   21472684.0814   21472677.680
        50.0004         46.0004
 14  5  7  0 31  0.0000000  0 11G09G01G20G13G10G07G28G08G26G17G04
 -13864317.78249 -10747318.64648  20104612.6004   20104619.3374   20104612.708
        54.0004         49.0004
  -6643856.41647  -5140917.81946  23606874.6654   23606887.9204   23606874.292
        44.0004         40.0004
  -5294020.23947  -4079319.13446  23653129.4164   23653139.7604   23653131.425
        42.0004         37.0004
  -2431912.13746  -1840050.13246  23949651.6814   23949657.8184   23949652.847
        41.0004         37.0004
  -8190694.45747  -6380031.46146  24159104.4434   24159114.4454   24159104.636
        43.0004         38.0004
 -22884796.24948 -17785100.11148  20362138.8824   20362144.0294   20362138.595
        53.0004         49.0004
  -2359502.40047  -1839937.92246  23733047.2004   23733056.2554   23733047.971
        43.0004         39.0004
 -21182028.33349 -16487507.29548  20014523.8464   20014530.4424   20014524.274
        54.0004         49.0004
  -1440532.92546  -1109086.58346  24129346.7064   24129361.2384   24129345.986
        41.0004         37.0004
 -13618908.47948 -10555196.76747  22509844.7284   22509852.0724   22509843.989
        49.0004         45.0004
 -22884242.92248 -17781242.58247  21458139.5364   21458146.1384   21458139.047
        51.0004         46.0004
 14  5  7  0 31 30.0000000  0 11G09G01G20G13G10G07G28G08G26G17G04
 -13891973.28849 -10768868.30348  20099350.1804   20099356.3544   20099349.986
        54.0004         49.0004
  -6545951.48347  -5064628.30646  23625505.7694   23625517.8954   23625505.062
        44.0004         40.0004
  -5285996.15647  -4073066.64846  23654658.6354   23654666.9644   23654659.057
        42.0004         37.0004
  -2357054.70947  -1781719.59746  23963897.7704   23963904.0054   23963897.833
        42.0004         37.0004
  -8244473.68647  -6421937.14546  24148870.6354   24148880.8874   24148871.090
        43.0004         38.0004
 -22845651.98148 -17754598.03148  20369588.0594   20369592.7984   20369587.838
        53.0004         49.0004
  -2405855.52347  -1876057.15846  23724227.9614   23724235.5594   23724227.293
        43.0004         39.0004
 -21212452.40949 -16511214.29348  20008734.5214   20008741.0414   20008734.807
        54.0004         49.0004
  -1457725.07947  -1122482.85746  24126075.1784   24126088.4574   24126075.172
        42.0004         37.0004
 -13578085.08848 -10523386.31447  22517612.9184   22517621.7914   22517612.997
        49.0004         44.0004
 -22960270.96748 -17840485.12447  21443672.0664   21443678.4044   21443671.644
        51.0004         46.0004
 14  5  7  0 32  0.0000000  0 11G09G01G20G13G10G07G28G08G26G17G04
 -13919038.23049 -10789957.78348  20094199.8764   20094205.8564   20094199.801
        54.0004         49.0004
  -6447825.76147  -4988166.74146  23644177.8374   23644191.0544   23644177.642
        44.0004         40.0004
  -5277744.98047  -4066637.20646  23656229.4544   23656236.7774   23656229.450
        42.0004         37.0004
  -2282369.01546  -1723522.87746  23978110.2964   23978114.1244   23978109.824
        41.0004         37.0004
  -8298477.01347  -6464017.45246  24138593.7804   24138603.3044   24138594.538
        43.0004         38.0004
 -22805936.03848 -17723650.48448  20377145.6284   20377150.7874   20377145.126
        53.0004         49.0004
  -2452424.34847  -1912344.46946  23715365.8744   23715373.4834   23715365.759
        43.0004         39.0004
 -21242259.66249 -16534440.65548  20003061.8994   20003068.7194   20003062.352
        54.0004         49.0004
  -1474567.12347  -1135606.34446  24122869.7834   24122886.5274   24122869.039
        42.0004         37.0004
 -13537176.93548 -10491509.81447  22525398.4664   22525406.0384   22525397.051
        49.0004         44.0004
 -23035927.41648 -17899438.10747  21429274.5424   21429281.4104   21429274.781
        51.0004         46.0004
 14  5  7  0 32 30.0000000  0 11G09G01G20G13G10G07G28G08G26G17G04
 -13945511.17649 -10810585.97648  20089162.1044   20089167.8564   20089162.097
        54.0004         49.0004
  -6349481.32447  -4911534.74646  23662893.1114   23662905.6224   23662892.302
        44.0004         40.0004
  -5269264.61847  -4060029.16746  23657842.2734   23657850.7504   23657842.966
        42.0004         37.0004
  -2207856.19246  -1665460.84446  23992289.6114   23992294.5264   23992288.303
        41.0004         36.0004
  -8352703.01547  -6506271.27446  24128274.4354   24128283.3874   24128275.614
        43.0004         38.0004
 -22765649.04448 -17692257.97048  20384811.7234   20384816.6954   20384811.510
        53.0004         48.0004
  -2499207.18147  -1948798.53846  23706464.0174   23706471.6624   23706462.911
        44.0004         39.0004
 -21271447.66049 -16557184.48148  19997507.9214   19997514.4604   19997508.292
        54.0004         49.0004
  -1491059.73247  -1148457.52346  24119730.9984   24119746.0754   24119731.110
        42.0004         37.0004
 -13496186.64548 -10459569.30947  22533197.5294   22533206.0984   22533197.080
        49.0004         44.0004
 -23111209.04148 -17958099.02847  21414949.3864   21414955.3624   21414948.589
        51.0004         46.0004
 14  5  7  0 33  0.0000000  0 11G09G01G20G13G10G07G28G08G26G17G04
 -13971390.73449 -10830751.78248  20084237.1124   20084243.6254   20084237.165
        54.0004         49.0004
  -6250920.62547  -4834734.22546  23681649.1004   23681660.5494   23681648.277
        44.0004         39.0004
  -5260553.47846  -4053241.29146  23659499.2914   23659510.7184   23659499.755
        41.0004         37.0004
  -2133517.62346  -1607534.61246  24006435.9674   24006440.1924   24006435.176
        41.0004         36.0004
  -8407150.89647  -6548697.98946  24117913.2824   24117923.4954   24117914.304
        43.0004         38.0004
 -22724792.28448 -17660421.48148  20392586.8094   20392591.5994   20392586.191
        53.0004         48.0004
  -2546202.34847  -1985418.05746  23697520.3344   23697527.6424   23697520.268
        44.0004         39.0004
 -21300014.48349 -16579444.27448  19992071.7434   19992078.0964   19992071.801
        54.0004         49.0004
  -1507203.95347  -1161037.22646  24116658.6594   24116674.4514   24116658.621
        42.0004         37.0004
 -13455116.97648 -10427566.95347  22541013.5294   22541020.8804   22541012.493
        49.0004         45.0004
 -23186113.20448 -18016465.80547  21400695.4934   21400701.5294   21400695.318
        51.0004         46.0004
 14  5  7  0 33 30.0000000  0 11G09G01G20G13G10G07G28G08G26G17G04
 -13996674.73649 -10850453.52048  20079425.8404   20079432.1604   20079425.711
        54.0004         49.0004
  -6152145.21647  -4757766.39646  23700444.4904   23700456.4274   23700443.899
        44.0004         39.0004
  -5251609.18246  -4046271.76446  23661201.3054   23661210.3064   23661202.881
        41.0004         37.0004
  -2059353.61846  -1549744.41846  24020547.9434   24020553.7894   24020547.593
        41.0004         36.0004
  -8461818.78647  -6591296.14346  24107510.1334   24107520.8764   24107511.063
        43.0004         38.0004
 -22683366.03348 -17628141.23648  20400469.8634   20400474.9194   20400469.418
        53.0004         48.0004
  -2593407.40647  -2022201.13746  23688537.7904   23688545.1194   23688537.581
        43.0004         39.0004
 -21327957.24749 -16601217.79248  19986754.3264   19986760.7874   19986754.696
        54.0004         49.0004
  -1522999.81347  -1173345.48146  24113653.8784   24113667.5514   24113653.159
        42.0004         37.0004
 -13413968.64448 -10395503.29347  22548843.3704   22548850.8694   22548843.088
        49.0004         45.0004
 -23260636.40248 -18074535.74647  21386514.0594   21386520.6184   21386513.781
        51.0004         46.0004
 14  5  7  0 34  0.0000000  0 11G09G01G20G13G10G07G28G08G26G17G04
 -14021366.64549 -10869693.89448  20074727.1174   20074733.1534   20074727.204
        54.0004         49.0004
  -6053161.85147  -4680636.53446  23719280.3654   23719292.5854   23719280.086
        44.0004         39.0004
  -5242433.36746  -4039121.81846  23662947.9274   23662957.3464   23662947.766
        41.0004         37.0004
  -1985370.28846  -1492095.00946  24034625.5094   24034631.0474   24034625.743
        41.0004         36.0004
  -8516709.91947  -6634068.25646  24097066.4244   24097073.9604   24097065.570
        43.0004         38.0004
 -22641375.93348 -17595421.62748  20408460.0194   20408465.2044   20408459.638
        53.0004         49.0004
  -2640825.12347  -2059149.92646  23679515.2814   23679523.2094   23679514.015
        43.0004         38.0004
 -21355278.36649 -16622506.90848  19981555.0624   19981561.6674   19981555.584
        54.0004         49.0004
  -1538452.82947  -1185386.59746  24110711.8174   24110726.4254   24110711.096
        42.0004         37.0004
 -13372748.04748 -10363383.33647  22556687.6954   22556694.8154   22556687.159
        49.0004         45.0004
 -23334780.14548 -18132309.99847  21372405.3194   21372411.3704   21372404.890
        51.0004         46.0004
 14  5  7  0 34 30.0000000  0 11G09G01G20G13G10G07G28G08G26G17G04
 -14045460.98449 -10888468.62448  20070142.1894   20070148.3854   20070142.122
        54.0004         49.0004
  -5953968.97547  -4603343.41046  23738156.5794   23738168.4984   23738155.594
        44.0004         40.0004
  -5233020.57346  -4031787.24346  23664739.3784   23664746.6114   23664739.587
        41.0004         37.0004
  -1911564.43146  -1434583.89146  24048671.2224   24048676.8884   24048670.090
        41.0004         36.0004
  -8571819.20247  -6677010.36146  24086578.6484   24086586.9964   24086578.529
        43.0004         38.0004
 -22598819.32848 -17562260.58248  20416558.5614   20416563.7444   20416558.138
        53.0004         49.0004
  -2688449.73447  -2096259.92146  23670452.1544   23670458.8114   23670451.338
        43.0004         38.0004
 -21381972.22949 -16643307.25348  19976475.7654   19976481.9584   19976476.058
        54.0004         49.0004
  -1553559.93947  -1197158.17146  24107837.6964   24107851.6384   24107837.393
        42.0004         38.0004
 -13331453.87148 -10331206.03247  22564544.6404   22564553.8594   22564545.041
        49.0004         44.0004
 -23408537.84848 -18189783.44047  21358369.2174   21358375.9874   21358368.933
        51.0004         46.0004
 14  5  7  0 35  0.0000000  0 11G09G01G20G13G10G07G28G08G26G17G04
 -14068959.13149 -10906778.78848  20065670.2034   20065676.6244   20065670.368
        54.0004         49.0004
  -5854571.57847  -4525890.91946  23757070.6954   23757082.7114   23757070.236
        44.0004         40.0004
  -5223371.66946  -4024268.64746  23666574.6124   23666582.9424   23666575.136
        41.0004         36.0004
  -1837940.19046  -1377214.32046  24062681.2314   24062686.9104   24062680.565
        41.0004         36.0004
  -8627147.99047  -6720123.50346  24076048.6904   24076058.2604   24076049.602
        43.0004         38.0004
 -22555699.76148 -17528660.88948  20424763.6444   20424768.8964   20424763.197
        53.0004         49.0004
  -2736282.19847  -2133531.90546  23661346.4624   23661357.2134   23661348.545
        43.0004         38.0004
 -21408039.68449 -16663619.48348  19971515.1074   19971521.7424   19971515.243
        54.0004         49.0004
  -1568324.81347  -1208663.05746  24105027.4794   24105041.7604   24105026.789
        42.0004         38.0004
 -13290090.88448 -10298975.11247  22572415.1024   22572424.7374   22572415.647
        49.0004         44.0004
 -23481909.52048 -18246956.07647  21344407.2634   21344413.4134   21344406.735
        51.0004         46.0004
 14  5  7  0 35 30.0000000  0 11G09G01G20G13G10G07G28G08G26G17G04
 -14091858.58849 -10924622.45248  20061312.4734   20061318.6164   20061312.568
        54.0004         49.0004
  -5754970.72747  -4448279.89546  23776023.5154   23776037.0994   23776023.467
        44.0004         40.0004
  -5213483.39846  -4016563.54746  23668457.2704   23668465.6454   23668457.162
        41.0004         37.0004
  -1764497.55346  -1319986.23646  24076655.5004   24076661.7974   24076656.158
        40.0004         36.0004
  -8682694.22847  -6763406.08446  24065479.5664   24065487.6324   24065480.371
        43.0004         38.0004
 -22512017.47948 -17494622.67848  20433076.2804   20433081.0464   20433075.910
        53.0004         49.0004
  -2784319.42147  -2170963.42246  23652207.3694   23652216.0324   23652207.542
        43.0004         38.0004
 -21433477.34649 -16683440.96848  19966674.2884   19966680.7114   19966674.576
        54.0004         49.0004
  -1582747.10847  -1219900.99246  24102282.8844   24102295.7574   24102282.158
        42.0004         37.0004
 -13248660.12148 -10266691.37747  22580300.0984   22580309.2864   22580299.718
        49.0004         44.0004
 -23554890.93748 -18303824.62147  21330519.3254   21330525.2964   21330518.639
        51.0004         46.0004
 14  5  7  0 36  0.0000000  0 11G09G01G20G13G10G07G28G08G26G17G04
 -14114158.48749 -10941998.92348  20057068.5664   20057074.8614   20057068.794
        54.0004         49.0004
  -5655169.10047  -4370512.42946  23795015.9854   23795028.9554   23795015.438
        44.0004         40.0004
  -5203354.42846  -4008670.90646  23670385.0364   23670391.4014   23670384.297
        41.0004         36.0004
  -1691238.21346  -1262900.99846  24090597.7224   24090602.4554   24090597.219
        41.0004         36.0004
  -8738456.95747  -6806857.37046  24054867.5274   24054875.5174   24054868.006
        43.0004         38.0004
 -22467773.98048 -17460147.17348  20441495.3664   20441499.9054   20441494.983
        53.0004         49.0004
  -2832560.31647  -2208553.65646  23643027.3814   23643035.7194   23643027.315
        43.0004         38.0004
 -21458283.84449 -16702770.64148  19961953.7554   19961960.3034   19961954.193
        54.0004         49.0004
  -1596828.25247  -1230873.10546  24099601.6824   24099616.5834   24099602.842
        42.0004         37.0004
 -13207163.70848 -10234356.49447  22588196.7224   22588205.9854   22588196.350
        49.0004         44.0004
 -23627479.83748 -18360387.30747  21316706.0434   21316711.8144   21316705.491
        51.0004         46.0004
 14  5  7  0 36 30.0000000  0 11G09G01G20G13G10G07G28G08G26G17G04
 -14135859.08749 -10958908.40948  20052939.4534   20052945.1524   20052939.458
        54.0004         49.0004
  -5555170.47247  -4292591.45146  23814045.4674   23814057.0704   23814044.850
        44.0004         40.0004
  -5192984.18346  -4000590.24646  23672357.5304   23672366.8224   23672358.085
        41.0004         37.0004
  -1618164.59746  -1205960.47146  24104504.4654   24104508.6654   24104502.695
        41.0004         36.0004
  -8794436.37047  -6850477.50046  24044214.1754   24044223.3384   24044215.926
        43.0004         38.0004
 -22422971.70948 -17425236.27048  20450020.9444   20450025.8544   20450020.482
        53.0004         48.0004
  -2881004.45147  -2246302.24746  23633808.4394   23633817.1564   23633809.336
        43.0004         39.0004
 -21482458.89149 -16721608.27648  19957353.2214   19957359.4034   19957353.898
        54.0004         49.0004
  -1610570.66347  -1241581.25446  24096986.3344   24097001.1284   24096987.316
        42.0004         37.0004
 -13165605.65948 -10201973.58347  22596104.6414   22596112.7904   22596104.526
        49.0004         44.0004
 -23699674.76448 -18416643.00047  21302967.8314   21302973.6714   21302966.986
        51.0004         46.0004
 14  5  7  0 37  0.0000000  0 12G09G01G20G13G10G07G28G08G26G17G04G02
 -14156959.67349 -10975350.35148  20048924.2264   20048929.7824   20048924.164
        54.0004         49.0004
  -5454977.69847  -4214519.19346  23833111.2614   23833123.7814   23833110.520
        44.0004         40.0004
  -5182371.31746  -3992320.51846  23674377.3694   23674387.0854   23674377.950
        41.0004         37.0004
  -1545278.29546  -1149165.92046  24118374.5634   24118379.8154   24118372.990
        41.0004         37.0004
  -8850631.68847  -6894265.86446  24033521.3884   24033528.7714   24033521.694
        43.0004         38.0004
 -22377612.62448 -17389891.47848  20458652.5504   20458657.3494   20458652.231
        53.0004         48.0004
  -2929650.84047  -2284208.44046  23624552.3694   23624559.2564   23624551.436
        43.0004         39.0004
 -21506001.34249 -16739952.97848  19952873.0894   19952879.6604   19952873.725
        54.0004         49.0004
  -1623975.82747  -1252026.61446  24094437.5014   24094450.4254   24094437.401
        42.0004         37.0004
 -13123988.22348 -10169544.39347  22604024.7974   22604032.7414   22604024.152
        49.0004         44.0004
 -23771473.71148 -18472590.13347  21289304.8524   21289310.8804   21289304.358
        51.0004         46.0004
  -1108219.69248   -807725.27746  24093857.6944   24093865.0994   24093858.601
        49.0004         38.0004
 14  5  7  0 37 30.0000000  0 12G09G01G20G13G10G07G28G08G26G17G04G02
 -14177458.18149 -10991323.13948  20045023.2374   20045029.3064   20045023.261
        54.0004         49.0004
  -5354592.04147  -4136296.63446  23852213.8574   23852226.9984   23852213.688
        44.0004         40.0004
  -5171512.74546  -3983859.35246  23676443.0664   23676453.5384   23676444.068
        41.0004         37.0004
  -1472578.97146  -1092517.07146  24132207.3634   24132213.0694   24132207.190
        41.0004         36.0004
  -8907040.72047  -6938220.76946  24022786.5724   24022794.3904   24022786.645
        43.0004         38.0004
 -22331696.71048 -17354112.79148  20467389.9114   20467394.6434   20467389.578
        53.0004         48.0004
  -2978496.13447  -2322269.63946  23615255.1794   23615264.7784   23615256.388
        44.0004         39.0004
 -21528908.40249 -16757802.56948  19948514.4594   19948520.7334   19948514.620
        54.0004         49.0004
  -1637043.72347  -1262209.17546  24091948.3104   24091963.7604   24091948.561
        42.0004         37.0004
 -13082312.80048 -10137070.01247  22611955.2344   22611962.0824   22611954.805
        49.0004         44.0004
 -23842872.61648 -18528225.55347  21275717.8324   21275723.0784   21275717.037
        51.0004         46.0004
  -1202024.08247   -880819.29046  24076007.2834   24076014.5624   24076006.985
        45.0004         38.0004
 14  5  7  0 38  0.0000000  0 12G09G01G20G13G10G07G28G08G26G17G04G02
 -14197354.75549 -11006826.89448  20041236.9794   20041243.1624   20041237.082
        54.0004         49.0004
  -5254017.02547  -4057926.51746  23871352.6524   23871365.9474   23871352.249
        44.0004         40.0004
  -5160407.99446  -3975206.36646  23678555.7304   23678565.9864   23678557.453
        41.0004         36.0004
  -1400069.98646  -1036016.53146  24146006.0804   24146012.4574   24146004.759
        41.0004         36.0004
  -8963663.32347  -6982342.09646  24012010.9614   24012020.1264   24012011.934
        43.0004         38.0004
 -22285226.82648 -17317902.44748  20476232.8924   20476237.6884   20476232.547
        53.0004         48.0004
  -3027539.80147  -2360485.40446  23605923.5804   23605931.6904   23605924.090
        44.0004         39.0004
 -21551179.45649 -16775156.57348  19944275.8114   19944282.0254   19944276.377
        54.0004         49.0004
  -1649776.62647  -1272130.70546  24089526.4574   24089540.8144   24089526.703
        42.0004         37.0004
 -13040582.66348 -10104552.99747  22619896.6444   22619904.4954   22619895.913
        49.0004         44.0004
 -23913870.28548 -18583548.31447  21262207.1744   21262213.5744   21262206.789
        51.0004         46.0004
  -1295671.51347   -953791.01346  24058186.6254   24058193.5424   24058185.320
        43.0004         38.0004
 14  5  7  0 38 30.0000000  0 12G09G01G20G13G10G07G28G08G26G17G04G02
 -14216647.56949 -11021860.18948  20037565.5254   20037571.8354   20037565.622
        54.0004         49.0004
  -5153254.31347  -3979410.15846  23890527.2094   23890539.7014   23890526.718
        44.0004         40.0004
  -5149054.51746  -3966359.56446  23680715.6194   23680725.1104   23680716.934
        41.0004         36.0004
  -1327751.48746   -979664.42646  24159767.1254   24159773.8294   24159766.171
        41.0004         36.0004
  -9020497.57647  -7026628.35346  24001195.8464   24001203.6094   24001196.453
        43.0004         38.0004
 -22238203.64148 -17281260.96048  20485180.9944   20485186.1154   20485180.730
        53.0004         48.0004
  -3076779.86847  -2398854.21146  23596553.8054   23596562.7364   23596554.066
        44.0004         39.0004
 -21572811.85549 -16792012.92748  19940159.5534   19940166.0334   19940159.680
        54.0004         49.0004
  -1662174.90747  -1281791.50046  24087167.6594   24087179.2494   24087166.388
        42.0004         37.0004
 -12998798.56348 -10071993.94047  22627847.3444   22627855.6194   22627846.770
        49.0004         44.0004
 -23984463.03948 -18638555.56347  21248773.7484   21248780.1304   21248773.454
        51.0004         47.0004
  -1389158.79947  -1026637.94946  24040394.4534   24040404.5754   24040395.581
        43.0004         38.0004
 14  5  7  0 39  0.0000000  0 12G09G01G20G13G10G07G28G08G26G17G04G02
 -14235335.63249 -11036422.24748  20034009.2484   20034015.3704   20034009.266
        54.0004         49.0004
  -5052306.32947  -3900749.42346  23909736.6334   23909749.1004   23909736.269
        44.0004         40.0004
  -5137450.55646  -3957317.57746  23682922.9604   23682933.0894   23682924.877
        41.0004         36.0004
  -1255624.45846   -923461.50546  24173491.9494   24173498.1214   24173492.540
        41.0004         36.0004
  -9077542.30347  -7071078.60546  23990341.3034   23990348.5154   23990341.878
        43.0004         38.0004
 -22190628.48848 -17244189.37048  20494234.2904   20494239.0674   20494233.754
        53.0004         48.0004
  -3126213.79247  -2437374.07446  23587146.2494   23587154.5614   23587146.838
        44.0004         39.0004
 -21593804.19249 -16808370.53448  19936164.5074   19936171.0024   19936164.991
        54.0004         49.0004
  -1674239.71047  -1291192.42846  24084870.5124   24084885.0494   24084871.800
        42.0004         37.0004
 -12956963.66448 -10039395.29947  22635807.8864   22635817.0024   22635807.617
        49.0004         44.0004
 -24054648.50348 -18693245.43647  21235417.8644   21235424.0664   21235417.153
        51.0004         47.0004
  -1482483.41847  -1099358.13046  24022636.4434   24022643.9474   24022636.636
        43.0004         38.0004
 14  5  7  0 39 30.0000000  0 12G09G01G20G13G10G07G28G08G26G17G04G02
 -14253420.90349 -11050514.59748  20030567.9554   20030573.9164   20030567.875
        54.0004         49.0004
  -4951178.58547  -3821948.61946  23928980.6724   23928993.9494   23928980.589
        44.0004         40.0004
  -5125597.55446  -3948081.52746  23685181.1614   23685189.0444   23685182.225
        41.0004         36.0004
  -1183693.30146   -867411.24746  24187179.3164   24187189.8814   24187180.528
        41.0004         36.0004
  -9134799.55047  -7115694.47146  23979445.1954   23979452.6454   23979445.349
        43.0004         38.0004
 -22142505.79248 -17206691.12148  20503391.6494   20503396.3464   20503391.257
        53.0004         48.0004
  -3175843.46647  -2476046.47046  23577702.4484   23577711.9364   23577702.739
        44.0004         39.0004
 -21614157.98049 -16824230.56748  19932291.6854   19932297.5354   19932292.006
        54.0004         49.0004
  -1685975.35547  -1300336.87546  24082638.1654   24082652.0694   24082636.939
        42.0004         37.0004
 -12915083.13848 -10006761.10347  22643777.8694   22643787.0174   22643777.366
        49.0004         44.0004
 -24124427.14848 -18747618.30847  21222139.2904   21222145.5924   21222138.946
        51.0004         47.0004
  -1575645.84547  -1171951.93746  24004907.6164   24004914.6944   24004908.956
        43.0004         38.0004
 14  5  7  0 40  0.0000000  0 12G09G01G20G13G10G07G28G08G26G17G04G02
 -14270898.64649 -11064133.55048  20027241.8964   20027247.8264   20027241.792
        54.0004         49.0004
  -4849869.50747  -3743006.51246  23948260.3504   23948272.1944   23948258.958
        44.0004         40.0004
  -5113489.62446  -3938646.82046  23687485.2054   23687494.4224   23687485.431
        41.0004         36.0004
  -1111955.09046   -811511.31746  24200832.3974   24200837.2204   24200830.919
        41.0004         36.0004
  -9192263.94247  -7160471.72746  23968509.0524   23968516.7994   23968509.833
        43.0004         38.0004
 -22093833.10148 -17168764.30748  20512653.6424   20512658.7654   20512653.300
        53.0004         48.0004
  -3225662.97747  -2514866.78846  23568223.0974   23568230.0324   23568222.307
        44.0004         39.0004
 -21633867.64249 -16839588.67948  19928540.7814   19928546.9524   19928541.271
        54.0004         49.0004
  -1697378.99247  -1309222.60046  24080467.9754   24080480.9954   24080467.119
        42.0004         37.0004
 -12873154.89648  -9974089.72547  22651756.2324   22651764.9054   22651755.956
        49.0004         44.0004
 -24193792.37748 -18801669.04747  21208939.6764   21208945.6894   21208938.963
        51.0004         47.0004
  -1668639.40347  -1244414.16246  23987211.7014   23987218.5284   23987212.610
        43.0004         38.0004
 14  5  7  0 40 30.0000000  0 12G09G01G20G13G10G07G28G08G26G17G04G02
 -14287771.71449 -11077281.33048  20024030.9414   20024036.9484   20024030.886
        54.0004         49.0004
  -4748385.25547  -3663927.89946  23967571.8964   23967583.4624   23967570.700
        44.0004         39.0004
  -5101128.56246  -3929014.90146  23689837.2754   23689846.6364   23689838.251
        41.0004         36.0004
  -1040414.68446   -755765.51946  24214445.2434   24214452.5584   24214444.645
        41.0004         36.0004
  -9249938.08747  -7205412.43346  23957534.3244   23957542.9604   23957534.461
        43.0004         38.0004
 -22044615.64048 -17130412.99948  20522019.2404   20522024.2894   20522019.318
        53.0004         48.0004
  -3275674.02147  -2553836.35546  23558705.6004   23558714.5894   23558705.575
        44.0004         39.0004
 -21652935.61549 -16854446.78148  19924912.1324   19924918.6094   19924912.428
        54.0004         49.0004
  -1708455.63847  -1317853.54446  24078359.6074   24078372.9694   24078359.129
        42.0004         37.0004
 -12831184.67648  -9941385.64247  22659743.0354   22659751.1024   22659742.673
        49.0004         44.0004
 -24262745.48648 -18855398.64647  21195817.7274   21195824.1794   21195817.690
        51.0004         47.0004
  -1761465.28847  -1316745.73446  23969547.4644   23969554.6324   23969547.520
        43.0004         38.0004
 14  5  7  0 41  0.0000000  0 12G09G01G20G13G10G07G28G08G26G17G04G02
 -14304037.49849 -11089955.90648  20020935.8624   20020941.4274   20020935.689
        54.0004         49.0004
  -4646726.41047  -3584713.25246  23986916.6474   23986928.1654   23986915.837
        44.0004         39.0004
  -5088511.31646  -3919183.34146  23692239.3714   23692249.5204   23692239.101
        41.0004         36.0004
   -969071.41346   -700173.31946  24228022.0674   24228026.8004   24228021.193
        41.0004         36.0004
  -9307818.64247  -7250513.98346  23946519.5094   23946529.2834   23946520.105
        43.0004         39.0004
 -21994853.29948 -17091637.10348  20531488.8504   20531493.7224   20531488.588
        53.0004         48.0004
  -3325873.03347  -2592952.38746  23549152.3784   23549161.9354   23549152.338
        44.0004         39.0004
 -21671358.72249 -16868802.39248  19921406.5804   19921412.8664   19921406.866
        54.0004         49.0004
  -1719204.57247  -1326229.11246  24076314.0524   24076327.0324   24076313.965
        42.0004         37.0004
 -12789173.04648  -9908649.29547  22667738.4014   22667744.7454   22667737.088
        49.0004         44.0004
 -24331281.85048 -18908803.51347  21182775.8874   21182782.4604   21182775.428
        51.0004         47.0004
  -1854119.35347  -1388943.43746  23951915.6494   23951921.7554   23951915.873
        43.0004         38.0004
 14  5  7  0 41 30.0000000  0 12G09G01G20G13G10G07G28G08G26G17G04G02
 -14319695.13549 -11102156.59848  20017955.9774   20017961.7994   20017955.974
        54.0004         49.0004
  -4544895.34247  -3505364.39546  24006294.3264   24006306.9504   24006293.657
        44.0004         39.0004
  -5075635.85646  -3909150.57546  23694689.2784   23694699.3664   23694687.924
        41.0004         36.0004
   -897926.30546   -644735.54246  24241559.4134   24241565.6974   24241559.867
        41.0004         36.0004
  -9365904.59147  -7295775.58946  23935466.1714   23935474.3584   23935466.768
        43.0004         38.0004
 -21944547.40248 -17052437.66548  20541061.6294   20541066.5634   20541061.431
        53.0004         48.0004
  -3376258.39647  -2632213.62546  23539564.4314   23539572.4364   23539564.500
        44.0004         40.0004
 -21689135.45549 -16882654.33448  19918023.5634   19918030.0154   19918023.883
        54.0004         49.0004
  -1729627.01847  -1334350.27446  24074330.1774   24074343.3684   24074329.901
        42.0004         37.0004
 -12747122.08548  -9875882.29047  22675739.8784   22675748.9034   22675739.713
        49.0004         44.0004
 -24399399.12848 -18961881.83147  21169813.9014   21169820.0854   21169813.418
        51.0004         47.0004
  -1946598.75147  -1461005.02846  23934317.6954   23934323.6014   23934318.042
        43.0004         38.0004
 14  5  7  0 42  0.0000000  0 12G09G01G20G13G10G07G28G08G26G17G04G02
 -14334745.81149 -11113884.33848  20015091.9934   20015097.7304   20015092.007
        54.0004         49.0004
  -4442896.56147  -3425884.85746  24025704.7244   24025717.3814   24025703.384
        44.0004         39.0004
  -5062502.47546  -3898916.84046  23697188.3644   23697199.3624   23697187.308
        40.0004         36.0004
   -826982.68346   -589454.76246  24255060.5964   24255067.0634   24255060.041
        41.0004         36.0004
  -9424196.62647  -7341197.77446  23924373.6784   23924382.0834   23924374.096
        43.0004         39.0004
 -21893701.60648 -17012817.52648  20550737.3204   20550742.3294   20550736.797
        53.0004         48.0004
  -3426830.02947  -2671620.02246  23529940.6494   23529949.6894   23529941.153
        44.0004         40.0004
 -21706266.21549 -16896002.92348  19914763.7774   19914769.8544   19914763.858
        54.0004         49.0004
  -1739726.21747  -1342219.56146  24072407.2904   24072421.1184   24072408.062
        42.0004         37.0004
 -12705035.92648  -9843087.85847  22683748.7534   22683756.6464   22683747.685
        49.0004         44.0004
 -24467096.52648 -19014632.96147  21156930.9804   21156936.9274   21156930.826
        51.0004         47.0004
  -2038902.94047  -1532930.10546  23916753.2904   23916759.8484   23916753.014
        43.0004         38.0004
 14  5  7  0 42 30.0000000  0 12G09G01G20G13G10G07G28G08G26G17G04G02
 -14349188.21549 -11125138.10348  20012343.6914   20012349.3264   20012343.632
        54.0004         49.0004
  -4340731.87947  -3346276.05046  24045145.2774   24045158.2334   24045144.650
        44.0004         39.0004
  -5049109.09946  -3888480.50246  23699736.3074   23699746.3184   23699735.901
        40.0004         36.0004
   -756241.19346   -534331.49846  24268521.9974   24268526.7334   24268521.434
        41.0004         36.0004
  -9482692.95547  -7386779.15446  23913241.5104   23913249.5594   23913241.953
        43.0004         39.0004
 -21842317.08448 -16972777.60748  20560515.3664   20560520.0674   20560515.140
        53.0004         48.0004
  -3477585.98947  -2711170.04846  23520283.1274   23520290.4744   23520282.716
        45.0004         40.0004
 -21722749.36449 -16908846.88548  19911627.0324   19911632.9524   19911627.461
        54.0004         49.0004
  -1749502.95647  -1349837.59046  24070548.2434   24070560.7084   24070546.703
        42.0004         37.0004
 -12662916.48248  -9810267.49547  22691763.4214   22691772.6944   22691763.056
        49.0004         44.0004
 -24534371.24048 -19067054.72547  21144128.9664   21144135.0824   21144128.727
        51.0004         47.0004
  -2131028.83647  -1604716.25646  23899220.7664   23899227.2404   23899221.187
        43.0004         38.0004
 14  5  7  0 43  0.0000000  0 12G09G01G20G13G10G07G28G08G26G17G04G02
 -14363022.42549 -11135917.94948  20009711.2234   20009716.7594   20009711.217
        54.0004         49.0004
  -4238404.63847  -3266540.57646  24064617.5684   24064630.5324   24064616.942
        44.0004         40.0004
  -5035454.85946  -3877840.91346  23702335.6134   23702343.9674   23702336.276
        40.0004         36.0004
   -685703.55946   -479367.07246  24281943.0844   24281950.8284   24281943.922
        41.0004         36.0004
  -9541393.17947  -7432519.40946  23902071.9084   23902079.8124   23902071.943
        43.0004         39.0004
 -21790396.52248 -16932319.98648  20570395.7954   20570400.2304   20570395.224
        53.0004         48.0004
  -3528524.99347  -2750862.71046  23510588.7764   23510597.3574   23510589.343
        45.0004         40.0004
 -21738584.45249 -16921185.86648  19908613.9244   19908619.7074   19908614.178
        54.0004         49.0004
  -1758959.46947  -1357206.08046  24068748.7944   24068762.6924   24068747.893
        42.0004         37.0004
 -12620766.57648  -9777423.39247  22699783.7474   22699792.4834   22699784.150
        49.0004         44.0004
 -24601221.61748 -19119145.85047  21131408.0704   21131414.0044   21131407.548
        51.0004         47.0004
  -2222974.98847  -1676362.35846  23881724.6014   23881730.7564   23881724.147
        43.0004         38.0004
 14  5  7  0 43 30.0000000  0 12G09G01G20G13G10G07G28G08G26G17G04G02
 -14376246.28949 -11146222.20148  20007194.4574   20007200.3744   20007194.601
        54.0004         49.0004
  -4135915.88847  -3186679.24146  24084120.1504   24084133.2954   24084120.194
        44.0004         39.0004
  -5021536.61146  -3866995.57746  23704982.3624   23704994.3814   23704984.113
        40.0004         36.0004
   -615369.51846   -424561.30746  24295329.3624   24295334.4774   24295328.323
        41.0004         36.0004
  -9600294.46547  -7478416.33246  23890862.8154   23890871.4964   23890863.564
        43.0004         39.0004
 -21737939.75848 -16891444.55048  20580377.6544   20580382.3924   20580377.462
        53.0004         48.0004
  -3579643.88547  -2790695.54646  23500861.0054   23500869.3814   23500861.970
        45.0004         40.0004
 -21753768.74249 -16933017.72648  19905724.3994   19905730.2744   19905724.648
        54.0004         49.0004
  -1768095.51447  -1364324.83646  24067008.9234   24067022.3124   24067009.187
        42.0004         37.0004
 -12578587.03048  -9744556.19247  22707810.9024   22707820.0274   22707810.342
        49.0004         44.0004
 -24667643.66248 -19170903.19947  21118768.4484   21118774.1364   21118768.175
        51.0004         47.0004
  -2314737.42047  -1747865.29746  23864262.2144   23864268.6524   23864262.304
        43.0004         38.0004
 14  5  7  0 44  0.0000000  0 12G09G01G20G13G10G07G28G08G26G17G04G02
 -14388858.76149 -11156050.04948  20004794.4674   20004800.3604   20004794.524
        54.0004         49.0004
  -4033267.34447  -3106693.39246  24103653.4014   24103666.4604   24103653.395
        44.0004         40.0004
  -5007352.25946  -3855942.90646  23707683.8764   23707692.2964   23707684.320
        40.0004         36.0004
   -545239.75446   -369914.69746  24308672.9794   24308678.8564   24308673.357
        41.0004         36.0004
  -9659395.07647  -7524468.58346  23879616.4724   23879624.6354   23879616.630
        44.0004         39.0004
 -21684948.00748 -16850152.23948  20590461.8194   20590466.7044   20590461.204
        53.0004         48.0004
  -3630940.08947  -2830666.53046  23491099.3284   23491107.8884   23491100.421
        45.0004         40.0004
 -21768300.40349 -16944341.05048  19902959.1874   19902964.7854   19902959.165
        54.0004         49.0004
  -1776911.80047  -1371194.44046  24065330.9414   24065345.4294   24065331.195
        42.0004         37.0004
 -12536379.33548  -9711667.06947  22715843.2444   22715850.7794   22715842.139
        49.0004         44.0004
 -24733634.31548 -19222324.40847  21106210.3834   21106216.6274   21106210.012
        51.0004         47.0004
  -2406312.71947  -1819222.41746  23846835.8084   23846842.5384   23846836.247
        43.0004         39.0004
 14  5  7  0 44 30.0000000  0 12G09G01G20G13G10G07G28G08G26G17G04G02
 -14400861.78349 -11165402.99348  20002510.1124   20002516.3104   20002510.278
        54.0004         49.0004
  -3930464.01447  -3026586.93246  24123215.6924   24123230.2234   24123216.209
        44.0004         40.0004
  -4992902.60946  -3844683.50745  23710431.1594   23710441.0204   23710432.241
        40.0004         35.0004
   -475317.63646   -315429.90546  24321979.6794   24321984.2784   24321978.738
        40.0004         36.0004
  -9718696.29947  -7570677.15846  23868330.2854   23868338.0464   23868332.041
        43.0004         39.0004
 -21631425.56948 -16808446.41248  20600646.8694   20600651.6244   20600646.434
        53.0004         48.0004
  -3682414.38847  -2870776.30346  23481304.4784   23481313.0424   23481304.782
        45.0004         40.0004
 -21782180.55049 -16955156.69748  19900317.3994   19900323.5264   19900317.911
        54.0004         49.0004
  -1785412.20447  -1377817.91046  24063714.8914   24063728.8224   24063713.221
        42.0004         37.0004
 -12494148.06248  -9678759.55947  22723879.7684   22723888.0234   22723878.562
        49.0004         44.0004
 -24799193.79948 -19273409.64047  21093735.0814   21093740.9884   21093734.500
        52.0004         47.0004
  -2497701.06747  -1890433.86946  23829445.2104   23829450.6004   23829445.054
        43.0004         39.0004
 14  5  7  0 45  0.0000000  0 12G09G01G20G13G10G07G28G08G26G17G04G02
 -14412256.03749 -11174281.57548  20000341.8024   20000347.7344   20000341.898
        54.0004         49.0004
  -3827509.87147  -2946362.95346  24142808.0584   24142821.6344   24142807.585
        44.0004         39.0004
  -4978187.33146  -3833217.12145  23713233.1934   23713241.5584   23713233.386
        40.0004         35.0004
   -405605.61246   -261108.81346  24335244.1914   24335250.2034   24335244.700
        40.0004         36.0004
  -9778198.28047  -7617042.16146  23857008.5374   23857016.2294   23857009.134
        43.0004         39.0004
 -21577375.66348 -16766329.56648  20610931.8714   20610936.7354   20610931.548
        53.0004         48.0004
  -3734066.36047  -2911024.50346  23471475.5404   23471483.8194   23471475.923
        45.0004         40.0004
 -21795409.90549 -16965465.23648  19897799.8314   19897805.7474   19897800.072
        54.0004         49.0004
  -1793599.71847  -1384197.55646  24062157.3794   24062169.2304   24062155.688
        42.0004         37.0004
 -12451896.82148  -9645836.50247  22731919.1304   22731927.0374   22731918.775
        49.0004         44.0004
 -24864321.08048 -19324158.09547  21081341.3864   21081347.3654   21081340.876
        52.0004         47.0004
  -2588901.15047  -1961498.63946  23812090.0864   23812095.2934   23812090.440
        43.0004         39.0004
 14  5  7  0 45 30.0000000  0 12G09G01G20G13G10G07G28G08G26G17G04G02
 -14423036.88049 -11182682.17548  19998290.4154   19998296.3284   19998290.385
        54.0004         50.0004
  -3724403.17047  -2866020.11146  24162428.3134   24162441.8394   24162428.042
        44.0004         39.0004
  -4963200.85946  -3821539.43645  23716083.1094   23716093.3644   23716084.925
        40.0004         35.0004
   -336100.82546   -206949.20345  24348471.4684   24348476.5224   24348471.083
        40.0004         35.0004
  -9837895.23147  -7663559.09746  23845648.1194   23845655.5624   23845649.018
        43.0004         39.0004
 -21522795.83848 -16723799.79948  20621318.5234   20621323.1104   20621317.794
        53.0004         48.0004
  -3785889.89947  -2951406.40146  23461614.2504   23461621.7114   23461613.961
        45.0004         40.0004
 -21807982.85649 -16975262.29648  19895407.6084   19895413.6864   19895407.926
        54.0004         49.0004
  -1801471.22647  -1390330.97146  24060658.9964   24060670.3514   24060657.169
        42.0004         37.0004
 -12409623.72748  -9612896.41747  22739963.2934   22739971.9204   22739963.010
        49.0004         44.0004
 -24929009.58248 -19374564.64947  21069031.8104   21069037.6214   21069031.540
        52.0004         47.0004
  -2679906.56847  -2032411.71846  23794771.8874   23794778.1464   23794771.832
        43.0004         39.0004
 14  5  7  0 46  0.0000000  0 12G09G01G20G13G10G07G28G08G26G17G04G02
 -14433206.62149 -11190606.59048  19996355.2094   19996360.6424   19996355.096
        54.0004         49.0004
  -3621149.17947  -2785562.48446  24182077.2524   24182090.7644   24182076.846
        44.0004         39.0004
  -4947944.53846  -3809651.46845  23718988.5904   23718997.0364   23718988.456
        40.0004         35.0004
   -266807.13746   -152954.10045  24361656.7474   24361663.5684   24361656.970
        40.0004         35.0004
  -9897788.81747  -7710229.26046  23834250.7434   23834259.0004   23834251.388
        43.0004         39.0004
 -21467690.92248 -16680860.87148  20631804.4504   20631808.7774   20631803.911
        53.0004         48.0004
  -3837885.98947  -2991922.74746  23451719.1604   23451726.8704   23451719.722
        45.0004         40.0004
 -21819901.41049 -16984549.43448  19893139.2294   19893145.4424   19893139.541
        54.0004         49.0004
  -1809031.18847  -1396221.61446  24059218.6254   24059230.8034   24059218.277
        42.0004         37.0004
 -12367334.12948  -9579943.46747  22748011.3214   22748018.9454   22748010.665
        49.0004         44.0004
 -24993259.67948 -19424629.59447  21056805.2124   21056811.2254   21056804.476
        52.0004         47.0004
  -2770717.53247  -2103173.27546  23777490.5574   23777496.6874   23777490.809
        43.0004         39.0004
 14  5  7  0 46 30.0000000  0 12G09G01G20G13G10G07G28G08G26G17G04G02
 -14442765.87249 -11198055.30048  19994536.3554   19994542.0664   19994536.108
        54.0004         49.0004
  -3517751.33947  -2704992.77746  24201752.2004   24201766.3314   24201752.629
        43.0004         39.0004
  -4932417.68146  -3797552.69446  23721943.6894   23721955.3714   23721942.908
        40.0004         36.0004
   -197726.45846    -99124.98345  24374804.1974   24374811.2274   24374803.439
        40.0004         35.0004
  -9957878.72647  -7757052.39246  23822816.4384   23822822.4824   23822816.952
        43.0004         39.0004
 -21412063.52248 -16637514.81348  20642389.7634   20642394.2454   20642389.213
        52.0004         48.0004
  -3890053.35247  -3032572.55146  23441791.3184   23441799.5194   23441792.044
        45.0004         40.0004
 -21831165.40349 -16993326.52648  19890995.7494   19891001.7974   19890996.204
        54.0004         49.0004
  -1816281.94347  -1401871.33546  24057839.0224   24057851.0404   24057838.515
        42.0004         37.0004
 -12325030.63348  -9546979.69147  22756061.3104   22756068.9654   22756060.495
        49.0004         44.0004
 -25057070.18848 -19474351.99947  21044662.1514   21044668.1024   21044661.927
        52.0004         47.0004
  -2861332.47347  -2173782.08746  23760247.3744   23760254.2394   23760247.854
        43.0004         39.0004
 14  5  7  0 47  0.0000000  0 12G09G01G20G13G10G07G28G08G26G17G04G02
 -14451713.12749 -11205027.12748  19992833.2724   19992839.1214   19992833.253
        54.0004         49.0004
  -3414210.96247  -2624312.00246  24221456.7054   24221469.2984   24221456.187
        43.0004         38.0004
  -4916617.70046  -3785241.09145  23724950.0114   23724958.2244   23724950.435
        40.0004         35.0004
   -128858.72246    -45461.78545  24387907.7594   24387914.1764   24387907.882
        40.0004         35.0004
 -10018162.57147  -7804026.65646  23811344.1914   23811351.9714   23811345.278
        43.0004         39.0004
 -21355914.48648 -16593762.28748  20653074.7444   20653079.0384   20653074.114
        52.0004         48.0004
  -3942389.00947  -3073353.50846  23431832.9134   23431841.3124   23431832.795
        45.0004         40.0004
 -21841772.40549 -17001591.67748  19888977.5844   19888983.4604   19888977.810
        54.0004         49.0004
  -1823223.73847  -1407280.30446  24056519.3214   24056530.5984   24056517.198
        42.0004         37.0004
 -12282714.17548  -9514005.82447  22764114.3364   22764121.1284   22764113.366
        49.0004         44.0004
 -25120437.31148 -19523728.91647  21032603.9354   21032609.9034   21032603.687
        52.0004         47.0004
  -2951747.83347  -2244235.38146  23743041.5544   23743048.2164   23743041.683
        43.0004         39.0004
 14  5  7  0 47 30.0000000  0 12G09G01G20G13G10G07G28G08G26G17G04G02
 -14460047.53049 -11211521.41048  19991247.3024   19991253.3264   19991247.315
        54.0004         50.0004
  -3310530.29047  -2543521.88546  24241185.4984   24241197.8794   24241185.938
        43.0004         38.0004
  -4900542.65946  -3772715.14145  23728006.8164   23728019.7344   23728009.781
        40.0004         35.0004
    -60204.64246      8034.92345  24400972.1924   24400979.7594   24400972.912
        40.0004         35.0004
 -10078638.54347  -7851150.63046  23799836.2334   23799843.7264   23799837.276
        43.0004         39.0004
 -21299245.13148 -16549604.31648  20663858.2954   20663863.1354   20663857.646
        52.0004         48.0004
  -3994891.33547  -3114264.33346  23421841.6404   23421849.3914   23421841.666
        45.0004         40.0004
 -21851721.33749 -17009344.04748  19887083.9994   19887090.3254   19887084.424
        54.0004         49.0004
  -1829857.75647  -1412449.43446  24055255.0204   24055267.1664   24055255.010
        42.0004         37.0004
 -12240386.87048  -9481023.48947  22772168.1394   22772176.9594   22772167.552
        49.0004         44.0004
 -25183358.86748 -19572758.63647  21020630.0474   21020636.2014   21020630.072
        52.0004         47.0004
  -3041960.79547  -2314530.98346  23725874.2874   23725879.8984   23725873.484
        43.0004         39.0004
 14  5  7  0 48  0.0000000  0 12G09G01G20G13G10G07G28G08G26G17G04G02
 -14467769.70449 -11217538.62948  19989778.0654   19989783.2984   19989777.925
        54.0004         49.0004
  -3206712.73147  -2462625.10546  24260943.3104   24260954.8744   24260942.003
        43.0004         38.0004
  -4884192.03046  -3759974.46846  23731118.1584   23731131.5534   23731120.228
        40.0004         36.0004
      8233.72846     61363.53545  24413994.1174   24414001.8694   24413996.503
        40.0004         35.0004
 -10139306.23347  -7898423.99046  23788290.7524   23788299.0024   23788291.719
        44.0004         39.0004
 -21242058.36348 -16505043.17248  20674740.5084   20674745.6364   20674740.182
        52.0004         48.0004
  -4047558.88347  -3155303.90046  23411819.6614   23411827.7464   23411819.826
        45.0004         40.0004
 -21861012.23249 -17016583.65848  19885316.0984   19885321.8364   19885316.571
        54.0004         49.0004
  -1836186.53547  -1417380.73046  24054050.9754   24054064.3254   24054050.040
        42.0004         37.0004
 -12198051.64948  -9448034.99547  22780224.9954   22780232.1964   22780223.757
        49.0004         44.0004
 -25245833.23948 -19621439.89647  21008741.7364   21008746.9954   21008741.437
        52.0004         47.0004
  -3131969.98947  -2384667.80146  23708745.0964   23708751.8584   23708745.996
        43.0004         39.0004
 14  5  7  0 48 30.0000000  0 12G09G01G20G13G10G07G28G08G26G17G04G02
 -14474878.84149 -11223078.16048  19988424.8874   19988430.8394   19988424.954
        54.0004         50.0004
  -3102760.30647  -2381623.22846  24280722.4724   24280736.8444   24280723.525
        42.0004         37.0004
  -4867564.03446  -3747017.65146  23734285.4504   23734295.8074   23734284.638
        40.0004         36.0004
     76456.11446    114523.87445  24426978.4674   24426984.2904   24426978.499
        40.0004         35.0004
 -10200163.81947  -7945845.32346  23776710.2434   23776718.1254   23776711.264
        44.0004         39.0004
 -21184356.04048 -16460080.29048  20685720.7484   20685725.5484   20685720.472
        52.0004         48.0004
  -4100389.26447  -3196470.35946  23401766.3184   23401774.9844   23401766.348
        45.0004         40.0004
 -21869643.65649 -17023309.40048  19883673.3204   19883679.4324   19883673.835
        54.0004         49.0004
  -1842210.97347  -1422074.89246  24052903.8114   24052918.1414   24052904.258
        42.0004         38.0004
 -12155710.36048  -9415041.77747  22788281.1774   22788289.0304   22788280.969
        48.0004         44.0004
 -25307857.78648 -19669770.65247  20996939.3234   20996944.6004   20996938.502
        52.0004         47.0004
  -3221772.68547  -2454643.70946  23691657.0824   23691663.1864   23691657.801
        43.0004         39.0004
 14  5  7  0 49  0.0000000  0 12G09G01G20G13G10G07G28G08G26G17G04G02
 -14481375.05049 -11228140.08448  19987189.1244   19987194.5564   19987188.957
        54.0004         50.0004
  -2998676.01247  -2300518.59946  24300531.2554   24300542.3604   24300530.338
        42.0004         37.0004
  -4850657.62246  -3733843.88846  23737500.3724   23737512.1984   23737501.563
        40.0004         36.0004
    144460.73546    167514.50345  24439920.0624   24439925.1544   24439918.246
        40.0004         35.0004
 -10261210.52647  -7993414.02946  23765093.8564   23765100.9254   23765093.774
        44.0004         39.0004
 -21126140.35248 -16414717.38948  20696799.3154   20696803.1694   20696798.920
        52.0004         48.0004
  -4153381.08847  -3237762.60746  23391680.9784   23391690.5234   23391682.259
        45.0004         40.0004
 -21877615.45649 -17029521.14648  19882156.8144   19882162.3894   19882156.943
        54.0004         49.0004
  -1847933.18747  -1426533.53546  24051815.1844   24051827.0754   24051815.055
        42.0004         38.0004
 -12113365.70148  -9382045.92547  22796339.0454   22796347.6114   22796338.619
        48.0004         44.0004
 -25369430.72448 -19717749.49447  20985221.9994   20985227.2444   20985221.360
        52.0004         47.0004
  -3311366.15447  -2524456.58746  23674608.3794   23674614.0194   23674608.411
        43.0004         39.0004
 14  5  7  0 49 30.0000000  0 12G09G01G20G13G10G07G28G08G26G17G04G02
 -14487259.01949 -11232724.93748  19986069.1924   19986075.0974   19986069.058
        54.0004         50.0004
  -2894463.16947  -2219313.79246  24320361.0524   24320374.8014   24320361.460
        42.0004         37.0004
  -4833472.09346  -3720452.64646  23740771.0514   23740782.0564   23740772.388
        40.0004         36.0004
    212245.82446    220334.07645  24452816.8954   24452821.7664   24452817.867
        40.0004         35.0004
 -10322445.83247  -8041129.69946  23753440.5004   23753448.3634   23753441.113
        44.0004         39.0004
 -21067414.16548 -16368956.69548  20707973.8354   20707978.8874   20707973.706
        52.0004         48.0004
  -4206533.37447  -3279179.89546  23381567.7784   23381576.2434   23381567.162
        45.0004         40.0004
 -21884927.73949 -17035218.98248  19880765.3234   19880771.2094   19880765.401
        54.0004         49.0004
  -1853355.43247  -1430758.45446  24050784.1064   24050795.9284   24050782.762
        43.0004         38.0004
 -12071020.69348  -9349049.81247  22804396.9014   22804405.4814   22804396.775
        48.0004         44.0004
 -25430550.61548 -19765375.31747  20973591.2244   20973596.9154   20973590.527
        52.0004         47.0004
  -3400749.34847  -2594105.61846  23657597.7674   23657604.2074   23657599.087
        43.0004         39.0004
 14  5  7  0 50  0.0000000  0 12G09G01G20G13G10G07G28G08G26G17G04G02
 -14492529.73349 -11236831.92848  19985065.8164   19985071.4774   19985065.821
        54.0004         49.0004
  -2790123.29846  -2138010.01046  24340216.7134   24340228.9594   24340216.423
        41.0004         37.0004
  -4816004.91946  -3706841.92546  23744094.9584   23744105.5504   23744096.277
        40.0004         36.0004
    279811.25946    272982.50745  24465677.0384   24465681.8474   24465675.408
        40.0004         35.0004
 -10383866.91747  -8088990.12846  23741752.6774   23741759.2114   23741753.400
        44.0004         39.0004
 -21008178.46348 -16322798.98248  20719246.8574   20719250.9504   20719246.275
        52.0004         48.0004
  -4259843.35547  -3320720.06346  23371422.6394   23371430.2364   23371423.017
        45.0004         40.0004
 -21891578.66249 -17040401.47548  19879499.5084   19879505.1614   19879499.749
        54.0004         49.0004
  -1858478.26047  -1434750.07246  24049803.7954   24049823.0394   24049807.264
        43.0004         38.0004
 -12028676.27548  -9316054.14847  22812455.9504   22812464.4574   22812454.969
        48.0004         44.0004
 -25491214.29048 -19812645.64447  20962047.1484   20962052.5624   20962046.613
        52.0004         47.0004
  -3489918.79547  -2663588.09446  23640629.7654   23640636.0344   23640631.056
        43.0004         39.0004
 14  5  7  0 50 30.0000000  0 12G09G01G20G13G10G07G28G08G26G17G04G02
 -14497187.33549 -11240461.18048  19984179.6804   19984185.3814   19984179.672
        54.0004         49.0004
  -2685659.39646  -2056609.58646  24360095.9334   24360109.1384   24360094.779
        41.0004         37.0004
  -4798255.39246  -3693011.19446  23747476.1394   23747483.5604   23747474.231
        40.0004         36.0004
    347155.49846    325458.53545  24478489.8884   24478498.5624   24478491.163
        40.0004         35.0004
 -10445473.11947  -8136994.80346  23730030.3254   23730036.7594   23730029.673
        44.0004         39.0004
 -20948435.86248 -16276246.27848  20730614.8654   20730619.5624   20730614.195
        52.0004         48.0004
  -4313309.38247  -3362381.81846  23361248.4724   23361255.6464   23361248.750
        45.0004         40.0004
 -21897568.05149 -17045068.49048  19878359.2954   19878365.5544   19878359.687
        54.0004         49.0004
  -1863303.89647  -1438510.09446  24048889.7254   24048903.0694   24048889.549
        43.0004         38.0004
 -11986335.28648  -9283061.17147  22820511.8684   22820520.5914   22820511.745
        48.0004         44.0004
 -25551420.19248 -19859559.27047  20950590.4974   20950596.3394   20950589.868
        52.0004         47.0004
  -3578872.43447  -2732902.42146  23623702.7244   23623708.0424   23623703.066
        44.0004         39.0004
 14  5  7  0 51  0.0000000  0 12G09G01G20G13G10G07G28G08G26G17G04G02
 -14501231.99049 -11243612.80048  19983409.9174   19983415.5284   19983409.827
        54.0004         49.0004
  -2581074.30446  -1975114.74846  24379997.7284   24380009.4364   24379996.409
        41.0004         37.0004
  -4780222.22346  -3678959.45745  23750902.2134   23750916.0684   23750905.987
        40.0004         35.0004
    414277.41546    377761.35346  24491262.7004   24491268.8274   24491263.582
        40.0004         36.0004
 -10507263.60947  -8185143.07946  23718270.4034   23718277.2744   23718270.907
        44.0004         39.0004
 -20888188.65648 -16229300.38148  20742079.7504   20742084.2554   20742079.363
        52.0004         48.0004
  -4366929.70047  -3404163.80946  23351045.9704   23351052.5534   23351045.182
        45.0004         40.0004
 -21902895.40449 -17049219.63048  19877345.7144   19877351.6804   19877346.117
        54.0004         49.0004
  -1867834.06147  -1442039.87446  24048027.0364   24048039.9984   24048026.830
        43.0004         38.0004
 -11944000.06548  -9250072.67847  22828568.3164   22828576.1824   22828568.062
        48.0004         44.0004
 -25611166.35848 -19906114.65647  20939221.4214   20939226.4454   20939220.571
        52.0004         47.0004
  -3667608.45247  -2802047.16446  23606816.3904   23606821.5504   23606816.660
        44.0004         39.0004
 14  5  7  0 51 30.0000000  0 12G09G01G20G13G10G07G28G08G26G17G04G02
 -14504663.31149 -11246286.50648  19982756.8484   19982762.4644   19982756.852
        54.0004         49.0004
  -2476370.09146  -1893527.06546  24399921.5844   24399934.4334   24399921.561
        41.0004         37.0004
  -4761903.60146  -3664685.28145  23754393.7504   23754400.4354   23754391.531
        40.0004         35.0004
    481176.48646    429890.52246  24503993.0694   24504000.4614   24503994.434
        40.0004         36.0004
 -10569236.59947  -8233433.55846  23706477.6564   23706483.8734   23706478.169
        44.0004         39.0004
 -20827438.49148 -16181962.56248  20753640.1234   20753644.7184   20753639.554
        52.0004         48.0004
  -4420702.23947  -3446064.42446  23340812.1834   23340820.0434   23340812.477
        45.0004         40.0004
 -21907559.88349 -17052854.24648  19876457.9834   19876464.2564   19876458.409
        54.0004         49.0004
  -1872070.06547  -1445340.44146  24047220.0344   24047234.0434   24047221.060
        42.0004         38.0004
 -11901672.50048  -9217090.15447  22836623.3174   22836631.1984   22836622.856
        48.0004         44.0004
 -25670450.12448 -19952309.73647  20927939.5474   20927945.3354   20927939.159
        52.0004         47.0004
  -3756123.95747  -2871020.08846  23589973.0864   23589977.8424   23589972.756
        44.0004         39.0004
 14  5  7  0 52  0.0000000  0 12G09G01G20G13G10G07G28G08G26G17G04G02
 -14507481.48049 -11248482.42748  19982220.3734   19982226.2784   19982220.688
        54.0004         49.0004
  -2371549.60146  -1811848.78046  24419867.8884   24419881.8604   24419867.747
        41.0004         36.0004
  -4743298.98846  -3650188.24045  23757930.8004   23757943.0114   23757931.448
        40.0004         35.0004
    547851.25246    481844.89245  24516680.7974   24516685.2954   24516682.129
        40.0004         35.0004
 -10631390.80247  -8281865.25446  23694649.8534   23694655.5484   23694650.181
        44.0004         39.0004
 -20766187.66148 -16134234.61548  20765295.6134   20765300.0864   20765295.327
        52.0004         48.0004
  -4474624.94247  -3488082.03946  23330551.4054   23330558.4784   23330551.237
        45.0004         40.0004
 -21911561.04449 -17055971.98948  19875696.6184   19875702.6564   19875697.066
        54.0004         49.0004
  -1876013.79347  -1448413.26946  24046469.8984   24046483.3484   24046470.471
        42.0004         38.0004
 -11859354.93848  -9184115.43047  22844675.9544   22844683.9474   22844675.505
        48.0004         44.0004
 -25729270.07548 -19998143.40047  20916746.2334   20916752.1714   20916745.778
        52.0004         47.0004
  -3844416.98147  -2939819.65546  23573169.8974   23573175.2024   23573171.657
        44.0004         39.0004
 14  5  7  0 52 30.0000000  0 12G09G01G20G13G10G07G28G08G26G17G04G02
 -14509687.44449 -11250201.31248  19981800.8724   19981806.4514   19981800.585
        54.0004         49.0004
  -2266616.21846  -1730082.52046  24439836.9754   24439851.4264   24439836.270
        41.0004         36.0004
  -4724407.56246  -3635467.71545  23761524.4204   23761536.8294   23761526.306
        40.0004         35.0004
    614300.12646    533623.26745  24529327.3254   24529332.9024   24529326.633
        40.0004         35.0004
 -10693725.70047  -8330437.74946  23682786.7104   23682794.4174   23682787.680
        44.0004         39.0004
 -20704439.84748 -16086119.41148  20777045.8934   20777050.5704   20777045.568
        52.0004         48.0004
  -4528696.81047  -3530215.88946  23320261.5694   23320268.9614   23320261.695
        45.0004         40.0004
 -21914899.19949 -17058573.10448  19875061.6464   19875067.1724   19875061.733
        54.0004         49.0004
  -1879667.74747  -1451260.29746  24045775.4014   24045788.6024   24045774.832
        42.0004         38.0004
 -11817050.33248  -9151150.80647  22852726.3204   22852733.3024   22852726.125
        48.0004         44.0004
 -25787624.62148 -20043614.41647  20905642.1634   20905647.4474   20905641.467
        52.0004         47.0004
  -3932485.88247  -3008444.57946  23556411.7264   23556417.1474   23556411.826
        44.0004         39.0004
 14  5  7  0 53  0.0000000  0 12G09G01G20G13G10G07G28G08G26G17G04G02
 -14511279.78749 -11251442.04348  19981497.7664   19981503.1204   19981497.832
        54.0004         49.0004
  -2161571.09046  -1648229.21346  24459827.0444   24459840.1814   24459825.088
        41.0004         37.0004
  -4705226.59146  -3620521.59945  23765177.7094   23765187.4394   23765177.201
        40.0004         35.0004
    680523.42646    585225.82745  24541928.0094   24541934.1804   24541928.440
        40.0004         35.0004
 -10756238.59247  -8379148.94246  23670892.2794   23670899.1824   23670892.604
        44.0004         39.0004
 -20642195.38548 -16037617.21148  20788890.5434   20788894.9364   20788890.216
        52.0004         48.0004
  -4582914.67047  -3572463.51646  23309943.1954   23309951.3044   23309944.432
        45.0004         40.0004
 -21917572.37849 -17060656.05948  19874552.5744   19874558.6964   19874553.118
        54.0004         49.0004
  -1883032.16247  -1453881.72046  24045133.2514   24045147.0914   24045135.118
        42.0004         37.0004
 -11774759.31348  -9118196.75547  22860773.4564   22860782.9114   22860773.896
        48.0004         44.0004
 -25845510.39148 -20088720.15447  20894626.7544   20894631.9194   20894626.002
        52.0004         47.0004
  -4020326.74447  -3076891.81446  23539695.3614   23539702.4194   23539696.083
        44.0004         39.0004
 14  5  7  0 53 30.0000000  0 12G09G01G20G13G10G07G28G08G26G17G04G02
 -14512260.11649 -11252205.88648  19981311.1004   19981316.7234   19981311.144
        54.0004         49.0004
  -2056418.64746  -1566292.27046  24479836.9754   24479849.0614   24479835.951
        41.0004         37.0004
  -4685756.65246  -3605350.31145  23768884.1744   23768893.4634   23768881.574
        39.0004         34.0004
    746518.30246    636650.42445  24554488.7524   24554491.2914   24554486.571
        40.0004         35.0004
 -10818929.75947  -8427999.05046  23658962.0664   23658968.9744   23658962.891
        44.0004         39.0004
 -20579458.33848 -15988731.17448  20800829.1854   20800833.6674   20800828.721
        52.0004         48.0004
  -4637278.10147  -3614824.56346  23299599.8154   23299606.0724   23299599.463
        45.0004         40.0004
 -21919581.93349 -17062221.90248  19874170.1434   19874176.5114   19874170.652
        54.0004         49.0004
  -1886110.66347  -1456280.35146  24044547.5994   24044560.0354   24044548.010
        42.0004         37.0004
 -11732485.84948  -9085256.39247  22868817.9714   22868825.5324   22868818.136
        48.0004         44.0004
 -25902927.31748 -20133460.55747  20883701.0144   20883706.2264   20883700.017
        52.0004         47.0004
  -4107939.29247  -3145161.15646  23523024.0734   23523029.3494   23523023.419
        44.0004         39.0004
 14  5  7  0 54  0.0000000  0 12G09G01G20G13G10G07G28G08G26G17G04G02
 -14512627.16249 -11252491.84448  19981240.9934   19981246.6454   19981241.063
        54.0004         49.0004
  -1951159.92546  -1484272.49246  24499868.1464   24499879.2574   24499866.279
        41.0004         37.0004
  -4665994.84146  -3589951.56345  23772640.1104   23772652.3484   23772642.407
        39.0004         35.0004
    812285.13546    687897.33345  24567000.8544   24567006.1874   24567001.217
        40.0004         35.0004
 -10881796.27847  -8476985.79546  23646997.9834   23647006.1164   23646998.837
        44.0004         39.0004
 -20516229.40848 -15939461.85548  20812861.0674   20812865.6874   20812860.682
        52.0004         48.0004
  -4691783.85947  -3657296.52246  23289226.6624   23289235.3014   23289227.374
        45.0004         40.0004
 -21920926.06349 -17063269.23748  19873914.6094   19873920.4534   19873914.985
        54.0004         49.0004
  -1888903.45447  -1458456.35846  24044017.0064   24044028.9214   24044016.807
        42.0004         37.0004
 -11690230.93148  -9052330.48547  22876859.2834   22876868.8984   22876858.939
        48.0004         44.0004
 -25959871.79148 -20177832.82147  20872864.1134   20872869.6074   20872863.825
        52.0004         47.0004
  -4195319.58347  -3213249.50246  23506395.6084   23506399.9004   23506395.952
        44.0004         39.0004
 14  5  7  0 54 30.0000000  0 12G09G01G20G13G10G07G28G08G26G17G04G02
 -14512381.50949 -11252300.37548  19981287.9494   19981293.4064   19981288.019
        54.0004         49.0004
  -1845797.68346  -1402172.05846  24519915.6244   24519927.6854   24519915.114
        41.0004         37.0004
  -4645940.54146  -3574324.93145  23776459.1204   23776468.6844   23776459.515
        39.0004         35.0004
    877822.98746    738965.80745  24579473.8214   24579478.4154   24579472.953
        40.0004         35.0004
 -10944836.98847  -8526108.28946  23635001.8264   23635009.5994   23635002.152
        44.0004         39.0004
 -20452511.23148 -15889811.30448  20824986.1374   20824990.9094   20824985.748
        52.0004         48.0004
  -4746430.46547  -3699878.23646  23278829.0934   23278835.9344   23278828.470
        45.0004         40.0004
 -21921604.64149 -17063797.95648  19873785.1984   19873791.1304   19873785.472
        54.0004         49.0004
  -1891412.55047  -1460411.29246  24043538.3794   24043552.1304   24043538.690
        42.0004         37.0004
 -11647996.88648  -9019420.84247  22884895.4584   22884905.0614   22884895.308
        48.0004         43.0004
 -26016342.40148 -20221835.84947  20862117.9374   20862123.7924   20862117.587
        52.0004         47.0004
  -4282465.51147  -3281155.26546  23489811.9104   23489818.1654   23489812.144
        44.0004         39.0004
 14  5  7  0 55  0.0000000  0 12G09G01G20G13G10G07G28G08G26G17G04G02
 -14511523.92249 -11251632.06948  19981451.2844   19981456.9114   19981451.169
        54.0004         49.0004
  -1740335.41746  -1319993.68246  24539984.6854   24539998.3204   24539983.885
        41.0004         37.0004
  -4625592.96246  -3558469.73945  23780333.7854   23780341.6874   23780331.079
        39.0004         35.0004
    943130.00446    789854.41045  24591899.8664   24591904.4894   24591900.874
        39.0004         35.0004
 -11008051.41247  -8575366.13946  23622972.4544   23622979.0764   23622973.038
        44.0004         39.0004
 -20388306.80048 -15839781.85848  20837203.7924   20837208.5824   20837203.737
        52.0004         48.0004
  -4801216.43147  -3742568.54446  23268401.2234   23268410.4054   23268402.445
        45.0004         40.0004
 -21921618.20649 -17063808.48648  19873782.7824   19873788.3484   19873782.965
        54.0004         49.0004
  -1893640.50847  -1462147.15046  24043114.2524   24043127.1484   24043115.169
        42.0004         38.0004
 -11605786.69848  -8986529.78047  22892928.7354   22892935.3984   22892928.041
        48.0004         43.0004
 -26072337.42348 -20265468.29247  20851462.9964   20851468.7224   20851462.191
        52.0004         47.0004
  -4369375.66647  -3348877.29046  23473273.5084   23473278.5224   23473273.290
        44.0004         39.0004
 14  5  7  0 55 30.0000000  0 12G09G01G20G13G10G07G28G08G26G17G04G02
 -14510054.67949 -11250487.15448  19981730.6964   19981736.1614   19981730.556
        54.0004         49.0004
  -1634775.37947  -1237739.10446  24560072.8984   24560086.5344   24560071.707
        42.0004         37.0004
  -4604951.06746  -3542385.22645  23784260.5924   23784270.3434   23784259.620
        40.0004         35.0004
   1008205.44346    840562.53645  24604282.6934   24604288.6214   24604283.814
        40.0004         35.0004
 -11071437.68047  -8624757.88146  23610910.3384   23610917.3774   23610910.937
        44.0004         39.0004
 -20323618.42148 -15789375.30648  20849513.9914   20849518.3324   20849513.432
        52.0004         48.0004
  -4856139.49647  -3785365.69646  23257951.1304   23257958.7384   23257950.650
        45.0004         40.0004
 -21920966.40049 -17063300.54548  19873906.6154   19873912.1984   19873907.212
        54.0004         49.0004
  -1895588.93847  -1463665.20046  24042745.2184   24042756.4674   24042744.050
        42.0004         38.0004
 -11563602.30648  -8953658.82847  22900955.3114   22900963.3444   22900955.763
        48.0004         44.0004
 -26127855.26348 -20308728.90147  20840897.8174   20840903.6364   20840897.414
        52.0004         47.0004
  -4456047.66447  -3416413.75646  23456780.4614   23456785.6994   23456780.618
        44.0004         39.0004
 14  5  7  0 56  0.0000000  0 12G09G01G20G13G10G07G28G08G26G17G04G02
 -14507974.33449 -11248866.05248  19982126.5864   19982132.1684   19982126.543
        54.0004         50.0004
  -1529120.62346  -1155410.71446  24580177.5404   24580191.4084   24580176.585
        41.0004         37.0004
  -4584013.71646  -3526070.50545  23788243.5774   23788253.6184   23788242.781
        39.0004         35.0004
   1073047.62546    891088.94145  24616623.7094   24616629.4024   24616622.649
        40.0004         35.0004
 -11134994.98947  -8674282.90346  23598815.7014   23598822.4804   23598816.492
        44.0004         39.0004
 -20258448.75248 -15738593.72248  20861915.2524   20861919.6724   20861914.778
        52.0004         48.0004
  -4911198.22147  -3828268.55746  23247472.5754   23247481.9344   23247473.623
        45.0004         40.0004
 -21919649.37149 -17062274.24848  19874157.2994   19874162.7864   19874157.562
        54.0004         49.0004
  -1897259.91947  -1464967.05946  24042426.1404   24042438.9364   24042426.334
        42.0004         38.0004
 -11521445.97548  -8920809.73947  22908978.1254   22908985.4084   22908977.779
        48.0004         44.0004
 -26182894.30148 -20351616.42248  20830424.2454   20830429.5424   20830424.216
        52.0004         48.0004
  -4542479.39547  -3483763.00046  23440332.9544   23440338.2504   23440333.203
        44.0004         39.0004
 14  5  7  0 56 30.0000000  0 12G09G01G20G13G10G07G28G08G26G17G04G02
 -14505282.59749 -11246768.54648  19982638.9204   19982644.3654   19982638.850
        54.0004         50.0004
  -1423373.16947  -1073010.10046  24600301.5104   24600314.1914   24600300.262
        42.0004         37.0004
  -4562779.60246  -3509524.52245  23792283.8504   23792295.7554   23792284.010
        40.0004         35.0004
   1137656.51646    941433.53445  24628917.0234   24628920.6024   24628916.698
        39.0004         35.0004
 -11198721.32647  -8723939.65546  23586689.7764   23586695.8164   23586689.915
        44.0004         39.0004
 -20192799.62948 -15687438.54148  20874407.6814   20874412.0494   20874407.225
        52.0004         48.0004
  -4966390.13147  -3871275.20346  23236971.3564   23236978.9544   23236970.833
        45.0004         40.0004
 -21917666.30349 -17060728.96148  19874534.5564   19874540.2034   19874535.221
        54.0004         49.0004
  -1898654.80747  -1466053.78546  24042160.7664   24042171.7004   24042159.790
        42.0004         38.0004
 -11479319.55648  -8887983.96347  22916994.1974   22917002.8364   22916993.779
        48.0004         44.0004
 -26237451.97848 -20394128.85647  20820042.5954   20820047.7884   20820041.160
        52.0004         47.0004
  -4628668.34147  -3550923.06246  23423930.9694   23423936.2874   23423931.747
        44.0004         40.0004
 14  5  7  0 57  0.0000000  0 12G09G01G20G13G10G07G28G08G26G17G04G02
 -14501979.16049 -11244194.38848  19983267.3934   19983272.3924   19983267.397
        54.0004         49.0004
  -1317534.84546   -990538.66046  24620441.5624   24620454.7884   24620439.691
        41.0004         36.0004
  -4541246.40846  -3492745.48745  23796383.3654   23796391.7694   23796382.558
        40.0004         35.0004
   1202031.99546    991596.25645  24641168.3884   24641174.2264   24641167.457
        39.0004         35.0004
 -11262614.44647  -8773726.36346  23574531.2064   23574537.5114   23574531.581
        44.0004         39.0004
 -20126672.77248 -15635911.09447  20886991.3904   20886995.6884   20886990.824
        52.0004         47.0004
  -5021712.47847  -3914383.49546  23226443.6344   23226452.1994   23226443.426
        45.0004         40.0004
 -21915016.20049 -17058663.91048  19875038.9534   19875044.5774   19875038.953
        54.0004         49.0004
  -1899774.64947  -1466926.17046  24041948.6114   24041960.0494   24041948.076
        42.0004         38.0004
 -11437224.78748  -8855182.84147  22925004.5914   22925012.6444   22925004.604
        48.0004         44.0004
 -26291525.87848 -20436264.31647  20809752.4714   20809757.9074   20809752.387
        52.0004         47.0004
  -4714611.54947  -3617891.64746  23407575.8144   23407582.1134   23407576.712
        44.0004         39.0004
 14  5  7  0 57 30.0000000  0 12G09G01G20G13G10G07G28G08G26G17G04G02
 -14498064.22649 -11241143.74348  19984012.1994   19984017.7604   19984011.993
        54.0004         49.0004
  -1211608.16946   -907998.38846  24640598.1774   24640612.7804   24640597.332
        41.0004         36.0004
  -4519413.16446  -3475732.65645  23800537.1914   23800546.8314   23800536.569
        40.0004         35.0004
   1266173.10346   1041576.35545  24653373.8684   24653379.4404   24653373.427
        40.0004         35.0004
 -11326672.63947  -8823641.70546  23562341.0454   23562347.2024   23562342.084
        44.0004         39.0004
 -20060070.35348 -15584013.08148  20899665.1934   20899669.7494   20899664.642
        52.0004         48.0004
  -5077163.30447  -3957591.88546  23215891.5754   23215898.9384   23215891.263
        45.0004         40.0004
 -21911698.84849 -17056078.92548  19875670.1564   19875676.2134   19875670.661
        54.0004         49.0004
  -1900621.26247  -1467585.66346  24041786.0814   24041799.1724   24041785.340
        42.0004         38.0004
 -11395163.32848  -8822407.67447  22933009.3394   22933016.9964   22933008.397
        48.0004         44.0004
 -26345114.05748 -20478021.29448  20799555.2374   20799560.3834   20799554.559
        52.0004         48.0004
  -4800306.42647  -3684666.71546  23391269.8074   23391275.4334   23391270.440
        44.0004         39.0004
 14  5  7  0 58  0.0000000  0 12G09G01G20G13G10G07G28G08G26G17G04G02
 -14493537.26849 -11237616.20048  19984873.8424   19984879.0554   19984873.795
        54.0004         50.0004
  -1105594.79446   -825390.52546  24660771.8824   24660786.1474   24660771.267
        41.0004         36.0004
  -4497277.66546  -3458484.30545  23804746.5164   23804757.5154   23804748.630
        39.0004         35.0004
   1330079.75546   1091373.76245  24665533.4564   24665542.7674   24665534.400
        40.0004         35.0004
 -11390893.68247  -8873683.94946  23550120.3124   23550126.6164   23550120.699
        44.0004         39.0004
 -19992993.93148 -15531745.71948  20912429.6824   20912433.7524   20912428.990
        52.0004         48.0004
  -5132739.28347  -4000897.81546  23205315.1104   23205322.1134   23205316.030
        45.0004         40.0004
 -21907713.27849 -17052973.25048  19876428.8094   19876434.1724   19876429.016
        54.0004         49.0004
  -1901195.49647  -1468032.91046  24041677.9924   24041688.9264   24041677.413
        43.0004         38.0004
 -11353136.36748  -8789659.40147  22941006.2244   22941013.3584   22941005.885
        48.0004         43.0004
 -26398213.58948 -20519397.49648  20789450.0074   20789455.7964   20789449.562
        52.0004         48.0004
  -4885749.78847  -3751245.80646  23375009.7704   23375015.1464   23375010.596
        44.0004         39.0004
 14  5  7  0 58 30.0000000  0 12G09G01G20G13G10G07G28G08G26G17G04G02
 -14488402.97549 -11233615.41248  19985850.4854   19985855.8964   19985850.467
        54.0004         50.0004
   -999501.43746   -742720.34646  24680960.3684   24680974.8764   24680960.216
        41.0004         36.0004
  -4474842.96946  -3441002.82545  23809019.1524   23809027.0094   23809018.736
        39.0004         35.0004
   1393747.18046   1140984.75845  24677651.6524   24677655.0474   24677649.529
        39.0004         35.0004
 -11455280.49447  -8923855.35846  23537867.1824   23537874.5934   23537867.856
        44.0004         40.0004
 -19925450.14348 -15479114.17548  20925282.6764   20925286.9684   20925282.066
        52.0004         48.0004
  -5188442.67947  -4044303.02946  23194715.5634   23194724.2474   23194715.789
        45.0004         40.0004
 -21903063.78849 -17049350.23348  19877313.2984   19877319.2354   19877313.627
        54.0004         49.0004
  -1901503.44347  -1468272.66346  24041617.7954   24041630.5904   24041616.749
        42.0004         38.0004
 -11311150.18748  -8756942.89647  22948996.0164   22949003.5934   22948995.540
        48.0004         43.0004
 -26450827.03548 -20560394.93548  20779438.4014   20779443.9544   20779438.130
        52.0004         48.0004
  -4970943.69347  -3817630.52346  23358798.1714   23358803.0764   23358797.986
        44.0004         40.0004
 14  5  7  0 59  0.0000000  0 12G09G01G20G13G10G07G28G08G26G17G04G02
 -14482659.61449 -11229140.03148  19986943.5044   19986949.2044   19986943.596
        54.0004         50.0004
   -893328.71846   -659988.34946  24701165.1664   24701177.2464   24701164.200
        40.0004         36.0004
  -4452106.44446  -3423286.15345  23813344.2334   23813354.1874   23813344.457
        39.0004         35.0004
   1457176.23846   1190409.98545  24689718.7944   24689726.1494   24689720.223
        39.0004         35.0004
 -11519829.54047  -8974153.19046  23525584.3984   23525590.7594   23525584.455
        44.0004         40.0004
 -19857439.48248 -15426118.83648  20938224.9854   20938229.2424   20938224.425
        52.0004         48.0004
  -5244269.50147  -4087804.42246  23184091.6904   23184099.6654   23184092.441
        45.0004         40.0004
 -21897748.22249 -17045208.20248  19878325.0784   19878330.7344   19878325.239
        54.0004         49.0004
  -1901544.93147  -1468304.78846  24041610.0594   24041621.5684   24041610.139
        42.0004         38.0004
 -11269205.22748  -8724258.51147  22956977.3584   22956985.7364   22956977.468
        48.0004         43.0004
 -26502950.78448 -20601010.79948  20769519.4504   20769524.8934   20769519.042
        52.0004         48.0004
  -5055884.14947  -3883817.74946  23342634.1474   23342639.5394   23342634.459
        44.0004         40.0004
 14  5  7  0 59 30.0000000  0 12G09G01G20G13G10G07G28G08G26G17G04G02
 -14476308.11049 -11224190.75848  19988152.1774   19988157.7174   19988152.165
        54.0004         50.0004
   -787079.40846   -577196.63445  24721383.8524   24721396.3574   24721382.137
        40.0004         35.0004
  -4429066.85846  -3405333.30945  23817729.2014   23817737.2384   23817729.189
        39.0004         35.0004
   1520365.87046   1239648.67245  24701741.9434   24701748.5134   24701744.924
        39.0004         34.0004
 -11584538.90047  -9024575.94446  23513269.7354   23513276.2364   23513270.418
        44.0004         40.0004
 -19788964.58048 -15372761.75048  20951255.1744   20951259.4654   20951254.320
        52.0004         48.0004
  -5300218.05447  -4131400.66146  23173444.9854   23173452.9784   23173445.677
        45.0004         41.0004
 -21891766.85849 -17040547.35748  19879462.8414   19879468.9334   19879463.520
        54.0004         49.0004
  -1901322.13547  -1468130.98646  24041653.1044   24041664.1474   24041652.083
        43.0004         38.0004
 -11227303.53148  -8691607.84547  22964951.6104   22964959.1144   22964951.232
        48.0004         44.0004
 -26554583.22048 -20641243.81148  20759694.0854   20759699.6074   20759693.237
        52.0004         48.0004
  -5140568.74547  -3949805.60146  23326518.9204   23326525.1444   23326519.183
        44.0004         40.0004
 14  5  7  1  0  0.0000000  0 12G09G01G20G13G10G07G28G08G26G17G04G02
 -14469347.60149 -11218766.94248  19989476.2374   19989482.2024   19989476.663
        54.0004         49.0004
   -680754.81146   -494346.28045  24741615.5354   24741628.1034   24741615.937
        40.0004         35.0004
  -4405722.00746  -3387142.62245  23822169.7574   23822181.8554   23822171.818
        39.0004         35.0004
   1583316.58446   1288701.17945  24713724.9134   24713728.7974   24713724.304
        39.0004         34.0004
 -11649406.09147  -9075121.68346  23500924.4284   23500931.9604   23500926.629
        45.0004         40.0004
 -19720026.89348 -15319044.05148  20964373.2204   20964377.9414   20964372.996
        52.0004         48.0004
  -5356284.87547  -4175089.06846  23162777.3694   23162783.1934   23162776.690
        45.0004         41.0004
 -21885118.55449 -17035366.82148  19880728.3644   19880733.7474   19880728.501
        54.0004         49.0004
  -1900835.64047  -1467751.68446  24041744.5794   24041757.5304   24041744.535
        43.0004         38.0004
 -11185445.75048  -8658991.40047  22972916.2164   22972924.6014   22972916.285
        48.0004         43.0004
 -26605721.24448 -20681091.56648  20749962.7114   20749968.4124   20749962.727
        52.0004         48.0004
  -5224994.38947  -4015591.67346  23310453.2894   23310458.8684   23310454.034
        45.0004         40.0004
 14  5  7  1  0 30.0000000  0 12G09G01G20G13G10G07G28G08G26G17G04G02
 -14461778.69849 -11212869.05348  19990917.0834   19990922.2734   19990917.252
        54.0004         49.0004
   -574357.74146   -411439.45145  24761860.7384   24761875.7274   24761862.003
        39.0004         34.0004
  -4382070.74546  -3368713.14445  23826669.5304   23826682.0904   23826672.515
        39.0004         35.0004
   1646027.32646   1337566.67245  24725657.7304   24725663.4794   24725657.267
        39.0004         34.0004
 -11714429.92947  -9125789.47646  23488552.4694   23488559.0674   23488553.390
        45.0004         40.0004
 -19650628.92248 -15264967.69147  20977579.1194   20977584.0754   20977578.503
        52.0004         47.0004
  -5412468.00247  -4218868.10846  23152084.5004   23152092.4994   23152085.216
        46.0004         41.0004
 -21877803.40049 -17029666.66148  19882120.4694   19882125.7404   19882120.566
        54.0004         49.0004
  -1900087.43447  -1467168.47646  24041887.0204   24041897.8774   24041886.685
        43.0004         38.0004
 -11143634.89148  -8626411.50147  22980872.5464   22980880.8534   22980872.452
        48.0004         43.0004
 -26656363.30648 -20720552.87248  20740325.8414   20740331.6384   20740325.245
        52.0004         48.0004
  -5309158.73047  -4081174.13946  23294437.8814   23294442.8464   23294438.582
        45.0004         40.0004
 14  5  7  1  1  0.0000000  0 12G09G01G20G13G10G07G28G08G26G17G04G02
 -14453603.35549 -11206498.61648  19992472.6454   19992478.1534   19992472.454
        54.0004         50.0004
 -11495832.08046  -8921679.15645  24782121.6644   24782134.6024   24782121.771
        39.0004         34.0004
  -4358113.85246  -3350045.56145  23831231.3544   23831242.9694   23831231.881
        40.0004         35.0004
   1708496.00646   1386243.60645  24737543.6664   24737551.9604   24737543.967
        39.0004         34.0004
 -11779610.33747  -9176579.28546  23476148.6364   23476155.9294   23476149.728
        45.0004         40.0004
 -19580774.41348 -15210535.58747  20990872.4494   20990877.1064   20990871.586
        52.0004         47.0004
  -5468766.77247  -4262737.25146  23141371.4864   23141378.9974   23141371.753
        46.0004         41.0004
 -21869822.98249 -17023448.11748  19883638.6944   19883644.2944   19883639.258
        54.0004         49.0004
  -1899080.87747  -1466383.93546  24042078.1614   24042089.9484   24042077.773
        43.0004         38.0004
 -11101873.79148  -8593870.38647  22988820.1934   22988827.9034   22988819.368
        48.0004         43.0004
 -26706509.25348 -20759627.58648  20730783.3804   20730789.1394   20730782.741
        52.0004         48.0004
  -5393061.27247  -4146552.59746  23278471.2684   23278477.3484   23278471.505
        45.0004         40.0004
 14  5  7  1  1 30.0000000  0 12G09G01G20G13G10G07G28G08G26G17G04G02
 -14444820.22549 -11199654.58148  19994144.1814   19994149.3614   19994144.011
        54.0004         50.0004
 -11389298.31056  -8838665.84555  24802394.4315   24802407.9175   24802394.872
        39.0004         34.0004
  -4333847.94046  -3331137.14345  23835848.2294   23835860.2204   23835849.079
        39.0004         34.0004
   1770723.66746   1434732.68145  24749388.6004   24749391.4334   24749386.218
        39.0004         34.0004
 -11844943.72847  -9227488.29146  23463716.2544   23463722.8434   23463717.096
        45.0004         40.0004
 -19510464.08048 -15155748.29947  21004251.6824   21004256.6864   21004251.380
        52.0004         47.0004
  -5525177.22847  -4306693.41546  23130636.5904   23130645.1514   23130637.388
        46.0004         41.0004
 -21861175.45749 -17016709.74548  19885284.3514   19885289.6904   19885284.634
        54.0004         49.0004
  -1897815.94847  -1465398.06846  24042320.0794   24042329.4374   24042318.138
        43.0004         38.0004
 -11060162.87148  -8561368.37847  22996757.9334   22996765.0714   22996756.769
        48.0004         43.0004
 -26756155.13348 -20798312.64848  20721335.8404   20721341.4484   20721336.031
        52.0004         48.0004
  -5476697.64447  -4211723.66546  23262556.8014   23262560.3214   23262556.707
        45.0004         40.0004
 14  5  7  1  2  0.0000000  0 12G09G01G20G13G10G07G28G08G26G17G04G02
 -14435432.11449 -11192339.12248  19995930.3544   19995935.8704   19995930.332
        54.0004         49.0004
 -11282701.16356  -8755603.10155  24822678.7845   24822689.1405   24822679.434
        38.0004         34.0004
  -4309274.44746  -3311989.07045  23840523.4384   23840534.6554   23840525.290
        39.0004         35.0004
   1832707.49646   1483031.75945  24761182.9964   24761188.3194   24761181.027
        39.0004         35.0004
 -11910430.44347  -9278516.78346  23451254.4874   23451261.9384   23451255.320
        45.0004         40.0004
 -19439702.45248 -15100609.35047  21017717.0034   21017721.8924   21017716.599
        52.0004         47.0004
  -5581699.04647  -4350736.36047  23119881.0534   23119889.6684   23119881.572
        46.0004         42.0004
 -21851863.03349 -17009453.27248  19887056.4954   19887061.8894   19887056.449
        54.0004         49.0004
  -1896296.72147  -1464214.04146  24042607.9454   24042619.2174   24042608.225
        42.0004         38.0004
 -11018506.08548  -8528908.54647  23004684.6734   23004692.4514   23004683.823
        48.0004         43.0004
 -26805301.73448 -20836608.66448  20711983.4954   20711989.6624   20711982.646
        52.0004         48.0004
  -5560067.30547  -4276686.90046  23246691.2114   23246695.8414   23246692.223
        45.0004         40.0004
 14  5  7  1  2 30.0000000  0 12G09G01G20G13G10G07G28G08G26G17G04G02
 -14425438.89349 -11184552.15548  19997832.0614   19997837.0964   19997831.750
        54.0004         50.0004
 -11176042.28656  -8672492.29755  24842979.2105   24842991.7505   24842975.353
        38.0004         33.0004
  -4284391.33846  -3292599.74245  23845261.0524   23845270.8654   23845261.034
        40.0004         35.0004
   1894447.48546   1531140.85745  24772931.6254   24772935.1434   24772930.365
        39.0004         34.0004
 -11976068.11947  -9329662.90446  23438763.8274   23438769.4574   23438764.671
        45.0004         40.0004
 -19368491.50048 -15045120.28147  21031268.1594   21031272.3254   21031267.949
        52.0004         47.0004
  -5638329.22047  -4394863.74746  23109104.4454   23109111.5404   23109105.171
        46.0004         41.0004
 -21841885.11849 -17001678.24148  19888954.6654   19888960.8624   19888955.346
        54.0004         49.0004
  -1894524.08947  -1462832.56946  24042944.3584   24042956.3594   24042943.606
        42.0004         38.0004
 -10976904.42148  -8496491.67547  23012601.7274   23012608.8914   23012600.199
        48.0004         43.0004
 -26853946.50848 -20874513.64548  20702726.7924   20702732.2354   20702727.115
        52.0004         48.0004
  -5643167.89747  -4341440.47446  23230877.5564   23230882.8664   23230877.680
        45.0004         40.0004
 14  5  7  1  3  0.0000000  0 11G09G20G13G10G07G28G08G26G17G04G02
 -14414840.46349 -11176293.61248  19999849.1014   19999854.0614   19999848.925
        54.0004         50.0004
  -4259196.74846  -3272967.70145  23850057.3784   23850064.7574   23850055.199
        40.0004         35.0004
   1955943.57146   1579059.85845  24784631.8594   24784640.1304   24784632.498
        39.0004         35.0004
 -12041854.13447  -9380924.61246  23426245.0264   23426251.2504   23426245.925
        45.0004         40.0004
 -19296833.08548 -14989282.53747  21044904.4284   21044908.5624   21044903.905
        52.0004         47.0004
  -5695064.92147  -4439073.34246  23098307.4834   23098315.9114   23098308.391
        46.0004         41.0004
 -21831241.18549 -16993384.22348  19890979.8994   19890985.9974   19890980.677
        54.0004         49.0004
  -1892499.28547  -1461254.58946  24043330.3274   24043342.2744   24043330.339
        43.0004         38.0004
 -10935359.56148  -8464119.06347  23020505.8794   23020514.3284   23020506.075
        48.0004         43.0004
 -26902086.87548 -20912025.59348  20693566.1414   20693571.7934   20693565.280
        52.0004         48.0004
  -5725996.23747  -4405981.91346  23215116.2814   23215119.1014   23215115.979
        45.0004         40.0004
 14  5  7  1  3 30.0000000  0 12G09G01G20G13G10G07G28G08G26G17G04G02
 -14403637.62249 -11167564.09048  20001980.6764   20001986.1414   20001980.643
        54.0004         50.0004
 -10962547.51546  -8506132.73545  24883601.7074   24883617.0254   24883602.405
        38.0004         33.0004
  -4233690.01446  -3253092.42545  23854908.3714   23854917.9474   23854909.219
        39.0004         35.0004
   2017194.82346   1626788.10345  24796292.6734   24796294.7784   24796287.654
        39.0004         34.0004
 -12107787.34247  -9432301.03446  23413698.4614   23413704.7514   23413698.951
        45.0004         40.0004
 -19224729.45948 -14933097.87947  21058625.0944   21058629.3884   21058625.020
        52.0004         47.0004
  -5751904.29747  -4483363.71346  23087491.9244   23087499.8434   23087491.796
        46.0004         41.0004
 -21819931.58849 -16984571.50648  19893132.4614   19893138.4414   19893132.544
        54.0004         49.0004
  -1890224.40747  -1459481.75946  24043761.1964   24043773.8534   24043761.604
        42.0004         38.0004
 -10893873.60648  -8431792.34547  23028400.6694   23028409.2584   23028400.849
        48.0004         43.0004
 -26949721.37048 -20949143.34648  20684501.3964   20684506.1964   20684500.995
        52.0004         48.0004
  -5808550.33747  -4470309.64146  23199406.5154   23199410.3024   23199406.319
        45.0004         40.0004
 14  5  7  1  4  0.0000000  0 11G09G20G13G10G07G28G08G26G17G04G02
 -14391832.72849 -11158365.43948  20004226.9794   20004232.4464   20004226.975
        54.0004         50.0004
  -4207871.81046  -3232974.43745  23859819.7654   23859833.4884   23859821.308
        39.0004         34.0004
   2078199.09146   1674323.87645  24807894.8124   24807902.4854   24807896.702
        39.0004         34.0004
 -12173867.68247  -9483792.10046  23401123.7374   23401129.5724   23401124.170
        45.0004         40.0004
 -19152185.11848 -14876569.80147  21072429.8744   21072434.1094   21072429.218
        52.0004         47.0004
  -5808846.72047  -4527734.39246  23076655.0894   23076663.8314   23076656.072
        46.0004         41.0004
 -21807958.35649 -16975241.67248  19895410.8654   19895416.6584   19895411.032
        54.0004         49.0004
  -1887703.09047  -1457516.88246  24044243.2644   24044254.2764   24044242.328
        42.0004         38.0004
 -10852449.93448  -8399514.16747  23036284.0104   23036292.0914   23036283.612
        48.0004         43.0004
 -26996850.24848 -20985867.12648  20675533.7314   20675538.3124   20675533.048
        52.0004         48.0004
  -5890829.58047  -4534423.19846  23183748.9544   23183753.3584   23183748.947
        45.0004         41.0004
 14  5  7  1  4 30.0000000  0 11G09G20G13G10G07G28G08G26G17G04G02
 -14379425.68149 -11148697.57948  20006587.7734   20006593.3474   20006587.984
        54.0004         50.0004
  -4181740.41146  -3212612.42645  23864793.8814   23864804.3714   23864795.045
        39.0004         35.0004
   2138956.58446   1721667.37345  24819457.8064   24819465.9904   24819457.825
        39.0004         34.0004
 -12240092.37447  -9535395.65246  23388521.3984   23388527.3994   23388522.201
        45.0004         40.0004
 -19079201.78348 -14819699.65947  21086318.1894   21086322.5744   21086317.896
        52.0004         47.0004
  -5865889.54447  -4572183.30246  23065800.2634   23065809.3424   23065801.453
        46.0004         41.0004
 -21795320.95849 -16965394.30848  19897815.7534   19897821.1874   19897815.867
        54.0004         49.0004
  -1884936.36747  -1455360.80246  24044769.1504   24044780.0384   24044768.699
        42.0004         38.0004
 -10811089.88448  -8367285.56447  23044154.7584   23044162.0754   23044153.908
        48.0004         43.0004
 -27043470.93848 -21022194.90848  20666661.0244   20666666.8794   20666660.620
        52.0004         48.0004
  -5972830.93147  -4598320.22346  23168144.1654   23168149.1514   23168145.038
        45.0004         41.0004
 14  5  7  1  5  0.0000000  0 11G09G20G13G10G07G28G08G26G17G04G02
 -14366415.08649 -11138559.42148  20009064.0664   20009068.9194   20009063.864
        54.0004         50.0004
  -4155292.07746  -3192003.41945  23869827.0734   23869838.9014   23869827.172
        39.0004         34.0004
  -4102211.40146  -3141580.43445  24830973.5744   24830979.6144   24830973.629
        38.0004         34.0004
 -12306457.64047  -9587108.74346  23375891.9704   23375899.3154   23375893.209
        45.0004         41.0004
 -19005779.94548 -14762487.81547  21100289.4584   21100293.9854   21100289.396
        52.0004         47.0004
  -5923027.61047  -4616706.42446  23054928.5964   23054936.5214   23054928.354
        45.0004         41.0004
 -21782017.50849 -16955027.94548  19900347.1894   19900352.5694   19900347.310
        54.0004         49.0004
  -1881923.92247  -1453013.23346  24045341.2044   24045352.4664   24045341.286
        42.0004         38.0004
 -10769793.29848  -8335106.41247  23052012.1834   23052019.9754   23052012.297
        48.0004         43.0004
 -27089579.90448 -21058123.95148  20657887.0624   20657892.5994   20657886.838
        52.0004         48.0004
  -6054550.09347  -4661997.36846  23152593.1354   23152598.4174   23152593.294
        45.0004         41.0004
 14  5  7  1  5 30.0000000  0 11G09G20G13G10G07G28G08G26G17G04G02
 -14352804.42149 -11127953.67448  20011653.7374   20011659.4384   20011653.817
        54.0004         50.0004
  -4128529.35246  -3171149.45745  23874919.2424   23874933.1734   23874921.000
        39.0004         34.0004
  -4041948.23146  -3094622.13645  24842443.3844   24842446.5844   24842441.036
        38.0004         34.0004
 -12372964.87347  -9638932.45446  23363237.0164   23363242.6234   23363237.387
        45.0004         41.0004
 -18931924.96648 -14704938.46547  21114343.6534   21114348.4474   21114343.513
        52.0004         47.0004
  -5980261.54747  -4661304.25446  23044037.4744   23044043.7194   23044036.901
        45.0004         41.0004
 -21768051.33349 -16944145.17448  19903005.0044   19903010.5664   19903005.311
        54.0004         49.0004
  -1878670.67647  -1450478.05546  24045960.8784   24045971.5224   24045960.721
        42.0004         38.0004
 -10728564.63448  -8302980.18347  23059858.7914   23059865.7174   23059857.872
        48.0004         43.0004
 -27135178.30148 -21093655.15048  20649210.1964   20649215.5364   20649209.886
        53.0004         48.0004
  -6135987.65947  -4725455.08446  23137096.1304   23137101.3254   23137096.402
        45.0004         41.0004
 14  5  7  1  6  0.0000000  0 11G09G20G13G10G07G28G08G26G17G04G02
 -14338594.20549 -11116880.74748  20014358.0754   20014363.2814   20014357.986
        54.0004         50.0004
  -4101450.71746  -3150049.34845  23880074.1024   23880084.3304   23880072.666
        39.0004         34.0004
  -3981934.34246  -3047858.08945  24853860.3534   24853866.4394   24853860.149
        38.0004         33.0004
 -12439611.93247  -9690865.12046  23350553.6194   23350560.1264   23350554.492
        45.0004         40.0004
 -18857639.45548 -14647053.63547  21128480.1324   21128484.2264   21128479.727
        52.0004         47.0004
  -6037589.26847  -4705975.15946  23033127.0934   23033135.6504   23033128.160
        45.0004         40.0004
 -21753422.72648 -16932746.22448  19905788.2684   19905794.1624   19905788.741
        53.0004         49.0004
  -1875178.28547  -1447756.49646  24046624.7154   24046637.2084   24046624.371
        42.0004         37.0004
 -10687405.95148  -8270908.47647  23067690.9224   23067699.0974   23067690.139
        48.0004         43.0004
 -27180264.20248 -21128786.99948  20640630.7464   20640635.8124   20640630.170
        53.0004         48.0004
  -6217141.22847  -4788691.49846  23121653.1794   23121657.1554   23121653.470
        46.0004         41.0004
 14  5  7  1  6 30.0000000  0 11G09G20G13G10G07G28G08G26G17G04G02
 -14323785.76749 -11105341.67148  20017175.6664   20017181.2614   20017175.694
        54.0004         50.0004
  -4074055.51346  -3128702.53345  23885286.3294   23885298.6964   23885286.073
        39.0004         34.0004
  -3922170.45346  -3001288.85745  24865234.6884   24865239.9414   24865233.415
        38.0004         34.0004
 -12506397.26447  -9742905.53246  23337844.5754   23337850.7594   23337846.072
        45.0004         40.0004
 -18782926.09448 -14588835.41847  21142697.5094   21142701.8904   21142697.170
        52.0004         47.0004
  -6095008.69847  -4750717.54346  23022201.5074   23022208.2704   23022201.165
        45.0004         41.0004
 -21738132.17648 -16920831.47848  19908698.2914   19908703.8844   19908698.314
        53.0004         49.0004
  -1871448.95847  -1444850.32446  24047335.2324   24047345.2104   24047334.877
        42.0004         37.0004
 -10646319.49948  -8238893.07247  23075509.5394   23075516.9034   23075508.729
        48.0004         43.0004
 -27224836.31448 -21163518.49648  20632149.0394   20632154.2644   20632148.715
        53.0004         48.0004
  -6298008.84547  -4851705.11946  23106263.8194   23106268.8784   23106264.182
        46.0004         41.0004
 14  5  7  1  7  0.0000000  0 11G09G20G13G10G07G28G08G26G17G04G02
 -14308380.17349 -11093337.27948  20020107.6614   20020112.7604   20020107.562
        54.0004         50.0004
  -4046343.05346  -3107108.51945  23890558.4734   23890572.9154   23890560.897
        39.0004         34.0004
  -3862657.63646  -2954915.27145  24876560.8284   24876565.7164   24876558.866
        38.0004         34.0004
 -12573319.00147  -9795052.24946  23325110.3434   23325116.3514   23325111.079
        45.0004         40.0004
 -18707787.38448 -14530285.75647  21156995.9494   21156999.8644   21156995.486
        52.0004         47.0004
  -6152517.42947  -4795529.50846  23011256.8084   23011265.3764   23011258.234
        45.0004         41.0004
 -21722180.33749 -16908401.44748  19911733.9814   19911739.2714   19911734.286
        54.0004         49.0004
  -1867484.77447  -1441761.14946  24048089.1224   24048100.4294   24048088.709
        42.0004         38.0004
 -10605306.81748  -8206935.15547  23083313.7854   23083321.7364   23083312.897
        48.0004         43.0004
 -27268893.56148 -21197848.79848  20623765.1644   20623770.5504   20623764.821
        53.0004         48.0004
  -6378588.44847  -4914494.30746  23090930.0134   23090935.5634   23090930.746
        46.0004         41.0004
 14  5  7  1  7 30.0000000  0 11G09G20G13G10G07G28G08G26G17G04G02
 -14292375.29449 -11080865.91648  20023153.0364   20023158.4944   20023152.945
        54.0004         50.0004
  -4018309.58346  -3085264.36345  23895895.7064   23895904.3444   23895894.186
        39.0004         34.0004
  -3803393.44946  -2908735.40045  24887837.7654   24887842.7824   24887836.742
        38.0004         34.0004
 -12640372.87447  -9847301.92546  23312350.4244   23312356.5914   23312350.025
        45.0004         41.0004
 -18632223.34448 -14471404.67347  21171375.5424   21171379.8454   21171374.898
        52.0004         47.0004
  -6210110.56247  -4840407.25446  23000297.8264   23000306.3344   23000298.700
        45.0004         41.0004
 -21705565.00248 -16895454.41348  19914895.6874   19914900.7764   19914895.762
        53.0004         49.0004
  -1863284.76547  -1438488.22446  24048886.9634   24048898.8454   24048888.173
        42.0004         38.0004
 -10564367.32048  -8175034.26147  23091104.3534   23091111.9824   23091103.696
        48.0004         43.0004
 -27312431.55648 -21231774.49748  20615479.8964   20615485.2614   20615479.356
        53.0004         48.0004
  -6458875.10547  -4977055.20746  23075651.9954   23075657.5424   23075653.501
        46.0004         41.0004
 14  5  7  1  8  0.0000000  0 11G09G20G13G10G07G28G08G26G17G04G02
 -14275775.59449 -11067931.05948  20026312.2834   20026316.9334   20026312.032
        54.0004         50.0004
  -3989957.59546  -3063172.04545  23901288.7744   23901302.0174   23901290.843
        39.0004         35.0004
  -3744382.24146  -2862752.66845  24899066.1454   24899071.9584   24899066.106
        38.0004         34.0004
 -12707560.66647  -9899655.96046  23299564.4764   23299570.9604   23299565.032
        45.0004         41.0004
 -18556240.45748 -14412197.21447  21185834.3164   21185838.1694   21185833.845
        52.0004         47.0004
  -6267789.38847  -4885351.76946  22989323.2294   22989329.7814   22989322.470
        45.0004         41.0004
 -21688290.17748 -16881993.48948  19918182.6594   19918188.8154   19918182.941
        53.0004         49.0004
  -1858854.73347  -1435036.04046  24049731.1244   24049741.3624   24049730.005
        42.0004         38.0004
 -10523506.40948  -8143194.60447  23098880.2494   23098887.5814   23098879.418
        48.0004         43.0004
 -27355452.44048 -21265297.24448  20607293.8634   20607298.6844   20607293.634
        53.0004         48.0004
  -6538870.21147  -5039388.93746  23060430.4614   23060433.9814   23060430.107
        46.0004         41.0004
 14  5  7  1  8 30.0000000  0 11G09G20G13G10G07G28G08G26G17G04G02
 -14258581.63249 -11054533.13648  20029583.4924   20029588.8394   20029583.662
        54.0004         50.0004
  -3961285.81946  -3040830.51145  23906745.7744   23906758.6634   23906745.622
        39.0004         34.0004
  -3685623.59046  -2816966.74245  24910249.0814   24910252.3904   24910248.444
        39.0004         34.0004
 -12774880.02347  -9952112.50846  23286754.5034   23286760.9354   23286754.809
        45.0004         41.0004
 -18479840.66948 -14352664.89547  21200372.8944   21200376.6564   21200372.220
        52.0004         47.0004
  -6325550.72847  -4930360.57246  22978330.2514   22978337.9094   22978330.576
        45.0004         41.0004
 -21670355.91949 -16868018.72548  19921595.4724   19921601.2404   19921595.933
        54.0004         49.0004
  -1854196.00447  -1431405.66546  24050616.9044   24050628.5424   24050617.254
        42.0004         38.0004
 -10482725.61747  -8111417.38147  23106639.4134   23106647.9094   23106639.671
        47.0004         43.0004
 -27397954.24748 -21298415.52448  20599205.5974   20599210.6864   20599204.888
        53.0004         48.0004
  -6618571.30547  -5101493.56946  23045263.5924   23045268.1274   23045263.048
        46.0004         41.0004
 14  5  7  1  9  0.0000000  0 11G09G20G13G10G07G28G08G26G17G04G02
 -14240792.94549 -11040671.79548  20032968.7204   20032973.7334   20032968.636
        54.0004         50.0004
  -3932292.32446  -3018238.29745  23912262.9884   23912276.9954   23912264.156
        39.0004         35.0004
  -3627117.33046  -2771377.47345  24921383.8074   24921388.9634   24921381.668
        39.0004         34.0004
 -12842327.64947 -10004669.00346  23273919.8164   23273925.1514   23273919.614
        45.0004         41.0004
 -18403025.26748 -14292808.72247  21214990.3864   21214994.4784   21214989.967
        51.0004         47.0004
  -6383391.11147  -4975430.97746  22967324.3104   22967332.2264   22967323.891
        45.0004         41.0004
 -21651761.59449 -16853529.61348  19925133.8624   19925139.6034   19925134.528
        54.0004         49.0004
  -1849309.23147  -1427597.59246  24051547.2064   24051558.5954   24051546.388
        43.0004         38.0004
 -10442025.44347  -8079702.97247  23114384.9214   23114393.4614   23114384.738
        47.0004         43.0004
 -27439934.15548 -21331127.11748  20591216.8944   20591221.9494   20591216.494
        53.0004         48.0004
  -6697974.66647  -5163366.18546  23030153.3904   23030157.3254   23030153.457
        46.0004         41.0004
 14  5  7  1  9 30.0000000  0 11G09G20G13G10G07G28G08G26G17G04G02
 -14222411.56449 -11026348.61748  20036466.6374   20036471.5104   20036466.747
        54.0004         50.0004
  -3902976.97146  -2995395.28445  23917841.4934   23917852.4944   23917842.229
        39.0004         34.0004
  -3568864.24246  -2725985.48645  24932467.0664   24932473.2764   24932466.864
        39.0004         35.0004
 -12909902.43947 -10057324.60046  23261059.7064   23261066.6274   23261060.760
        45.0004         41.0004
 -18325797.66248 -14232631.35447  21229685.7484   21229690.1484   21229685.527
        51.0004         47.0004
  -6441308.86747  -5020561.67146  22956302.3484   22956310.3834   22956302.379
        46.0004         41.0004
 -21632508.51849 -16838527.19148  19928797.8854   19928803.3214   19928797.884
        54.0004         49.0004
  -1844197.04347  -1423613.86646  24052520.2234   24052529.1114   24052520.287
        43.0004         38.0004
 -10401408.33647  -8048053.29447  23122114.3754   23122122.4214   23122113.608
        47.0004         43.0004
 -27481391.50648 -21363431.53348  20583328.1464   20583333.2334   20583328.105
        53.0004         48.0004
  -6777078.64847  -5225005.53246  23015099.3234   23015105.0614   23015100.160
        46.0004         41.0004
 14  5  7  1 10  0.0000000  0 11G09G20G13G10G07G28G08G26G17G04G02
 -14203437.51049 -11011563.61748  20040077.1134   20040082.5834   20040077.232
        54.0004         50.0004
  -3873337.50446  -2972299.70045  23923483.8874   23923493.5454   23923483.325
        39.0004         35.0004
  -3510864.20246  -2680790.67745  24943504.6484   24943506.0594   24943504.249
        39.0004         34.0004
 -12977602.02847 -10110077.44046  23248177.0354   23248183.6304   23248177.944
        45.0004         41.0004
 -18248159.78848 -14172134.29447  21244460.1314   21244464.2374   21244459.530
        51.0004         47.0004
  -6499300.92047  -5065750.24346  22945266.5744   22945273.8504   22945266.826
        46.0004         41.0004
 -21612596.60948 -16823011.39248  19932586.8074   19932592.3354   19932586.962
        53.0004         49.0004
  -1838860.80147  -1419455.55446  24053535.2084   24053547.1264   24053534.539
        43.0004         38.0004
 -10360875.24747  -8016469.08747  23129826.9344   23129835.5934   23129826.809
        47.0004         43.0004
 -27522324.17348 -21395327.10148  20575538.4684   20575543.8814   20575537.817
        53.0004         48.0004
  -6855880.76447  -5286409.66046  23000104.6584   23000108.6624   23000104.361
        46.0004         41.0004
 14  5  7  1 10 30.0000000  0 11G09G20G13G10G07G28G08G26G17G04G02
 -14183873.79849 -10996319.14748  20043800.1404   20043805.1844   20043800.310
        54.0004         50.0004
  -3843375.43946  -2948952.73645  23929185.3334   23929195.2984   23929184.311
        39.0004         34.0004
  -3453119.82746  -2635795.07845  24954490.9474   24954495.1294   24954492.114
        39.0004         35.0004
 -13045426.40447 -10162927.50646  23235270.9354   23235277.4374   23235271.307
        46.0004         41.0004
 -18170116.41148 -14111321.26347  21259311.1104   21259314.9124   21259310.882
        51.0004         47.0004
  -6557366.93747  -5110996.44946  22934217.1814   22934226.2424   22934217.361
        46.0004         41.0004
 -21592028.63548 -16806984.38048  19936500.5214   19936506.5304   19936500.815
        53.0004         49.0004
  -1833304.41147  -1415125.69746  24054592.0234   24054602.8124   24054591.923
        43.0004         38.0004
 -10320430.21547  -7984953.50247  23137524.3794   23137531.5564   23137523.710
        47.0004         43.0004
 -27562732.90248 -21426814.40048  20567849.0394   20567854.3544   20567849.095
        53.0004         48.0004
  -6934380.82447  -5347578.41746  22985165.7344   22985170.5874   22985166.797
        46.0004         41.0004
 14  5  7  1 11  0.0000000  0 11G09G20G13G10G07G28G08G26G17G04G02
 -14163721.38249 -10980615.93348  20047635.0684   20047639.9624   20047634.822
        54.0004         50.0004
  -3813090.07646  -2925353.85045  23934946.0534   23934955.9234   23934948.291
        39.0004         34.0004
  -3395631.55146  -2590999.07045  24965429.3704   24965439.4364   24965431.812
        39.0004         34.0004
 -13113373.44947 -10215873.16346  23222340.8834   23222346.9254   23222341.876
        46.0004         41.0004
 -18091670.18048 -14050194.31447  21274238.6014   21274243.5494   21274238.520
        51.0004         47.0004
  -6615504.30147  -5156298.25046  22923154.6824   22923161.8324   22923153.709
        46.0004         41.0004
 -21570805.00148 -16790446.46448  19940539.7984   19940544.9544   19940539.807
        53.0004         49.0004
  -1827529.75647  -1410625.78646  24055690.3954   24055701.9334   24055690.848
        43.0004         38.0004
 -10280074.89847  -7953507.81647  23145203.2994   23145211.7184   23145203.055
        47.0004         43.0004
 -27602616.10648 -21457892.20048  20560259.5224   20560264.4424   20560259.184
        53.0004         48.0004
  -7012576.58547  -5408510.05947  22970286.1014   22970291.5904   22970286.100
        46.0004         42.0004
 14  5  7  1 11 30.0000000  0 11G09G20G13G10G07G28G08G26G17G04G02
 -14142966.73449 -10964443.45548  20051584.2364   20051589.4914   20051584.318
        54.0004         50.0004
 -13234985.84046 -10267090.93345  23940772.8994   23940787.3534   23940776.097
        39.0004         34.0004
  -3338385.06246  -2546391.46845  24976323.3164   24976331.6324   24976325.755
        39.0004         34.0004
 -13181426.64447 -10268901.54246  23209390.4014   23209396.4934   23209391.310
        46.0004         41.0004
 -18012809.06048 -13988744.07547  21289245.6344   21289250.3724   21289245.497
        51.0004         46.0004
  -6673696.06047  -5201642.44347  22912081.1524   22912088.2404   22912081.159
        46.0004         42.0004
 -21548911.78548 -16773386.80348  19944705.5944   19944711.3554   19944705.942
        53.0004         49.0004
  -1821524.28947  -1405946.01446  24056834.6034   24056844.0444   24056833.129
        43.0004         38.0004
 -10239796.29447  -7922121.91147  23152867.6874   23152876.8614   23152867.346
        47.0004         43.0004
 -27641957.81248 -21488548.04348  20552772.5654   20552778.6164   20552772.582
        53.0004         48.0004
  -7090451.23447  -5469191.49247  22955467.5964   22955471.3864   22955466.926
        46.0004         42.0004
 14  5  7  1 12  0.0000000  0 11G09G20G13G10G07G28G08G26G17G04G02
 -14121644.70449 -10947828.85648  20055641.8744   20055646.8904   20055641.456
        54.0004         50.0004
 -13204055.38746 -10242989.38245  23946661.0924   23946669.3384   23946661.551
        39.0004         35.0004
  -3281414.41646  -2501998.76645  24987169.9304   24987174.8524   24987166.662
        39.0004         35.0004
 -13249617.86947 -10322037.47246  23196414.9184   23196420.0784   23196414.593
        46.0004         41.0004
 -17933569.46448 -13926998.91947  21304323.6454   21304328.7444   21304323.873
        51.0004         46.0004
  -6731973.45047  -5247053.36146  22900991.1774   22900997.6464   22900990.723
        46.0004         41.0004
 -21526383.51549 -16755832.29248  19948992.8844   19948998.1934   19948993.069
        54.0004         49.0004
  -1815323.60847  -1401114.14546  24058014.0814   24058023.2944   24058013.817
        42.0004         38.0004
 -10199630.19647  -7890823.67847  23160510.8694   23160520.0294   23160511.204
        47.0004         43.0004
 -27680790.43348 -21518807.20948  20545383.4334   20545388.4504   20545383.343
        53.0004         48.0004
  -7168036.29147  -5529647.26047  22940702.2854   22940706.5824   22940703.583
        46.0004         42.0004
 14  5  7  1 12 30.0000000  0 11G09G20G13G10G07G28G08G26G17G04G02
 -14099733.23249 -10930754.94748  20059811.3404   20059816.6834   20059811.459
        54.0004         50.0004
 -13172794.83146 -10218630.60545  23952610.2144   23952621.7414   23952610.540
        39.0004         34.0004
  -3224696.63946  -2457803.15745  24997960.9414   24997965.2014   24997960.263
        39.0004         35.0004
 -13317921.82147 -10375261.24346  23183417.2704   23183421.9034   23183416.848
        45.0004         41.0004
 -17853930.75548 -13864942.77347  21319479.2574   21319483.4854   21319479.035
        51.0004         46.0004
  -6790310.65547  -5292510.88846  22889888.8944   22889896.7534   22889889.514
        46.0004         41.0004
 -21503197.76749 -16737765.46348  19953404.6684   19953410.0814   19953405.055
        54.0004         49.0004
  -1808906.52647  -1396113.63646  24059234.3424   24059245.6494   24059233.574
        42.0004         37.0004
 -10159554.81048  -7859596.12147  23168137.5744   23168145.3164   23168137.215
        48.0004         43.0004
 -27719089.65148 -21548650.73248  20538095.3344   20538100.3044   20538094.769
        53.0004         48.0004
  -7245306.63447  -5589857.79147  22925998.5664   22926002.8554   22925999.514
        46.0004         42.0004
 14  5  7  1 13  0.0000000  0 11G09G20G13G10G07G28G08G26G17G04G02
 -14077237.75849 -10913225.97148  20064092.2334   20064097.4154   20064092.366
        54.0004         50.0004
 -13141207.89946 -10194017.55545  23958622.3254   23958631.5434   23958622.209
        39.0004         35.0004
  -3168236.84646  -2413808.56145  25008701.8624   25008707.5964   25008703.797
        39.0004         34.0004
 -13386340.98847 -10428574.80646  23170398.2594   23170401.1584   23170397.598
        45.0004         41.0004
 -17773900.26248 -13802581.33247  21334708.2274   21334713.1754   21334708.110
        51.0004         46.0004
  -6848709.50447  -5338016.42646  22878776.9074   22878783.7754   22878776.705
        46.0004         41.0004
 -21479359.78749 -16719190.39548  19957941.0654   19957946.3264   19957941.457
        54.0004         49.0004
  -1802279.37347  -1390949.43346  24060495.0794   24060505.9624   24060495.410
        42.0004         37.0004
 -10119576.53148  -7828444.23547  23175745.0304   23175752.8674   23175744.613
        48.0004         43.0004
 -27756858.39648 -21578080.90248  20530907.8254   20530913.7484   20530907.617
        53.0004         48.0004
  -7322264.20247  -5649824.61347  22911353.7554   22911359.1664   22911354.315
        46.0004         42.0004
 14  5  7  1 13 30.0000000  0 11G09G20G13G10G07G28G08G26G17G04G02
 -14054156.16449 -10895240.28248  20068484.3304   20068489.6284   20068484.178
        54.0004         50.0004
 -13109290.30646 -10169146.82245  23964697.3224   23964706.7244   23964695.431
        40.0004         35.0004
  -3112032.20746  -2370012.78345  25019397.8524   25019404.7104   25019399.194
        39.0004         34.0004
 -13454869.89047 -10481973.87846  23157355.8624   23157362.3774   23157356.563
        45.0004         41.0004
 -17693477.17348 -13739913.98647  21350012.6274   21350016.1114   21350012.245
        51.0004         46.0004
  -6907164.13947  -5383565.45347  22867653.7874   22867660.9724   22867653.137
        46.0004         42.0004
 -21454867.23849 -16700105.27448  19962601.9604   19962607.2344   19962602.271
        54.0004         49.0004
  -1795440.86347  -1385620.53146  24061794.2444   24061808.0174   24061795.692
        42.0004         38.0004
 -10079693.62347  -7797366.66347  23183334.3814   23183342.5234   23183333.838
        47.0004         43.0004
 -27794092.12648 -21607094.17548  20523822.8374   20523828.2584   20523822.610
        53.0004         48.0004
  -7398903.77047  -5709543.65747  22896770.1004   22896774.0344   22896770.301
        47.0004         42.0004
 14  5  7  1 14  0.0000000  0 11G09G20G13G10G07G28G08G26G17G04G02
 -14030490.28949 -10876799.30948  20072988.0484   20072992.7634   20072987.850
        54.0004         49.0004
 -13077041.95646 -10144018.33645  23970830.4294   23970840.9264   23970831.401
        40.0004         35.0004
  -3056083.42746  -2326416.40045  25030045.7904   25030049.3734   25030046.200
        39.0004         34.0004
 -13523507.46947 -10535457.63546  23144293.8774   23144300.6544   23144294.755
        45.0004         41.0004
 -17612664.98348 -13676943.43647  21365390.2494   21365394.8314   21365389.794
        51.0004         46.0004
  -6965673.14747  -5429156.83947  22856518.9034   22856526.3784   22856519.118
        46.0004         42.0004
 -21429721.43149 -16680511.12348  19967387.0204   19967392.2154   19967387.290
        54.0004         49.0004
  -1788393.52947  -1380128.91946  24063138.0114   24063147.3004   24063137.701
        43.0004         38.0004
 -10039908.64447  -7766365.40347  23190904.9074   23190913.7104   23190905.090
        47.0004         43.0004
 -27830790.03248 -21635689.92848  20516839.6684   20516844.9504   20516839.054
        53.0004         48.0004
  -7475223.94947  -5769013.80847  22882245.4614   22882250.7734   22882246.549
        47.0004         42.0004
 14  5  7  1 14 30.0000000  0 11G09G20G13G10G07G28G08G26G17G04G02
 -14006244.84849 -10857906.72348  20077601.4264   20077606.6324   20077601.346
        54.0004         50.0004
 -13044465.38646 -10118634.13145  23977032.7124   23977039.4524   23977031.052
        39.0004         35.0004
  -3000394.19746  -2283022.23745  25040645.9524   25040650.0904   25040643.202
        39.0004         34.0004
 -13592255.07147 -10589027.12146  23131212.1244   23131217.1984   23131212.909
        45.0004         41.0004
 -17531469.94348 -13613674.56447  21380840.9644   21380845.6274   21380840.799
        51.0004         46.0004
  -7024237.06847  -5474791.00547  22845374.8244   22845382.6874   22845374.424
        46.0004         42.0004
 -21403926.91348 -16660411.47948  19972295.1114   19972300.8564   19972295.312
        53.0004         49.0004
  -1781142.82747  -1374478.83946  24064516.2714   24064527.7294   24064516.377
        43.0004         38.0004
 -10000226.30847  -7735444.12147  23198456.8994   23198464.3294   23198456.761
        47.0004         43.0004
 -27866954.41348 -21663869.94048  20509957.4734   20509962.8084   20509956.872
        53.0004         48.0004
  -7551225.77347  -5828235.91147  22867783.4774   22867788.3424   22867783.856
        47.0004         42.0004
 14  5  7  1 15  0.0000000  0 11G09G20G13G10G07G28G08G26G17G04G02
 -13981421.32149 -10838563.68148  20082325.1364   20082330.4194   20082325.359
        54.0004         50.0004
 -13011560.20746 -10092993.84745  23983293.0074   23983300.5774   23983293.143
        39.0004         35.0004
  -2944965.29246  -2239830.95545  25051192.2294   25051193.7804   25051190.687
        39.0004         34.0004
 -13661110.87247 -10642680.93246  23118108.9964   23118114.9654   23118109.597
        45.0004         41.0004
 -17449895.04148 -13550109.69747  21396364.5064   21396369.0514   21396364.109
        51.0004         46.0004
  -7082853.49547  -5520466.07847  22834220.3844   22834227.5494   22834219.594
        46.0004         42.0004
 -21377484.91248 -16639807.30648  19977327.0354   19977332.5504   19977327.185
        53.0004         49.0004
  -1773691.01647  -1368672.05746  24065934.6324   24065945.0984   24065934.683
        43.0004         38.0004
  -9960648.55247  -7704604.32447  23205987.7484   23205997.0144   23205987.652
        47.0004         43.0004
 -27902584.34348 -21691633.50648  20503177.7544   20503182.6334   20503177.298
        53.0004         48.0004
  -7626907.33147  -5887208.44147  22853382.0034   22853385.8604   22853382.705
        47.0004         42.0004
 14  5  7  1 15 30.0000000  0 11G09G20G13G10G07G28G08G26G17G04G02
 -13956021.23449 -10818771.37148  20087158.7754   20087164.0074   20087158.523
        54.0004         50.0004
 -12978325.62646 -10067096.89645  23989616.2264   23989626.2974   23989617.559
        39.0004         35.0004
  -2889797.32446  -2196842.99245  25061688.7864   25061693.5374   25061689.245
        39.0004         34.0004
 -13730072.67947 -10696417.34046  23104985.6624   23104990.7724   23104987.126
        45.0004         41.0004
 -17367943.00048 -13486250.95147  21411959.5724   21411964.0424   21411959.033
        51.0004         46.0004
  -7141520.45847  -5566180.53747  22823056.0064   22823063.9284   22823056.257
        46.0004         42.0004
 -21350396.59448 -16618699.50848  19982481.9004   19982487.2494   19982482.040
        53.0004         49.0004
  -1766040.44947  -1362710.40546  24067390.2804   24067400.9324   24067390.477
        43.0004         38.0004
  -9921177.60447  -7673847.76047  23213499.1124   23213507.6494   23213498.786
        47.0004         42.0004
 -27937679.01548 -21718979.98748  20496498.6904   20496504.4014   20496498.386
        53.0004         48.0004
  -7702266.97547  -5945930.14447  22839041.9284   22839045.4924   22839041.317
        47.0004         42.0004
 14  5  7  1 16  0.0000000  0 11G09G20G13G10G07G28G08G26G17G04G02
 -13930042.36649 -10798528.06948  20092102.1844   20092107.1024   20092102.419
        54.0004         50.0004
 -12944758.12346 -10040940.52345  23996005.0524   23996016.5544   23996004.353
        39.0004         34.0004
  -2834886.84746  -2154055.65345  25072140.3894   25072143.8904   25072138.009
        39.0004         34.0004
 -13799135.23247 -10750232.24846  23091844.1944   23091850.2764   23091844.464
        46.0004         41.0004
 -17285613.27548 -13422097.90147  21427626.1944   21427630.4864   21427626.031
        51.0004         46.0004
  -7200231.61247  -5611929.42347  22811883.7744   22811890.7744   22811883.913
        46.0004         42.0004
 -21322659.38448 -16597086.07748  19987759.5534   19987765.2184   19987760.221
        53.0004         49.0004
  -1758189.56847  -1356592.64846  24068885.2484   24068893.8924   24068884.526
        43.0004         38.0004
  -9881811.42247  -7643172.84047  23220989.1794   23220998.4864   23220990.152
        47.0004         43.0004
 -27972233.87448 -21745905.83748  20489923.5674   20489928.6514   20489923.240
        53.0004         48.0004
  -7777299.41247  -6004396.88547  22824763.0324   22824767.3134   22824763.185
        47.0004         42.0004
 14  5  7  1 16 30.0000000  0 11G09G20G13G10G07G28G08G26G17G04G02
 -13903489.56249 -10777837.54048  20097155.1694   20097160.2764   20097155.087
        54.0004         50.0004
 -12910860.20246 -10014526.69345  24002451.3494   24002467.6174   24002454.537
        39.0004         34.0004
  -2780238.04046  -2111472.23845  25082537.1444   25082543.0604   25082537.567
        39.0004         34.0004
 -13868300.22547 -10804126.98746  23078681.7934   23078687.5974   23078682.505
        46.0004         41.0004
 -17202912.06948 -13357655.39447  21443363.9234   21443368.0244   21443363.393
        51.0004         46.0004
  -7258988.03947  -5657713.59147  22800702.5954   22800710.2974   22800702.806
        47.0004         42.0004
 -21294277.93148 -16574970.64348  19993160.7794   19993166.1974   19993161.090
        53.0004         49.0004
  -1750143.95247  -1350323.16846  24070414.7244   24070425.2384   24070414.303
        43.0004         38.0004
  -9842555.36747  -7612583.72447  23228460.1884   23228467.6654   23228459.992
        47.0004         42.0004
 -28006251.19648 -21772412.83748  20483450.1124   20483455.7034   20483449.958
        53.0004         48.0004
  -7852005.74047  -6062609.51347  22810547.6074   22810551.0544   22810547.527
        47.0004         42.0004
 14  5  7  1 17  0.0000000  0 11G09G20G13G10G07G28G08G26G17G04G02
 -13876364.32049 -10756700.97048  20102316.9884   20102321.9184   20102316.776
        54.0004         50.0004
 -12876630.95146  -9987854.71245  24008970.3594   24008980.4754   24008968.196
        39.0004         35.0004
  -2725851.10146  -2069092.83145  25092887.2074   25092895.4324   25092887.485
        38.0004         34.0004
 -13937565.70447 -10858100.01946  23065500.8214   23065506.6454   23065502.107
        46.0004         41.0004
 -17119842.40648 -13292925.77747  21459171.3024   21459176.0674   21459170.953
        51.0004         46.0004
  -7317787.33647  -5703531.17347  22789513.4594   22789520.9354   22789513.881
        47.0004         42.0004
 -21265253.27948 -16552354.01848  19998683.8294   19998689.4334   19998684.276
        53.0004         49.0004
  -1741905.71747  -1343903.58346  24071983.4904   24071993.2934   24071982.906
        43.0004         38.0004
  -9803411.16347  -7582081.76147  23235909.3304   23235917.0394   23235908.787
        47.0004         43.0004
 -28039730.02748 -21798500.22748  20477078.9814   20477084.5734   20477078.502
        53.0004         48.0004
  -7926384.24747  -6120566.68547  22796392.8274   22796397.5044   22796394.415
        47.0004         42.0004
 14  5  7  1 17 30.0000000  0 11G09G20G13G10G07G28G08G26G17G04G02
 -13848665.24849 -10735117.25748  20107587.8514   20107592.5854   20107587.968
        54.0004         50.0004
 -12842067.29246  -9960922.11445  24015546.8664   24015555.3674   24015546.589
        39.0004         35.0004
  -2671723.58546  -2026915.58545  25103187.0774   25103193.2084   25103188.283
        38.0004         34.0004
 -14006926.48847 -10912147.32546  23052301.7994   23052308.0014   23052303.126
        46.0004         41.0004
 -17036404.25848 -13227909.02647  21475049.5354   21475053.3974   21475048.962
        51.0004         46.0004
  -7376624.31447  -5749378.12047  22778317.3904   22778325.0334   22778317.214
        47.0004         42.0004
 -21235584.03548 -16529235.11348  20004329.8004   20004334.9714   20004330.076
        53.0004         49.0004
  -1733474.27247  -1337333.45846  24073586.8924   24073597.3094   24073586.029
        43.0004         38.0004
  -9764377.59347  -7551666.02247  23243337.4854   23243345.7954   23243336.621
        47.0004         43.0004
 -28072666.65948 -21824165.12848  20470811.9354   20470816.7154   20470811.557
        53.0004         48.0004
  -8000430.10947  -6178264.66147  22782303.0214   22782305.8904   22782302.029
        47.0004         42.0004
 14  5  7  1 18  0.0000000  0 11G09G20G13G10G07G28G08G26G17G04G02
 -13820398.23449 -10713090.99548  20112966.8104   20112971.9314   20112966.836
        54.0004         50.0004
 -12807173.15746  -9933732.00845  24022185.4364   24022197.0304   24022186.484
        39.0004         35.0004
  -2617860.25546  -1984944.22245  25113437.2684   25113444.1964   25113437.672
        39.0004         34.0004
 -14076385.18447 -10966270.92346  23039084.8844   23039091.1534   23039085.778
        46.0004         41.0004
 -16952604.95148 -13162610.84847  21490996.2794   21491000.3824   21490995.305
        51.0004         46.0004
  -7435500.96947  -5795255.97847  22767112.0124   22767121.1224   22767113.453
        47.0004         42.0004
 -21205275.81448 -16505618.30448  20010097.0394   20010102.9054   20010097.576
        53.0004         49.0004
  -1724856.15347  -1330617.86546  24075227.6994   24075238.1974   24075226.877
        43.0004         38.0004
  -9725460.88847  -7521341.33447  23250743.4834   23250750.5694   23250742.473
        47.0004         43.0004
 -28105064.31348 -21849410.05348  20464646.4684   20464651.4964   20464645.995
        53.0004         48.0004
  -8074145.73947  -6235705.32447  22768276.1804   22768278.9744   22768276.230
        47.0004         42.0004
 14  5  7  1 18 30.0000000  0 11G09G20G13G10G07G28G08G26G17G04G02
 -13791558.94649 -10690618.80648  20118454.6334   20118459.6194   20118454.747
        54.0004         50.0004
 -12771941.89646  -9906279.21345  24028891.8594   24028903.2824   24028892.112
        39.0004         34.0004
  -2564255.44646  -1943174.30045  25123636.4484   25123641.8804   25123637.632
        39.0004         34.0004
 -14145933.93447 -11020464.70846  23025850.9144   23025855.2944   23025850.672
        46.0004         41.0004
 -16868441.44848 -13097028.90247  21507011.1194   21507015.9934   21507011.103
        51.0004         46.0004
  -7494408.43147  -5841157.85247  22755902.0624   22755911.3924   22755904.070
        47.0004         42.0004
 -21174323.71248 -16481499.76648  20015986.9584   20015992.7404   20015987.288
        53.0004         49.0004
  -1716047.35647  -1323753.69646  24076902.2024   24076914.1114   24076902.321
        43.0004         38.0004
  -9686656.58647  -7491104.24847  23258127.3334   23258135.4024   23258126.790
        47.0004         43.0004
 -28136916.03248 -21874229.57448  20458585.5354   20458590.7644   20458585.191
        53.0004         48.0004
  -8147523.37547  -6292882.61647  22754311.1904   22754316.2164   22754312.208
        47.0004         42.0004
 14  5  7  1 19  0.0000000  0 11G09G20G13G10G07G28G08G26G17G04G02
 -13762156.41149 -10667707.72248  20124049.8504   20124055.0494   20124049.708
        54.0004         49.0004
 -12736380.32746  -9878569.04145  24035656.4894   24035670.5864   24035658.134
        39.0004         35.0004
  -2510916.92146  -1901611.85645  25133790.9464   25133795.2404   25133787.863
        38.0004         33.0004
 -14215577.89647 -11074732.66346  23012597.5314   23012602.9464   23012597.953
        46.0004         41.0004
 -16783923.92348 -13031171.08047  21523095.1294   21523099.3014   21523094.294
        51.0004         46.0004
  -7553351.67347  -5887087.60347  22744687.7394   22744695.7234   22744687.567
        47.0004         42.0004
 -21142736.64348 -16456886.45948  20021997.8214   20022003.7614   20021997.993
        53.0004         49.0004
  -1707057.58247  -1316748.52846  24078614.3084   24078622.6164   24078613.540
        43.0004         38.0004
  -9647974.14647  -7460962.10747  23265488.6564   23265496.3074   23265487.828
        47.0004         43.0004
 -28168228.64448 -21898629.01548  20452626.7714   20452631.8344   20452626.455
        53.0004         48.0004
  -8220568.52647  -6349800.82947  22740411.6804   22740415.9554   22740411.915
        47.0004         42.0004
 14  5  7  1 19 30.0000000  0 11G09G20G13G10G07G28G08G26G17G04G02
 -13732185.60449 -10644353.83048  20129752.8834   20129757.7354   20129753.131
        54.0004         50.0004
 -12700481.30546  -9850595.92845  24042489.1074   24042501.9614   24042489.760
        39.0004         34.0004
  -2457838.63346  -1860252.19045  25143891.0674   25143891.9524   25143888.890
        38.0004         33.0004
 -14285308.47947 -11129068.11946  22999328.2534   22999334.0734   22999329.013
        46.0004         41.0004
 -16699048.90348 -12965034.68647  21539246.4324   21539250.3904   21539245.322
        51.0004         46.0004
  -7612321.78247  -5933038.28247  22733465.0994   22733472.9214   22733465.472
        47.0004         42.0004
 -21110509.22648 -16431774.17448  20028130.1464   20028136.0444   20028130.686
        53.0004         49.0004
  -1697882.28647  -1309598.78446  24080359.8844   24080370.0034   24080359.658
        43.0004         38.0004
  -9609408.53047  -7430911.00347  23272827.1594   23272835.3574   23272826.698
        47.0004         43.0004
 -28198994.64248 -21922602.51848  20446772.0764   20446777.7394   20446771.864
        53.0004         48.0004
  -8293272.61147  -6406453.27647  22726576.3174   22726580.1344   22726576.659
        47.0004         42.0004
 14  5  7  1 20  0.0000000  0 11G09G20G13G10G07G28G08G26G17G04G02
 -13701652.06549 -10620561.44248  20135563.1744   20135568.4504   20135563.414
        54.0004         50.0004
 -12664248.55046  -9822362.72945  24049387.2994   24049394.2954   24049384.360
        39.0004         34.0004
  -2405024.62346  -1819098.46145  25153940.7994   25153942.7774   25153938.990
        38.0004         33.0004
 -14355127.96947 -11183472.85146  22986041.5784   22986048.3004   22986042.411
        46.0004         41.0004
 -16613823.16348 -12898625.00247  21555463.4444   21555467.7384   21555463.247
        50.0004         46.0004
  -7671320.41447  -5979011.19647  22722239.5954   22722246.0444   22722238.685
        47.0004         42.0004
 -21077646.98348 -16406167.21948  20034384.0984   20034389.4434   20034384.460
        53.0004         49.0004
  -1688527.87347  -1302309.46546  24082140.5694   24082150.1484   24082139.184
        43.0004         38.0004
  -9570965.46947  -7400955.39547  23280142.3794   23280151.1734   23280142.015
        47.0004         43.0004
 -28229217.04948 -21946152.45148  20441021.5684   20441026.6274   20441020.681
        53.0004         48.0004
  -8365637.94247  -6462841.76447  22712805.5064   22712809.6324   22712805.635
        47.0004         42.0004
 14  5  7  1 20 30.0000000  0 11G09G20G13G10G07G28G08G26G17G04G02
 -13670555.99249 -10596330.72148  20141480.8834   20141485.6954   20141480.847
        54.0004         50.0004
 -12627680.07946  -9793867.98045  24056343.6424   24056354.6104   24056343.883
        39.0004         34.0004
  -2352473.78646  -1778149.79745  25163939.6574   25163946.6924   25163939.025
        38.0004         33.0004
 -14425032.38747 -11237943.76847  22972738.8394   22972745.2544   22972739.780
        46.0004         42.0004
 -16528248.14048 -12831943.16147  21571748.0454   21571751.6994   21571747.633
        50.0004         46.0004
  -7730342.92247  -6025002.71647  22711006.5934   22711013.5914   22711007.035
        47.0004         42.0004
 -21044149.88848 -16380065.57248  20040758.3764   20040763.9124   20040758.781
        53.0004         49.0004
  -1678994.80647  -1294880.94246  24083954.2254   24083963.3844   24083954.069
        43.0004         38.0004
  -9532645.07147  -7371095.38447  23287435.0824   23287442.9934   23287434.337
        47.0004         43.0004
 -28258893.70048 -21969277.11448  20435373.9864   20435378.8714   20435373.424
        53.0004         48.0004
  -8437660.84347  -6518963.42647  22699100.4444   22699104.9494   22699099.840
        47.0004         42.0004
 14  5  7  1 21  0.0000000  0 11G09G20G13G10G07G28G08G26G17G04G02
 -13638900.32349 -10571663.95148  20147504.7354   20147509.6974   20147504.567
        54.0004         50.0004
 -12590776.80146  -9765112.29345  24063366.8884   24063377.4794   24063365.996
        39.0004         34.0004
  -2300187.61146  -1737407.31945  25173890.2244   25173892.1934   25173888.825
        38.0004         33.0004
 -14495021.03247 -11292480.29947  22959420.4764   22959426.7034   22959421.210
        46.0004         42.0004
 -16442328.20748 -12764992.53747  21588097.7104   21588101.9574   21588097.724
        50.0004         45.0004
  -7789388.49847  -6071012.22047  22699771.3324   22699777.2834   22699771.012
        47.0004         42.0004
 -21010020.64848 -16353471.34348  20047252.9724   20047258.4784   20047253.065
        53.0004         49.0004
  -1669286.57647  -1287315.90446  24085800.8804   24085810.3294   24085800.504
        43.0004         38.0004
  -9494450.44147  -7341333.36747  23294702.5294   23294710.3794   23294702.332
        47.0004         42.0004
 -28288024.87248 -21991976.73648  20429830.3134   20429836.0074   20429830.069
        53.0004         48.0004
  -8509340.91647  -6574817.93947  22685459.2794   22685464.0904   22685460.036
        47.0004         42.0004
 14  5  7  1 21 30.0000000  0 11G09G20G13G10G07G28G08G26G17G04G02
 -13606684.59049 -10546560.77348  20153635.2284   20153640.2264   20153635.197
        54.0004         50.0004
 -12553536.12946  -9736093.73545  24070450.9824   24070467.2134   24070453.016
        39.0004         34.0004
  -2248164.44846  -1696869.83645  25183784.8414   25183794.5084   25183788.451
        37.0004         33.0004
 -14565090.11147 -11347079.51747  22946087.1414   22946092.0504   22946087.446
        46.0004         42.0004
 -16356064.12848 -12697773.76947  21604513.6554   21604517.3344   21604513.242
        50.0004         45.0004
  -7848452.34747  -6117035.96447  22688531.2784   22688537.2694   22688531.477
        47.0004         43.0004
 -20975258.66848 -16326384.06848  20053868.0804   20053872.9284   20053868.525
        53.0004         49.0004
  -1659403.41847  -1279614.57746  24087681.8234   24087691.2004   24087681.449
        43.0004         38.0004
  -9456381.00547  -7311668.90547  23301947.2904   23301954.9734   23301947.030
        47.0004         42.0004
 -28316607.94148 -22014249.26348  20424391.6974   20424396.3454   20424390.867
        53.0004         49.0004
  -8580674.29747  -6630402.32047  22671884.8624   22671889.0834   22671885.240
        47.0004         42.0004
 14  5  7  1 22  0.0000000  0 11G09G20G13G10G07G28G08G26G17G04G02
 -13573912.13949 -10521023.78648  20159871.3824   20159876.3334   20159871.579
        54.0004         50.0004
 -12515959.19956  -9706813.16955  24077600.5615   24077617.1905   24077600.997
        38.0004         33.0004
  -2196406.26146  -1656538.81245  25193639.8194   25193640.7924   25193637.316
        37.0004         33.0004
 -14635239.20147 -11401741.06846  22932737.8344   22932744.1974   22932738.887
        46.0004         41.0004
 -16269460.72348 -12630290.58847  21620992.9464   21620997.5214   21620992.806
        50.0004         45.0004
  -7907533.66747  -6163073.32047  22677288.0944   22677296.5734   22677288.901
        47.0004         42.0004
 -20939867.15748 -16298806.25248  20060602.6654   20060608.2444   20060602.957
        53.0004         49.0004
  -1649349.19347  -1271779.96146  24089594.6384   24089605.2434   24089593.842
        43.0004         38.0004
  -9418439.94747  -7282104.47247  23309168.4404   23309175.5374   23309167.025
        47.0004         42.0004
 -28344643.86048 -22036095.43848  20419055.9384   20419061.5044   20419056.068
        53.0004         49.0004
  -8651661.00947  -6685716.56347  22658376.6244   22658379.7524   22658377.581
        47.0004         42.0004
 14  5  7  1 22 30.0000000  0 10G09G13G10G07G28G08G26G17G04G02
 -13540569.24749 -10495042.30348  20166216.1354   20166221.5184   20166216.272
        54.0004         50.0004
  -2144897.59546  -1616402.23045  25203441.9114   25203449.7784   25203439.165
        37.0004         33.0004
 -14705450.13047 -11456450.83346  22919377.5114   22919382.7414   22919377.422
        46.0004         41.0004
 -16182505.21548 -12562533.04147  21637540.3804   21637544.8464   21637540.230
        50.0004         45.0004
  -7966614.31647  -6209110.15347  22666045.1374   22666053.2594   22666045.701
        47.0004         42.0004
 -20903831.87748 -16270726.79248  20067459.8454   20067465.5004   20067460.444
        53.0004         49.0004
  -1639110.33947  -1263801.46446  24091542.9034   24091552.0754   24091542.569
        43.0004         38.0004
  -9380613.49047  -7252629.32847  23316366.2654   23316372.9184   23316364.827
        47.0004         42.0004
 -28372116.21948 -22057502.47748  20413828.2244   20413833.9434   20413827.762
        53.0004         48.0004
  -8722283.32047  -6740746.85847  22644938.0274   22644941.9844   22644937.550
        47.0004         42.0004
 14  5  7  1 23  0.0000000  0 10G09G13G10G07G28G08G26G17G04G02
 -13506689.49249 -10468642.48748  20172663.6874   20172668.5894   20172663.754
        54.0004         50.0004
  -2093670.56046  -1576485.06245  25213185.0494   25213196.4014   25213187.262
        37.0004         33.0004
 -14775752.54547 -11511231.88347  22905999.8034   22906004.9354   22905999.524
        46.0004         42.0004
 -16095232.27148 -12494528.14047  21654148.0314   21654152.5194   21654147.701
        50.0004         45.0004
  -8025723.49947  -6255169.23347  22654798.1844   22654805.0724   22654797.660
        47.0004         42.0004
 -20867186.10348 -16242171.61848  20074433.5114   20074438.6574   20074433.620
        53.0004         49.0004
  -1628720.87747  -1255705.63046  24093519.5224   24093529.8844   24093519.338
        43.0004         38.0004
  -9342934.93547  -7223269.44847  23323535.1764   23323545.0174   23323534.807
        47.0004         42.0004
 -28399056.16948 -22078494.65248  20408702.1664   20408707.1134   20408701.768
        53.0004         48.0004
  -8792571.08347  -6795516.47047  22631562.4524   22631566.7674   22631562.801
        47.0004         42.0004
 14  5  7  1 23 30.0000000  0 10G09G13G10G07G28G08G26G17G04G02
 -13472255.29449 -10441810.63048  20179216.1024   20179221.0774   20179215.993
        54.0004         50.0004
  -2042705.83146  -1536772.31845  25222884.6194   25222894.3094   25222885.359
        37.0004         32.0004
 -14846125.29747 -11566067.74247  22892607.6674   22892613.5714   22892608.454
        46.0004         42.0004
 -16007625.78848 -12426263.33947  21670819.1674   21670823.7934   21670818.629
        50.0004         45.0004
  -8084839.30547  -6301233.47047  22643547.8904   22643554.3874   22643548.575
        47.0004         42.0004
 -20829912.35548 -16213127.11648  20081526.6274   20081531.8864   20081526.864
        53.0004         49.0004
  -1618163.81247  -1247479.17346  24095529.0624   24095537.6034   24095528.968
        43.0004         38.0004
  -9305386.80947  -7194011.19847  23330680.1934   23330688.9724   23330680.093
        47.0004         42.0004
 -28425443.65148 -22099056.33848  20403680.4594   20403685.4344   20403680.116
        53.0004         48.0004
  -8862503.72447  -6850009.37247  22618254.1314   22618258.6424   22618255.117
        47.0004         43.0004
 14  5  7  1 24  0.0000000  0 10G09G13G10G07G28G08G26G17G04G02
 -13437273.36949 -10414551.97548  20185872.6854   20185878.0094   20185873.065
        54.0004         50.0004
  -1992008.76846  -1497268.14645  25232535.6664   25232541.4554   25232534.220
        38.0004         33.0004
 -14916571.14247 -11620960.56747  22879202.3604   22879208.2664   22879202.646
        46.0004         42.0004
 -15919693.50848 -12357744.67947  21687552.5084   21687556.6544   21687551.602
        50.0004         45.0004
  -8143963.95547  -6347304.59347  22632295.9284   22632303.4854   22632296.979
        47.0004         42.0004
 -20792017.08248 -16183598.30448  20088737.4974   20088743.3854   20088737.955
        53.0004         49.0004
  -1607446.03847  -1239127.50646  24097567.5264   24097576.4454   24097567.637
        43.0004         38.0004
  -9267975.29447  -7164859.39247  23337800.3404   23337808.2984   23337799.348
        47.0004         42.0004
 -28451282.91848 -22119190.84048  20398763.5154   20398768.6234   20398762.886
        53.0004         48.0004
  -8932084.16947  -6904227.83047  22605014.4804   22605017.4144   22605014.475
        47.0004         43.0004
 14  5  7  1 24 30.0000000  0 10G09G13G10G07G28G08G26G17G04G02
 -13401741.19249 -10386864.55348  20192634.4324   20192639.4384   20192634.390
        54.0004         49.0004
  -1941575.26846  -1457969.31245  25242129.4394   25242137.2644   25242129.827
        37.0004         33.0004
 -14987083.37047 -11675905.09647  22865784.3804   22865790.7154   22865785.277
        46.0004         42.0004
 -15831433.75648 -12288970.84647  21704347.7344   21704351.9904   21704347.380
        50.0004         45.0004
  -8203090.53847  -6393377.23847  22621045.5304   22621052.0924   22621045.528
        47.0004         42.0004
 -20753497.59048 -16153583.09348  20096067.3374   20096072.9634   20096067.769
        53.0004         49.0004
  -1596565.49647  -1230649.00346  24099638.6334   24099647.3874   24099638.117
        43.0004         38.0004
  -9230697.66747  -7135811.91047  23344892.8004   23344900.9484   23344892.864
        46.0004         42.0004
 -28476568.97648 -22138894.27048  20393951.3964   20393957.2454   20393951.444
        53.0004         48.0004
  -9001306.04247  -6958166.89347  22591841.9264   22591845.0184   22591841.445
        47.0004         43.0004
 14  5  7  1 25  0.0000000  0 10G09G13G10G07G28G08G26G17G04G02
 -13365665.01149 -10358753.22748  20199499.3874   20199504.3214   20199499.573
        54.0004         49.0004
                  -1418879.27045                  25251684.9004   25251676.159
                        32.0004
 -15057664.44247 -11730903.27747  22852352.7534   22852358.5814   22852353.470
        46.0004         42.0004
 -15742854.16548 -12219947.78647  21721203.4104   21721206.6644   21721203.104
        50.0004         45.0004
  -8262221.01247  -6439452.90547  22609793.5094   22609800.4414   22609793.805
        47.0004         42.0004
 -20714359.74148 -16123086.04648  20103515.2444   20103520.3134   20103515.686
        53.0004         49.0004
  -1585528.85547  -1222048.86146  24101738.7794   24101748.3294   24101738.520
        43.0004         38.0004
  -9193560.05347  -7106873.53247  23351960.2984   23351969.3534   23351959.780
        46.0004         42.0004
 -28501305.77148 -22158169.70648  20389244.5174   20389249.7434   20389243.904
        53.0004         48.0004
  -9070172.25447  -7011828.80447  22578735.8834   22578740.8844   22578736.971
        47.0004         43.0004
 14  5  7  1 25 30.0000000  0 10G09G13G10G07G28G08G26G17G04G02
 -13329044.77849 -10330217.96548  20206468.1394   20206473.4224   20206468.019
        54.0004         49.0004
  -1841510.26446  -1379996.58945  25261170.3544   25261183.0284   25261171.674
        37.0004         33.0004
 -15128309.91747 -11785951.65347  22838909.4964   22838915.0984   22838910.063
        46.0004         42.0004
 -15653955.79748 -12150676.32847  21738120.5264   21738124.7074   21738120.170
        50.0004         45.0004
  -8321350.17147  -6485527.55047  22598541.8444   22598549.1204   22598541.937
        47.0004         43.0004
 -20674603.32848 -16092106.99848  20111080.0624   20111085.7614   20111080.623
        53.0004         49.0004
  -1574336.14147  -1213327.11846  24103867.5654   24103878.0574   24103867.808
        43.0004         38.0004
  -9156561.66347  -7078043.64347  23359000.5614   23359009.8104   23359000.712
        46.0004         42.0004
 -28525490.36248 -22177014.84948  20384642.0614   20384647.1784   20384642.182
        53.0004         49.0004
  -9138678.83447  -7065210.49547  22565700.3784   22565704.4024   22565699.570
        47.0004         43.0004
 14  5  7  1 26  0.0000000  0 10G09G13G10G07G28G08G26G17G04G02
 -13291880.47649 -10301258.75048  20213540.0054   20213545.0954   20213539.794
        54.0004         49.0004
                  -1341320.00545                  25270624.3734   25270616.915
                        33.0004
 -15199016.04647 -11841047.29247  22825455.1374   22825460.4144   22825455.375
        47.0004         42.0004
 -15564739.95848 -12081157.49547  21755097.6474   21755101.7454   21755097.177
        50.0004         45.0004
  -8380473.68847  -6531597.80247  22587290.5634   22587295.9284   22587291.124
        47.0004         43.0004
 -20634228.27448 -16060645.89648  20118763.6724   20118768.8084   20118764.340
        53.0004         49.0004
  -1562987.96547  -1204484.21846  24106027.7234   24106037.9764   24106027.802
        43.0004         38.0004
  -9119702.50547  -7049322.24447  23366015.4604   23366024.1484   23366015.088
        46.0004         42.0004
 -28549120.86048 -22195428.23348  20380145.4194   20380151.0724   20380144.899
        53.0004         49.0004
  -9206822.41548  -7118309.32947  22552733.0554   22552736.4674   22552733.639
        48.0004         43.0004
 14  5  7  1 26 30.0000000  0 10G09G13G10G07G28G08G26G17G04G02
 -13254175.63549 -10271878.33748  20220715.1054   20220720.4734   20220715.298
        54.0004         49.0004
  -1742506.53446  -1302850.88045  25280014.8294   25280016.5894   25280011.928
        37.0004         33.0004
 -15269782.30547 -11896189.78447  22811988.4194   22811994.2814   22811988.553
        47.0004         42.0004
 -15475211.00448 -12011394.67847  21772134.2244   21772138.9254   21772133.602
        50.0004         45.0004
  -8439590.81847  -6577663.07547  22576040.1374   22576048.1614   22576041.230
        47.0004         43.0004
 -20593237.92248 -16028705.34348  20126563.8764   20126569.3354   20126564.041
        53.0004         48.0004
  -1551488.01747  -1195523.06546  24108214.6064   24108225.6324   24108214.938
        42.0004         38.0004
  -9082985.84247  -7020711.86947  23373001.6314   23373009.3834   23373001.682
        46.0004         42.0004
 -28572198.14248 -22213410.54248  20375754.1114   20375759.4014   20375753.751
        53.0004         49.0004
  -9274603.01348  -7171125.31247  22539834.9984   22539838.2004   22539835.038
        48.0004         43.0004
 14  5  7  1 27  0.0000000  0 10G09G13G10G07G28G08G26G17G04G02
 -13215934.73149 -10242080.21248  20227991.9674   20227997.4954   20227991.977
        54.0004         49.0004
  -1693406.78146  -1264591.33245  25289355.9254   25289362.6154   25289354.766
        37.0004         33.0004
 -15340608.98247 -11951379.35847  22798509.8254   22798515.9264   22798511.261
        47.0004         42.0004
 -15385374.65548 -11941392.33847  21789229.7744   21789233.6864   21789229.646
        50.0004         45.0004
  -8498701.25947  -6623723.11747  22564793.4824   22564799.7414   22564792.761
        47.0004         43.0004
 -20551636.73548 -15996288.81948  20134480.0604   20134485.6654   20134480.636
        53.0004         48.0004
  -1539841.09947  -1186447.40646  24110432.1764   24110440.9154   24110431.811
        42.0004         38.0004
  -9046415.73347  -6992215.71347  23379961.0324   23379970.2984   23379960.936
        46.0004         42.0004
 -28594724.45448 -22230963.52748  20371467.3264   20371472.8214   20371467.283
        53.0004         49.0004
  -9342021.23548  -7223658.93247  22527005.3324   22527008.3164   22527005.202
        48.0004         43.0004
 14  5  7  1 27 30.0000000  0 10G09G13G10G07G28G08G26G17G04G02
 -13177156.11749 -10211863.09348  20235371.7164   20235376.5734   20235371.726
        54.0004         50.0004
  -1644572.40146  -1226538.51945  25298646.8954   25298661.6144   25298647.368
        37.0004         32.0004
 -15411490.02747 -12006611.29747  22785022.4834   22785027.0734   22785022.692
        47.0004         42.0004
 -15295230.04248 -11871149.77347  21806383.6854   21806388.5064   21806382.914
        50.0004         45.0004
  -8557798.75647  -6669773.06847  22553546.6884   22553554.0194   22553546.770
        47.0004         43.0004
 -20509422.96548 -15963394.95948  20142513.2694   20142518.2344   20142513.506
        53.0004         48.0004
  -1528045.77747  -1177256.09546  24112677.2754   24112686.1404   24112676.610
        42.0004         38.0004
  -9009989.96047  -6963832.02047  23386892.9484   23386901.8524   23386892.425
        47.0004         42.0004
 -28616695.47048 -22248083.81348  20367286.3014   20367291.8624   20367285.851
        53.0004         49.0004
  -9409072.13848  -7275906.32847  22514245.9154   22514249.3284   22514246.318
        48.0004         43.0004
 14  5  7  1 28  0.0000000  0 10G09G13G10G07G28G08G26G17G04G02
 -13137842.74449 -10181229.27748  20242852.4454   20242857.7104   20242852.392
        54.0004         50.0004
  -1596004.54846  -1188693.48545  25307887.6724   25307895.5904   25307890.329
        37.0004         33.0004
 -15482424.21447 -12061884.65047  22771522.7534   22771529.1304   22771524.294
        47.0004         42.0004
 -15204781.45348 -11800670.35547  21823595.6814   21823599.9904   21823594.653
        49.0004         45.0004
  -8616882.26547  -6715812.13047  22542302.3984   22542310.3344   22542303.699
        47.0004         43.0004
 -20466599.33648 -15930025.88748  20150662.6324   20150667.9854   20150662.611
        53.0004         48.0004
  -1516105.32947  -1167951.69246  24114949.3824   24114958.0114   24114948.234
        42.0004         38.0004
  -8973711.04547  -6935562.77047  23393796.2644   23393805.3794   23393796.507
        47.0004         42.0004
 -28638111.84348 -22264771.91148  20363211.0974   20363216.5974   20363211.220
        53.0004         49.0004
  -9475754.30648  -7327866.40147  22501555.3844   22501559.6524   22501556.896
        48.0004         43.0004
 14  5  7  1 28 30.0000000  0 10G09G13G10G07G28G08G26G17G04G02
 -13097996.86049 -10150180.51948  20250434.9164   20250440.2994   20250435.001
        54.0004         50.0004
  -1547703.72846  -1151056.51645  25317083.9544   25317088.5774   25317081.991
        37.0004         33.0004
 -15553409.58147 -12117197.88947  22758015.0034   22758021.3454   22758016.173
        47.0004         42.0004
 -15114032.18848 -11729956.65847  21840863.6304   21840868.0764   21840863.666
        49.0004         45.0004
  -8675948.31547  -6761837.58847  22531063.4054   22531070.0244   22531063.741
        47.0004         43.0004
 -20423168.03848 -15896183.30648  20158927.0094   20158932.3834   20158927.270
        53.0004         48.0004
  -1504022.24447  -1158536.15246  24117248.3124   24117256.7624   24117247.791
        42.0004         38.0004
  -8937580.67647  -6907409.24947  23400672.0474   23400680.8144   23400671.377
        47.0004         42.0004
 -28658973.36948 -22281027.65748  20359241.3094   20359246.4134   20359240.778
        53.0004         49.0004
  -9542066.98148  -7379538.56447  22488937.4584   22488941.3774   22488938.135
        48.0004         43.0004
 14  5  7  1 29  0.0000000  0 10G09G13G10G07G28G08G26G17G04G02
 -13057621.91949 -10118719.51348  20258118.1564   20258123.0904   20258118.171
        54.0004         49.0004
  -1499671.31146  -1113628.62645  25326222.4264   25326228.6284   25326222.312
        38.0004         33.0004
 -15624445.13047 -12172550.23947  22744498.8284   22744503.9684   22744498.756
        47.0004         42.0004
 -15022986.42648 -11659011.91747  21858190.3664   21858194.4264   21858189.368
        49.0004         45.0004
  -8734996.17448  -6807848.86347  22519826.6174   22519834.9864   22519827.220
        48.0004         43.0004
 -20379132.30548 -15861869.74448  20167306.3984   20167312.3594   20167306.943
        53.0004         48.0004
  -1491800.03247  -1149012.21946  24119573.6464   24119582.5214   24119573.588
        42.0004         38.0004
  -8901601.83447  -6879373.79847  23407518.1504   23407527.2674   23407518.095
        47.0004         42.0004
 -28679281.14148 -22296851.90848  20355376.9334   20355382.2694   20355376.769
        53.0004         49.0004
  -9608009.59948  -7430922.37047  22476388.9724   22476393.1474   22476389.443
        48.0004         44.0004
 14  5  7  1 29 30.0000000  0 10G09G13G10G07G28G08G26G17G04G02
 -13016717.16349 -10086845.66048  20265902.0504   20265906.9244   20265901.952
        54.0004         49.0004
  -1451904.68846  -1076407.86545  25335310.6444   25335317.2934   25335311.969
        38.0004         33.0004
 -15695526.24747 -12227938.09547  22730971.6244   22730976.4924   22730972.876
        47.0004         42.0004
 -14931644.35548 -11587836.28447  21875571.4944   21875576.3384   21875571.102
        49.0004         45.0004
  -8794020.09748  -6853841.49147  22508593.5764   22508602.6804   22508595.222
        48.0004         43.0004
 -20334491.29148 -15827084.53348  20175801.7144   20175806.6144   20175801.984
        53.0004         48.0004
  -1479438.24647  -1139379.50946  24121925.6964   24121934.9994   24121925.662
        42.0004         37.0004
  -8865772.92747  -6851455.18247  23414336.9814   23414344.9484   23414336.011
        46.0004         42.0004
 -28699032.14948 -22312242.31948  20351618.8834   20351623.4184   20351618.125
        53.0004         49.0004
  -9673577.96848  -7482014.55247  22463911.7984   22463915.9914   22463912.420
        48.0004         44.0004
 14  5  7  1 30  0.0000000  0 10G09G13G10G07G28G08G26G17G04G02
 -12975286.66549 -10054562.14448  20273785.9194   20273790.7484   20273785.838
        54.0004         49.0004
  -1404405.47646  -1039395.46845  25344350.9954   25344355.7994   25344350.100
        38.0004         33.0004
 -15766652.43547 -12283361.08647  22717437.5044   22717442.0044   22717437.215
        47.0004         42.0004
 -14840011.12348 -11516433.77447  21893008.2644   21893013.2074   21893008.447
        49.0004         45.0004
  -8853019.43348  -6899814.95047  22497367.7354   22497375.3974   22497368.223
        48.0004         43.0004
 -20289248.85248 -15791830.67448  20184411.0004   20184416.1694   20184411.370
        53.0004         48.0004
  -1466940.97747  -1129641.23146  24124303.3754   24124311.8164   24124303.027
        42.0004         37.0004
  -8830097.51047  -6823656.17247  23421125.6954   23421134.4774   23421124.964
        46.0004         42.0004
 -28718227.60248 -22327199.82748  20347965.4054   20347970.6054   20347965.026
        53.0004         49.0004
  -9738772.11348  -7532815.13147  22451505.6264   22451509.8174   22451505.986
        48.0004         44.0004
 14  5  7  1 30 30.0000000  0 10G09G13G10G07G28G08G26G17G04G02
 -12933332.10549 -10021870.26348  20281769.5354   20281774.7514   20281769.694
        54.0004         49.0004
  -1357173.42356  -1002591.25255  25353334.6665   25353336.2975   25353338.502
        38.0004         33.0004
 -15837820.58947 -12338816.79347  22703893.8574   22703898.8324   22703894.479
        47.0004         42.0004
 -14748089.03148 -11444806.17647  21910501.6274   21910505.3904   21910500.525
        49.0004         45.0004
  -8911991.00647  -6945766.77247  22486147.0404   22486153.3244   22486146.116
        47.0004         43.0004
 -20243406.36748 -15756109.24948  20193134.4094   20193140.1044   20193134.739
        53.0004         48.0004
  -1454309.79747  -1119798.60946  24126707.7114   24126716.3434   24126707.121
        42.0004         38.0004
  -8794576.56347  -6795977.53347  23427884.7814   23427893.5884   23427884.634
        47.0004         42.0004
 -28736866.72848 -22341723.83848  20344419.2674   20344423.9274   20344418.703
        53.0004         49.0004
  -9803589.98748  -7583322.52347  22439170.6614   22439175.5004   22439171.482
        48.0004         43.0004
 14  5  7  1 31  0.0000000  0 10G09G13G10G07G28G08G26G17G04G02
 -12890857.06849  -9988772.82348  20289852.3644   20289857.3124   20289852.314
        54.0004         49.0004
  -1310210.23546   -965996.55445  25362275.6654   25362282.5854   25362274.455
        38.0004         34.0004
 -15909030.00847 -12394304.63547  22690343.3374   22690348.3524   22690343.684
        47.0004         42.0004
 -14655882.76848 -11372957.15347  21928047.9654   21928052.3044   21928047.058
        49.0004         45.0004
  -8970933.15947  -6991695.66447  22474929.8584   22474935.1644   22474929.794
        47.0004         43.0004
 -20196967.59948 -15719923.19248  20201971.5014   20201976.8114   20201971.842
        53.0004         48.0004
  -1441548.65147  -1109854.73246  24129135.3374   24129144.2564   24129136.002
        42.0004         38.0004
  -8759212.89147  -6768421.44347  23434614.1914   23434622.7944   23434614.247
        46.0004         42.0004
 -28754951.03348 -22355815.51848  20340977.6954   20340982.7304   20340977.102
        53.0004         49.0004
  -9868032.05548  -7633537.06847  22426908.8164   22426912.0704   22426908.668
        48.0004         43.0004
 14  5  7  1 31 30.0000000  0 10G09G13G10G07G28G08G26G17G04G02
 -12847861.46149  -9955269.74448  20298034.2494   20298039.1664   20298034.089
        54.0004         49.0004
  -2838933.45946  -2157209.45145  25371158.7964   25371165.5234   25371160.599
        38.0004         33.0004
 -15980276.50947 -12449821.36847  22676785.1624   22676790.8894   22676786.257
        47.0004         42.0004
 -14563393.16348 -11300887.34047  21945647.2474   21945652.6084   21945647.065
        49.0004         44.0004
  -9029841.40548  -7037598.13147  22463720.0204   22463726.7834   22463719.802
        48.0004         43.0004
 -20149932.20648 -15683272.22848  20210922.0564   20210927.2404   20210922.506
        53.0004         48.0004
  -1428657.49547  -1099809.54046  24131588.6514   24131597.3584   24131588.282
        42.0004         38.0004
  -8724005.73647  -6740987.31147  23441314.0724   23441322.9644   23441313.548
        46.0004         42.0004
 -28772477.86148 -22369472.80248  20337642.2014   20337647.3654   20337641.793
        53.0004         49.0004
  -9932093.51648  -7683455.04347  22414719.1344   22414721.3194   22414718.585
        48.0004         43.0004
 14  5  7  1 32  0.0000000  0  9G09G10G07G28G08G26G17G04G02
 -12804349.01349  -9921363.92948  20306314.1874   20306319.1604   20306314.276
        54.0004         49.0004
 -16051558.80147 -12505365.97447  22663220.4634   22663225.8164   22663221.466
        47.0004         42.0004
 -14470624.74248 -11228600.27147  21963300.6744   21963304.9514   21963300.735
        49.0004         45.0004
  -9088714.53948  -7083473.24247  22452516.2464   22452523.1414   22452516.717
        48.0004         43.0004
 -20102303.80748 -15646159.18348  20219985.4034   20219990.4904   20219985.779
        53.0004         48.0004
  -1415640.26647  -1089666.09546  24134065.0314   24134073.8344   24134064.976
        42.0004         38.0004
  -8688958.19447  -6713677.56247  23447982.6544   23447991.2154   23447983.002
        46.0004         42.0004
 -28789448.73048 -22382696.87248  20334412.9784   20334418.2964   20334412.465
        53.0004         49.0004
  -9995775.07548  -7733076.98447  22402599.0484   22402604.0764   22402599.792
        48.0004         43.0004
 14  5  7  1 32 30.0000000  0  9G09G10G07G28G08G26G17G04G02
 -12760319.61549  -9887055.30048  20314693.1054   20314698.0184   20314692.801
        54.0004         49.0004
 -16122872.44147 -12560935.00847  22649651.1744   22649655.9114   22649651.032
        47.0004         43.0004
 -14377578.24348 -11156096.52847  21981006.6084   21981011.4904   21981006.728
        49.0004         44.0004
  -9147547.52548  -7129317.07447  22441320.7304   22441328.2534   22441321.090
        48.0004         43.0004
 -20054082.17548 -15608583.88548  20229161.8264   20229166.8934   20229162.166
        53.0004         48.0004
  -1402496.71347  -1079424.22146  24136567.0694   24136575.9504   24136565.770
        43.0004         38.0004
  -8654069.11547  -6686491.27147  23454622.4574   23454631.1224   23454622.562
        46.0004         42.0004
 -28805860.93948 -22395485.62948  20331289.8874   20331294.7054   20331289.479
        53.0004         49.0004
 -10059072.69548  -7782399.76647  22390554.2474   22390557.7724   22390554.350
        48.0004         43.0004
 14  5  7  1 33  0.0000000  0  9G09G10G07G28G08G26G17G04G02
 -12715779.96249  -9852349.07048  20323168.4004   20323172.9944   20323168.297
        54.0004         49.0004
 -16194219.77247 -12616530.29847  22636073.9814   22636078.4944   22636073.483
        47.0004         42.0004
 -14284261.47848 -11083382.17647  21998764.6104   21998768.4934   21998764.184
        49.0004         44.0004
  -9206342.25748  -7175131.08747  22430132.3234   22430140.1954   22430132.611
        48.0004         43.0004
 -20005274.19648 -15570551.68948  20238449.5644   20238454.9584   20238449.694
        53.0004         48.0004
  -1389233.71647  -1069089.29146  24139090.6954   24139099.9184   24139090.258
        42.0004         38.0004
  -8619344.75147  -6659433.35147  23461230.0364   23461239.0464   23461229.877
        46.0004         42.0004
 -28821718.84648 -22407842.46048  20328271.6954   20328277.3044   20328271.566
        53.0004         49.0004
 -10121989.31448  -7831425.65447  22378582.6904   22378585.7064   22378582.989
        48.0004         44.0004
 14  5  7  1 33 30.0000000  0  9G09G10G07G28G08G26G17G04G02
 -12670728.18049  -9817243.77948  20331741.0784   20331746.3364   20331741.235
        54.0004         49.0004
 -16265594.10147 -12672146.62547  22622490.3274   22622497.9094   22622491.698
        47.0004         42.0004
 -14190673.39348 -11010456.43147  22016573.5734   22016578.1964   22016573.258
        49.0004         44.0004
  -9265091.47948  -7220909.66047  22418952.8204   22418960.5004   22418953.193
        48.0004         43.0004
 -19955877.85548 -15532061.03048  20247849.1954   20247854.7644   20247849.901
        53.0004         48.0004
  -1375849.44547  -1058659.86546  24141636.1654   24141644.4174   24141636.332
        42.0004         38.0004
  -8584782.11547  -6632501.44847  23467807.3954   23467816.5144   23467807.225
        47.0004         42.0004
 -28837018.49548 -22419764.27948  20325360.6494   20325366.0134   20325360.468
        53.0004         49.0004
 -10184519.55548  -7880150.48247  22366681.8494   22366685.2204   22366682.403
        48.0004         44.0004
 14  5  7  1 34  0.0000000  0  9G09G10G07G28G08G26G17G04G02
 -12625168.05749  -9781742.38048  20340411.2984   20340416.2144   20340411.192
        54.0004         49.0004
 -16336994.69547 -12727783.41747  22608903.3464   22608911.4304   22608905.058
        47.0004         42.0004
 -14096818.23248 -10937322.55547  22034434.5924   22034437.7994   22034433.812
        49.0004         44.0004
  -9323794.05648  -7266651.87547  22407780.5764   22407790.0074   22407782.306
        48.0004         43.0004
 -19905896.69548 -15493114.66748  20257360.7284   20257365.3564   20257360.729
        53.0004         48.0004
  -1362347.72247  -1048138.89746  24144206.7224   24144215.6474   24144206.506
        42.0004         38.0004
  -8550384.36447  -6605698.02847  23474353.2414   23474362.2534   23474352.696
        47.0004         42.0004
 -28851761.06848 -22431252.01948  20322555.5324   20322560.6044   20322554.779
        53.0004         49.0004
 -10246663.43248  -7928574.24847  22354856.2804   22354860.9194   22354857.329
        48.0004         44.0004
 14  5  7  1 34 30.0000000  0  9G09G10G07G28G08G26G17G04G02
 -12579102.17049  -9745846.87848  20349177.5164   20349182.3664   20349177.230
        54.0004         49.0004
 -16408419.47447 -12783439.06247  22595312.3864   22595318.3524   22595312.743
        47.0004         42.0004
 -14002699.12248 -10863983.00447  22052343.8224   22052348.4634   22052343.595
        49.0004         44.0004
  -9382447.40048  -7312355.72447  22396621.6334   22396627.0564   22396620.749
        48.0004         43.0004
 -19855333.13948 -15453714.48348  20266982.8254   20266987.5104   20266982.745
        53.0004         48.0004
  -1348730.87347  -1037528.22046  24146797.8294   24146804.7894   24146797.826
        43.0004         38.0004
  -8516152.80847  -6579024.10547  23480867.1944   23480875.7664   23480867.087
        47.0004         42.0004
 -28865946.71248 -22442305.78648  20319855.8534   20319860.8424   20319855.575
        53.0004         49.0004
 -10308419.43648  -7976695.76947  22343105.4334   22343109.0574   22343105.556
        48.0004         43.0004
 14  5  7  1 35  0.0000000  0  9G09G10G07G28G08G26G17G04G02
 -12532530.54349  -9709557.29248  20358039.7664   20358044.8074   20358039.727
        54.0004         49.0004
 -16479864.00347 -12839110.09847  22581716.5244   22581722.6294   22581716.942
        47.0004         42.0004
 -13908317.55948 -10790438.95147  22070304.1444   22070308.4204   22070304.544
        49.0004         44.0004
  -9441046.75248  -7358017.50347  22385469.0144   22385476.9674   22385469.864
        48.0004         43.0004
 -19804187.35448 -15413860.61548  20276715.1804   20276720.6084   20276715.432
        53.0004         48.0004
  -1334999.07047  -1026827.97146  24149410.2764   24149419.2654   24149410.110
        42.0004         38.0004
  -8482086.84847  -6552479.21247  23487349.6484   23487358.1124   23487349.564
        47.0004         42.0004
 -28879573.31648 -22452923.94048  20317262.9364   20317268.0084   20317262.458
        53.0004         49.0004
 -10369784.04548  -8024512.31747  22331428.0704   22331431.6044   22331427.479
        48.0004         44.0004
 14  5  7  1 35 30.0000000  0  9G09G10G07G28G08G26G17G04G02
 -12485460.47449  -9672879.31048  20366996.8564   20367001.3744   20366996.732
        54.0004         49.0004
 -16551330.93347 -12894798.60047  22568116.8234   22568123.0844   22568117.605
        47.0004         42.0004
 -13813681.40348 -10716696.50747  22088313.8614   22088317.2664   22088312.904
        49.0004         44.0004
  -9499594.36248  -7403638.96447  22374327.1704   22374337.3634   22374328.663
        48.0004         43.0004
 -19752466.83648 -15373558.90948  20286557.4814   20286562.4844   20286557.481
        53.0004         48.0004
  -1321159.52247  -1016043.76646  24152044.0334   24152053.9984   24152043.527
        42.0004         38.0004
  -8448192.51847  -6526068.06147  23493799.7354   23493808.7954   23493799.541
        47.0004         42.0004
 -28892645.75648 -22463110.28148  20314774.9534   20314780.5554   20314774.728
        53.0004         49.0004
 -10430760.92448  -8072026.73147  22319824.7414   22319828.3874   22319824.749
        48.0004         44.0004
 14  5  7  1 36  0.0000000  0  9G09G10G07G28G08G26G17G04G02
 -12437888.20549  -9635810.00548  20376049.3774   20376054.3964   20376049.387
        54.0004         49.0004
 -16622811.53447 -12950497.75747  22554514.8384   22554520.8184   22554515.674
        47.0004         43.0004
 -13718787.35048 -10642753.09747  22106371.0124   22106375.3234   22106370.541
        49.0004         44.0004
  -9558081.05548  -7449212.96347  22363199.4414   22363206.9944   22363198.416
        48.0004         43.0004
 -19700167.32548 -15332806.03848  20296509.5824   20296514.7814   20296509.733
        53.0004         48.0004
  -1307208.47147  -1005172.68846  24154699.2154   24154707.8824   24154698.127
        43.0004         38.0004
  -8414465.22347  -6499787.07447  23500217.3564   23500226.3234   23500217.322
        47.0004         42.0004
 -28905157.82348 -22472859.96648  20312394.1894   20312399.8424   20312393.847
        53.0004         49.0004
 -10491342.41448  -8119233.03947  22308296.8684   22308299.8634   22308296.306
        48.0004         44.0004
 14  5  7  1 36 30.0000000  0  9G09G10G07G28G08G26G17G04G02
 -12389823.07649  -9598356.64748  20385196.0304   20385200.5884   20385195.788
        54.0004         49.0004
 -16694310.26047 -13006211.05147  22540909.1774   22540915.4174   22540909.481
        47.0004         43.0004
 -13623645.61448 -10568616.69747  22124476.0094   22124480.6904   22124475.675
        49.0004         44.0004
  -9616511.13448  -7494742.84947  22352080.1724   22352086.8884   22352079.624
        48.0004         43.0004
 -19647298.25248 -15291609.35348  20306570.0654   20306575.3744   20306570.551
        53.0004         48.0004
  -1293154.93047   -994221.75746  24157372.3084   24157382.1244   24157372.937
        43.0004         38.0004
  -8380913.38547  -6473642.81347  23506603.1894   23506609.8814   23506602.523
        47.0004         42.0004
 -28917116.56548 -22482178.49248  20310118.4754   20310124.1584   20310118.328
        53.0004         49.0004
 -10551533.98948  -8166135.53447  22296842.2074   22296844.9494   22296842.466
        48.0004         44.0004
 14  5  7  1 37  0.0000000  0  9G09G10G07G28G08G26G17G04G02
 -12341259.75849  -9560515.09348  20394437.3164   20394442.3584   20394437.121
        54.0004         49.0004
 -16765817.02947 -13061930.60847  22527302.0704   22527308.0904   22527301.749
        47.0004         43.0004
 -13528251.56148 -10494283.68447  22142628.7564   22142633.4624   22142628.636
        49.0004         44.0004
  -9674873.98448  -7540220.34747  22340973.0184   22340980.7624   22340973.648
        48.0004         43.0004
 -19593854.32648 -15249964.73048  20316740.1634   20316745.5114   20316740.337
        53.0004         48.0004
  -1278993.61947   -983186.82546  24160068.0694   24160075.9244   24160067.073
        43.0004         38.0004
  -8347530.34047  -6447630.07647  23512954.4964   23512964.3224   23512954.818
        47.0004         42.0004
 -28928514.33448 -22491059.89648  20307949.8654   20307954.8824   20307949.419
        53.0004         49.0004
 -10611326.65748  -8212727.19547  22285463.5204   22285468.3404   22285464.100
        48.0004         44.0004
 14  5  7  1 37 30.0000000  0  9G09G10G07G28G08G26G17G04G02
 -12292207.00549  -9522292.16548  20403771.5904   20403776.7834   20403771.630
        54.0004         49.0004
 -16837335.86147 -13117659.55747  22513692.6864   22513698.4084   22513693.040
        47.0004         42.0004
 -13432614.52448 -10419761.30847  22160827.1164   22160831.9824   22160827.286
        49.0004         44.0004
  -9733173.36448  -7585648.38547  22329880.4044   22329885.9914   22329879.567
        48.0004         43.0004
 -19539844.10148 -15207878.83848  20327017.7634   20327023.4814   20327018.264
        53.0004         48.0004
  -1264733.17847   -972074.66246  24162781.2274   24162790.3844   24162781.346
        43.0004         38.0004
  -8314323.79547  -6421754.85946  23519273.7844   23519281.3654   23519273.611
        46.0004         41.0004
 -28939357.67848 -22499509.27848  20305886.1394   20305891.5864   20305885.602
        53.0004         49.0004
 -10670725.46148  -8259011.94847  22274159.7104   22274164.2354   22274160.693
        49.0004         44.0004
 14  5  7  1 38  0.0000000  0  9G09G10G07G28G08G26G17G04G02
 -12242662.82049  -9483686.30148  20413199.4424   20413204.5744   20413199.533
        54.0004         49.0004
 -16908860.27647 -13173392.87547  22500081.4004   22500084.8334   22500082.081
        47.0004         43.0004
 -13336733.25848 -10345048.64547  22179072.9324   22179078.5054   22179072.874
        49.0004         44.0004
  -9791402.04948  -7631021.35047  22318798.2624   22318805.2234   22318799.379
        48.0004         43.0004
 -19485265.72348 -15165350.22948  20337403.9484   20337409.1634   20337404.097
        52.0004         48.0004
  -1250371.52747   -960883.63046  24165514.1694   24165523.1144   24165513.326
        43.0004         38.0004
  -8281290.64547  -6396014.75346  23525559.6564   23525569.0354   23525559.464
        46.0004         41.0004
 -28949642.34248 -22507523.32648  20303929.1854   20303934.2994   20303928.842
        53.0004         49.0004
 -10729724.65348  -8304985.31647  22262933.8304   22262937.5714   22262933.838
        49.0004         44.0004
 14  5  7  1 38 30.0000000  0  9G09G10G07G28G08G26G17G04G02
 -12192632.85749  -9444701.91348  20422719.9444   20422724.9604   20422720.021
        54.0004         49.0004
 -16980390.94047 -13229131.06247  22486469.4764   22486474.8524   22486470.949
        47.0004         43.0004
 -13240614.24348 -10270150.72747  22197364.3114   22197368.8394   22197364.221
        49.0004         44.0004
  -9849560.65048  -7676339.69547  22307730.4474   22307738.6734   22307731.566
        48.0004         43.0004
 -19430124.90048 -15122383.35148  20347896.8564   20347901.7314   20347897.046
        52.0004         48.0004
  -1235914.26947   -949618.10646  24168265.0794   24168273.1144   24168264.906
        43.0004         38.0004
  -8248435.55347  -6370413.39346  23531812.6264   23531821.0424   23531812.001
        46.0004         41.0004
 -28959371.81048 -22515104.75748  20302077.8704   20302083.4004   20302077.355
        53.0004         49.0004
 -10788325.92648  -8350648.61347  22251781.4694   22251784.8514   22251782.291
        49.0004         44.0004
 14  5  7  1 39  0.0000000  0  9G09G10G07G28G08G26G17G04G02
 -12142116.43049  -9405338.45448  20432332.9274   20432338.0074   20432332.683
        54.0004         49.0004
 -17051921.97948 -13284869.54947  22472858.4214   22472863.1544   22472858.690
        48.0004         43.0004
 -13144257.38048 -10195067.46647  22215701.1094   22215704.9224   22215700.141
        49.0004         44.0004
  -9907643.12648  -7721598.72147  22296679.0074   22296685.3274   22296678.990
        48.0004         43.0004
 -19374420.75048 -15078977.52148  20358496.7704   20358502.0434   20358497.053
        52.0004         48.0004
  -1221360.42447   -938277.31846  24171033.8054   24171042.5964   24171033.953
        43.0004         38.0004
  -8215756.45747  -6344949.17746  23538030.2844   23538038.8874   23538030.185
        46.0004         41.0004
 -28968542.86948 -22522251.05748  20300332.5484   20300337.9504   20300332.059
        53.0004         49.0004
 -10846524.97148  -8395998.49747  22240706.6724   22240710.5734   22240707.287
        49.0004         44.0004
 14  5  7  1 39 30.0000000  0  9G09G10G07G28G08G26G17G04G02
 -12091120.98249  -9365601.74048  20442036.6984   20442041.4834   20442036.946
        54.0004         49.0004
 -17123455.76148 -13340610.16347  22459245.1644   22459251.8554   22459246.475
        48.0004         43.0004
 -13047670.21048 -10119804.74947  22234080.7884   22234084.4654   22234079.971
        49.0004         44.0004
  -9965650.53748  -7766799.26947  22285640.5074   22285647.9154   22285640.252
        48.0004         43.0004
 -19318160.74848 -15035138.56248  20369202.9304   20369207.8914   20369203.088
        52.0004         48.0004
  -1206717.09247   -926866.78046  24173820.9964   24173830.1274   24173820.598
        43.0004         38.0004
  -8183259.76447  -6319627.09446  23544214.9624   23544222.8964   23544214.186
        46.0004         41.0004
 -28977160.52349 -22528966.13548  20298692.7164   20298698.0954   20298692.539
        54.0004         49.0004
 -10904325.34848  -8441037.72947  22229707.4194   22229711.3704   22229708.570
        49.0004         44.0004
 14  5  7  1 40  0.0000000  0  9G09G10G07G28G08G26G17G04G02
 -12039642.85349  -9325488.90548  20451832.9114   20451837.8844   20451832.773
        54.0004         49.0004
 -17194983.99548 -13396346.45847  22445633.8114   22445640.1034   22445634.657
        48.0004         43.0004
 -12950850.16448 -10044360.56647  22252505.1364   22252508.6124   22252504.108
        48.0004         44.0004
 -10023575.12148  -7811935.24847  22274618.0084   22274624.9654   22274617.542
        48.0004         43.0004
 -19261341.21748 -14990863.60148  20380015.2774   20380020.3774   20380015.433
        52.0004         48.0004
  -1191980.55047   -915383.64346  24176624.9854   24176633.7944   24176624.947
        43.0004         38.0004
  -8150940.52647  -6294443.28246  23550365.6294   23550373.7514   23550364.995
        46.0004         41.0004
 -28985219.24349 -22535245.68348  20297159.1944   20297164.4594   20297158.713
        54.0004         49.0004
 -10961719.78748  -8485760.64447  22218785.8764   22218789.2224   22218786.239
        49.0004         44.0004
 14  5  7  1 40 30.0000000  0  9G09G10G07G28G08G26G17G04G02
 -11987687.74949  -9285004.40348  20461719.5474   20461724.5134   20461719.649
        54.0004         49.0004
 -17266507.43048 -13452079.00947  22432023.8284   22432031.1894   22432024.669
        48.0004         43.0004
 -12853803.52048  -9968739.82247  22270971.7544   22270975.9464   22270971.727
        48.0004         44.0004
 -10081417.10948  -7857006.88847  22263610.3354   22263616.7674   22263610.949
        48.0004         44.0004
 -19203968.03648 -14946157.22548  20390933.2264   20390938.0884   20390933.418
        52.0004         48.0004
  -1177156.40047   -903832.22746  24179445.7824   24179455.3414   24179445.255
        43.0004         38.0004
  -8118803.18447  -6269401.20846  23556481.2494   23556487.7714   23556480.210
        46.0004         41.0004
 -28992722.37749 -22541092.30448  20295731.5104   20295736.9284   20295731.147
        54.0004         49.0004
 -11018710.33748  -8530168.84947  22207940.7184   22207944.7504   22207941.124
        49.0004         44.0004
 14  5  7  1 41  0.0000000  0  9G09G10G07G28G08G26G17G04G02
 -11935257.37549  -9244149.56648  20471696.3254   20471701.8224   20471696.632
        54.0004         49.0004
 -17338022.56248 -13507805.09047  22418415.9694   22418420.0554   22418415.244
        48.0004         43.0004
 -12756532.34648  -9892944.10347  22289482.4024   22289486.4754   22289481.602
        48.0004         44.0004
 -10139172.69148  -7902011.20747  22252620.3694   22252626.0944   22252620.633
        48.0004         44.0004
 -19146042.83748 -14901020.70748  20401955.7454   20401961.0894   20401955.776
        52.0004         48.0004
  -1162245.95647   -892213.58446  24182283.9024   24182291.2324   24182282.791
        43.0004         38.0004
  -8086848.12047  -6244501.16046  23562560.7054   23562569.9454   23562560.600
        46.0004         41.0004
 -28999669.18749 -22546505.42748  20294409.2994   20294414.8864   20294409.152
        54.0004         49.0004
 -11075294.76948  -8574260.58747  22197174.1014   22197176.9404   22197173.901
        49.0004         44.0004
 14  5  7  1 41 30.0000000  0  9G09G10G07G28G08G26G17G04G02
 -11882356.67249  -9202928.23548  20481763.3784   20481768.4634   20481763.251
        54.0004         49.0004
 -17409529.19448 -13563524.54547  22404807.4244   22404812.3804   22404808.704
        48.0004         43.0004
 -12659042.17448  -9816977.74747  22308032.8914   22308038.5824   22308033.299
        48.0004         43.0004
 -10196841.83948  -7946948.16747  22241645.1474   22241653.0384   22241646.383
        48.0004         44.0004
 -19087570.54748 -14855457.88748  20413083.1464   20413088.0724   20413083.351
        52.0004         48.0004
  -1147253.84147   -880531.28346  24185135.1624   24185144.6384   24185135.742
        43.0004         38.0004
  -8055078.84747  -6219745.88447  23568607.2644   23568614.7144   23568606.432
        46.0004         42.0004
 -29006062.51249 -22551487.26248  20293193.0774   20293198.3354   20293192.628
        54.0004         49.0004
 -11131474.41648  -8618036.91347  22186482.8264   22186486.1904   22186483.164
        49.0004         44.0004
 14  5  7  1 42  0.0000000  0  9G09G10G07G28G08G26G17G04G02
 -11828985.00548  -9161339.92648  20491919.4604   20491924.5204   20491919.781
        53.0004         49.0004
 -17481021.65048 -13619232.96547  22391203.0894   22391208.7194   22391203.123
        48.0004         43.0004
 -12561332.95048  -9740840.70347  22326627.6494   22326631.4514   22326626.855
        48.0004         43.0004
 -10254417.89448  -7991812.58647  22230689.6884   22230695.6014   22230689.972
        48.0004         43.0004
 -19028550.40648 -14809468.16148  20424313.8774   20424319.3924   20424313.828
        52.0004         48.0004
  -1132179.21047   -868784.67946  24188004.4484   24188013.7904   24188004.287
        43.0004         38.0004
  -8023493.38547  -6195133.83347  23574617.9764   23574624.7904   23574617.331
        46.0004         42.0004
 -29011899.41548 -22556035.52348  20292081.9914   20292087.8764   20292081.644
        53.0004         49.0004
 -11187244.39948  -8661494.01447  22175870.2924   22175873.0734   22175870.559
        49.0004         45.0004
 14  5  7  1 42 30.0000000  0  9G09G10G07G28G08G26G17G04G02
 -11775147.87048  -9119388.91148  20502164.6454   20502169.3164   20502164.551
        53.0004         49.0004
 -17552500.65548 -13674930.89647  22377600.1894   22377607.0094   22377601.204
        48.0004         43.0004
 -12463410.67548  -9664537.64547  22345260.9174   22345265.8144   22345260.821
        48.0004         43.0004
 -10311900.99748  -8036604.58347  22219751.9214   22219757.7664   22219751.456
        48.0004         44.0004
 -18968988.18648 -14763056.04848  20435648.5844   20435653.9524   20435648.579
        52.0004         48.0004
  -1117027.30947   -856977.88646  24190888.4204   24190895.1844   24190887.300
        43.0004         38.0004
  -7992096.02747  -6170668.35647  23580593.0114   23580600.8424   23580591.832
        47.0004         42.0004
 -29017183.48148 -22560153.00248  20291076.5144   20291081.9104   20291076.326
        53.0004         49.0004
 -11242606.84448  -8704633.55447  22165334.5454   22165338.6994   22165335.149
        49.0004         45.0004
 14  5  7  1 43  0.0000000  0  9G09G10G07G28G08G26G17G04G02
 -11720844.93549  -9077074.93648  20512498.4094   20512503.1074   20512498.187
        54.0004         49.0004
 -17623960.82248 -13730614.15847  22364002.1984   22364009.5384   22364002.760
        48.0004         43.0004
 -12365275.61448  -9588068.76547  22363936.0484   22363940.6754   22363935.258
        48.0004         43.0004
 -10369285.12348  -8081319.45447  22208831.5524   22208838.4174   22208831.664
        48.0004         44.0004
 -18908883.51948 -14716221.24548  20447085.6024   20447091.1794   20447085.748
        52.0004         48.0004
  -1101797.55247   -845110.41346  24193785.6544   24193793.8744   24193785.360
        43.0004         38.0004
  -7960884.72347  -6146347.84947  23586531.5394   23586540.5754   23586530.959
        46.0004         42.0004
 -29021911.89848 -22563837.51348  20290177.1294   20290182.6224   20290176.730
        53.0004         49.0004
 -11297557.36348  -8747452.12547  22154878.2934   22154882.3184   22154878.525
        49.0004         45.0004
 14  5  7  1 43 30.0000000  0  9G09G10G07G28G08G26G17G04G02
 -11666080.40848  -9034401.28348  20522919.4704   20522923.9124   20522919.459
        53.0004         49.0004
 -17695401.15948 -13786281.97247  22350407.9124   22350413.8434   22350408.771
        48.0004         43.0004
 -12266932.27948  -9511437.60747  22382651.1304   22382653.8754   22382649.355
        48.0004         43.0004
 -10426569.49748  -8125956.58847  22197931.0304   22197938.1974   22197930.642
        48.0004         44.0004
 -18848240.70148 -14668967.10648  20458625.8794   20458631.3194   20458626.206
        52.0004         48.0004
  -1086493.84347   -833185.33546  24196698.5164   24196706.3574   24196698.064
        43.0004         38.0004
  -7929862.50247  -6122174.68647  23592434.8844   23592442.8874   23592434.592
        46.0004         42.0004
 -29026086.99548 -22567090.86448  20289382.5074   20289387.6344   20289382.001
        53.0004         49.0004
 -11352096.74948  -8789950.33547  22144500.6754   22144502.4004   22144499.878
        49.0004         45.0004
 14  5  7  1 44  0.0000000  0  9G09G10G07G28G08G26G17G04G02
 -11610856.57749  -8991369.73248  20533428.2024   20533433.0824   20533428.230
        54.0004         49.0004
 -17766818.83348 -13841932.10047  22336817.4744   22336823.9304   22336818.087
        48.0004         43.0004
 -12168383.48848  -9434646.34047  22401402.6514   22401408.2264   22401402.480
        48.0004         43.0004
 -10483751.08048  -8170513.61547  22187048.9254   22187055.8134   22187049.075
        49.0004         44.0004
 -18787062.05548 -14621295.43448  20470267.4494   20470272.7344   20470267.711
        52.0004         48.0004
  -1071118.08847   -821204.10646  24199623.5834   24199631.3804   24199622.772
        42.0004         38.0004
  -7899030.02847  -6098149.36247  23598301.8014   23598310.0524   23598301.658
        46.0004         42.0004
 -29029708.55048 -22569912.88248  20288693.1474   20288699.0724   20288693.114
        53.0004         49.0004
 -11406223.66148  -8832127.13647  22134199.4354   22134203.9734   22134200.021
        49.0004         45.0004
 14  5  7  1 44 30.0000000  0  9G09G10G07G28G08G26G17G04G02
 -11555175.22748  -8947981.67048  20544023.9544   20544028.9544   20544023.967
        53.0004         49.0004
 -17838210.23848 -13897561.77447  22323232.1184   22323239.2354   22323232.666
        48.0004         43.0004
 -12069631.35148  -9357696.63847  22420194.7074   22420197.4654   22420194.501
        48.0004         43.0004
 -10540825.86348  -8214987.44147  22176188.1034   22176193.9304   22176188.245
        49.0004         44.0004
 -18725349.25048 -14573207.53948  20482011.6924   20482016.5764   20482011.652
        52.0004         48.0004
  -1055671.64647   -809167.79246  24202562.4814   24202571.0734   24202562.330
        42.0004         38.0004
  -7868387.57747  -6074272.10747  23604133.8714   23604141.8284   23604133.036
        46.0004         42.0004
 -29032776.48848 -22572303.51648  20288109.4194   20288115.3074   20288108.991
        53.0004         49.0004
 -11459935.87748  -8873980.78647  22123979.1954   22123982.9574   22123978.705
        49.0004         45.0004
 14  5  7  1 45  0.0000000  0  9G09G10G07G28G08G26G17G04G02
 -11499041.32348  -8904240.96548  20554705.8514   20554710.9684   20554705.849
        53.0004         49.0004
 -17909574.98148 -13953170.66947  22309652.7774   22309658.5904   22309652.755
        48.0004         43.0004
 -11970681.15148  -9280592.58947  22439024.0104   22439028.3694   22439024.075
        48.0004         43.0004
 -10597792.93348  -8259377.33247  22165347.9144   22165354.7294   22165347.933
        49.0004         44.0004
 -18663107.10448 -14524707.16148  20493855.5054   20493861.1304   20493855.808
        52.0004         48.0004
  -1040158.85647   -797079.80046  24205514.3214   24205523.0104   24205513.843
        42.0004         38.0004
  -7837938.47647  -6050545.51347  23609927.3164   23609935.4884   23609926.940
        46.0004         42.0004
 -29035293.14648 -22574264.57348  20287630.4604   20287635.6774   20287630.141
        53.0004         49.0004
 -11513234.06648  -8915511.83047  22113835.9834   22113839.8534   22113836.850
        49.0004         45.0004
 14  5  7  1 45 30.0000000  0  9G09G10G07G28G08G26G17G04G02
 -11442454.78548  -8860147.56548  20565473.8914   20565478.7484   20565474.154
        53.0004         49.0004
 -17980908.09948 -14008754.92547  22296078.3334   22296083.1884   22296078.489
        48.0004         43.0004
 -11871533.32547  -9203334.54847  22457891.3894   22457896.0714   22457891.227
        47.0004         43.0004
 -10654647.02148  -8303679.18447  22154528.9674   22154535.2144   22154528.648
        49.0004         44.0004
 -18600335.88948 -14475794.52848  20505800.6344   20505805.8034   20505800.715
        52.0004         48.0004
  -1024579.56147   -784939.96646  24208479.2304   24208487.6084   24208478.951
        43.0004         38.0004
  -7807681.46247  -6026968.61546  23615685.1894   23615692.4394   23615684.525
        46.0004         41.0004
 -29037256.38048 -22575794.39848  20287257.1474   20287262.4954   20287256.982
        53.0004         49.0004
 -11566114.87048  -8956717.63647  22103773.8634   22103776.6424   22103773.724
        49.0004         45.0004
 14  5  7  1 46  0.0000000  0  9G09G10G07G28G08G26G17G04G02
 -11385420.18248  -8815705.01848  20576327.2374   20576331.8584   20576327.039
        53.0004         49.0004
 -18052208.96948 -14064314.05847  22282509.1614   22282515.3124   22282509.899
        48.0004         43.0004
 -11772193.21247  -9125926.68547  22476795.2794   22476800.1344   22476795.408
        47.0004         43.0004
 -10711387.22148  -8347892.28147  22143731.1844   22143737.1074   22143731.415
        49.0004         44.0004
 -18537040.27448 -14426473.27548  20517845.0844   20517850.5754   20517845.391
        52.0004         48.0004
  -1008937.98847   -772751.61546  24211455.2724   24211462.6244   24211455.703
        43.0004         38.0004
  -7777619.45947  -6003543.66946  23621405.9694   23621413.7754   23621405.039
        46.0004         41.0004
 -29038668.89248 -22576895.08248  20286988.3064   20286993.6694   20286987.626
        53.0004         49.0004
 -11618579.23748  -8997598.95147  22093790.4014   22093792.7534   22093790.268
        49.0004         45.0004
 14  5  7  1 46 30.0000000  0  9G09G10G07G28G08G26G17G04G02
 -11327940.98448  -8770916.03848  20587265.2714   20587270.0554   20587265.306
        53.0004         49.0004
 -18123475.47848 -14119846.40447  22268947.4654   22268954.7334   22268948.551
        48.0004         43.0004
 -11672664.26047  -9048371.65547  22495736.0064   22495738.8204   22495735.020
        47.0004         43.0004
 -10768011.20048  -8392014.82047  22132956.9374   22132962.2734   22132955.885
        48.0004         44.0004
 -18473223.66548 -14376746.05147  20529989.1164   20529994.1824   20529989.314
        52.0004         47.0004
   -993237.14547   -760517.06946  24214443.0094   24214451.5764   24214442.818
        43.0004         38.0004
  -7747754.46247  -5980272.22746  23627088.9834   23627095.9234   23627088.125
        46.0004         41.0004
 -29039532.03548 -22577567.68848  20286824.3894   20286829.6504   20286824.026
        53.0004         49.0004
 -11670626.67848  -9038155.38247  22083885.3024   22083888.5064   22083885.774
        49.0004         45.0004
 14  5  7  1 47  0.0000000  0  9G09G10G07G28G08G26G17G04G02
 -11270016.21148  -8725779.85748  20598288.2184   20598292.6844   20598287.950
        53.0004         49.0004
 -18194701.29948 -14175347.05747  22255394.5114   22255400.5534   22255394.971
        48.0004         44.0004
 -11572945.83847  -8970668.99147  22514710.9954   22514713.9514   22514710.644
        47.0004         43.0004
 -10824512.48448  -8436041.75347  22122205.0354   22122210.3024   22122204.496
        48.0004         44.0004
 -18408885.26948 -14326612.23947  20542231.8974   20542237.4994   20542232.369
        52.0004         47.0004
   -977475.44047   -748235.10646  24217442.4224   24217451.1344   24217442.195
        43.0004         38.0004
  -7718083.36647  -5957151.85346  23632734.6734   23632743.0784   23632734.635
        46.0004         41.0004
 -29039842.57248 -22577809.69148  20286764.8744   20286770.6394   20286764.297
        53.0004         49.0004
 -11722252.33548  -9078383.16247  22074061.2374   22074064.7444   22074061.607
        49.0004         45.0004
 14  5  7  1 47 30.0000000  0  9G09G10G07G28G08G26G17G04G02
 -11211652.81648  -8680301.89248  20609394.0344   20609398.9744   20609394.026
        53.0004         49.0004
 -18265887.95648 -14230817.17647  22241848.0694   22241854.3684   22241848.575
        48.0004         44.0004
 -11473045.50647  -8892824.57847  22533721.0974   22533726.6934   22533720.694
        47.0004         42.0004
 -10880892.59048  -8479974.25847  22111474.9514   22111483.5384   22111475.197
        48.0004         44.0004
 -18344032.07748 -14276077.29047  20554573.5544   20554578.8044   20554573.774
        52.0004         47.0004
   -961659.57547   -735910.95846  24220452.5914   24220459.8434   24220452.545
        42.0004         38.0004
  -7688611.66547  -5934186.86946  23638342.5224   23638351.2314   23638342.678
        46.0004         41.0004
 -29039605.44348 -22577624.94148  20286810.1924   20286815.4434   20286809.795
        53.0004         49.0004
 -11773459.68748  -9118284.97847  22064316.9184   22064319.8674   22064317.490
        50.0004         45.0004
 14  5  7  1 48  0.0000000  0  9G09G10G07G28G08G26G17G04G02
 -11152849.79648  -8634481.36548  20620583.9684   20620588.6944   20620583.854
        53.0004         49.0004
 -18337029.22448 -14286251.93947  22228310.3384   22228316.0884   22228310.244
        48.0004         44.0004
 -11372962.36447  -8814837.72747  22552767.5664   22552770.8374   22552766.717
        47.0004         42.0004
 -10937144.47648  -8523806.85847  22100770.0204   22100777.5814   22100771.132
        49.0004         44.0004
 -18278663.04748 -14225140.39847  20567013.0924   20567017.8464   20567013.188
        52.0004         47.0004
   -945787.89647   -723543.28746  24223470.9374   24223480.3014   24223471.626
        42.0004         38.0004
  -7659336.37047  -5911374.92946  23643914.2264   23643922.6884   23643913.576
        46.0004         41.0004
 -29038817.51148 -22577011.00348  20286960.2364   20286964.9974   20286959.728
        53.0004         49.0004
 -11824243.82848  -9157857.03847  22054653.2904   22054656.4124   22054653.202
        50.0004         45.0004
 14  5  7  1 48 30.0000000  0 10G09G05G10G07G28G08G26G17G04G02
 -11093613.18748  -8588322.97548  20631856.1834   20631861.1984   20631856.152
        53.0004         49.0004
  -1630139.02947  -1225962.59846  25485126.4004   25485138.1564   25485127.101
        43.0004         36.0004
 -18408125.92648 -14341651.97447  22214781.2034   22214786.0304   22214781.918
        48.0004         44.0004
 -11272702.47647  -8736713.14447  22571846.3394   22571848.8104   22571845.454
        47.0004         42.0004
 -10993268.60448  -8567539.91047  22090090.8114   22090098.4634   22090091.130
        49.0004         44.0004
 -18212784.24248 -14173806.26847  20579549.1344   20579554.5574   20579549.365
        52.0004         47.0004
   -929865.97647   -711136.49246  24226503.6734   24226510.1174   24226502.169
        42.0004         38.0004
  -7630262.54147  -5888719.97646  23649446.0414   23649455.1564   23649446.195
        46.0004         41.0004
 -29037482.73348 -22575970.94348  20287214.0604   20287219.7624   20287213.756
        53.0004         49.0004
 -11874607.17948  -9197101.19447  22045069.0114   22045072.4674   22045069.958
        50.0004         45.0004
 14  5  7  1 49  0.0000000  0 10G09G05G10G07G28G08G26G17G04G02
 -11033943.69648  -8541827.27248  20643210.7654   20643216.1724   20643211.193
        53.0004         49.0004
  -1710769.47546  -1288791.13145  25469785.7714   25469793.2074   25469783.618
        41.0004         35.0004
 -18479173.72848 -14397013.90147  22201260.5934   22201267.5344   22201261.686
        48.0004         44.0004
 -11172267.44947  -8658452.09547  22590957.9344   22590962.0614   22590956.910
        47.0004         42.0004
 -11049260.26348  -8611169.73747  22079436.3404   22079442.4034   22079435.805
        49.0004         44.0004
 -18146396.78848 -14122075.79547  20592182.3084   20592187.6054   20592182.570
        52.0004         47.0004
   -913894.39647   -698690.98846  24229540.2164   24229549.5724   24229541.200
        43.0004         38.0004
  -7601388.61947  -5866220.79047  23654940.9574   23654949.4064   23654940.976
        46.0004         42.0004
 -29035600.01348 -22574503.92148  20287572.4184   20287577.8634   20287572.215
        53.0004         49.0004
 -11924546.73448  -9236015.12947  22035565.7264   22035569.0194   22035565.897
        50.0004         45.0004
 14  5  7  1 49 30.0000000  0 10G09G05G10G07G28G08G26G17G04G02
 -10973839.97548  -8494993.21348  20654648.3504   20654653.4604   20654648.096
        53.0004         49.0004
  -1791611.58246  -1351784.38446  25454398.5044   25454406.3924   25454398.850
        41.0004         36.0004
 -18550165.28348 -14452331.99347  22187751.3934   22187756.6134   22187752.287
        49.0004         44.0004
 -11071655.95947  -8580053.54047  22610103.0674   22610106.5994   22610103.005
        47.0004         42.0004
 -11105112.10348  -8654690.61847  22068807.7564   22068813.7744   22068807.481
        49.0004         44.0004
 -18079499.02548 -14069947.67547  20604912.3274   20604917.7484   20604912.587
        52.0004         47.0004
   -897870.80647   -686204.96946  24232590.1134   24232598.3704   24232590.152
        43.0004         38.0004
  -7572711.60547  -5843875.04046  23660398.6964   23660406.9024   23660397.533
        46.0004         41.0004
 -29033165.47948 -22572606.91248  20288035.7204   20288041.2734   20288035.155
        53.0004         49.0004
 -11974057.11948  -9274594.64247  22026144.5894   22026147.3204   22026144.711
        50.0004         45.0004
 14  5  7  1 50  0.0000000  0 10G09G05G10G07G28G08G26G17G04G02
 -10913314.52948  -8447830.53248  20666165.3984   20666171.2394   20666166.050
        53.0004         49.0004
  -1872674.32546  -1414949.56846  25438973.3034   25438981.0754   25438972.371
        41.0004         36.0004
 -18621107.61348 -14507611.73647  22174251.6574   22174256.9454   22174252.066
        49.0004         44.0004
 -10970880.58547  -8501527.28247  22629279.7694   22629284.4644   22629279.728
        47.0004         42.0004
 -11160830.79348  -8698107.74747  22058204.9224   22058210.5694   22058204.679
        49.0004         44.0004
 -18012103.57648 -14017431.75747  20617737.2384   20617743.1144   20617737.514
        52.0004         47.0004
   -881807.13247   -673687.71246  24235646.5044   24235654.8744   24235646.228
        42.0004         38.0004
  -7544242.14147  -5821691.01346  23665816.0824   23665824.6264   23665815.117
        46.0004         41.0004
 -29030189.67848 -22570288.13648  20288601.6764   20288607.1624   20288601.583
        53.0004         49.0004
 -12023147.13948  -9312846.60447  22016803.1774   22016806.2204   22016803.249
        50.0004         45.0004
 14  5  7  1 50 30.0000000  0 10G09G05G10G07G28G08G26G17G04G02
 -10852365.75748  -8400337.98848  20677764.2934   20677769.1794   20677764.110
        53.0004         49.0004
  -1953952.52246  -1478282.67446  25423505.0144   25423512.6354   25423505.260
        41.0004         36.0004
 -18691994.00148 -14562847.89547  22160762.8654   22160768.3354   22160763.482
        49.0004         44.0004
 -10869939.90047  -8422872.21247  22648488.7814   22648492.1954   22648488.237
        47.0004         42.0004
 -11216409.30648  -8741415.65747  22047628.4604   22047634.9234   22047628.581
        49.0004         44.0004
 -17944209.30148 -13964527.14047  20630657.2974   20630662.7214   20630657.566
        52.0004         47.0004
   -865701.48947   -661137.74246  24238713.3384   24238720.1134   24238711.956
        42.0004         38.0004
  -7515976.97547  -5799666.19446  23671194.6954   23671202.6814   23671194.085
        46.0004         41.0004
 -29026669.34148 -22567545.05148  20289272.0704   20289277.3654   20289271.660
        53.0004         49.0004
 -12071811.77448  -9350767.08547  22007542.1584   22007546.0434   22007542.850
        50.0004         45.0004
 14  5  7  1 51  0.0000000  0 10G09G05G10G07G28G08G26G17G04G02
 -10790995.04448  -8352516.65948  20689442.4744   20689447.9034   20689442.439
        53.0004         49.0004
  -2035443.45047  -1541781.68146  25407997.5454   25408007.2364   25407997.708
        42.0004         37.0004
 -18762820.21748 -14618037.16747  22147284.8504   22147290.9704   22147285.322
        49.0004         44.0004
 -10768835.67847  -8344089.70947  22667727.3224   22667732.7434   22667727.757
        47.0004         42.0004
 -11271843.51248  -8784611.11347  22037079.1674   22037086.0274   22037079.444
        49.0004         44.0004
 -17875817.62348 -13911234.93647  20643671.9264   20643676.5574   20643672.206
        52.0004         47.0004
   -849554.75047   -648555.75646  24241784.3804   24241791.4544   24241784.048
        43.0004         38.0004
  -7487915.20447  -5777799.85146  23676535.0514   23676542.7434   23676533.789
        46.0004         41.0004
 -29022603.41348 -22564376.82348  20290045.6994   20290051.4564   20290045.068
        53.0004         49.0004
 -12120048.55548  -9388354.19347  21998362.4994   21998366.8434   21998362.777
        50.0004         45.0004
 14  5  7  1 51 30.0000000  0 10G09G05G10G07G28G08G26G17G04G02
 -10729206.89548  -8304370.05648  20701200.5734   20701205.4794   20701200.578
        53.0004         49.0004
  -2117148.38946  -1605447.44746  25392448.7924   25392458.6864   25392448.740
        41.0004         36.0004
 -18833585.69948 -14673179.10547  22133818.6014   22133823.0404   22133819.043
        49.0004         44.0004
 -10667572.98247  -8265183.71047  22686997.4704   22687002.8934   22686998.014
        47.0004         42.0004
 -11327131.89148  -8827692.94647  22026557.9284   22026565.6694   22026558.645
        49.0004         44.0004
 -17806933.43948 -13857558.96647  20656779.7454   20656785.8634   20656780.307
        52.0004         47.0004
   -833371.07447   -635944.99746  24244864.7324   24244869.5234   24244863.795
        42.0004         38.0004
  -7460059.80847  -5756094.32146  23681835.0394   23681843.4934   23681834.246
        46.0004         41.0004
 -29017995.14348 -22560786.00048  20290922.6124   20290928.2994   20290922.341
        53.0004         49.0004
 -12167858.72348  -9425608.86547  21989264.9664   21989268.8754   21989266.065
        50.0004         45.0004
 14  5  7  1 52  0.0000000  0 10G09G05G10G07G28G08G26G17G04G02
 -10667001.70948  -8255898.49048  20713037.8084   20713042.9314   20713037.844
        53.0004         49.0004
  -2199062.79346  -1669276.32946  25376860.8004   25376869.7164   25376860.197
        41.0004         36.0004
 -18904285.21148 -14728269.64847  22120364.7414   22120370.4704   22120365.633
        49.0004         44.0004
 -10566152.39547  -8186154.68647  22706298.2404   22706301.3224   22706297.220
        47.0004         42.0004
 -11382269.34148  -8870657.17347  22016067.3674   22016073.5454   22016066.581
        49.0004         44.0004
 -17737557.43448 -13803499.75147  20669981.7144   20669986.8184   20669982.152
        52.0004         47.0004
   -817150.29347   -623305.32646  24247951.3374   24247957.3084   24247949.744
        42.0004         38.0004
  -7432410.03947  -5734549.02046  23687096.8594   23687104.7854   23687096.661
        46.0004         41.0004
 -29012842.59248 -22556771.06048  20291903.0684   20291908.8674   20291902.716
        53.0004         49.0004
 -12215238.89548  -9462528.48447  21980248.9624   21980252.3614   21980248.953
        50.0004         45.0004
 14  5  7  1 52 30.0000000  0 10G09G05G10G07G28G08G26G17G04G02
 -10604384.91648  -8207106.18448  20724953.7044   20724958.4404   20724953.338
        53.0004         49.0004
  -2281188.94946  -1733270.53345  25361233.2774   25361241.5024   25361232.354
        40.0004         35.0004
 -18974918.18048 -14783308.34147  22106924.8614   22106929.6494   22106924.725
        49.0004         44.0004
 -10464579.00047  -8107006.60847  22725626.1334   22725630.1064   22725625.446
        47.0004         42.0004
 -11437255.08548  -8913503.16947  22005601.8924   22005610.2424   22005603.216
        49.0004         44.0004
 -17667694.53448 -13749061.14247  20683276.0854   20683281.8094   20683276.352
        52.0004         47.0004
   -800896.79347   -610640.14446  24251043.3904   24251051.2714   24251043.680
        42.0004         38.0004
  -7404968.78747  -5713166.20746  23692317.9594   23692326.5444   23692317.462
        46.0004         41.0004
 -29007149.10448 -22552334.61348  20292986.6824   20292991.9934   20292986.350
        53.0004         49.0004
 -12262190.46248  -9499114.11747  21971314.2644   21971317.9554   21971314.693
        50.0004         45.0004
 14  5  7  1 53  0.0000000  0 10G09G05G10G07G28G08G26G17G04G02
 -10541358.63248  -8157994.80248  20736947.0584   20736951.9864   20736947.030
        53.0004         49.0004
  -2363523.83046  -1797427.22845  25345566.3364   25345574.6274   25345563.738
        40.0004         35.0004
 -19045481.48248 -14838292.74247  22093496.7884   22093501.6884   22093497.279
        49.0004         44.0004
 -10362855.72447  -8027741.72547  22744982.7324   22744988.7434   22744982.935
        47.0004         42.0004
 -11492085.63748  -8956228.24947  21995168.7724   21995175.4494   21995169.264
        49.0004         44.0004
 -17597347.25148 -13694245.09347  20696663.1034   20696668.2484   20696663.190
        52.0004         47.0004
   -784612.26447   -597950.81546  24254141.8324   24254149.0304   24254141.417
        42.0004         38.0004
  -7377735.89447  -5691945.74946  23697500.2654   23697509.0704   23697499.663
        45.0004         41.0004
 -29000914.68148 -22547476.65748  20294172.8304   20294178.8834   20294172.597
        53.0004         49.0004
 -12308711.94148  -9535364.62847  21962461.5894   21962464.8594   21962461.976
        50.0004         45.0004
 14  5  7  1 53 30.0000000  0 10G09G05G10G07G28G08G26G17G04G02
 -10477924.03748  -8108565.24948  20749018.0754   20749023.1004   20749017.969
        53.0004         49.0004
  -2446065.35546  -1861745.08846  25329858.6654   25329867.1454   25329856.342
        40.0004         36.0004
 -19115970.69348 -14893219.40747  22080082.6864   22080088.6604   22080083.398
        49.0004         44.0004
 -10260983.51447  -7948360.79047  22764369.3484   22764373.7084   22764368.901
        47.0004         42.0004
 -11546756.06648  -8998828.55847  21984764.4094   21984772.0384   21984765.526
        49.0004         44.0004
 -17526516.72448 -13639052.48847  20710141.1454   20710146.8424   20710141.617
        52.0004         47.0004
   -768297.41847   -585237.82246  24257246.1714   24257254.7104   24257246.073
        42.0004         38.0004
  -7350710.80047  -5670887.21046  23702642.9844   23702651.7524   23702642.960
        45.0004         41.0004
 -28994138.79949 -22542196.78348  20295462.5804   20295468.1094   20295462.291
        54.0004         49.0004
 -12354800.74748  -9571277.96947  21953691.5264   21953694.7064   21953691.888
        50.0004         45.0004
 14  5  7  1 54  0.0000000  0 10G09G05G10G07G28G08G26G17G04G02
 -10414086.17648  -8058821.46648  20761166.0044   20761171.0764   20761166.153
        53.0004         49.0004
  -2528813.40046  -1926223.75646  25314111.5784   25314118.9304   25314110.997
        40.0004         36.0004
 -19186385.23748 -14948087.90047  22066683.3684   22066689.1954   22066683.987
        49.0004         44.0004
 -10158967.40247  -7868867.73947  22783782.4684   22783786.8994   22783782.303
        47.0004         42.0004
 -11601265.97648  -9041303.78847  21974392.3054   21974398.4854   21974392.290
        49.0004         44.0004
 -17455208.05048 -13583487.30347  20723711.0764   20723716.7804   20723711.308
        52.0004         47.0004
   -751956.36547   -572504.43446  24260355.9284   24260363.8804   24260355.921
        42.0004         37.0004
  -7323896.89447  -5649993.23646  23707745.9314   23707753.6924   23707745.603
        46.0004         41.0004
 -28986824.71349 -22536497.53448  20296854.3754   20296859.6224   20296853.934
        54.0004         49.0004
 -12400458.35948  -9606855.33847  21945003.1204   21945006.2354   21945003.252
        50.0004         45.0004
 14  5  7  1 54 30.0000000  0 10G09G05G10G07G28G08G26G17G04G02
 -10349847.09548  -8008765.04348  20773390.3974   20773395.3174   20773390.137
        53.0004         49.0004
  -2611766.75846  -1990862.43646  25298326.1844   25298333.0824   25298326.569
        40.0004         36.0004
 -19256721.48148 -15002895.37547  22053298.6304   22053305.0544   22053299.531
        49.0004         44.0004
 -10056809.76347  -7789264.37647  22803221.6414   22803226.1934   22803221.131
        47.0004         42.0004
 -11655611.47948  -9083650.90247  21964050.4094   21964057.3934   21964051.045
        49.0004         44.0004
 -17383423.62048 -13527551.39347  20737371.1644   20737376.6794   20737371.549
        52.0004         47.0004
   -735590.68547   -559751.85146  24263469.2384   24263477.6744   24263470.654
        42.0004         38.0004
  -7297294.07047  -5629263.73646  23712807.9014   23712816.4594   23712807.513
        46.0004         41.0004
 -28978972.41549 -22530378.89748  20298348.3084   20298354.6654   20298348.311
        54.0004         49.0004
 -12445683.25948  -9642095.52047  21936396.7124   21936399.7864   21936397.386
        50.0004         45.0004
 14  5  7  1 55  0.0000000  0 10G09G05G10G07G28G08G26G17G04G02
 -10285208.54548  -7958397.34748  20785690.8834   20785695.6074   20785690.802
        53.0004         49.0004
  -2694922.68746  -2055659.02446  25282502.7544   25282507.8264   25282501.592
        41.0004         36.0004
 -19326975.55848 -15057638.82147  22039930.1284   22039935.4314   22039930.621
        49.0004         44.0004
  -9954512.50947  -7709552.23947  22822688.2644   22822692.8674   22822687.802
        47.0004         42.0004
 -11709788.26648  -9125866.55547  21953741.4224   21953747.0864   21953741.359
        49.0004         44.0004
 -17311165.26448 -13471246.19747  20751121.6214   20751126.8224   20751121.764
        52.0004         47.0004
   -719201.47247   -546980.94846  24266588.7314   24266596.0124   24266587.981
        42.0004         37.0004
  -7270901.97547  -5608698.44446  23717830.4394   23717838.3494   23717829.584
        46.0004         41.0004
 -28970581.61349 -22523840.64948  20299945.5084   20299951.2124   20299945.123
        54.0004         49.0004
 -12490473.37748  -9676996.91447  21927873.8714   21927877.5694   21927873.731
        50.0004         45.0004
 14  5  7  1 55 30.0000000  0 10G09G05G10G07G28G08G26G17G04G02
 -10220177.03948  -7907723.44748  20798066.0284   20798071.0884   20798065.597
        53.0004         49.0004
  -2778282.88946  -2120614.58446  25266640.0494   25266646.3214   25266639.062
        40.0004         36.0004
 -19397148.49448 -15112319.04847  22026576.6544   22026583.3304   22026577.421
        49.0004         44.0004
  -9852082.17147  -7629736.40147  22842180.6754   22842186.0214   22842180.293
        47.0004         42.0004
 -11763797.40548  -9167951.57247  21943463.3994   21943470.8834   21943463.843
        49.0004         44.0004
 -17238439.74448 -13414576.97547  20764960.3714   20764966.0484   20764961.179
        52.0004         47.0004
   -702794.45647   -534196.15246  24269710.7524   24269718.6484   24269711.106
        42.0004         37.0004
  -7244724.68447  -5588300.52546  23722811.8954   23722820.6474   23722810.932
        46.0004         41.0004
 -28961657.12049 -22516886.54148  20301643.7084   20301649.5164   20301643.380
        54.0004         49.0004
 -12534831.67948  -9711561.82447  21919433.7304   21919435.5804   21919433.091
        50.0004         45.0004
 14  5  7  1 56  0.0000000  0 10G09G05G10G07G28G08G26G17G04G02
 -10154750.20548  -7856741.50548  20810516.0234   20810521.3814   20810516.289
        53.0004         49.0004
  -2861841.82046  -2185725.03245  25250739.2834   25250747.8374   25250738.248
        40.0004         35.0004
 -19467232.36348 -15166929.87047  22013239.9564   22013245.6154   22013240.418
        49.0004         44.0004
  -9749516.83447  -7549815.37647  22861698.7614   22861702.5444   22861697.960
        47.0004         42.0004
 -11817630.46648  -9209899.38247  21933219.0354   21933226.6414   21933219.929
        49.0004         45.0004
 -17165244.84848 -13357542.00747  20778889.3474   20778894.4274   20778889.558
        52.0004         47.0004
   -686366.70347   -521395.20446  24272837.0104   24272844.1084   24272836.296
        42.0004         38.0004
  -7218758.41847  -5568067.06846  23727752.0684   23727760.8574   23727752.123
        46.0004         41.0004
 -28952194.50949 -22509513.11548  20303444.3204   20303450.0824   20303443.989
        54.0004         49.0004
 -12578752.46948  -9745785.81947  21911074.6694   21911078.0664   21911074.986
        50.0004         45.0004
 14  5  7  1 56 30.0000000  0 10G09G05G10G07G28G08G26G17G04G02
 -10088935.41548  -7805457.25648  20823040.1444   20823045.2414   20823039.996
        53.0004         48.0004
  -2945602.53646  -2250992.88546  25234798.1784   25234804.0324   25234798.574
        40.0004         36.0004
 -19537228.77248 -15221472.54547  21999919.9534   21999926.4114   21999920.988
        49.0004         44.0004
  -9646823.55447  -7469794.63847  22881239.2884   22881244.6404   22881239.590
        47.0004         42.0004
 -11871289.06848  -9251711.25147  21923009.1074   21923014.8194   21923008.934
        49.0004         45.0004
 -17091588.11248 -13300147.16847  20792905.7924   20792910.9714   20792905.908
        51.0004         47.0004
   -669924.95347   -508583.34846  24275966.5524   24275974.0944   24275966.186
        42.0004         38.0004
  -7193008.21047  -5548001.95346  23732651.7014   23732661.0784   23732652.131
        46.0004         41.0004
 -28942199.87049 -22501725.12548  20305346.2184   20305351.6834   20305345.991
        54.0004         49.0004
 -12622239.46248  -9779671.79247  21902799.2414   21902802.5974   21902800.019
        50.0004         45.0004
 14  5  7  1 57  0.0000000  0 10G09G05G10G07G28G08G26G17G04G02
 -10022733.11548  -7753871.05548  20835638.0344   20835643.1644   20835638.154
        53.0004         48.0004
  -3029560.83946  -2316414.71746  25218820.9864   25218827.7164   25218821.531
        40.0004         36.0004
 -19607132.22748 -15275942.78547  21986618.5004   21986623.4434   21986618.402
        49.0004         44.0004
  -9544002.43347  -7389674.29647  22900806.3814   22900811.0784   22900806.213
        47.0004         42.0004
 -11924767.28048  -9293382.55747  21912831.7794   21912838.5744   21912832.281
        49.0004         45.0004
 -17017469.71648 -13242392.59347  20807010.1684   20807015.4354   20807010.289
        51.0004         47.0004
   -653468.58947   -495760.10946  24279097.3424   24279104.5234   24279097.191
        42.0004         38.0004
  -7167472.44247  -5528103.92946  23737513.4024   23737520.8774   23737511.889
        46.0004         41.0004
 -28931671.09949 -22493520.92948  20307349.7714   20307355.7244   20307349.293
        54.0004         49.0004
 -12665288.71948  -9813216.67247  21894607.2924   21894610.5404   21894607.588
        50.0004         45.0004
 14  5  7  1 57 30.0000000  0 10G09G05G10G07G28G08G26G17G04G02
  -9956147.76548  -7701986.36648  20848309.1504   20848314.1734   20848308.640
        53.0004         48.0004
  -3113717.15346  -2381990.85445  25202807.0344   25202813.1914   25202806.850
        40.0004         35.0004
 -19676941.75448 -15330339.83447  21973333.4164   21973339.1034   21973333.833
        49.0004         45.0004
  -9441058.69547  -7309458.41147  22920395.9124   22920400.8644   22920395.736
        46.0004         42.0004
 -11978063.93748  -9334912.39147  21902690.7224   21902695.9834   21902690.562
        49.0004         45.0004
 -16942894.58348 -13184282.11347  20821201.0194   20821207.0454   20821201.528
        51.0004         47.0004
   -637001.72747   -482928.68946  24282232.2064   24282238.7494   24282230.534
        43.0004         38.0004
  -7142153.43047  -5508374.81146  23742330.9354   23742338.8374   23742329.992
        46.0004         41.0004
 -28920611.21749 -22484902.87748  20309454.6154   20309460.0764   20309454.243
        54.0004         49.0004
 -12707901.72248  -9846421.61347  21886498.9544   21886502.2824   21886499.088
        50.0004         45.0004
 14  5  7  1 58  0.0000000  0 10G09G05G10G07G28G08G26G17G04G02
  -9889181.98848  -7649805.25048  20861052.1104   20861057.2384   20861051.932
        53.0004         48.0004
  -3198069.48546  -2447719.63645  25186755.5794   25186761.7424   25186755.066
        40.0004         35.0004
 -19746654.00448 -15384661.08347  21960067.7934   21960073.6954   21960068.437
        49.0004         44.0004
  -9337994.42547  -7229148.59446  22940008.7004   22940013.5024   22940008.336
        46.0004         41.0004
 -12031175.48348  -9376297.98447  21892583.2564   21892589.7664   21892583.589
        49.0004         45.0004
 -16867865.71948 -13125818.07547  20835478.4314   20835484.3224   20835478.766
        51.0004         47.0004
   -620526.00647   -470090.36646  24285366.6404   24285373.1014   24285366.266
        43.0004         38.0004
  -7117051.08247  -5488814.52146  23747107.7214   23747115.4174   23747107.161
        46.0004         41.0004
 -28909021.17048 -22475871.71248  20311660.0874   20311665.7314   20311659.638
        53.0004         49.0004
 -12750077.35648  -9879285.74547  21878473.0454   21878476.1844   21878473.105
        50.0004         45.0004
