     2.11           OBSERVATION DATA    G (GPS)             RINEX VERSION / TYPE
teqc  2013Mar15     gpsops              20140522 00:38:12UTCPGM / RUN BY / DATE
Linux 2.4.21-27.ELsmp|Opteron|gcc -static|Linux x86_64|=+   COMMENT
BIT 2 OF LLI FLAGS DATA COLLECTED UNDER A/S CONDITION       COMMENT
GLPS                                                        MARKER NAME
42005M002                                                   MARKER NUMBER
GGN                 JPL                                     OBSERVER / AGENCY
ZR220013847         ASHTECH UZ-12       CQ00                REC # / TYPE / VERS
CR519992104         ASH701945B_M    SCIT                    ANT # / TYPE
   -33801.4662 -6377516.5323   -82154.3508                  APPROX POSITION XYZ
        0.0083        0.0000        0.0000                  ANTENNA: DELTA H/E/N
     1     1                                                WAVELENGTH FACT L1/2
     7    L1    L2    P1    P2    C1    S1    S2            # / TYPES OF OBSERV
    30.0000                                                 INTERVAL
                                                            COMMENT
This data is provided as a public service by NASA/JPL.      COMMENT
No warranty is expressed or implied regarding suitability   COMMENT
for use.  For further information, contact:                 COMMENT
Dave Stowers, NASA/JPL m/s 238-600                          COMMENT
4800 Oak Grove Drive, Pasadena CA 91109 USA                 COMMENT
                                                            COMMENT
Forced Modulo Decimation to 30 seconds                      COMMENT
 SNR is mapped to RINEX snr flag value [0-9]                COMMENT
  L1 & L2: min(max(int(snr_dBHz/6), 0), 9)                  COMMENT
pseudorange smoothing corrections not applied               COMMENT
  2014     5    21     0     0    0.0000000     GPS         TIME OF FIRST OBS
                                                            END OF HEADER
 14  5 21  0  0  0.0000000  0 12G09G10G07G20G08G26G28G02G17G01G13G04
 -13909474.94149 -10833583.33648  19979342.7724   19979349.1194   19979342.829
        54.0004         50.0004
 -11251394.53647  -8760911.31746  23586215.2554   23586223.6724   23586215.817
        44.0004         40.0004
 -20168530.99948 -15679878.96547  20905901.9804   20905907.3754   20905901.477
        52.0004         47.0004
  -5091247.75746  -3914750.24246  23749614.5514   23749625.2714   23749615.223
        40.0004         36.0004
 -19611711.28949 -15249251.91648  19890559.8104   19890566.8524   19890560.263
        54.0004         49.0004
   -792155.51047   -601996.47746  24052219.6014   24052231.3344   24052218.809
        43.0004         38.0004
  -5304735.53747  -4135428.59346  23221574.7214   23221585.6464   23221575.122
        45.0004         40.0004
  -5246447.75847  -4034894.08646  23349767.9074   23349774.1884   23349767.413
        44.0004         39.0004
 -11907607.12248  -9216681.77547  22936780.1214   22936790.8944   22936779.780
        48.0004         44.0004
   -699143.08446   -516138.00246  24630983.4334   24630998.8234   24630981.909
        41.0004         36.0004
   1767597.34246   1426862.07945  24680675.4524   24680682.7314   24680676.101
        39.0004         35.0004
 -24379568.74848 -18952746.75147  20822390.0964   20822396.0984   20822389.156
        52.0004         47.0004
 14  5 21  0  0 30.0000000  0 12G09G10G07G20G08G26G28G02G17G01G13G04
 -13905433.15449 -10830433.83248  19980111.7554   19980118.1984   19980111.687
        54.0004         50.0004
 -11315585.18047  -8810929.86746  23573999.7844   23574008.2274   23574000.261
        44.0004         40.0004
 -20101222.08448 -15627430.43347  20918710.4164   20918715.7704   20918709.964
        52.0004         47.0004
  -5069957.67646  -3898160.61346  23753667.3484   23753675.7394   23753666.597
        40.0004         36.0004
 -19604288.91249 -15243468.19348  19891972.4094   19891978.7594   19891972.747
        54.0004         49.0004
   -793031.45047   -602678.88446  24052051.5074   24052065.1964   24052050.342
        42.0004         38.0004
  -5360229.89847  -4178670.78846  23211014.4124   23211024.8074   23211014.593
        45.0004         40.0004
  -5331564.79847  -4101218.90246  23333570.2424   23333576.8984   23333570.352
        44.0004         40.0004
 -11865224.33048  -9183656.26147  22944846.4254   22944854.9214   22944844.920
        48.0004         44.0004
   -593136.97446   -433535.79746  24651155.2124   24651169.8724   24651154.312
        41.0004         36.0004
   1831585.45846   1476723.07545  24692853.3674   24692858.1734   24692853.140
        39.0004         35.0004
 -24433417.63248 -18994706.86548  20812142.6464   20812149.3764   20812142.184
        52.0004         48.0004
 14  5 21  0  1  0.0000000  0 12G09G10G07G20G08G26G28G02G17G01G13G04
 -13900788.46449 -10826814.53248  19980995.8904   19981002.1214   19980995.882
        54.0004         50.0004
 -11379949.26447  -8861083.57546  23561751.1424   23561760.6044   23561752.009
        44.0004         40.0004
 -20033451.94948 -15574622.51047  20931606.1884   20931611.1254   20931605.889
        52.0004         47.0004
  -5048375.10346  -3881343.10245  23757771.6184   23757783.4844   23757773.652
        40.0004         35.0004
 -19596208.80549 -15237171.94848  19893509.9654   19893516.5074   19893510.684
        54.0004         49.0004
   -793644.95347   -603156.79746  24051935.2414   24051947.8194   24051935.202
        42.0004         38.0004
  -5415858.48447  -4222017.58146  23200429.9084   23200438.9804   23200429.512
        45.0004         40.0004
  -5416434.74747  -4167351.18546  23317419.7724   23317426.7644   23317419.359
        44.0004         39.0004
 -11822890.21148  -9150668.66247  22952901.2134   22952911.2274   22952900.917
        48.0004         44.0004
   -487055.24146   -350874.66646  24671341.0034   24671356.0694   24671340.803
        41.0004         36.0004
   1895327.42546   1526392.26545  24704982.5064   24704987.8394   24704982.376
        39.0004         34.0004
 -24486789.04848 -19036294.93748  20801986.9304   20801993.5144   20801986.466
        52.0004         48.0004
 14  5 21  0  1 30.0000000  0 12G09G10G07G20G08G26G28G02G17G01G13G04
 -13895526.09049 -10822713.92048  19981996.8494   19982003.2354   19981997.057
        54.0004         50.0004
 -11444469.91547  -8911359.28746  23549472.9124   23549482.4734   23549474.045
        44.0004         40.0004
 -19965207.68748 -15521445.14347  20944592.9984   20944598.7554   20944592.391
        52.0004         47.0004
  -5026483.75746  -3864284.94845  23761939.0874   23761950.8874   23761940.898
        40.0004         35.0004
 -19587455.81749 -15230351.39148  19895175.7244   19895182.2484   19895175.766
        54.0004         49.0004
   -793982.75247   -603419.86946  24051869.9804   24051883.6044   24051869.141
        43.0004         38.0004
  -5471603.81447  -4265455.32446  23189820.1644   23189831.2924   23189820.994
        45.0004         40.0004
  -5501040.11547  -4233277.30946  23301320.6544   23301326.4184   23301319.731
        44.0004         40.0004
 -11780591.50748  -9117708.66947  22960949.2614   22960961.2924   22960949.992
        48.0004         43.0004
   -380885.21546   -268144.70745  24691545.9364   24691560.7504   24691545.022
        40.0004         35.0004
   1958837.82446   1575881.00145  24717067.4654   24717074.4924   24717067.717
        39.0004         34.0004
 -24539665.80248 -19077497.55448  20791924.0594   20791930.9754   20791923.641
        52.0004         48.0004
 14  5 21  0  2  0.0000000  0 12G09G10G07G20G08G26G28G02G17G01G13G04
 -13889657.45449 -10818140.89848  19983113.6584   19983120.1904   19983113.483
        54.0004         50.0004
 -11509156.18447  -8961764.03446  23537163.6334   23537172.6654   23537164.494
        44.0004         40.0004
 -19896502.84248 -15467908.86947  20957666.9334   20957672.3014   20957666.244
        52.0004         47.0004
  -5004293.16246  -3846993.64345  23766162.5424   23766171.6404   23766161.755
        40.0004         35.0004
 -19578041.21449 -15223015.28748  19896967.2254   19896973.7724   19896967.246
        54.0004         49.0004
   -794057.65847   -603478.09846  24051855.5134   24051869.6284   24051855.664
        43.0004         38.0004
  -5527474.89647  -4308991.07446  23179189.0044   23179199.0884   23179189.087
        45.0004         41.0004
  -5585389.42447  -4299003.90546  23285268.8234   23285275.8764   23285268.678
        44.0004         40.0004
 -11738341.20048  -9084786.38647  22968990.6924   22969000.1534   22968989.850
        48.0004         43.0004
   -274640.39446   -185356.46445  24711761.3874   24711780.0534   24711761.662
        40.0004         35.0004
   2022104.88946   1625180.12445  24729106.4964   24729112.9764   24729107.270
        39.0004         35.0004
 -24592056.94348 -19118321.77348  20781954.6734   20781961.6234   20781954.222
        52.0004         48.0004
 14  5 21  0  2 30.0000000  0 12G09G10G07G20G08G26G28G02G17G01G13G04
 -13883181.90149 -10813094.95448  19984346.1404   19984352.0854   19984346.195
        54.0004         50.0004
 -11574005.93647  -9012296.18746  23524823.7484   23524832.8954   23524824.276
        44.0004         40.0004
 -19827339.37048 -15414015.22447  20970828.4594   20970833.7554   20970827.892
        52.0004         47.0004
  -4981801.41646  -3829467.65845  23770442.5144   23770452.8634   23770442.925
        40.0004         35.0004
 -19567964.26649 -15215163.06648  19898884.9474   19898891.1134   19898885.184
        54.0004         49.0004
   -793870.63147   -603332.21346  24051890.3604   24051903.2414   24051891.169
        43.0004         38.0004
  -5583468.99047  -4352622.66246  23168534.0654   23168543.5004   23168533.788
        45.0004         41.0004
  -5669479.61847  -4364528.60246  23269266.7494   23269273.4784   23269267.095
        44.0004         40.0004
 -11696140.36248  -9051902.64347  22977020.9484   22977030.6424   22977020.441
        48.0004         43.0004
   -168322.48346   -102511.23345  24731993.3664   24732009.2254   24731994.372
        40.0004         35.0004
   2085128.58446   1674289.63545  24741100.2044   24741107.0874   24741100.269
        39.0004         35.0004
 -24643960.01448 -19158765.67948  20772078.0384   20772084.2524   20772077.425
        52.0004         48.0004
 14  5 21  0  3  0.0000000  0 12G09G10G07G20G08G26G28G02G17G01G13G04
 -13876096.82249 -10807574.05048  19985693.9934   19985700.6244   19985694.045
        54.0004         50.0004
 -11639014.60347  -9062952.16946  23512452.1024   23512461.1424   23512453.075
        45.0004         40.0004
 -19757715.97948 -15359763.20647  20984077.1374   20984082.2714   20984076.783
        52.0004         47.0004
  -4959004.29246  -3811703.70545  23774780.7364   23774791.9074   23774780.667
        39.0004         35.0004
 -19557221.50349 -15206792.02948  19900928.7914   19900935.4334   19900929.024
        54.0004         49.0004
   -793420.27447   -602981.14546  24051976.5064   24051989.5644   24051976.989
        43.0004         38.0004
  -5639580.46347  -4396345.72146  23157855.9274   23157864.7394   23157855.928
        46.0004         41.0004
  -5753305.34847  -4429847.22946  23253315.2144   23253321.4654   23253315.055
        45.0004         40.0004
 -11653987.87748  -9019056.58247  22985041.7524   22985053.2714   22985041.728
        48.0004         43.0004
    -61930.70146    -19608.44745  24752239.8654   24752254.5314   24752239.070
        39.0004         35.0004
   2147911.49946   1723211.51645  24753046.8974   24753055.1134   24753046.606
        39.0004         35.0004
 -24695369.93248 -19198825.31348  20762294.4164   20762301.3764   20762294.188
        52.0004         48.0004
 14  5 21  0  3 30.0000000  0 12G09G10G07G20G08G26G28G02G17G01G13G04
 -13868403.25649 -10801579.01048  19987158.2304   19987164.7114   19987158.074
        54.0004         50.0004
 -11704180.96647  -9113731.02246  23500050.8694   23500059.8784   23500052.184
        45.0004         40.0004
 -19687635.87448 -15305155.29947  20997412.9324   20997418.7074   20997412.687
        52.0004         47.0004
  -4935901.15946  -3793701.32045  23779178.0404   23779185.0924   23779177.285
        39.0004         35.0004
 -19545813.66649 -15197902.75848  19903099.7454   19903106.3464   19903099.986
        54.0004         49.0004
   -792708.97347   -602426.74246  24052111.7924   24052124.6744   24052111.219
        42.0004         38.0004
  -5695807.90447  -4440159.14546  23147156.6374   23147165.4704   23147155.673
        46.0004         41.0004
  -5836864.94847  -4494958.47546  23237414.9644   23237421.5914   23237415.082
        45.0004         40.0004
 -11611886.21848  -8986250.13447  22993054.0364   22993063.8824   22993053.507
        48.0004         43.0004
     44531.89346     63349.52045  24772498.5254   24772514.8154   24772498.215
        39.0004         34.0004
   2210452.26346   1771944.67245  24764946.9184   24764956.3474   24764948.006
        39.0004         34.0004
 -24746285.59548 -19238499.80948  20752605.6554   20752612.2634   20752605.517
        52.0004         48.0004
 14  5 21  0  4  0.0000000  0 12G09G10G07G20G08G26G28G02G17G01G13G04
 -13860101.75149 -10795110.24148  19988737.8104   19988744.2024   19988737.873
        54.0004         50.0004
 -11769503.18547  -9164631.32146  23487621.0344   23487630.4404   23487622.223
        45.0004         40.0004
 -19617101.59448 -15250193.49447  21010834.8394   21010840.7944   21010834.718
        52.0004         47.0004
  -4912490.80246  -3775459.52345  23783629.0594   23783641.2004   23783630.858
        39.0004         34.0004
 -19533741.48249 -15188495.81148  19905397.1074   19905403.4354   19905397.216
        54.0004         49.0004
   -791738.43047   -601670.32446  24052296.4704   24052309.3384   24052295.994
        42.0004         38.0004
  -5752149.09147  -4484061.18746  23136434.7344   23136443.2624   23136434.201
        46.0004         41.0004
  -5920156.07047  -4559860.51946  23221564.6854   23221570.5884   23221564.586
        45.0004         40.0004
 -11569837.28348  -8953484.75647  23001055.5834   23001066.0234   23001055.056
        48.0004         43.0004
  -9301457.12556  -7219239.19155  24792773.8025   24792784.9675   24792770.478
        39.0004         34.0004
   2272750.34146   1820488.72745  24776803.4674   24776810.2234   24776802.672
        39.0004         34.0004
 -24796705.14348 -19277787.72548  20743011.1984   20743017.6384   20743010.882
        52.0004         48.0004
 14  5 21  0  4 30.0000000  0 12G09G10G07G20G08G26G28G02G17G01G13G04
 -13851193.81349 -10788168.93348  19990432.8254   19990439.3914   19990432.739
        54.0004         50.0004
 -11834980.74547  -9215652.67246  23475160.6974   23475170.1034   23475162.028
        45.0004         40.0004
 -19546116.38848 -15194880.31747  21024343.2544   21024349.0314   21024342.724
        52.0004         47.0004
  -4888773.03846  -3756978.23345  23788145.2424   23788155.9614   23788144.774
        39.0004         34.0004
 -19521006.17149 -15178572.14348  19907820.1054   19907826.7174   19907820.444
        54.0004         49.0004
   -790511.66747   -600714.25746  24052529.8324   24052543.7464   24052528.886
        42.0004         37.0004
  -5808602.79747  -4528050.91546  23125691.2724   23125701.6844   23125691.507
        46.0004         41.0004
  -6003177.43547  -4624552.37946  23205766.1384   23205773.0964   23205766.203
        45.0004         40.0004
 -11527844.37248  -8920763.04047  23009046.5384   23009055.9114   23009046.068
        48.0004         43.0004
  -9194861.35846  -7136177.42345  24813054.9604   24813073.2574   24813055.162
        39.0004         34.0004
   2334803.63146   1868842.04845  24788612.4164   24788617.7924   24788611.533
        40.0004         35.0004
 -24846627.61748 -19316688.30148  20733510.8844   20733517.9364   20733510.233
        52.0004         48.0004
 14  5 21  0  5  0.0000000  0 12G09G10G07G20G08G26G28G02G17G01G13G04
 -13841677.50049 -10780753.56848  19992243.7754   19992249.9354   19992243.998
        54.0004         50.0004
 -11900609.59147  -9266791.89446  23462673.2224   23462680.3654   23462673.267
        45.0004         40.0004
 -19474680.30148 -15139215.80247  21037937.2284   21037942.3424   21037936.374
        52.0004         47.0004
  -4864744.39046  -3738254.68645  23792715.6174   23792729.3024   23792717.703
        39.0004         34.0004
 -19507605.52049 -15168130.03048  19910370.2354   19910376.8174   19910370.804
        54.0004         49.0004
   -789028.06747   -599558.03846  24052812.0434   24052825.3384   24052812.946
        42.0004         38.0004
  -5865164.36647  -4572124.69247  23114927.7484   23114938.0904   23114927.888
        46.0004         42.0004
  -6085924.34447  -4689030.35646  23190020.0704   23190025.9664   23190020.191
        45.0004         40.0004
 -11485907.08848  -8888084.68647  23017027.7814   23017037.4344   23017026.409
        48.0004         43.0004
  -9088200.74046  -7053065.11845  24833351.4514   24833367.9664   24833351.627
        38.0004         34.0004
   2396614.12946   1917006.16845  24800374.7634   24800379.0944   24800373.728
        39.0004         35.0004
 -24896049.10948 -19355198.50548  20724106.6044   20724113.1224   20724106.708
        52.0004         48.0004
 14  5 21  0  5 30.0000000  0 12G09G10G07G20G08G26G28G02G17G01G13G04
 -13831553.97349 -10772865.04848  19994170.1954   19994176.2424   19994170.183
        54.0004         50.0004
 -11966388.48147  -9318048.03946  23450155.7584   23450163.0494   23450156.094
        45.0004         40.0004
 -19402796.50648 -15083202.42347  21051616.3174   21051621.6194   21051615.892
        52.0004         47.0004
 -12717504.00246  -9857288.20045  23797350.8764   23797358.2804   23797349.174
        39.0004         34.0004
 -19493540.07949 -15157169.89848  19913046.7184   19913052.9014   19913047.176
        54.0004         49.0004
   -787289.68147   -598203.29246  24053142.4134   24053154.6694   24053141.958
        42.0004         38.0004
  -5921831.88047  -4616281.01846  23104144.4804   23104153.7524   23104144.674
        46.0004         41.0004
  -6168394.91447  -4753293.00046  23174326.3194   23174332.6904   23174326.229
        45.0004         41.0004
 -11444027.26548  -8855451.10247  23024996.9304   23025006.9194   23024995.704
        48.0004         43.0004
  -8981477.80346  -6969904.24645  24853659.2564   24853674.6014   24853659.067
        38.0004         33.0004
   2458180.69046   1964980.20745  24812089.4464   24812095.7504   24812089.322
        40.0004         35.0004
 -24944968.09848 -19393317.14748  20714797.4674   20714804.1734   20714796.699
        52.0004         48.0004
 14  5 21  0  6  0.0000000  0 12G09G10G07G20G08G26G28G02G17G01G13G04
 -13820830.39249 -10764508.95348  19996210.8064   19996216.9354   19996210.874
        54.0004         50.0004
 -12032322.59047  -9369425.13446  23437608.3624   23437615.5594   23437608.675
        45.0004         40.0004
 -19330474.27548 -15026847.40547  21065378.7214   21065383.8864   21065378.067
        52.0004         47.0004
 -12692857.81446  -9838083.45445  23802038.7004   23802052.2824   23802040.327
        39.0004         34.0004
 -19478816.94549 -15145697.28248  19915848.4124   19915854.8924   19915848.756
        54.0004         49.0004
   -785305.37447   -596656.92746  24053521.3634   24053534.6164   24053520.593
        42.0004         38.0004
  -5978609.90047  -4660523.45046  23093339.3344   23093349.5524   23093339.791
        46.0004         41.0004
  -6250593.59947  -4817343.79046  23158682.8344   23158690.4684   23158684.665
        45.0004         41.0004
 -11402213.80848  -8822869.21947  23032952.7944   23032963.6304   23032952.927
        48.0004         43.0004
  -8874702.37356  -6886702.41255  24873978.7565   24873998.3805   24873978.332
        38.0004         33.0004
   2519495.93646   2012758.41345  24823758.2034   24823764.3684   24823756.635
        40.0004         35.0004
 -24993389.72448 -19431048.22648  20705583.2964   20705589.6764   20705582.976
        52.0004         48.0004
 14  5 21  0  6 30.0000000  0 11G09G10G07G20G08G26G28G02G17G13G04
 -13809499.10749 -10755679.32548  19998367.1734   19998373.0664   19998367.060
        54.0004         50.0004
 -12098401.80947  -9420915.30746  23425033.9414   23425041.0264   23425033.868
        45.0004         41.0004
 -19257707.39248 -14970145.90647  21079225.5554   21079230.8774   21079224.943
        52.0004         47.0004
 -12667896.27356  -9818632.97555  23806787.3595   23806799.7235   23806789.052
        39.0004         34.0004
 -19463428.15349 -15133705.97348  19918776.8644   19918783.3064   19918777.222
        54.0004         49.0004
   -783068.48947   -594913.75946  24053945.4704   24053959.8524   24053944.850
        43.0004         38.0004
  -6035487.91847  -4704843.79846  23082515.9664   23082526.4334   23082516.016
        46.0004         41.0004
  -6332509.96747  -4881174.59146  23143095.7114   23143101.6934   23143095.821
        45.0004         41.0004
 -11360460.41148  -8790334.13647  23040898.4404   23040909.1644   23040898.280
        48.0004         43.0004
   2580567.56346   2060346.80445  24835377.7024   24835382.7794   24835378.316
        39.0004         35.0004
 -25041304.04848 -19468384.01648  20696465.4454   20696471.5864   20696465.083
        52.0004         48.0004
 14  5 21  0  7  0.0000000  0 12G09G10G07G20G08G26G28G02G17G01G13G04
 -13797566.77949 -10746381.35048  20000637.7324   20000643.8564   20000637.628
        54.0004         50.0004
 -12164630.10547  -9472521.63646  23412430.5764   23412439.4204   23412431.020
        45.0004         40.0004
 -19184504.49148 -14913104.64547  21093155.4654   21093160.8244   21093155.054
        52.0004         47.0004
 -12642624.40346  -9798940.68545  23811599.8754   23811610.0454   23811599.469
        39.0004         34.0004
 -19447379.96249 -15121200.84448  19921830.8784   19921837.3374   19921831.197
        54.0004         49.0004
   -780586.79147   -592979.81846  24054418.2674   24054429.9714   24054418.997
        43.0004         38.0004
  -6092469.46047  -4749244.81746  23071672.0114   23071681.5574   23071672.518
        46.0004         41.0004
  -6414147.53047  -4944788.13746  23127560.8434   23127567.1314   23127560.305
        45.0004         40.0004
 -11318774.68848  -8757851.78247  23048832.2744   23048842.0814   23048831.208
        48.0004         43.0004
  -8660983.62656  -6720167.93955  24914646.1365   24914663.1625   24914646.899
        38.0004         33.0004
   2641389.20846   2107740.40545  24846954.9314   24846961.0084   24846952.409
        39.0004         34.0004
 -25088715.07448 -19505327.61448  20687443.3534   20687449.8634   20687442.543
        52.0004         48.0004
 14  5 21  0  7 30.0000000  0 11G09G10G07G20G08G26G28G02G17G13G04
 -13785030.30749 -10736612.61548  20003023.2214   20003029.4804   20003022.982
        54.0004         50.0004
 -12231002.12647  -9524239.97246  23399800.0414   23399809.1414   23399800.471
        45.0004         40.0004
 -19110864.54348 -14855722.83447  21107168.7164   21107174.7394   21107168.218
        52.0004         47.0004
 -12617037.24856  -9779002.69055  23816468.0815   23816478.0485   23816467.744
        39.0004         34.0004
 -19430669.13249 -15108179.37348  19925010.5284   19925017.1764   19925010.981
        54.0004         49.0004
   -777858.65847   -590853.87246  24054937.2004   24054949.7344   24054936.593
        43.0004         38.0004
  -6149548.85047  -4793722.08346  23060809.5304   23060820.5684   23060810.552
        46.0004         41.0004
  -6495500.49147  -5008179.91646  23112078.9784   23112086.1684   23112079.960
        45.0004         41.0004
 -11277155.12048  -8725420.97647  23056751.5484   23056761.8384   23056751.525
        48.0004         43.0004
   2701963.69646   2154941.38045  24858480.7634   24858485.7834   24858478.654
        39.0004         34.0004
 -25135617.73748 -19541875.09248  20678517.8454   20678524.4224   20678517.786
        52.0004         48.0004
 14  5 21  0  8  0.0000000  0 12G09G10G07G20G08G26G28G02G17G01G13G04
 -13771891.12849 -10726374.24348  20005523.5764   20005529.8684   20005523.596
        54.0004         50.0004
 -12297516.75547  -9576069.42246  23387143.7984   23387151.5874   23387142.782
        45.0004         40.0004
 -19036790.62948 -14798002.86547  21121264.7684   21121270.2634   21121264.023
        52.0004         47.0004
 -12591134.44646  -9758818.79645  23821397.0314   23821406.9354   23821397.491
        39.0004         34.0004
 -19413296.76849 -15094642.42548  19928316.4494   19928323.1434   19928316.556
        54.0004         49.0004
   -774886.55047   -588537.80046  24055504.2114   24055515.1304   24055502.362
        43.0004         38.0004
  -6206724.23547  -4838274.15246  23049929.4254   23049940.5094   23049930.642
        46.0004         41.0004
  -6576567.11947  -5071348.58546  23096652.9094   23096658.4104   23096652.157
        45.0004         41.0004
 -11235604.31348  -8693043.75747  23064657.6324   23064668.9824   23064657.862
        48.0004         43.0004
                  -6553476.03555                  24955368.3355   24955354.608
                        32.0004
   2762290.15646   2201949.09145  24869958.3764   24869964.0264   24869958.253
        39.0004         34.0004
 -25182010.96648 -19578025.61048  20669689.8104   20669696.3464   20669688.901
        52.0004         48.0004
 14  5 21  0  8 30.0000000  0 11G09G10G07G20G08G26G28G02G17G13G04
 -13758151.52949 -10715668.00648  20008138.0004   20008144.2444   20008138.069
        54.0004         50.0004
 -12364174.08447  -9628010.06146  23374457.8264   23374466.6574   23374458.782
        45.0004         41.0004
 -18962287.10448 -14739948.13647  21135442.4424   21135447.2314   21135441.465
        52.0004         47.0004
 -12564916.46846  -9738389.28145  23826384.5814   23826396.8874   23826387.526
        39.0004         34.0004
 -19395265.19349 -15080591.80548  19931748.1824   19931753.9094   19931748.082
        54.0004         49.0004
   -771673.83847   -586034.24946  24056114.6004   24056126.4544   24056113.465
        42.0004         38.0004
  -6263994.83247  -4882900.42046  23039031.8044   23039041.4544   23039032.581
        46.0004         41.0004
  -6657346.88347  -5134293.72746  23081281.2624   23081285.5574   23081281.172
        45.0004         41.0004
 -11194125.46948  -8660722.61347  23072552.3404   23072562.5644   23072551.073
        48.0004         43.0004
   2822366.13746   2248761.64345  24881388.9944   24881397.8294   24881390.854
        39.0004         35.0004
 -25227894.56648 -19613779.01148  20660958.2994   20660964.7114   20660957.885
        52.0004         48.0004
 14  5 21  0  9  0.0000000  0 11G09G10G07G20G08G26G28G02G17G13G04
 -13743812.54649 -10704494.71948  20010866.6084   20010872.5724   20010866.617
        54.0004         50.0004
 -12430972.31147  -9680060.49746  23361747.3974   23361754.7664   23361747.524
        45.0004         41.0004
 -18887356.59948 -14681560.70047  21149700.9634   21149706.2934   21149700.655
        52.0004         47.0004
 -12538382.30046  -9717713.36845  23831437.5204   23831449.4364   23831436.312
        39.0004         34.0004
 -19376575.05948 -15066028.02048  19935304.2724   19935310.6544   19935304.441
        53.0004         49.0004
   -768222.65147   -583344.86746  24056769.7894   24056783.0174   24056769.645
        42.0004         37.0004
  -6321358.43847  -4927599.15746  23028115.6904   23028125.4244   23028116.058
        46.0004         41.0004
  -6737837.70547  -5197013.69946  23065963.6774   23065969.7824   23065964.898
        46.0004         41.0004
 -11152720.72548  -8628459.19347  23080430.3014   23080440.8764   23080430.328
        48.0004         43.0004
   2882191.12846   2295378.60845  24892773.0644   24892783.8754   24892774.791
        39.0004         34.0004
 -25273267.39548 -19649134.41448  20652324.1344   20652330.2404   20652323.638
        52.0004         48.0004
 14  5 21  0  9 30.0000000  0 11G09G10G07G20G08G26G28G02G17G13G04
 -13728874.63749 -10692854.73848  20013708.8644   20013715.3344   20013709.108
        54.0004         50.0004
 -12497909.15247  -9732218.94546  23349009.9994   23349017.3684   23349009.959
        45.0004         41.0004
 -18812001.41148 -14622842.33147  21164040.0004   21164045.5324   21164039.801
        51.0004         47.0004
 -12511531.04446  -9696790.38545  23836543.8244   23836554.3634   23836545.186
        39.0004         35.0004
 -19357226.52048 -15050951.19848  19938986.1444   19938992.3584   19938986.494
        53.0004         49.0004
   -764534.60947   -580470.94046  24057473.3114   24057483.5314   24057472.326
        42.0004         38.0004
  -6378812.52247  -4972368.40146  23017181.1454   23017191.9044   23017182.701
        46.0004         41.0004
  -6818037.10147  -5259506.59346  23050701.9804   23050708.6394   23050702.586
        46.0004         41.0004
 -11111391.65448  -8596254.74847  23088296.0724   23088305.2484   23088294.918
        48.0004         43.0004
   2941764.56046   2341799.56445  24904110.1364   24904120.7794   24904111.103
        39.0004         35.0004
 -25318127.44248 -19684090.24648  20643787.3494   20643793.9504   20643786.819
        53.0004         48.0004
 14  5 21  0 10  0.0000000  0 11G09G10G07G20G08G26G28G02G17G13G04
 -13713337.42549 -10680747.77548  20016665.6854   20016671.4134   20016665.610
        54.0004         50.0004
 -12564981.94347  -9784483.32246  23336246.2114   23336253.9114   23336246.689
        45.0004         40.0004
 -18736223.05348 -14563794.23047  21178460.5244   21178465.5174   21178460.251
        51.0004         47.0004
 -12484360.66646  -9675618.75445  23841715.3434   23841728.4054   23841716.822
        39.0004         34.0004
 -19337219.28848 -15035361.10648  19942793.3184   19942799.7764   19942793.639
        53.0004         49.0004
   -760610.43647   -577413.02046  24058219.7574   24058230.9284   24058218.126
        42.0004         38.0004
  -6436353.60747  -5017205.43746  23006232.9074   23006240.6684   23006233.005
        46.0004         41.0004
  -6897941.67547  -5321769.75646  23035497.6354   23035502.5864   23035496.936
        46.0004         41.0004
 -11070138.89448  -8564109.75847  23096145.7154   23096155.7704   23096144.931
        48.0004         43.0004
   3001086.83946   2388024.79245  24915399.1764   24915406.8384   24915400.468
        39.0004         34.0004
 -25362472.09848 -19718644.47648  20635349.0654   20635355.1094   20635348.540
        53.0004         48.0004
 14  5 21  0 10 30.0000000  0 11G09G10G07G20G08G26G28G02G17G13G04
 -13697202.33349 -10668174.92348  20019736.1334   20019741.7354   20019736.288
        54.0004         50.0004
 -12632189.42947  -9836852.66346  23323456.0504   23323464.6004   23323457.121
        45.0004         40.0004
 -18660024.49248 -14504418.69247  21192960.9914   21192966.5424   21192959.786
        51.0004         47.0004
 -12456870.57956  -9654198.00955  23846947.0995   23846957.5595   23846946.486
        39.0004         34.0004
 -19316554.18149 -15019258.38448  19946725.8104   19946732.0284   19946726.030
        54.0004         49.0004
   -756452.74847   -574173.13046  24059010.3384   24059022.0414   24059009.990
        42.0004         38.0004
  -6493979.94747  -5062108.91246  22995265.4834   22995274.9854   22995266.937
        46.0004         41.0004
  -6977549.79947  -5383801.90846  23020348.1314   23020353.5934   23020348.336
        46.0004         41.0004
 -11028964.95348  -8532026.18247  23103980.4324   23103990.4204   23103980.467
        48.0004         43.0004
   3060157.36346   2434053.86945  24926638.4984   24926648.6694   24926640.549
        39.0004         34.0004
 -25406300.34248 -19752796.31548  20627008.8394   20627015.3284   20627008.557
        53.0004         48.0004
 14  5 21  0 11  0.0000000  0 11G09G10G07G20G08G26G28G02G17G13G04
 -13680472.05549 -10655138.29748  20022919.7404   20022925.4894   20022919.481
        54.0004         50.0004
 -12699531.50347  -9889326.89146  23310641.2504   23310648.7854   23310641.966
        45.0004         40.0004
 -18583410.14848 -14444719.17447  21207540.0074   21207544.4904   21207539.424
        51.0004         47.0004
 -12429061.46746  -9632528.63445  23852237.0074   23852248.1934   23852239.886
        39.0004         34.0004
 -19295233.77249 -15002645.03748  19950783.0954   19950789.3424   19950783.312
        54.0004         49.0004
   -752065.03547   -570753.98546  24059844.7004   24059856.4124   24059843.802
        42.0004         38.0004
  -6551690.86247  -5107078.28646  22984285.2674   22984292.9284   22984284.606
        46.0004         41.0004
  -7056861.07847  -5445602.75946  23005255.3614   23005261.6134   23005255.584
        46.0004         41.0004
 -10987873.50048  -8500006.90047  23111800.4264   23111810.4624   23111799.508
        48.0004         43.0004
   3118973.67746   2479884.85845  24937833.8894   24937843.7804   24937831.949
        39.0004         34.0004
 -25449612.33448 -19786545.86948  20618766.3114   20618773.1674   20618765.842
        53.0004         48.0004
 14  5 21  0 11 30.0000000  0 11G09G10G07G20G08G26G28G02G17G13G04
 -13663145.33649 -10641636.90748  20026216.7754   20026222.7544   20026217.024
        54.0004         50.0004
 -12767003.89947  -9941902.65046  23297801.3194   23297809.4814   23297801.985
        45.0004         40.0004
 -18506380.82548 -14384696.29147  21222198.5094   21222203.6394   21222197.725
        51.0004         47.0004
 -12400930.17946  -9610608.24845  23857592.7774   23857603.6734   23857592.320
        39.0004         34.0004
 -19273256.87349 -14985520.13748  19954965.0424   19954971.3884   19954965.334
        54.0004         49.0004
   -747447.13947   -567155.49946  24060723.0164   24060735.4754   24060723.022
        42.0004         38.0004
  -6609481.83647  -5152110.04046  22973287.7184   22973295.7144   22973287.292
        46.0004         41.0004
  -7135871.04547  -5507168.82446  22990219.5324   22990225.4434   22990219.968
        46.0004         41.0004
 -10946864.00348  -8468051.46347  23119605.0164   23119613.7094   23119603.608
        48.0004         43.0004
   3177537.51546   2525519.10245  24948975.3734   24948984.7274   24948976.754
        39.0004         34.0004
 -25492404.64248 -19819890.47548  20610623.4764   20610629.8774   20610623.110
        53.0004         48.0004
 14  5 21  0 12  0.0000000  0 11G09G10G07G20G08G26G28G02G17G13G04
 -13645224.63449 -10627672.67448  20029626.8274   20029632.9494   20029626.676
        54.0004         50.0004
 -12834606.50647  -9994579.87546  23284937.7444   23284945.2044   23284937.375
        45.0004         41.0004
 -18428940.49848 -14324353.14147  21236934.4794   21236939.7894   21236933.815
        51.0004         47.0004
 -12372477.46446  -9588437.39945  23863009.3334   23863013.7604   23863007.028
        39.0004         35.0004
 -19250625.48049 -14967885.24048  19959271.4374   19959278.2844   19959271.598
        54.0004         49.0004
   -742602.66147   -563380.44546  24061644.2484   24061657.3554   24061644.028
        42.0004         38.0004
  -6667352.21947  -5197203.68246  22962273.8724   22962283.3404   22962274.978
        46.0004         41.0004
  -7214579.24147  -5568499.74746  22975242.9454   22975248.2844   22975242.630
        46.0004         41.0004
 -10905940.07448  -8436162.69547  23127391.0914   23127401.9074   23127391.040
        48.0004         43.0004
   3235846.61946   2570954.86045  24960074.8644   24960080.7304   24960072.576
        39.0004         34.0004
 -25534677.15248 -19852830.05148  20602579.5064   20602585.6994   20602578.995
        53.0004         48.0004
 14  5 21  0 12 30.0000000  0 11G09G10G07G20G08G26G28G02G17G13G04
 -13626713.10649 -10613248.05748  20033149.7484   20033155.2664   20033149.534
        54.0004         50.0004
 -12902339.46147 -10047358.67646  23272047.9264   23272055.4074   23272048.439
        45.0004         40.0004
 -18351093.70048 -14263693.26947  21251748.6554   21251753.0844   21251747.924
        51.0004         47.0004
 -12343704.34846  -9566016.85745  23868479.3344   23868493.8294   23868481.978
        39.0004         34.0004
 -19227342.35149 -14949742.50348  19963702.0304   19963708.0534   19963702.489
        54.0004         49.0004
   -737535.45047   -559431.82846  24062609.3034   24062620.1654   24062609.621
        42.0004         38.0004
  -6725301.37247  -5242358.70146  22951247.4524   22951255.9614   22951247.186
        46.0004         41.0004
  -7292985.46747  -5629595.36346  22960321.7194   22960328.0574   22960322.090
        46.0004         41.0004
 -10865105.12348  -8404343.25847  23135162.1294   23135171.5734   23135161.559
        48.0004         43.0004
   3293898.76246   2616190.38145  24971117.0104   24971127.4434   24971119.832
        38.0004         34.0004
 -25576430.43048 -19885365.02448  20594633.5644   20594639.8994   20594633.048
        53.0004         48.0004
 14  5 21  0 13  0.0000000  0 11G09G10G07G20G08G26G28G02G17G13G04
 -13607606.59649 -10598359.81948  20036785.2794   20036791.5824   20036785.323
        54.0004         50.0004
 -12970195.97347 -10100233.75546  23259134.5384   23259142.7314   23259135.729
        45.0004         40.0004
 -18272838.30248 -14202715.00547  21266639.8504   21266645.0074   21266639.250
        51.0004         47.0004
 -12314604.93946  -9543342.07645  23874018.1054   23874027.7944   23874019.897
        39.0004         34.0004
 -19203403.33849 -14931088.68448  19968257.5824   19968263.9824   19968257.726
        54.0004         49.0004
   -732242.46447   -555307.26746  24063615.5814   24063627.4254   24063615.643
        42.0004         38.0004
  -6783321.79747  -5287569.26346  22940206.0054   22940215.4024   22940206.207
        46.0004         41.0004
  -7371082.73547  -5690450.24446  22945460.9684   22945466.9624   22945460.127
        46.0004         41.0004
 -10824356.05148  -8372590.75447  23142916.3414   23142927.0724   23142915.890
        48.0004         43.0004
   3351698.44746   2661229.18845  24982118.4824   24982124.1834   24982117.855
        38.0004         33.0004
 -25617658.35848 -19917490.63648  20586788.5064   20586794.5414   20586788.316
        53.0004         48.0004
 14  5 21  0 13 30.0000000  0 11G09G10G07G20G08G26G28G02G17G13G04
 -13587909.92049 -10583011.71248  20040533.4434   20040539.6754   20040533.406
        54.0004         50.0004
 -13038178.05347 -10153206.68446  23246198.0574   23246207.0744   23246199.320
        45.0004         40.0004
 -18194180.63548 -14141423.27747  21281607.4704   21281613.3414   21281607.133
        51.0004         46.0004
 -12285182.03946  -9520415.25345  23879621.3834   23879628.7864   23879619.010
        39.0004         34.0004
 -19178813.09049 -14911927.41048  19972936.9064   19972943.4754   19972937.256
        54.0004         49.0004
   -726729.41247   -551011.23346  24064665.8264   24064677.4374   24064665.049
        42.0004         38.0004
  -6841414.97047  -5332836.49946  22929150.4964   22929160.9724   22929151.241
        46.0004         41.0004
  -7448872.47447  -5751065.47746  22930657.8294   22930662.8964   22930658.404
        46.0004         41.0004
 -10783698.39547  -8340909.48247  23150652.8824   23150663.5504   23150652.995
        47.0004         43.0004
   3409241.27346   2706067.83545  24993071.6814   24993077.8344   24993067.431
        38.0004         33.0004
 -25658362.93448 -19949208.44348  20579042.6074   20579048.8814   20579041.716
        53.0004         48.0004
 14  5 21  0 14  0.0000000  0 11G09G10G07G20G08G26G28G02G17G13G04
 -13567622.37149 -10567203.18248  20044393.9364   20044399.8484   20044394.044
        54.0004         50.0004
 -13106282.01947 -10206274.57346  23233239.2064   23233247.6514   23233239.853
        45.0004         40.0004
 -18115121.70448 -14079818.88447  21296651.5744   21296657.4284   21296651.141
        51.0004         46.0004
 -12255433.58246  -9497234.74445  23885280.9004   23885288.1034   23885279.646
        39.0004         35.0004
 -19153570.99748 -14892258.20348  19977740.1574   19977746.5824   19977740.532
        53.0004         49.0004
   -720996.70047   -546544.05346  24065755.9794   24065768.0744   24065755.929
        42.0004         37.0004
  -6899576.92747  -5378157.35047  22918082.6404   22918091.8494   22918083.318
        46.0004         42.0004
  -7526350.70747  -5811437.98646  22915913.4904   22915919.4774   22915914.039
        46.0004         41.0004
 -10743132.93547  -8309300.04547  23158372.4194   23158382.1994   23158372.334
        47.0004         43.0004
   3466528.54346   2750707.36345  25003970.5974   25003976.3794   25003970.183
        38.0004         34.0004
 -25698541.52648 -19980516.38948  20571396.4844   20571403.1904   20571396.515
        53.0004         48.0004
 14  5 21  0 14 30.0000000  0 11G09G10G07G20G08G26G28G02G17G13G04
 -13546748.96449 -10550938.14148  20048366.1144   20048371.9924   20048366.115
        54.0004         50.0004
 -13174509.68847 -10259438.85746  23220256.0534   23220263.4454   23220256.239
        45.0004         41.0004
 -18035668.51148 -14017907.27647  21311771.5404   21311776.3844   21311770.849
        51.0004         46.0004
 -12225362.15646  -9473802.57445  23891002.7614   23891012.5564   23891002.543
        39.0004         34.0004
 -19127681.74948 -14872084.72148  19982666.4814   19982673.2064   19982666.892
        53.0004         49.0004
   -715050.23447   -541910.31346  24066888.5834   24066899.4494   24066887.388
        42.0004         37.0004
  -6957809.03047  -5423532.86047  22907003.0014   22907011.3084   22907002.528
        46.0004         42.0004
  -7603519.56247  -5871569.41847  22901227.9874   22901234.9584   22901229.515
        46.0004         42.0004
 -10702664.50147  -8277766.21647  23166074.0794   23166083.7614   23166073.108
        47.0004         43.0004
   3523556.10946   2795144.48645  25014822.2574   25014825.6384   25014821.465
        38.0004         34.0004
 -25738196.43048 -20011416.27148  20563850.3074   20563856.7604   20563850.407
        53.0004         48.0004
 14  5 21  0 15  0.0000000  0 11G09G10G07G20G08G26G28G02G17G13G04
 -13525285.45949 -10534213.28548  20052450.1154   20052456.4714   20052450.189
        54.0004         49.0004
 -13242853.49947 -10312693.65346  23207249.5944   23207257.2404   23207249.840
        45.0004         41.0004
 -17955817.71148 -13955685.84047  21326966.5324   21326971.8304   21326965.794
        51.0004         46.0004
 -12194961.51946  -9450113.83345  23896785.4934   23896794.4254   23896787.427
        39.0004         34.0004
 -19101140.50148 -14851403.18848  19987717.5854   19987723.6294   19987717.673
        53.0004         49.0004
   -708886.26647   -537107.09646  24068060.7924   24068070.9774   24068060.756
        42.0004         38.0004
  -7016103.42147  -5468956.91947  22895908.4564   22895917.9954   22895909.003
        46.0004         42.0004
  -7680371.25647  -5931453.70847  22886603.6824   22886610.5454   22886605.048
        46.0004         42.0004
 -10662289.39348  -8246305.09847  23173756.9814   23173767.3924   23173756.214
        48.0004         43.0004
   3580329.00746   2839383.21145  25025623.4424   25025632.8114   25025625.257
        38.0004         34.0004
 -25777320.81348 -20041902.75548  20556405.1664   20556411.8694   20556404.566
        53.0004         48.0004
 14  5 21  0 15 30.0000000  0 11G09G10G07G20G08G26G28G02G17G13G04
 -13503236.62349 -10517032.33048  20056646.0664   20056652.1214   20056646.002
        54.0004         50.0004
 -13311315.26547 -10366040.35746  23194221.8564   23194230.1214   23194221.987
        45.0004         41.0004
 -17875575.89548 -13893159.72247  21342236.2434   21342241.9854   21342235.605
        51.0004         46.0004
 -12164234.29746  -9426170.69945  23902633.1924   23902646.0224   23902634.818
        38.0004         34.0004
 -19073952.06648 -14830217.35148  19992891.1664   19992897.2534   19992891.431
        53.0004         49.0004
   -702510.59047   -532138.89946  24069273.9054   24069286.7394   24069273.493
        42.0004         37.0004
  -7074461.09647  -5514430.27947  22884804.2734   22884812.8584   22884803.949
        46.0004         42.0004
  -7756907.35147  -5991092.08347  22872040.7054   22872045.5854   22872040.557
        46.0004         42.0004
 -10622013.34648  -8214921.18847  23181421.5364   23181431.8574   23181420.543
        48.0004         43.0004
   3636843.18146   2883420.27745  25036378.1314   25036383.8794   25036379.672
        38.0004         33.0004
 -25815917.14448 -20071977.77348  20549060.5304   20549067.2244   20549060.637
        53.0004         48.0004
 14  5 21  0 16  0.0000000  0 11G09G10G07G20G08G26G28G02G17G13G04
 -13480603.77249 -10499396.29848  20060953.2364   20060958.7924   20060953.184
        54.0004         50.0004
 -13379893.48147 -10419477.80146  23181171.9804   23181179.1744   23181172.435
        45.0004         41.0004
 -17794946.01648 -13830331.21247  21357579.3154   21357585.0364   21357579.047
        51.0004         46.0004
 -12133180.24746  -9401972.80745  23908544.0464   23908554.3114   23908543.678
        38.0004         34.0004
 -19046117.79048 -14808528.26448  19998187.6264   19998194.3314   19998188.032
        53.0004         49.0004
   -695925.41247   -527007.45946  24070525.7904   24070537.7094   24070526.557
        42.0004         37.0004
  -7132879.91447  -5559951.30547  22873686.4484   22873696.2474   22873686.901
        46.0004         42.0004
  -7833126.37447  -6050483.38847  22857536.0704   22857541.2004   22857536.156
        46.0004         42.0004
 -10581838.23648  -8183615.91947  23189065.6294   23189076.4344   23189065.818
        48.0004         43.0004
   3693097.87046   2927255.16545  25047084.9894   25047093.0224   25047084.464
        38.0004         34.0004
 -25853984.44948 -20101640.56548  20541816.3774   20541822.8164   20541816.161
        53.0004         48.0004
 14  5 21  0 16 30.0000000  0 11G09G10G07G20G08G26G28G02G17G13G04
 -13457386.75449 -10481305.07148  20065370.6824   20065377.0704   20065370.873
        54.0004         50.0004
 -13448584.87747 -10473003.42846  23168099.8754   23168107.1554   23168101.071
        45.0004         41.0004
 -17713929.82248 -13767201.67647  21372996.0674   21373001.4384   21372995.648
        51.0004         46.0004
 -12101797.07646  -9377518.48145  23914518.6884   23914525.9844   23914515.824
        38.0004         34.0004
 -19017637.46848 -14786335.76448  20003607.3744   20003613.6404   20003607.618
        53.0004         49.0004
   -689131.67747   -521713.52646  24071818.6534   24071830.8384   24071818.596
        42.0004         38.0004
  -7191356.17747  -5605517.08547  22862557.9044   22862567.3554   22862559.091
        46.0004         42.0004
  -7909024.58147  -6109624.71947  22843093.1934   22843098.0344   22843093.771
        46.0004         42.0004
 -10541764.53147  -8152389.66447  23196692.1994   23196702.5254   23196691.489
        47.0004         43.0004
  -2552585.95546  -1939511.40045  25057739.2834   25057744.5844   25057738.710
        38.0004         34.0004
 -25891519.97448 -20130888.97748  20534673.7324   20534680.0704   20534673.541
        53.0004         48.0004
 14  5 21  0 17  0.0000000  0 11G09G10G07G20G08G26G28G02G17G13G04
 -13433588.70449 -10462761.09348  20069899.5464   20069905.3534   20069899.647
        54.0004         49.0004
 -13517389.12647 -10526616.99546  23155007.7254   23155015.1494   23155007.961
        45.0004         41.0004
 -17632531.71848 -13703774.55047  21388485.6974   21388490.8954   21388485.386
        51.0004         46.0004
 -12070086.02546  -9352808.69045  23920550.3004   23920563.6124   23920550.318
        38.0004         33.0004
 -18988513.94548 -14763642.06748  20009149.6354   20009155.6074   20009149.630
        53.0004         49.0004
   -682132.90047   -516259.79346  24073152.0974   24073162.7364   24073150.884
        42.0004         38.0004
  -7249889.01147  -5651126.94847  22851420.1544   22851428.1004   22851420.424
        46.0004         42.0004
  -7984601.54847  -6168515.72647  22828710.8374   22828717.3884   22828711.380
        46.0004         42.0004
 -10501795.74647  -8121245.16147  23204297.3964   23204307.9604   23204297.047
        47.0004         43.0004
  -2496850.38446  -1896081.03645  25068344.8814   25068352.9274   25068346.337
        38.0004         33.0004
 -25928524.48548 -20159723.61748  20527632.3434   20527638.7934   20527631.740
        53.0004         48.0004
 14  5 21  0 17 30.0000000  0 11G09G10G07G20G08G26G28G02G17G13G04
 -13409207.78649 -10443762.93348  20074539.0394   20074545.2504   20074538.897
        54.0004         50.0004
 -13586301.40847 -10580314.75146  23141892.9114   23141900.5244   23141893.940
        45.0004         41.0004
 -17550751.29848 -13640049.51447  21404048.2264   21404053.1914   21404047.392
        51.0004         46.0004
 -12038043.29946  -9327840.42445  23926648.9314   23926658.1514   23926647.681
        38.0004         34.0004
 -18958745.28048 -14740445.65948  20014814.0434   20014820.1324   20014814.300
        53.0004         49.0004
   -674928.23747   -510645.64046  24074522.3444   24074533.1154   24074521.725
        42.0004         38.0004
  -7308472.95847  -5696776.63447  22840271.7724   22840279.9494   22840272.520
        46.0004         42.0004
  -8059852.47947  -6227152.68847  22814390.6794   22814395.9444   22814390.415
        46.0004         42.0004
 -10461930.65847  -8090181.47447  23211882.6054   23211894.2594   23211883.233
        47.0004         43.0004
  -2441372.88646  -1852851.78045  25078905.6104   25078908.7874   25078902.912
        38.0004         33.0004
 -25964993.56448 -20188141.03148  20520692.1874   20520698.4164   20520692.075
        53.0004         48.0004
 14  5 21  0 18  0.0000000  0 11G09G10G07G20G08G26G28G02G17G13G04
 -13384248.05249 -10424313.74848  20079288.6864   20079294.3044   20079288.795
        54.0004         50.0004
 -13655322.19947 -10634097.05946  23128758.2774   23128767.3994   23128759.166
        46.0004         41.0004
 -17468594.10248 -13576030.88547  21419682.0634   21419687.8404   21419681.574
        51.0004         46.0004
 -12005670.65746  -9302615.11845  23932809.4624   23932818.4384   23932807.470
        38.0004         34.0004
 -18928335.36448 -14716749.57548  20020600.7614   20020606.8914   20020601.255
        53.0004         49.0004
   -667522.42747   -504874.75146  24075931.8874   24075942.6034   24075931.684
        43.0004         38.0004
  -7367108.39847  -5742466.44947  22829113.8914   22829123.2594   22829113.992
        46.0004         42.0004
  -8134777.96347  -6285536.05747  22800132.6864   22800138.5494   22800133.019
        46.0004         42.0004
 -10422173.56747  -8059201.93447  23219449.2984   23219459.3524   23219448.566
        47.0004         43.0004
  -2386156.33546  -1809825.82545  25089412.3504   25089418.3924   25089410.782
        38.0004         33.0004
 -26000928.89948 -20216142.54948  20513854.2294   20513860.0014   20513853.380
        53.0004         48.0004
 14  5 21  0 18 30.0000000  0 11G09G10G07G20G08G26G28G02G17G13G04
 -13358710.93649 -10404414.65748  20084148.4714   20084154.2834   20084148.285
        54.0004         50.0004
 -13724449.47547 -10687962.33746  23115604.5684   23115612.2904   23115605.382
        46.0004         41.0004
 -17386062.93648 -13511720.85047  21435386.6424   21435392.3234   21435386.654
        51.0004         46.0004
 -11972967.24346  -9277132.00645  23939033.8944   23939045.7674   23939032.983
        38.0004         34.0004
 -18897285.25648 -14692554.64248  20026509.6904   20026515.6544   20026509.801
        53.0004         49.0004
   -659917.41747   -498948.65746  24077379.0274   24077389.6884   24077377.812
        43.0004         38.0004
  -7425792.45247  -5788194.14647  22817946.5984   22817955.7684   22817946.993
        46.0004         42.0004
  -8209375.84547  -6343664.14147  22785937.3764   22785942.6904   22785938.205
        47.0004         42.0004
 -10382525.85447  -8028307.62247  23226993.6844   23227004.0764   23226993.620
        47.0004         43.0004
  -2331201.08646  -1767003.52445  25099868.4834   25099874.3374   25099868.310
        38.0004         33.0004
 -26036329.20148 -20243727.15848  20507117.0754   20507123.7144   20507117.170
        53.0004         48.0004
 14  5 21  0 19  0.0000000  0 11G09G10G07G20G08G26G28G02G17G13G04
 -13332598.88249 -10384067.56048  20089117.1384   20089122.8184   20089117.074
        54.0004         50.0004
 -13793682.21447 -10741909.80146  23102430.5354   23102437.5144   23102430.838
        46.0004         41.0004
 -17303161.59948 -13447122.37347  21451162.9894   21451167.7954   21451162.292
        51.0004         46.0004
 -11939933.63246  -9251391.61045  23945317.8534   23945329.2834   23945317.933
        38.0004         33.0004
 -18865597.24948 -14667862.64348  20032539.4604   20032546.0434   20032539.630
        53.0004         49.0004
   -652116.29747   -492869.73546  24078862.7934   24078873.2474   24078863.069
        43.0004         38.0004
  -7484524.00147  -5833958.83747  22806770.3954   22806779.8654   22806770.384
        46.0004         42.0004
  -8283645.08147  -6401536.14947  22771804.4314   22771809.7064   22771804.677
        47.0004         42.0004
 -10342990.48347  -7997500.84647  23234517.4474   23234527.6784   23234516.723
        47.0004         43.0004
  -2276508.72846  -1724386.07145  25110277.0904   25110282.1044   25110276.638
        38.0004         33.0004
 -26071194.50748 -20270894.88948  20500482.7644   20500489.1804   20500482.301
        53.0004         48.0004
 14  5 21  0 19 30.0000000  0 11G09G10G07G20G08G26G28G02G17G13G04
 -13305909.58549 -10363270.66348  20094196.1654   20094201.8004   20094196.083
        54.0004         50.0004
 -13863015.25447 -10795935.42646  23089237.4654   23089244.8864   23089236.687
        46.0004         41.0004
 -17219889.48648 -13382234.98347  21467009.1794   21467013.7784   21467008.114
        51.0004         46.0004
 -11906565.61946  -9225390.69445  23951667.1684   23951678.3834   23951668.692
        38.0004         34.0004
 -18833269.21448 -14642671.92348  20038691.4914   20038697.3414   20038691.658
        53.0004         49.0004
   -644117.85347   -486637.07546  24080385.0864   24080396.1674   24080383.794
        43.0004         38.0004
  -7543296.87847  -5879755.74147  22795585.1484   22795593.9524   22795586.029
        47.0004         42.0004
  -8357580.62347  -6459148.13547  22757735.8154   22757740.6114   22757735.360
        47.0004         42.0004
 -10303565.57347  -7966780.15247  23242020.7514   23242030.1614   23242019.293
        47.0004         43.0004
  -2222075.99846  -1681970.87645  25120630.1484   25120638.7534   25120633.821
        38.0004         33.0004
 -26105520.42848 -20297642.32248  20493950.5184   20493957.3404   20493950.223
        53.0004         48.0004
 14  5 21  0 20  0.0000000  0 11G09G10G07G20G08G26G28G02G17G13G04
 -13278649.16849 -10342028.73548  20099383.4494   20099389.3724   20099383.254
        54.0004         50.0004
 -13932451.17847 -10850041.21646  23076023.6534   23076029.0344   23076023.355
        46.0004         41.0004
 -17136254.17848 -13317064.58147  21482923.7004   21482929.0904   21482923.350
        51.0004         46.0004
 -11872867.42346  -9199132.48745  23958078.6674   23958090.8164   23958081.152
        39.0004         34.0004
 -18800307.08448 -14616987.09948  20044963.7054   20044969.9374   20044963.692
        53.0004         49.0004
   -635928.79247   -480255.85646  24081943.0234   24081954.0014   24081943.060
        43.0004         38.0004
  -7602113.47047  -5925586.71647  22784393.8564   22784402.3284   22784393.896
        47.0004         42.0004
  -8431184.86547  -6516501.96547  22743728.0704   22743734.2534   22743729.242
        47.0004         42.0004
 -10264257.99647  -7936150.87647  23249499.3544   23249510.6044   23249499.414
        47.0004         43.0004
  -2167907.75646  -1639761.82345  25130944.2224   25130949.0244   25130941.347
        38.0004         34.0004
 -26139310.45548 -20323972.17848  20487520.8124   20487527.0014   20487520.609
        53.0004         48.0004
 14  5 21  0 20 30.0000000  0 11G09G10G07G20G08G26G28G02G17G13G04
 -13250812.78749 -10320338.00948  20104680.5764   20104686.2134   20104680.607
        54.0004         50.0004
 -14001981.22347 -10904220.34646  23062791.6134   23062799.8584   23062791.988
        46.0004         41.0004
 -17052252.19248 -13251608.45647  21498909.0144   21498914.3404   21498908.392
        50.0004         46.0004
 -11838831.89046  -9172611.38345  23964558.3904   23964568.6534   23964558.058
        39.0004         34.0004
 -18766705.60348 -14590804.08448  20051357.7924   20051364.0854   20051358.173
        53.0004         49.0004
   -627544.66447   -473722.64846  24083537.1364   24083550.2904   24083537.623
        43.0004         38.0004
  -7660964.56447  -5971444.57547  22773194.8584   22773203.0404   22773194.824
        47.0004         42.0004
  -8504449.43847  -6573591.11947  22729786.8174   22729791.4784   22729786.144
        47.0004         42.0004
 -10225062.41347  -7905608.87447  23256958.5134   23256969.0584   23256958.149
        47.0004         43.0004
  -2113998.02646  -1597754.19945  25141199.6364   25141206.7664   25141201.355
        38.0004         34.0004
 -26172557.04448 -20349878.57448  20481193.9044   20481200.4814   20481193.463
        53.0004         48.0004
 14  5 21  0 21  0.0000000  0 11G09G10G07G20G08G26G28G02G17G13G04
 -13222409.12549 -10298205.24048  20110085.2644   20110091.4554   20110085.228
        54.0004         50.0004
 -14071611.04347 -10958477.21646  23049541.6484   23049549.8514   23049542.455
        46.0004         41.0004
 -16967893.64248 -13185874.48647  21514961.8134   21514967.3924   21514961.295
        50.0004         46.0004
 -11804465.45846  -9145832.47745  23971099.1944   23971109.7784   23971097.466
        39.0004         35.0004
 -18732473.59348 -14564129.74348  20057871.9724   20057877.9254   20057872.099
        53.0004         49.0004
   -618974.96347   -467044.84546  24085169.5494   24085179.6364   24085169.503
        43.0004         38.0004
  -7719854.90747  -6017333.01247  22761987.7794   22761996.0314   22761988.457
        47.0004         42.0004
  -8577379.86547  -6630419.90147  22715908.1044   22715913.1544   22715908.423
        47.0004         42.0004
 -10185987.68347  -7875161.04247  23264394.0074   23264404.6524   23264393.853
        47.0004         43.0004
  -2060354.31446  -1555953.86545  25151409.1474   25151415.3964   25151408.497
        38.0004         33.0004
 -26205266.56948 -20375366.47648  20474969.6194   20474976.0434   20474969.516
        53.0004         48.0004
 14  5 21  0 21 30.0000000  0 11G09G10G07G20G08G26G28G02G17G13G04
 -13193435.77549 -10275628.56048  20115598.9144   20115604.8024   20115599.038
        54.0004         50.0004
 -14141334.62547 -11012807.16146  23036273.6194   23036282.2574   23036274.205
        46.0004         41.0004
 -16883177.30848 -13119861.72547  21531082.3054   21531087.8594   21531082.181
        50.0004         46.0004
 -11769763.75346  -9118792.27745  23977704.0384   23977711.2964   23977701.052
        40.0004         35.0004
 -18697608.63848 -14536962.20348  20064506.5454   20064512.5264   20064506.954
        53.0004         49.0004
   -610217.87647   -460221.02146  24086834.4264   24086845.7704   24086834.458
        43.0004         38.0004
  -7778778.15947  -6063247.10247  22750774.2724   22750784.7364   22750775.428
        47.0004         42.0004
  -8649970.09247  -6686983.58547  22702094.5714   22702099.5524   22702094.885
        47.0004         42.0004
 -10147032.01947  -7844805.99047  23271807.5144   23271817.6504   23271806.408
        47.0004         43.0004
  -2006973.09146  -1514358.05545  25161565.9824   25161576.0794   25161566.614
        38.0004         33.0004
 -26237434.26648 -20400432.17748  20468848.3974   20468854.1494   20468847.680
        53.0004         48.0004
 14  5 21  0 22  0.0000000  0 11G09G10G07G20G08G26G28G02G17G13G04
 -13163893.88049 -10252608.85848  20121220.4574   20121226.1414   20121220.394
        54.0004         50.0004
 -14211149.28747 -11067208.07446  23022987.6854   23022995.4694   23022988.273
        46.0004         41.0004
 -16798105.87848 -13053572.27147  21547271.4244   21547275.9384   21547270.988
        50.0004         46.0004
 -11734725.91146  -9091490.19545  23984368.1374   23984381.9694   23984367.803
        39.0004         34.0004
 -18662111.64648 -14509302.16848  20071261.6034   20071267.6404   20071261.635
        53.0004         49.0004
   -601275.06947   -453252.48646  24088536.2634   24088547.7284   24088536.972
        43.0004         38.0004
  -7837731.31847  -6109184.49247  22739556.9094   22739565.1544   22739557.337
        47.0004         42.0004
  -8722218.18447  -6743280.69047  22688345.5874   22688351.9694   22688346.443
        47.0004         43.0004
 -10108196.62847  -7814544.65947  23279196.7554   23279207.9124   23279196.708
        47.0004         43.0004
  -1953854.09246  -1472966.59845  25171674.4564   25171682.5024   25171674.918
        38.0004         33.0004
 -26269058.59648 -20425074.47648  20462830.5064   20462836.6214   20462830.165
        53.0004         48.0004
 14  5 21  0 22 30.0000000  0 11G09G10G07G20G08G26G28G02G17G13G04
 -13133787.42149 -10229149.23748  20126949.4694   20126955.4004   20126949.574
        54.0004         50.0004
 -14281055.34247 -11121680.20446  23009685.2794   23009693.9904   23009685.465
        46.0004         41.0004
 -16712684.51348 -12987010.14147  21563526.6024   21563531.5314   21563526.156
        50.0004         46.0004
 -11699354.07446  -9063927.81145  23991098.4794   23991112.1894   23991100.351
        39.0004         34.0004
 -18625986.34248 -14481152.53848  20078135.7124   20078141.8644   20078135.947
        53.0004         49.0004
   -592150.96647   -446142.66746  24090273.0734   24090284.7484   24090272.333
        43.0004         38.0004
  -7896714.18147  -6155145.02747  22728334.1374   22728340.4154   22728332.652
        47.0004         42.0004
  -8794124.34947  -6799311.34347  22674663.1424   22674668.8234   22674663.038
        47.0004         43.0004
 -10069485.41547  -7784380.10247  23286563.1594   23286573.8014   23286562.824
        47.0004         43.0004
  -1900999.88046  -1431781.46945  25181734.7454   25181732.2464   25181733.332
        38.0004         33.0004
 -26300141.16848 -20449294.62748  20456915.3314   20456921.9374   20456915.210
        53.0004         48.0004
 14  5 21  0 23  0.0000000  0 11G09G10G07G20G08G26G28G02G17G13G04
 -13103116.29349 -10205249.61148  20132785.8254   20132791.9704   20132785.840
        54.0004         50.0004
 -14351049.30047 -11176220.82946  22996365.0994   22996372.8834   22996366.498
        46.0004         41.0004
 -16626914.27448 -12920176.15647  21579848.3564   21579852.9774   21579847.529
        50.0004         46.0004
 -11663645.40946  -9036103.00445  23997893.4984   23997904.5814   23997893.821
        39.0004         34.0004
 -18589232.70848 -14452513.30148  20085129.8614   20085135.4824   20085129.901
        53.0004         49.0004
   -582846.08747   -438891.99946  24092043.4814   24092054.5544   24092043.690
        43.0004         38.0004
  -7955722.58747  -6201125.46047  22717103.6124   22717111.9354   22717104.033
        47.0004         42.0004
  -8865684.86947  -6855072.66847  22661045.8594   22661050.8694   22661045.396
        47.0004         43.0004
 -10030898.08847  -7754312.06447  23293905.6264   23293917.4394   23293906.144
        47.0004         42.0004
  -1848409.16146  -1390801.63845  25191741.2194   25191747.1664   25191740.720
        38.0004         33.0004
 -26330679.20248 -20473090.45748  20451104.2254   20451110.6684   20451103.735
        53.0004         48.0004
 14  5 21  0 23 30.0000000  0 11G09G10G07G20G08G26G28G02G17G13G04
 -13071884.58649 -10180913.17348  20138729.1644   20138734.9444   20138729.220
        54.0004         50.0004
 -14421131.52147 -11230830.23046  22983030.1804   22983036.4604   22983030.090
        46.0004         41.0004
 -16540800.91448 -12853074.79647  21596234.6354   21596239.5994   21596234.545
        50.0004         45.0004
 -11627602.23846  -9008017.56545  24004752.2904   24004764.6884   24004753.972
        39.0004         34.0004
 -18551854.78348 -14423387.60348  20092242.2104   20092248.7304   20092242.670
        53.0004         49.0004
   -573365.32147   -431504.27346  24093847.2574   24093858.3564   24093847.408
        43.0004         38.0004
  -8014756.42147  -6247125.70947  22705870.9944   22705877.7744   22705870.038
        47.0004         42.0004
  -8936900.59147  -6910565.30647  22647493.7664   22647498.7754   22647493.881
        47.0004         43.0004
  -9992439.23247  -7724344.12647  23301224.3684   23301234.7164   23301224.726
        47.0004         42.0004
                  -1350029.43445                  25201702.4384   25201697.429
                        33.0004
 -26360674.76248 -20496463.58548  20445396.6814   20445402.1634   20445396.309
        53.0004         49.0004
 14  5 21  0 24  0.0000000  0 11G09G10G07G20G08G26G28G02G17G13G04
 -13040090.24649 -10156138.31548  20144779.2254   20144785.2354   20144779.447
        54.0004         50.0004
 -14491296.25547 -11285503.92846  22969677.4364   22969685.0754   22969677.444
        46.0004         41.0004
 -16454343.47148 -12785705.34447  21612686.7394   21612692.1964   21612686.555
        50.0004         45.0004
 -11591220.40446  -8979668.17545  24011677.0144   24011688.1834   24011676.931
        39.0004         34.0004
 -18513850.20748 -14393773.60748  20099474.8154   20099480.3524   20099474.631
        53.0004         49.0004
   -563706.89547   -423978.11146  24095684.2704   24095697.2884   24095685.256
        43.0004         38.0004
  -8073809.44547  -6293140.92047  22694632.5134   22694640.9754   22694632.346
        47.0004         42.0004
  -9007766.04347  -6965785.02747  22634007.0664   22634012.8574   22634008.047
        47.0004         43.0004
  -9954106.69447  -7694474.64447  23308518.8844   23308530.3444   23308518.930
        47.0004         42.0004
  -1744023.52946  -1309462.13745  25211607.5934   25211608.5644   25211603.935
        38.0004         33.0004
 -26390123.09648 -20519410.29948  20439792.5394   20439798.5264   20439791.954
        53.0004         49.0004
 14  5 21  0 24 30.0000000  0 11G09G10G07G20G08G26G28G02G17G13G04
 -13007736.50149 -10130927.56448  20150936.5224   20150941.4604   20150936.033
        54.0004         50.0004
 -14561542.97047 -11340241.50547  22956310.3644   22956317.8644   22956310.226
        46.0004         42.0004
 -16367546.64848 -12718071.42047  21629203.8834   21629208.4654   21629203.254
        50.0004         45.0004
 -11554500.83346  -8951055.66945  24018664.6444   24018675.1194   24018665.301
        39.0004         34.0004
 -18475222.33648 -14363673.93048  20106824.7074   20106831.1724   20106825.497
        53.0004         49.0004
   -553874.51947   -416316.41246  24097556.1284   24097567.9884   24097556.007
        43.0004         38.0004
  -8132880.49947  -6339170.18047  22683391.5704   22683398.8844   22683391.431
        47.0004         42.0004
  -9078280.69347  -7020731.39147  22620590.1964   22620595.1924   22620589.611
        47.0004         43.0004
  -9915903.39547  -7664705.82047  23315789.1994   23315798.8694   23315788.918
        47.0004         42.0004
  -1692226.76746  -1269100.97245  25221458.0474   25221467.1154   25221460.165
        37.0004         32.0004
 -26419025.13648 -20541931.33048  20434292.5194   20434298.6554   20434292.270
        53.0004         49.0004
 14  5 21  0 25  0.0000000  0 11G09G10G07G20G08G26G28G02G17G13G04
 -12974826.60149 -10105283.44148  20157198.5784   20157204.3364   20157198.617
        54.0004         50.0004
 -14631870.91547 -11395042.37447  22942926.9874   22942934.1914   22942927.905
        46.0004         42.0004
 -16280414.82248 -12650176.44947  21645784.7794   21645789.7544   21645783.954
        50.0004         45.0004
 -11517444.64046  -8922180.85345  24025716.1684   24025728.2304   24025716.090
        39.0004         34.0004
 -18435974.40748 -14333091.08648  20114293.6224   20114299.6844   20114293.870
        53.0004         49.0004
   -543872.02547   -408522.14746  24099460.0094   24099472.2504   24099458.999
        43.0004         38.0004
  -8191968.71647  -6385212.81647  22672147.6984   22672154.5974   22672147.335
        47.0004         42.0004
  -9148444.43648  -7075404.32547  22607237.5994   22607243.2034   22607237.521
        48.0004         43.0004
  -9877832.67047  -7635040.32547  23323033.5334   23323044.8514   23323033.480
        47.0004         42.0004
  -1640696.36146  -1228947.41245  25231266.1174   25231270.7174   25231266.070
        37.0004         33.0004
 -26447381.38348 -20564027.06948  20428896.3644   20428902.7164   20428895.910
        53.0004         49.0004
 14  5 21  0 25 30.0000000  0 11G09G10G07G20G08G26G28G02G17G13G04
 -12941360.70749 -10079206.07448  20163566.5904   20163572.3594   20163566.625
        54.0004         49.0004
 -14702276.05547 -11449903.39747  22929528.7104   22929536.3934   22929529.418
        46.0004         42.0004
 -16192949.00148 -12582021.23347  21662428.7514   21662433.9394   21662428.403
        50.0004         45.0004
 -11480049.64246  -8893042.00645  24032831.2954   24032845.6874   24032832.746
        39.0004         34.0004
 -18396106.03248 -14302024.78248  20121879.9834   20121886.3274   20121880.601
        53.0004         49.0004
   -533699.53247   -400595.40246  24101396.0364   24101406.1984   24101395.671
        43.0004         38.0004
  -8251069.75047  -6431265.43647  22660900.3804   22660908.5494   22660900.377
        47.0004         42.0004
  -9218253.67548  -7129801.01047  22593952.7474   22593958.8084   22593953.881
        48.0004         43.0004
  -9839893.90847  -7605477.66347  23330253.1794   23330264.7924   23330253.146
        47.0004         42.0004
                  -1188999.96245                  25241030.7894   25241022.044
                        32.0004
 -26475189.41348 -20585695.62548  20423604.9364   20423610.9294   20423604.608
        53.0004         49.0004
 14  5 21  0 26  0.0000000  0 11G09G10G07G20G08G26G28G02G17G13G04
 -12907342.93949 -10052698.68348  20170040.2594   20170046.2634   20170040.227
        54.0004         49.0004
 -14772759.35147 -11504825.31847  22916116.2514   22916123.8564   22916117.073
        46.0004         42.0004
 -16105154.87348 -12513610.19447  21679135.7914   21679140.9594   21679134.530
        50.0004         45.0004
 -11442317.83146  -8863640.74245  24040012.7584   24040021.5564   24040011.271
        39.0004         34.0004
 -18355621.97048 -14270478.72048  20129584.2774   20129590.0574   20129584.730
        53.0004         49.0004
   -523362.01747   -392540.07146  24103363.0714   24103373.4514   24103361.761
        43.0004         38.0004
  -8310183.52147  -6477327.98847  22649650.7874   22649658.5024   22649651.370
        47.0004         42.0004
  -9287709.26848  -7183922.13147  22580735.7394   22580740.0154   22580736.134
        48.0004         43.0004
  -9802091.62147  -7576021.33547  23337447.0494   23337457.5434   23337446.452
        47.0004         42.0004
                                                                  25250727.525

 -26502451.15248 -20606938.50248  20418417.1164   20418423.1314   20418416.606
        53.0004         49.0004
 14  5 21  0 26 30.0000000  0 11G09G10G07G20G08G26G28G02G17G13G04
 -12872771.60749 -10025759.93648  20176618.8344   20176624.7004   20176618.766
        54.0004         50.0004
 -14843314.79047 -11559803.46347  22902691.2674   22902697.2054   22902690.399
        46.0004         42.0004
 -16017031.82348 -12444942.85147  21695904.9374   21695909.8704   21695904.100
        50.0004         45.0004
 -11404245.30346  -8833973.93145  24047255.5904   24047267.7574   24047258.065
        39.0004         34.0004
 -18314520.20948 -14238451.33448  20137405.7744   20137411.4484   20137405.690
        53.0004         48.0004
   -512858.10747   -384355.08946  24105361.2824   24105371.4664   24105361.791
        43.0004         38.0004
  -8369304.09147  -6523395.83347  22638400.0684   22638408.5094   22638400.930
        47.0004         42.0004
  -9356805.67148  -7237763.37347  22567587.6554   22567591.6524   22567588.255
        48.0004         43.0004
  -9764424.00147  -7546669.94747  23344614.0744   23344625.8464   23344614.607
        47.0004         42.0004
  -1487698.68146  -1109728.38245  25260380.3534   25260388.0004   25260380.378
        37.0004         32.0004
 -26529162.29248 -20627752.34148  20413334.0964   20413340.1734   20413333.840
        53.0004         49.0004
 14  5 21  0 27  0.0000000  0 10G09G10G07G20G08G26G28G02G17G04
 -12837649.48949  -9998392.00848  20183302.2484   20183308.3464   20183302.195
        54.0004         50.0004
 -14913941.29747 -11614836.98547  22889250.9034   22889256.5864   22889250.993
        46.0004         42.0004
 -15928583.88248 -12376022.34147  21712735.9074   21712740.2994   21712735.186
        50.0004         45.0004
 -11365832.81846  -8804042.25845  24054570.1154   24054576.6274   24054567.632
        39.0004         34.0004
 -18272803.41248 -14205944.69948  20145343.8544   20145350.0464   20145344.147
        53.0004         48.0004
   -502190.98347   -376042.92746  24107391.0364   24107403.1824   24107390.514
        42.0004         38.0004
  -8428429.42247  -6569467.41047  22627149.5394   22627156.5934   22627149.741
        47.0004         42.0004
  -9425542.36248  -7291324.30947  22554507.3264   22554512.0584   22554506.942
        48.0004         43.0004
  -9726893.39447  -7517425.31047  23351756.8764   23351767.6594   23351756.542
        47.0004         42.0004
 -26555323.18748 -20648137.41648  20408355.7524   20408361.7314   20408355.577
        53.0004         49.0004
 14  5 21  0 27 30.0000000  0 10G09G10G07G20G08G26G28G02G17G04
 -12801980.93649  -9970598.28848  20190089.9214   20190095.5634   20190089.738
        54.0004         50.0004
 -14984639.22847 -11669926.15647  22875796.0814   22875804.3054   22875797.253
        46.0004         42.0004
 -15839816.65848 -12306853.04047  21729627.3904   21729632.8484   21729626.959
        50.0004         45.0004
 -11327082.54746  -8773847.38045  24061941.4534   24061952.4224   24061941.776
        39.0004         34.0004
 -18230476.08948 -14172962.33148  20153398.0904   20153404.5344   20153398.868
        53.0004         48.0004
   -491365.36047   -367607.24946  24109451.6544   24109463.1164   24109450.827
        42.0004         38.0004
  -8487559.39547  -6615542.58347  22615898.0274   22615906.7124   22615897.519
        47.0004         42.0004
  -9493920.20848  -7344605.63947  22541493.9434   22541500.6954   22541495.085
        48.0004         43.0004
  -9689503.90947  -7488290.63447  23358871.8104   23358882.0294   23358871.378
        47.0004         42.0004
 -26580935.76148 -20668095.22748  20403482.0534   20403487.6594   20403481.450
        53.0004         49.0004
 14  5 21  0 28  0.0000000  0 10G09G10G07G20G08G26G28G02G17G04
 -12765765.34149  -9942378.29848  20196981.1034   20196987.3294   20196981.025
        54.0004         50.0004
 -15055404.11747 -11725067.49447  22862330.2134   22862337.9974   22862331.610
        46.0004         42.0004
 -15750730.65948 -12237435.34547  21746579.9554   21746584.9914   21746579.409
        50.0004         45.0004
 -11287991.74446  -8743387.12345  24069378.5954   24069390.0664   24069379.605
        39.0004         34.0004
 -18187537.38948 -14139503.56748  20161569.5514   20161575.9644   20161569.736
        53.0004         48.0004
   -480381.04647   -359047.93346  24111541.0814   24111552.1834   24111540.761
        42.0004         38.0004
  -8546689.38847  -6661617.79047  22604645.9374   22604652.1574   22604645.628
        47.0004         42.0004
  -9561934.63148  -7397603.77247  22528552.4494   22528557.1604   22528553.378
        48.0004         43.0004
  -9652254.95647  -7459265.47247  23365961.0834   23365970.6604   23365959.398
        47.0004         42.0004
 -26605997.18848 -20687623.57848  20398713.1364   20398718.9594   20398712.661
        53.0004         49.0004
 14  5 21  0 28 30.0000000  0 10G09G10G07G20G08G26G28G02G17G04
 -12729006.37349  -9913734.90648  20203976.2034   20203982.4934   20203976.355
        54.0004         50.0004
 -15126235.44947 -11780260.61347  22848851.1474   22848858.9264   22848852.084
        46.0004         42.0004
 -15661330.48148 -12167772.83247  21763592.0514   21763597.3224   21763591.193
        50.0004         45.0004
 -11248561.59446  -8712662.47345  24076883.8294   24076895.1904   24076884.500
        39.0004         34.0004
 -18143990.86248 -14105571.17248  20169855.7944   20169862.0374   20169856.312
        53.0004         48.0004
   -469241.86847   -350367.92646  24113660.8804   24113672.3454   24113660.357
        42.0004         37.0004
  -8605818.03247  -6707691.94747  22593393.5714   22593401.2204   22593393.652
        47.0004         42.0004
  -9629585.65048  -7450318.75147  22515677.9494   22515684.2934   22515678.350
        48.0004         43.0004
  -9615149.20347  -7430351.90447  23373020.5024   23373029.9564   23373020.626
        47.0004         43.0004
 -26630508.03348 -20706722.90248  20394048.7944   20394054.6364   20394047.940
        53.0004         49.0004
 14  5 21  0 29  0.0000000  0 10G09G10G07G20G08G26G28G02G17G04
 -12691703.18849  -9884667.44748  20211074.7654   20211080.5104   20211074.804
        54.0004         50.0004
 -15197128.14747 -11835501.55647  22835360.8634   22835367.7274   22835361.002
        46.0004         42.0004
 -15571616.32248 -12097865.66547  21780664.0074   21780668.9314   21780663.479
        49.0004         45.0004
 -11208789.37546  -8681671.22545  24084449.3374   24084465.3794   24084451.213
        39.0004         34.0004
 -18099835.75648 -14071164.56448  20178258.3544   20178264.3624   20178258.737
        53.0004         48.0004
   -457947.38647   -341566.91046  24115809.9104   24115821.3844   24115809.352
        42.0004         38.0004
  -8664940.33147  -6753761.15347  22582143.7754   22582150.7844   22582142.899
        47.0004         43.0004
  -9696869.15948  -7502747.35347  22502875.0004   22502880.3674   22502875.673
        48.0004         43.0004
  -9578186.02847  -7401549.42647  23380054.2674   23380065.2544   23380054.339
        47.0004         42.0004
 -26654465.69148 -20725391.17248  20389489.4074   20389495.5714   20389489.248
        53.0004         49.0004
 14  5 21  0 29 30.0000000  0 10G09G10G07G20G08G26G28G02G17G04
 -12653861.05449  -9855180.03148  20218275.8304   20218281.6304   20218275.980
        54.0004         49.0004
 -15268083.36647 -11890791.21446  22821858.0784   22821865.3374   22821859.474
        46.0004         41.0004
 -15481594.53248 -12027718.78247  21797795.4024   21797800.4484   21797794.309
        49.0004         45.0004
 -11168677.36146  -8650415.26245  24092085.4644   24092097.9924   24092086.141
        39.0004         34.0004
 -18055077.21248 -14036287.74048  20186775.7864   20186781.8714   20186776.171
        53.0004         48.0004
   -446503.02247   -332649.08546  24117987.6104   24117998.9364   24117987.201
        42.0004         38.0004
  -8724056.64647  -6799825.69547  22570894.4104   22570901.6404   22570894.011
        47.0004         43.0004
  -9763786.50248  -7554890.62847  22490141.6124   22490146.7074   22490141.521
        48.0004         43.0004
  -9541369.85647  -7372861.48947  23387060.3594   23387071.2554   23387060.526
        47.0004         42.0004
 -26677872.57148 -20743630.26648  20385035.3354   20385041.3514   20385034.836
        53.0004         49.0004
 14  5 21  0 30  0.0000000  0 10G09G10G07G20G08G26G28G02G17G04
 -12615481.42349  -9825273.78348  20225579.4494   20225584.9014   20225579.379
        54.0004         49.0004
 -15339098.41947 -11946127.50647  22808345.0764   22808352.2204   22808345.215
        46.0004         42.0004
 -15391267.76148 -11957334.25347  21814982.8054   21814987.4924   21814982.704
        49.0004         45.0004
 -11128225.25046  -8618894.25445  24099781.6174   24099792.5164   24099782.263
        39.0004         34.0004
 -18009716.66748 -14000941.82448  20195407.6604   20195413.0984   20195407.872
        53.0004         48.0004
   -434910.50347   -323615.83146  24120194.4364   24120204.0774   24120193.762
        42.0004         38.0004
  -8783164.10247  -6845883.32447  22559645.5264   22559653.1824   22559645.660
        47.0004         43.0004
  -9830335.76848  -7606747.08947  22477478.0964   22477481.8334   22477477.105
        48.0004         43.0004
  -9504701.92747  -7344289.07047  23394037.8494   23394048.8024   23394037.810
        47.0004         42.0004
 -26700727.88948 -20761439.57348  20380685.9784   20380692.0124   20380685.693
        53.0004         49.0004
 14  5 21  0 30 30.0000000  0 10G09G10G07G20G08G26G28G02G17G04
 -12576563.23249  -9794947.88348  20232985.2394   20232991.0644   20232985.216
        54.0004         49.0004
 -15410168.00947 -12001506.28047  22794821.1674   22794827.8834   22794821.449
        46.0004         42.0004
 -15300635.42748 -11886711.61847  21832230.0384   21832235.7184   21832229.250
        49.0004         45.0004
 -11087429.76346  -8587105.69245  24107547.6654   24107559.4934   24107546.828
        39.0004         34.0004
 -17963753.19948 -13965126.09848  20204153.8294   20204159.9344   20204154.168
        53.0004         48.0004
   -423168.95147   -314466.43246  24122427.5834   24122439.9344   24122427.626
        42.0004         38.0004
  -8842256.31547  -6891929.08347  22548400.0004   22548409.0644   22548400.367
        47.0004         43.0004
  -9896511.99848  -7658312.87647  22464883.6134   22464889.0724   22464884.602
        48.0004         43.0004
  -9468180.37947  -7315830.70947  23400987.6634   23400998.4724   23400987.988
        47.0004         42.0004
 -26723027.70148 -20778816.02248  20376442.7264   20376448.5304   20376442.291
        53.0004         49.0004
 14  5 21  0 31  0.0000000  0 10G09G10G07G20G08G26G28G02G17G04
 -12537113.32349  -9764207.65048  20240492.3214   20240497.9524   20240492.238
        54.0004         50.0004
 -15481294.64747 -12056929.52947  22781285.5904   22781291.8604   22781285.858
        46.0004         42.0004
 -15209706.17848 -11815857.62647  21849533.1444   21849538.8744   21849532.403
        49.0004         45.0004
 -11046295.38146  -8555053.05645  24115374.6814   24115384.6434   24115373.340
        39.0004         34.0004
 -17917193.39748 -13928845.69848  20213013.9694   20213020.0104   20213014.180
        53.0004         48.0004
   -411285.59447   -305206.54046  24124690.2304   24124698.2094   24124688.886
        42.0004         38.0004
  -8901336.04147  -6937965.12247  22537157.4604   22537165.1194   22537158.002
        47.0004         43.0004
  -9962318.46248  -7709590.53247  22452361.3004   22452366.5564   22452361.848
        48.0004         43.0004
  -9431811.75647  -7287491.51247  23407908.8374   23407919.4224   23407908.284
        47.0004         42.0004
 -26744776.94848 -20795763.45548  20372303.7584   20372309.7364   20372303.123
        53.0004         49.0004
 14  5 21  0 31 30.0000000  0 10G09G10G07G20G08G26G28G02G17G04
 -12497130.44549  -9733052.12448  20248100.6904   20248106.3344   20248100.617
        54.0004         49.0004
 -15552472.95847 -12112393.02347  22767740.8624   22767748.1294   22767741.030
        46.0004         42.0004
 -15118479.56548 -11744771.91647  21866892.0244   21866898.5564   21866892.411
        49.0004         44.0004
 -11004818.64046  -8522733.62345  24123267.0774   24123277.3844   24123268.582
        39.0004         34.0004
 -17870036.24048 -13892099.82948  20221987.9314   20221993.5824   20221988.357
        53.0004         48.0004
   -399259.35147   -295835.31846  24126976.8034   24126988.0554   24126976.872
        42.0004         38.0004
  -8960397.12547  -6983986.63747  22525919.8324   22525926.1894   22525918.789
        47.0004         43.0004
 -10027750.34148  -7760576.30047  22439909.8864   22439914.5984   22439910.505
        48.0004         43.0004
  -9395593.87847  -7259269.78047  23414800.7074   23414811.3824   23414800.435
        47.0004         42.0004
 -26765971.57948 -20812278.72548  20368270.4904   20368276.6624   20368270.480
        53.0004         49.0004
 14  5 21  0 32  0.0000000  0 10G09G10G07G20G08G26G28G02G17G04
 -12456615.73449  -9701482.18048  20255810.3384   20255816.0434   20255810.370
        54.0004         49.0004
 -15623699.77447 -12167894.33647  22754187.6494   22754194.0454   22754187.282
        46.0004         42.0004
 -15026957.62548 -11673456.09047  21884309.5154   21884314.3954   21884308.647
        49.0004         44.0004
 -10962998.70746  -8490146.81145  24131224.1684   24131236.4374   24131226.005
        39.0004         34.0004
 -17822282.76148 -13854889.29348  20231074.6534   20231080.7584   20231074.872
        53.0004         48.0004
   -387091.51947   -286353.75346  24129293.2844   24129303.9354   24129292.606
        42.0004         38.0004
  -9019436.21047  -7029991.00047  22514684.6984   22514691.4864   22514684.019
        47.0004         43.0004
 -10092805.14048  -7811268.25147  22427530.2224   22427534.8444   22427530.671
        48.0004         43.0004
  -9359527.95647  -7231166.44747  23421663.7474   23421674.6424   23421663.406
        47.0004         42.0004
 -26786610.47348 -20828360.95248  20364343.2864   20364349.2794   20364342.460
        53.0004         49.0004
 14  5 21  0 32 30.0000000  0 10G09G10G07G20G08G26G28G02G17G04
 -12415572.88449  -9669500.70148  20263620.4914   20263626.1904   20263620.472
        54.0004         49.0004
 -15694974.63047 -12223433.07247  22740623.8274   22740629.6304   22740624.180
        47.0004         42.0004
 -14935145.14548 -11601913.85947  21901779.6344   21901785.4154   21901779.642
        49.0004         44.0004
 -10920836.83746  -8457293.53545  24139247.3454   24139259.2174   24139248.751
        39.0004         35.0004
 -17773936.75448 -13817217.05248  20240274.9774   20240280.8614   20240275.359
        53.0004         48.0004
   -374785.90647   -276764.80846  24131634.0754   24131644.9254   24131634.181
        42.0004         38.0004
  -9078452.52448  -7075977.62747  22503452.7694   22503460.9714   22503453.679
        48.0004         43.0004
 -10157482.85348  -7861666.36447  22415222.5544   22415227.3934   22415222.678
        48.0004         43.0004
  -9323617.08447  -7203183.93446  23428497.9794   23428508.5654   23428497.195
        46.0004         41.0004
 -26806694.70348 -20844010.97848  20360521.3074   20360526.7374   20360520.804
        53.0004         49.0004
 14  5 21  0 33  0.0000000  0 11G09G10G07G20G08G26G28G02G17G30G04
 -12374003.79749  -9637109.16548  20271530.9464   20271536.6994   20271530.822
        54.0004         49.0004
 -15766295.00447 -12279007.27147  22727051.8984   22727059.0794   22727052.228
        47.0004         42.0004
 -14843044.61048 -11530147.17247  21919306.2404   21919311.7104   21919305.902
        49.0004         44.0004
 -10878332.57246  -8424173.48045  24147336.9314   24147343.3854   24147336.718
        39.0004         34.0004
 -17725000.07248 -13779084.54048  20249587.3184   20249593.3304   20249587.443
        53.0004         48.0004
   -362344.73847   -267070.25446  24134001.5854   24134011.5434   24134001.233
        42.0004         38.0004
  -9137442.57348  -7121943.80047  22492227.1564   22492235.6594   22492227.780
        48.0004         43.0004
 -10221781.68448  -7911769.25247  22402987.9644   22402990.6764   22402986.966
        48.0004         43.0004
  -9287862.21647  -7175322.96247  23435301.3754   23435310.6894   23435300.977
        46.0004         42.0004
   -414968.46549   -326371.81948  20516726.6174   20516733.8584   20516726.721
        54.0004         50.0004
 -26826224.06848 -20859228.63748  20356804.4844   20356810.8464   20356804.360
        53.0004         49.0004
 14  5 21  0 33 30.0000000  0 11G09G10G07G20G08G26G28G02G17G30G04
 -12331912.01649  -9604310.33948  20279540.7644   20279546.3814   20279540.696
        54.0004         49.0004
 -15837660.00447 -12334616.25947  22713471.6834   22713478.1924   22713471.463
        47.0004         42.0004
 -14750660.82448 -11458159.77947  21936886.9704   21936892.0934   21936885.727
        49.0004         44.0004
 -10835487.22946  -8390787.57445  24155489.0774   24155498.9954   24155489.807
        38.0004         34.0004
 -17675476.34348 -13740494.59148  20259011.1674   20259016.9604   20259011.622
        53.0004         48.0004
   -349771.61047   -257272.87846  24136394.3844   24136403.7884   24136394.082
        42.0004         38.0004
  -9196405.21748  -7167888.60647  22481007.5824   22481016.1804   22481007.739
        48.0004         43.0004
 -10285701.73748  -7961576.98047  22390822.6394   22390827.6194   22390823.872
        48.0004         44.0004
  -9252266.30747  -7147585.85347  23442075.4714   23442085.5144   23442074.989
        46.0004         42.0004
   -371444.49649   -292457.00748  20525008.9734   20525015.9924   20525008.895
        54.0004         50.0004
 -26845199.55248 -20874014.70348  20353193.8474   20353199.8394   20353193.406
        53.0004         49.0004
 14  5 21  0 34  0.0000000  0 11G09G10G07G20G08G26G28G02G17G30G04
 -12289298.08749  -9571104.64348  20287649.6094   20287655.3954   20287649.646
        54.0004         49.0004
 -15909065.92347 -12390257.12647  22699883.1264   22699889.5194   22699883.554
        47.0004         42.0004
 -14657994.84148 -11385952.48147  21954519.7404   21954526.1904   21954519.620
        49.0004         44.0004
 -10792299.26846  -8357134.74345  24163708.6414   24163718.8054   24163707.812
        38.0004         34.0004
 -17625366.11148 -13701447.62848  20268546.8244   20268552.8614   20268547.190
        53.0004         48.0004
   -337067.31047   -247373.27546  24138812.6134   24138822.0424   24138811.589
        42.0004         38.0004
  -9255336.17648  -7213808.72147  22469792.7954   22469800.2934   22469793.645
        48.0004         43.0004
 -10349239.61148  -8011086.91947  22378732.0364   22378736.7854   22378732.043
        48.0004         44.0004
  -9216828.64147  -7119972.05147  23448818.9654   23448829.1534   23448818.645
        46.0004         42.0004
   -327420.60449   -258152.64348  20533386.7244   20533393.9304   20533386.292
        54.0004         50.0004
 -26863619.33948 -20888367.75748  20349688.6134   20349694.6174   20349688.275
        53.0004         49.0004
 14  5 21  0 34 30.0000000  0 11G09G10G07G20G08G26G28G02G17G30G04
 -12246163.08249  -9537492.92048  20295858.2734   20295863.4624   20295857.958
        54.0004         49.0004
 -15980509.18147 -12445927.09947  22686287.6354   22686293.9584   22686288.273
        47.0004         42.0004
 -14565049.28148 -11313527.34047  21972206.7404   21972212.8924   21972207.094
        49.0004         44.0004
 -10748766.99356  -8323213.64555  24171991.7595   24172002.8325   24171991.110
        38.0004         33.0004
 -17574670.03648 -13661944.16348  20278194.0674   20278199.8344   20278194.230
        53.0004         48.0004
   -324232.66347   -237372.10646  24141253.4684   24141263.5354   24141253.956
        42.0004         38.0004
  -9314231.37548  -7259700.97447  22458585.7704   22458592.7264   22458586.120
        48.0004         43.0004
 -10412392.60148  -8060296.92947  22366714.1064   22366720.0094   22366714.978
        48.0004         44.0004
  -9181550.27747  -7092482.39647  23455531.5654   23455542.1124   23455531.669
        46.0004         42.0004
   -282897.43349   -223459.23648  20541859.3164   20541866.7414   20541858.999
        54.0004         50.0004
 -26881482.13748 -20902286.79548  20346288.9694   20346295.2124   20346289.008
        53.0004         49.0004
 14  5 21  0 35  0.0000000  0 11G09G10G07G20G08G26G28G02G17G30G04
 -12202513.86749  -9503480.50948  20304164.3314   20304169.5774   20304164.199
        54.0004         49.0004
 -16051991.95847 -12501627.86747  22672684.6894   22672691.8454   22672685.381
        47.0004         42.0004
 -14471831.30548 -11240889.92447  21989945.0894   21989950.9594   21989945.320
        49.0004         44.0004
 -10704895.17246  -8289027.92945  24180341.3884   24180354.5684   24180342.402
        38.0004         34.0004
 -17523395.25848 -13621989.75848  20287951.2694   20287956.9954   20287951.416
        53.0004         48.0004
   -311274.60147   -227274.76146  24143717.8634   24143729.9164   24143719.072
        42.0004         38.0004
  -9373092.84848  -7305566.94747  22447384.9844   22447392.9904   22447384.982
        48.0004         43.0004
 -10475163.63248  -8109209.31747  22354769.3064   22354774.3484   22354769.636
        48.0004         44.0004
  -9146436.88447  -7065121.27947  23462213.9734   23462224.1404   23462213.182
        46.0004         42.0004
   -237881.50049   -188381.85048  20550425.3944   20550432.6674   20550425.138
        54.0004         50.0004
 -26898792.07248 -20915775.03548  20342995.8704   20343001.1724   20342995.197
        53.0004         49.0004
 14  5 21  0 35 30.0000000  0 11G09G10G07G20G08G26G28G02G17G30G04
 -12158347.66349  -9469065.25148  20312568.6514   20312574.1564   20312568.577
        54.0004         49.0004
 -16123506.90347 -12557353.70147  22659075.8704   22659082.1664   22659076.515
        47.0004         42.0004
 -14378338.94848 -11168038.69947  22007736.2964   22007742.0204   22007736.285
        49.0004         44.0004
                  -8254573.72445                  24188763.1614   24188755.574
                        34.0004
 -17471539.02248 -13581582.27648  20297818.8664   20297825.2854   20297819.299
        53.0004         48.0004
   -298190.56047   -217079.26046  24146207.8794   24146219.9874   24146208.589
        42.0004         38.0004
  -9431912.95548  -7351400.68247  22436191.1024   22436199.4624   22436191.565
        48.0004         43.0004
 -10537546.40648  -8157819.17747  22342898.4334   22342902.4654   22342898.359
        48.0004         44.0004
  -9111484.92647  -7037885.96947  23468864.1444   23468874.7244   23468864.767
        46.0004         42.0004
   -192369.74849   -152918.12148  20559085.7944   20559093.3144   20559085.516
        54.0004         50.0004
 -26915544.11648 -20928828.54648  20339807.4064   20339813.4274   20339806.952
        53.0004         49.0004
 14  5 21  0 36  0.0000000  0 11G09G10G07G20G08G26G28G02G17G30G04
 -12113669.14049  -9434250.78248  20321070.7654   20321076.1224   20321070.712
        54.0004         49.0004
 -16195054.39947 -12613104.90647  22645461.4484   22645468.5414   22645461.000
        47.0004         42.0004
 -14284578.00648 -11094978.19147  22025578.3154   22025583.6184   22025578.501
        49.0004         44.0004
                                                                  24197234.788

 -17419106.26848 -13540725.55548  20307796.5494   20307802.7644   20307796.926
        53.0004         48.0004
   -284985.22147   -206789.23046  24148721.1934   24148731.0854   24148722.008
        43.0004         38.0004
  -9490691.56948  -7397202.09147  22425006.4384   22425013.9774   22425006.398
        48.0004         43.0004
 -10599542.25648  -8206127.53247  22331100.1174   22331105.2674   22331101.433
        48.0004         44.0004
  -9076698.04447  -7010779.27747  23475483.8774   23475494.5954   23475483.916
        47.0004         42.0004
   -146366.62649   -117071.50148  20567839.7364   20567847.1654   20567839.919
        54.0004         50.0004
 -26931740.56748 -20941449.13748  20336725.5644   20336731.4144   20336725.342
        53.0004         49.0004
 14  5 21  0 36 30.0000000  0 11G09G10G07G20G08G26G28G02G17G30G04
 -12068478.81149  -9399037.50648  20329670.1184   20329675.5934   20329670.111
        54.0004         49.0004
 -16266630.49847 -12668878.38947  22631840.2694   22631847.1194   22631840.548
        47.0004         42.0004
 -14190549.76648 -11021709.39847  22043472.0754   22043476.8594   22043471.325
        49.0004         44.0004
 -10571217.88646                  24205781.1614                   24205779.465
        38.0004
 -17366097.55648 -13499420.03348  20317883.6714   20317889.4964   20317884.137
        53.0004         48.0004
   -271659.15847   -196405.13646  24151257.9724   24151267.2534   24151257.160
        43.0004         38.0004
  -9549423.90548  -7442967.44047  22413829.8764   22413837.9504   22413830.254
        48.0004         43.0004
 -10661147.86348  -8254131.80047  22319378.7004   22319382.0744   22319377.805
        48.0004         44.0004
  -9042076.43547  -6983801.37347  23482072.2014   23482083.5054   23482072.361
        47.0004         42.0004
    -99872.37849    -80842.18948  20576687.2234   20576694.7394   20576687.261
        54.0004         50.0004
 -26947379.63348 -20953635.39848  20333749.5154   20333755.4534   20333748.997
        53.0004         49.0004
 14  5 21  0 37  0.0000000  0 11G09G10G07G20G08G26G28G02G17G30G04
 -12022782.20149  -9363429.72648  20338365.6724   20338371.1374   20338365.722
        54.0004         49.0004
 -16338235.90047 -12724674.71447  22618214.9204   22618220.8934   22618214.767
        47.0004         43.0004
 -14096260.50848 -10948237.21647  22061415.2784   22061419.9734   22061413.943
        49.0004         44.0004
                  -8149609.89845                  24214399.0984   24214389.406
                        33.0004
 -17312518.28848 -13457669.92348  20328079.8464   20328085.6514   20328079.699
        53.0004         48.0004
   -258217.86447   -185931.26046  24153815.4324   24153826.2134   24153814.969
        43.0004         38.0004
  -9608110.84048  -7488697.41447  22402661.6164   22402669.8794   22402662.154
        48.0004         43.0004
 -10722364.88348  -8301833.28847  22307728.6394   22307731.9104   22307728.743
        48.0004         44.0004
  -9007624.34847  -6956955.57347  23488628.2144   23488639.0394   23488628.556
        47.0004         42.0004
    -52892.20949    -44234.23348  20585627.4274   20585634.9574   20585627.461
        54.0004         49.0004
 -26962464.46648 -20965389.78348  20330878.7234   20330884.8704   20330878.308
        53.0004         49.0004
 14  5 21  0 37 30.0000000  0 11G09G10G07G20G08G26G28G02G17G30G04
 -11976577.14949  -9327425.75348  20347158.1574   20347163.7644   20347158.104
        54.0004         49.0004
 -16409863.94047 -12780488.67547  22604583.7964   22604589.6034   22604584.720
        47.0004         43.0004
 -14001709.03248 -10874560.70747  22079407.4994   22079412.3674   22079406.573
        49.0004         44.0004
 -10480386.02256  -8114086.40345  24223063.7495   24223077.2424   24223062.631
        38.0004         33.0004
 -17258366.43148 -13415473.64648  20338384.3694   20338390.1484   20338384.852
        53.0004         48.0004
   -244659.17247   -175365.88346  24156395.7324   24156405.3404   24156396.082
        43.0004         38.0004
  -9666745.01448  -7534386.27547  22391503.8384   22391511.7084   22391504.351
        48.0004         43.0004
 -10783187.35248  -8349227.32147  22296153.8604   22296158.5114   22296154.540
        49.0004         44.0004
  -8973338.37547  -6930239.20647  23495153.5584   23495163.9074   23495153.071
        47.0004         42.0004
     -5423.56349     -7245.64648  20594660.3204   20594667.8484   20594660.199
        54.0004         49.0004
 -26976990.26648 -20976708.56448  20328115.0414   20328120.3174   20328114.832
        53.0004         49.0004
 14  5 21  0 38  0.0000000  0 11G09G10G07G20G08G26G28G02G17G30G04
 -11929868.77349  -9291029.58648  20356046.9174   20356052.0294   20356046.588
        54.0004         49.0004
 -16481515.04947 -12836320.62047  22590949.2204   22590956.2114   22590949.075
        47.0004         43.0004
 -13906901.28148 -10800684.50247  22097448.9164   22097453.9614   22097448.168
        49.0004         44.0004
 -10434454.66956  -8078295.85555  24231805.3935   24231814.9385   24231804.879
        38.0004         33.0004
 -17203647.23848 -13372835.28248  20348796.7944   20348803.0864   20348797.313
        53.0004         48.0004
   -230988.02447   -164712.88046  24158997.2164   24159007.5234   24158996.401
        43.0004         38.0004
  -9725326.18948  -7580033.84047  22380356.1044   22380363.9614   22380356.940
        48.0004         43.0004
 -10843616.65048  -8396315.00847  22284654.7634   22284659.5044   22284654.950
        49.0004         44.0004
  -8939223.32947  -6903656.01647  23501646.0194   23501654.9404   23501644.967
        47.0004         42.0004
     42528.78049     30119.84648  20603785.5744   20603792.8624   20603785.243
        54.0004         49.0004
 -26990960.03648 -20987594.07248  20325456.0614   20325462.1834   20325455.847
        53.0004         49.0004
 14  5 21  0 38 30.0000000  0 11G09G10G07G20G08G26G28G02G17G30G04
 -11882658.58649  -9254242.39248  20365030.3854   20365035.6784   20365030.357
        54.0004         49.0004
 -16553185.87547 -12892167.92547  22577310.1834   22577317.6404   22577310.465
        47.0004         43.0004
 -13811839.04248 -10726609.98847  22115538.2844   22115542.6304   22115537.471
        49.0004         44.0004
                  -8042238.09955                  24240622.2295   24240609.938
                        33.0004
 -17148362.04548 -13329755.88448  20359317.5474   20359323.4014   20359317.717
        52.0004         48.0004
   -217205.97647   -153973.47346  24161620.1304   24161630.4294   24161619.188
        43.0004         38.0004
  -9783850.99548  -7625637.49647  22369219.8344   22369226.0094   22369220.245
        48.0004         43.0004
 -10903650.62348  -8443094.62847  22273230.7364   22273235.9054   22273230.964
        49.0004         44.0004
  -8905279.03747  -6877205.88947  23508103.7944   23508114.8014   23508104.230
        47.0004         42.0004
     90963.49349     67861.20948  20613002.0614   20613009.4504   20613002.104
        54.0004         49.0004
 -27004372.94048 -20998045.65948  20322904.1564   20322910.0244   20322903.876
        53.0004         49.0004
 14  5 21  0 39  0.0000000  0 11G09G10G07G20G08G26G28G02G17G30G04
 -11834954.17449  -9217070.09648  20374107.8894   20374113.9174   20374108.052
        54.0004         49.0004
 -16624879.36847 -12948032.88747  22563667.8484   22563673.9714   22563668.518
        47.0004         43.0004
 -13716530.80648 -10652343.80347  22133674.8194   22133679.7184   22133674.624
        48.0004         44.0004
                  -8005917.06345                  24249489.7034   24249482.141
                        33.0004
 -17092518.69348 -13286241.55248  20369943.5664   20369950.1294   20369944.316
        52.0004         48.0004
   -203320.79647   -143153.69946  24164261.8934   24164271.9894   24164261.261
        43.0004         38.0004
  -9842321.94848  -7671199.18147  22358093.7124   22358099.5264   22358093.126
        48.0004         44.0004
 -10963293.52948  -8489569.54447  22261881.1794   22261885.7644   22261880.842
        49.0004         44.0004
  -8871512.80347  -6850894.52747  23514529.9284   23514540.0704   23514529.270
        47.0004         42.0004
    139873.13449    105972.64948  20622309.2974   20622316.5094   20622309.126
        54.0004         49.0004
 -27017234.44948 -21008067.59048  20320456.5074   20320462.1994   20320456.134
        53.0004         49.0004
 14  5 21  0 39 30.0000000  0 11G09G10G07G20G08G26G28G02G17G30G04
 -11786747.64049  -9179506.52848  20383281.5124   20383287.0294   20383281.454
        54.0004         49.0004
 -16696582.81647 -13003905.61347  22550022.6744   22550030.0074   22550023.420
        47.0004         43.0004
 -13620969.36248 -10577880.30747  22151860.5624   22151865.7664   22151859.222
        48.0004         44.0004
 -10294607.96246  -7969324.74745  24258415.4174   24258427.5394   24258418.598
        37.0004         33.0004
 -17036109.17848 -13242286.05948  20380678.0334   20380684.1994   20380678.648
        52.0004         48.0004
   -189324.01847   -132246.96446  24166925.2554   24166935.7884   24166924.718
        43.0004         39.0004
  -9900725.70148  -7716708.48447  22346978.7154   22346986.7894   22346979.061
        48.0004         44.0004
 -11022532.99748  -8535730.08547  22250607.8214   22250613.0404   22250608.136
        49.0004         44.0004
  -8837915.31347  -6824714.63747  23520921.9284   23520934.0304   23520922.471
        46.0004         42.0004
    189266.35149    144460.89748  20631708.5914   20631715.6764   20631708.472
        54.0004         49.0004
 -27029533.70548 -21017651.40348  20318115.7474   20318121.8474   20318115.621
        53.0004         49.0004
 14  5 21  0 40  0.0000000  0 11G09G10G07G20G08G26G28G02G17G30G04
 -11738045.60749  -9141556.86048  20392549.3084   20392554.6674   20392549.252
        54.0004         49.0004
 -16768298.22047 -13059787.65947  22536376.0584   22536383.5094   22536375.894
        47.0004         43.0004
 -13525162.26548 -10503225.39347  22170091.2934   22170094.8494   22170090.551
        48.0004         44.0004
                  -7932464.33255                  24267428.1895   24267418.330
                        32.0004
 -16979140.43148 -13197894.80048  20391519.3054   20391525.1114   20391519.605
        52.0004         48.0004
   -175222.39947   -121258.53146  24169609.2614   24169618.1034   24169608.350
        43.0004         39.0004
  -9959064.19648  -7762166.95547  22335877.7594   22335885.8014   22335877.179
        48.0004         43.0004
 -11081372.29348  -8581578.80847  22239411.4874   22239415.0554   22239411.518
        49.0004         44.0004
  -8804491.96147  -6798670.44847  23527283.2884   23527293.8184   23527283.037
        46.0004         42.0004
    239136.59249    183320.85748  20641198.4644   20641205.6444   20641198.341
        54.0004         49.0004
 -27041275.40048 -21026800.75448  20315881.5494   20315887.5364   20315881.118
        53.0004         49.0004
 14  5 21  0 40 30.0000000  0 11G09G10G07G20G08G26G28G02G17G30G04
 -11688856.64549  -9103227.77048  20401909.4274   20401915.2374   20401909.486
        54.0004         49.0004
 -16840029.22247 -13115681.86647  22522725.2814   22522731.4234   22522725.820
        47.0004         43.0004
 -13429118.71448 -10428386.23747  22188367.2684   22188372.3244   22188366.974
        48.0004         44.0004
                  -7895340.89945                  24276498.3714   24276484.659
                        32.0004
 -16921621.10848 -13153074.51648  20402464.9294   20402470.3704   20402464.931
        52.0004         48.0004
   -161024.39247   -110194.98846  24172310.3724   24172321.2844   24172310.160
        43.0004         39.0004
 -10017340.46048  -7807576.92547  22324787.6554   22324795.7434   22324788.074
        48.0004         43.0004
 -11139816.53048  -8627119.69247  22228289.4634   22228293.6904   22228289.806
        49.0004         44.0004
  -8771250.29047  -6772767.82447  23533609.0934   23533618.4454   23533608.604
        46.0004         42.0004
    289475.59349    222546.07948  20650777.5994   20650784.9324   20650777.808
        54.0004         49.0004
 -27052465.88148 -21035520.58648  20313752.4854   20313757.7954   20313751.732
        53.0004         49.0004
 14  5 21  0 41  0.0000000  0 11G09G10G07G20G08G26G28G02G17G30G04
 -11639176.17149  -9064515.68248  20411363.6204   20411368.8704   20411363.457
        54.0004         49.0004
 -16911766.36147 -13171580.84747  22509075.0934   22509081.8304   22509074.874
        47.0004         43.0004
 -13332834.27348 -10353359.36947  22206688.9864   22206694.3724   22206689.330
        48.0004         44.0004
                  -7857948.91245                  24285630.2144   24285615.015
                        32.0004
 -16863546.51348 -13107821.55848  20413515.8794   20413521.3014   20413516.184
        52.0004         48.0004
   -146725.13347    -99052.54946  24175030.9984   24175040.6804   24175030.297
        43.0004         38.0004
 -10075544.58348  -7852930.69747  22313712.4384   22313719.2344   22313711.906
        48.0004         44.0004
 -11197856.93948  -8672345.90047  22217245.4064   22217248.9844   22217245.093
        49.0004         44.0004
  -8738184.18547  -6747001.99246  23539902.1554   23539910.7824   23539900.669
        46.0004         41.0004
    340288.35349    262140.46948  20660446.7334   20660454.4324   20660446.833
        54.0004         49.0004
 -27063097.94748 -21043805.29248  20311728.9074   20311734.4624   20311728.580
        53.0004         49.0004
 14  5 21  0 41 30.0000000  0 11G09G10G07G20G08G26G28G02G17G30G04
 -11589011.50049  -9025426.29848  20420909.4434   20420914.7414   20420909.585
        54.0004         49.0004
 -16983512.06747 -13227486.50947  22495421.7544   22495428.9504   22495421.940
        47.0004         43.0004
 -13236317.55748 -10278151.50547  22225056.4874   22225060.7304   22225055.757
        48.0004         44.0004
 -10103348.86346  -7820292.12545  24294813.9284   24294828.5484   24294814.434
        37.0004         33.0004
 -16804924.06148 -13062141.69348  20424671.3854   20424677.1484   20424671.747
        52.0004         48.0004
   -132331.88147    -87836.86346  24177769.1874   24177779.8514   24177769.485
        43.0004         38.0004
 -10133678.54048  -7898229.77947  22302649.0514   22302656.6114   22302649.074
        48.0004         44.0004
 -11255497.11448  -8717260.23547  22206276.6944   22206280.7574   22206276.829
        49.0004         44.0004
  -8705300.49547  -6721378.30546  23546160.0634   23546169.9854   23546158.493
        46.0004         41.0004
    391567.75649    302098.47148  20670205.1784   20670212.5314   20670205.257
        54.0004         49.0004
 -27073176.89848 -21051658.99448  20309810.5774   20309816.7224   20309810.176
        53.0004         49.0004
 14  5 21  0 42  0.0000000  0 11G09G10G07G20G08G26G28G02G17G30G04
 -11538357.93949  -8985955.96148  20430548.3864   20430554.1854   20430548.474
        54.0004         49.0004
 -17055256.68148 -13283391.32247  22481769.1294   22481775.4054   22481769.373
        48.0004         43.0004
 -13139564.36148 -10202759.37747  22243467.6654   22243472.9654   22243466.772
        48.0004         44.0004
 -10054676.36846  -7782365.59845  24304074.4024   24304088.3434   24304076.173
        37.0004         33.0004
 -16745749.19248 -13016031.37948  20435932.1534   20435937.8154   20435932.267
        52.0004         48.0004
   -117839.78347    -76544.16446  24180527.4694   24180536.4704   24180526.879
        43.0004         38.0004
 -10191732.76248  -7943466.75147  22291602.9684   22291608.8214   22291602.029
        48.0004         44.0004
 -11312728.57848  -8761856.09947  22195385.7734   22195390.2144   22195384.841
        49.0004         44.0004
  -8672592.92747  -6695891.87346  23552382.4104   23552392.5794   23552382.264
        46.0004         41.0004
    443318.84949    342424.02548  20680052.8674   20680059.9654   20680052.880
        54.0004         49.0004
 -27082695.52248 -21059076.08748  20307999.5224   20308005.3184   20307999.286
        53.0004         49.0004
 14  5 21  0 42 30.0000000  0 10G09G10G07G08G26G28G02G17G30G04
 -11487206.95149  -8946098.01748  20440282.2004   20440287.9364   20440282.151
        54.0004         49.0004
 -17126986.96448 -13339284.96647  22468118.4544   22468125.5184   22468119.869
        48.0004         43.0004
 -13042566.36248 -10127176.48847  22261925.1304   22261930.9554   22261925.331
        48.0004         43.0004
 -16686013.30948 -12969483.91548  20447299.5004   20447305.2784   20447299.834
        52.0004         48.0004
   -103239.95247    -65167.49946  24183305.4814   24183314.9174   24183305.555
        43.0004         38.0004
 -10249693.25448  -7988630.67747  22280572.0154   22280580.4664   22280572.183
        48.0004         44.0004
 -11369539.11848  -8806123.97547  22184574.9574   22184579.2134   22184574.846
        49.0004         44.0004
  -8640051.76247  -6670535.09246  23558575.5564   23558585.1534   23558575.021
        46.0004         41.0004
    495550.49449    383124.03548  20689992.5454   20689999.8874   20689992.347
        54.0004         49.0004
 -27091643.01548 -21066048.14148  20306297.1554   20306302.6624   20306296.496
        53.0004         49.0004
 14  5 21  0 43  0.0000000  0 10G09G10G07G08G26G28G02G17G30G04
 -11435594.40949  -8905880.42348  20450103.5744   20450109.2264   20450103.454
        54.0004         49.0004
 -17198733.55548 -13395191.30847  22454465.1594   22454472.7914   22454466.459
        48.0004         43.0004
 -12945360.16148 -10051431.37047  22280424.1854   22280427.7434   22280422.904
        48.0004         43.0004
 -16625752.54648 -12922527.44948  20458766.3054   20458771.8594   20458766.660
        52.0004         48.0004
    -88568.21447    -53734.82546  24186097.9254   24186107.1694   24186097.382
        43.0004         38.0004
 -10307590.54048  -8033745.33747  22269554.0244   22269562.7264   22269554.713
        48.0004         44.0004
 -11425960.96248  -8850088.97247  22173837.7424   22173841.1264   22173837.561
        49.0004         44.0004
  -8607711.14947  -6645334.60547  23564728.6374   23564739.9124   23564728.924
        46.0004         42.0004
    548227.08149    424170.75348  20700016.5844   20700023.5794   20700016.446
        54.0004         49.0004
 -27100053.11848 -21072601.44848  20304696.7154   20304701.9014   20304696.262
        53.0004         49.0004
 14  5 21  0 43 30.0000000  0 10G09G10G07G08G26G28G02G17G30G04
 -11383503.72349  -8865290.24848  20460016.3754   20460021.7834   20460016.348
        54.0004         49.0004
 -17270474.98448 -13451093.65047  22440814.4074   22440820.6134   22440814.632
        48.0004         43.0004
 -12847930.11048  -9975511.81947  22298963.1834   22298967.7584   22298963.377
        48.0004         43.0004
 -16564950.26348 -12875149.02448  20470337.1644   20470342.4604   20470337.333
        52.0004         48.0004
    -73807.61147    -42232.89346  24188906.8594   24188915.3514   24188906.328
        43.0004         38.0004
 -10365402.55148  -8078793.57147  22258553.8864   22258561.7904   22258553.682
        48.0004         44.0004
 -11481973.59248  -8893735.10147  22163178.3054   22163183.1204   22163179.264
        49.0004         44.0004
  -8575553.72247  -6620276.85746  23570848.5164   23570858.5884   23570848.864
        46.0004         41.0004
    601365.58449    465577.40348  20710128.6924   20710135.6684   20710128.184
        54.0004         49.0004
 -27107906.73748 -21078721.13548  20303202.0244   20303207.6274   20303201.571
        53.0004         49.0004
 14  5 21  0 44  0.0000000  0 10G09G10G07G08G26G28G02G17G30G04
 -11330939.88949  -8824331.38448  20470018.5824   20470023.7294   20470018.756
        54.0004         49.0004
 -17342211.31648 -13506992.01247  22427162.8314   22427169.3404   22427163.979
        48.0004         43.0004
 -12750281.31948  -9899421.83247  22317545.8744   22317550.9504   22317545.054
        48.0004         43.0004
 -16503611.60648 -12827352.64148  20482009.2884   20482014.8504   20482009.578
        52.0004         48.0004
    -58962.90047    -30665.44246  24191731.2044   24191741.1724   24191730.805
        43.0004         38.0004
 -10423128.90448  -8123775.05647  22247568.0134   22247575.1634   22247568.423
        48.0004         44.0004
 -11537578.29948  -8937063.36447  22152597.8104   22152602.0164   22152597.628
        49.0004         44.0004
  -8543583.08147  -6595364.65446  23576933.5574   23576943.0494   23576932.096
        46.0004         41.0004
    654961.35149    507340.36748  20720327.2234   20720334.5544   20720327.198
        54.0004         49.0004
 -27115206.62748 -21084409.34348  20301813.0504   20301818.2424   20301812.462
        53.0004         49.0004
 14  5 21  0 44 30.0000000  0 10G09G10G07G08G26G28G02G17G30G04
 -11277901.63449  -8783002.84548  20480111.7574   20480117.2234   20480111.634
        54.0004         49.0004
 -17413936.10248 -13562881.36947  22413513.9574   22413520.6244   22413514.861
        48.0004         43.0004
 -12652412.87548  -9823160.67447  22336168.4874   22336173.6894   22336168.883
        48.0004         43.0004
 -16441735.58948 -12779137.53748  20493783.4414   20493789.9404   20493784.022
        52.0004         48.0004
    -44032.47947    -19031.18846  24194570.6664   24194583.0324   24194571.148
        43.0004         38.0004
 -10480762.75748  -8168684.47147  22236600.6744   22236607.9454   22236600.864
        48.0004         44.0004
 -11592770.21548  -8980069.97747  22142094.5784   22142099.8494   22142095.314
        49.0004         44.0004
  -8511796.42347  -6570595.81046  23582981.4484   23582992.6254   23582981.387
        46.0004         41.0004
    709016.07749    549460.95748  20730613.3304   20730620.3064   20730613.306
        54.0004         49.0004
 -27121949.30448 -21089663.36748  20300529.6834   20300535.4394   20300529.526
        53.0004         49.0004
 14  5 21  0 45  0.0000000  0 10G09G10G07G08G26G28G02G17G30G04
 -11224395.68949  -8741309.87048  20490293.3024   20490298.8284   20490293.494
        54.0004         49.0004
 -17485651.10248 -13618763.11547  22399867.4204   22399873.7424   22399867.998
        48.0004         43.0004
 -12554332.54348  -9746734.41847  22354833.2394   22354838.7494   22354833.151
        48.0004         43.0004
 -16379328.96248 -12730508.97148  20505659.0304   20505665.3024   20505659.340
        52.0004         48.0004
    -29023.00547     -7335.33046  24197428.2134   24197439.0764   24197427.923
        43.0004         38.0004
 -10538305.97848  -8213523.24447  22225650.0374   22225658.2854   22225650.638
        48.0004         44.0004
 -11647552.19448  -9022757.16247  22131670.0214   22131675.3244   22131670.284
        49.0004         44.0004
  -8480199.24947  -6545974.61746  23588994.7414   23589003.9404   23588993.636
        46.0004         41.0004
    763523.04249    591933.94448  20740985.4554   20740992.8744   20740985.800
        54.0004         49.0004
 -27128139.49248 -21094486.87048  20299351.3284   20299357.9304   20299351.440
        53.0004         49.0004
 14  5 21  0 45 30.0000000  0 10G09G10G07G08G26G28G02G17G30G04
 -11170421.80349  -8699252.26548  20500564.4404   20500569.5234   20500564.324
        54.0004         49.0004
 -17557350.99848 -13674633.09447  22386223.9494   22386230.6514   22386223.538
        48.0004         43.0004
 -12456040.53048  -9670143.22047  22373538.0604   22373542.4374   22373537.243
        48.0004         43.0004
 -16316391.58748 -12681466.83648  20517635.8214   20517641.7164   20517636.231
        52.0004         48.0004
    -13933.88447      4422.59246  24200298.4594   24200309.9924   24200297.834
        42.0004         38.0004
 -10595752.68748  -8258286.82947  22214718.4764   22214726.4024   22214718.991
        48.0004         44.0004
 -11701920.34548  -9065121.88447  22121324.1144   22121328.9674   22121324.658
        49.0004         45.0004
  -8448789.63147  -6521499.56146  23594970.9764   23594980.8964   23594970.869
        46.0004         41.0004
    818482.86949    634759.81148  20751444.0544   20751451.4024   20751444.066
        54.0004         49.0004
 -27133774.42648 -21098877.71548  20298279.3174   20298285.2004   20298279.225
        53.0004         49.0004
 14  5 21  0 46  0.0000000  0 10G09G10G07G08G26G28G02G17G30G04
 -11115984.43949  -8656833.50948  20510923.3114   20510928.7084   20510923.260
        54.0004         49.0004
 -17629035.02448 -13730490.70847  22372581.9884   22372589.0604   22372582.329
        48.0004         43.0004
 -12357541.38548  -9593390.61647  22392281.8404   22392287.3134   22392281.281
        48.0004         43.0004
 -16252927.80048 -12632014.50948  20529712.1504   20529718.6074   20529712.837
        52.0004         48.0004
      1230.91247     16239.46846  24203183.4514   24203192.9264   24203184.249
        42.0004         38.0004
 -10653101.63848  -8302974.23447  22203805.3764   22203813.1834   22203805.728
        48.0004         44.0004
 -11755874.98948  -9107164.38847  22111056.5394   22111061.0624   22111057.337
        49.0004         45.0004
  -8417570.89547  -6497173.25346  23600912.0974   23600921.9104   23600911.443
        46.0004         41.0004
    873891.63249    677935.49748  20761988.0554   20761995.1374   20761988.114
        54.0004         49.0004
 -27138856.40548 -21102837.67848  20297312.3274   20297318.3354   20297311.811
        53.0004         49.0004
 14  5 21  0 46 30.0000000  0 10G09G10G07G08G26G28G02G17G30G04
 -11061085.76949  -8614055.29448  20521370.0754   20521375.6394   20521369.943
        54.0004         49.0004
 -17700700.60948 -13786333.94247  22358944.7074   22358951.1004   22358945.259
        48.0004         43.0004
 -12258838.16848  -9516478.99347  22411064.8494   22411068.2964   22411063.735
        48.0004         43.0004
 -16188940.42648 -12582154.19847  20541888.9464   20541894.3524   20541889.194
        52.0004         47.0004
     16469.23547     28113.63546  24206084.2934   24206094.4794   24206083.905
        42.0004         38.0004
 -10710349.84448  -8347583.13547  22192911.8994   22192919.2804   22192911.822
        49.0004         44.0004
 -11809415.31648  -9148884.04747  22100868.3804   22100872.7784   22100868.773
        49.0004         45.0004
  -8386543.82947  -6472996.30646  23606816.1274   23606826.4314   23606815.766
        46.0004         41.0004
    929747.12449    721459.28148  20772616.9284   20772624.1794   20772616.963
        54.0004         49.0004
 -27143385.69448 -21106366.98048  20296450.3234   20296455.8934   20296450.251
        53.0004         49.0004
 14  5 21  0 47  0.0000000  0 10G09G10G07G08G26G28G02G17G30G04
 -11005727.26149  -8570918.76848  20531904.5854   20531910.1264   20531904.688
        54.0004         49.0004
 -17772343.60748 -13842159.60047  22345312.3254   22345318.3234   22345312.025
        48.0004         43.0004
 -12159932.82448  -9439409.87547  22429885.5054   22429890.5554   22429884.473
        48.0004         43.0004
 -16124430.92848 -12531887.03047  20554164.6384   20554169.8354   20554164.996
        52.0004         47.0004
     31780.06747     40044.31146  24208997.3974   24209007.9134   24208997.235
        43.0004         38.0004
 -10767493.08748  -8392110.24347  22182036.9414   22182044.5534   22182037.356
        48.0004         44.0004
 -11862538.73548  -9190278.85347  22090759.5474   22090763.9014   22090759.896
        49.0004         45.0004
  -8355708.21147  -6448968.54146  23612683.6774   23612694.1454   23612683.503
        46.0004         41.0004
    986048.29649    765330.34848  20783330.8024   20783337.9914   20783330.877
        54.0004         49.0004
 -27147361.44848 -21109464.96148  20295693.7974   20295699.6894   20295693.456
        53.0004         49.0004
 14  5 21  0 47 30.0000000  0 10G09G10G07G08G26G28G02G17G30G04
 -10949911.78949  -8527426.16448  20542525.3064   20542531.2664   20542525.432
        54.0004         49.0004
 -17843962.10048 -13897966.13847  22331682.4774   22331689.3664   22331683.147
        48.0004         43.0004
 -12060828.54048  -9362185.74047  22448744.4384   22448749.2264   22448744.002
        48.0004         43.0004
 -16059402.18048 -12481215.25647  20566539.5714   20566544.9614   20566539.453
        52.0004         47.0004
     47161.02047     52029.63546  24211925.0874   24211935.6474   24211924.639
        43.0004         38.0004
 -10824528.89648  -8436553.64347  22171184.5574   22171189.6764   22171183.924
        48.0004         44.0004
 -11915244.34748  -9231348.09347  22080730.2614   22080734.1314   22080729.907
        49.0004         45.0004
  -8325065.44447  -6425091.04446  23618514.4034   23618524.6204   23618514.558
        46.0004         41.0004
   1042792.68349    809546.78048  20794128.4784   20794135.6934   20794128.624
        54.0004         49.0004
 -27150784.19448 -21112132.01848  20295042.4594   20295048.2224   20295042.120
        53.0004         49.0004
 14  5 21  0 48  0.0000000  0 10G09G10G07G08G26G28G02G17G30G04
 -10893644.04249  -8483581.13748  20553233.2494   20553238.3034   20553232.948
        54.0004         49.0004
 -17915555.23448 -13953752.92847  22318058.4784   22318067.0364   22318059.561
        48.0004         43.0004
 -11961530.15048  -9284810.34847  22467639.8154   22467645.0704   22467639.456
        48.0004         43.0004
 -15993858.88448 -12430142.53447  20579011.3824   20579017.6364   20579011.838
        52.0004         47.0004
     62607.70647     64066.16146  24214863.9714   24214874.0104   24214863.527
        42.0004         38.0004
 -10881456.07548  -8480912.39447  22160349.9244   22160358.2734   22160350.685
        48.0004         44.0004
 -11967532.93048  -9272092.37947  22070779.2244   22070782.9704   22070779.954
        49.0004         45.0004
  -8294618.43647  -6401366.08146  23624308.4384   23624319.1634   23624307.981
        46.0004         41.0004
   1099975.95749    854105.20048  20805010.5204   20805017.7044   20805010.509
        54.0004         49.0004
 -27153656.39048 -21114370.08748  20294496.0734   20294501.6074   20294495.749
        53.0004         49.0004
 14  5 21  0 48 30.0000000  0 10G09G10G07G08G26G28G02G17G30G04
 -10836924.49349  -8439384.05848  20564026.8534   20564032.0594   20564026.641
        54.0004         49.0004
 -17987118.30048 -14009516.30147  22304441.0424   22304447.2174   22304441.856
        48.0004         43.0004
 -11862038.75748  -9207284.57447  22486572.3824   22486575.8024   22486571.911
        48.0004         43.0004
 -15927801.88748 -12378669.52847  20591581.6134   20591587.4584   20591582.233
        52.0004         47.0004
     78120.06847     76153.87446  24217815.7694   24217824.5124   24217815.730
        42.0004         38.0004
 -10938269.86948  -8525182.78647  22149539.3484   22149546.1164   22149539.589
        48.0004         44.0004
 -12019401.41848  -9312509.31647  22060909.4284   22060913.0714   22060909.485
        49.0004         45.0004
  -8264366.30247  -6377792.96746  23630066.7294   23630075.6654   23630065.551
        46.0004         41.0004
   1157597.79149    899005.35748  20815975.4114   20815982.7594   20815975.348
        54.0004         49.0004
 -27155976.68149 -21116178.09648  20294054.2394   20294060.1474   20294054.002
        54.0004         49.0004
 14  5 21  0 49  0.0000000  0 10G09G10G07G08G26G28G02G17G30G04
 -10779756.15449  -8394837.27448  20574905.4664   20574910.9804   20574905.343
        54.0004         49.0004
 -18058649.12848 -14065254.55247  22290829.5584   22290834.2954   22290829.249
        48.0004         43.0004
 -11762357.70347  -9129611.00247  22505540.7304   22505545.7714   22505540.718
        47.0004         43.0004
 -15861234.24848 -12326798.61747  20604249.0574   20604255.3774   20604249.576
        52.0004         47.0004
     93695.39647     88290.64646  24220780.8744   24220788.8094   24220779.916
        42.0004         38.0004
 -10994967.65648  -8569362.79147  22138750.4554   22138757.2184   22138750.113
        48.0004         44.0004
 -12070848.98948  -9352598.26847  22051119.7894   22051123.7824   22051119.455
        50.0004         45.0004
  -8234310.43247  -6354372.78446  23635784.7594   23635794.8574   23635784.788
        46.0004         41.0004
   1215655.53149    944245.17848  20827023.4244   20827030.5234   20827023.485
        54.0004         49.0004
 -27157745.60049 -21117556.46848  20293717.9864   20293723.6354   20293717.617
        54.0004         49.0004
 14  5 21  0 49 30.0000000  0 10G09G10G07G08G26G28G02G17G30G04
 -10722142.92349  -8349943.81848  20585868.5854   20585874.0084   20585868.716
        54.0004         49.0004
 -18130146.32248 -14120966.58747  22277223.8204   22277230.6014   22277223.941
        48.0004         43.0004
 -11662490.99347  -9051792.77047  22524544.4954   22524550.0174   22524544.451
        47.0004         43.0004
 -15794160.09448 -12274533.01847  20617012.9224   20617018.9474   20617013.272
        52.0004         47.0004
    109330.51447    100474.00846  24223754.0804   24223765.5364   24223754.381
        42.0004         38.0004
 -11051547.73848  -8613451.07947  22127983.7524   22127990.3754   22127983.390
        48.0004         44.0004
 -12121875.76348  -9392359.32847  22041408.8184   22041413.2614   22041408.714
        50.0004         45.0004
  -8204452.88647  -6331107.15246  23641467.7194   23641476.7394   23641466.384
        46.0004         41.0004
   1274145.69549    989821.95548  20838153.1914   20838160.9874   20838153.542
        54.0004         49.0004
 -27158964.95649 -21118506.60848  20293485.7574   20293491.6414   20293485.588
        54.0004         49.0004
 14  5 21  0 50  0.0000000  0 10G09G10G07G08G26G28G02G17G30G04
 -10664086.83449  -8304705.28048  20596916.5244   20596921.9224   20596916.412
        54.0004         49.0004
 -18201606.38948 -14176649.68847  22263625.9344   22263631.1524   22263625.719
        48.0004         43.0004
 -11562441.18747  -8973831.86647  22543584.4204   22543588.1974   22543583.276
        47.0004         43.0004
 -15726581.59148 -12221874.42347  20629872.5384   20629878.5644   20629873.114
        52.0004         47.0004
    125023.62347    112702.56446  24226740.8604   24226750.0444   24226740.630
        42.0004         38.0004
 -11108006.32848  -8657444.69247  22117239.7464   22117246.7984   22117239.611
        49.0004         44.0004
 -12172480.04448  -9431791.17847  22031779.4714   22031782.8914   22031779.609
        50.0004         45.0004
  -8174793.96547  -6307996.29246  23647111.2164   23647120.9484   23647110.530
        46.0004         41.0004
   1333066.53549   1035734.32248  20849366.1154   20849373.0464   20849366.073
        54.0004         49.0004
 -27159634.78549 -21119028.54448  20293358.3264   20293364.2274   20293358.009
        54.0004         49.0004
 14  5 21  0 50 30.0000000  0 10G09G10G07G08G26G28G02G17G30G04
 -10605589.94049  -8259123.25948  20608047.9564   20608053.4034   20608047.948
        54.0004         49.0004
 -18273026.36948 -14232301.55447  22250034.7044   22250040.8344   22250034.631
        48.0004         44.0004
 -11462210.84747  -8895730.29747  22562657.3164   22562660.8244   22562657.428
        47.0004         43.0004
 -15658500.96048 -12168824.56247  20642828.2764   20642834.0554   20642828.554
        52.0004         47.0004
    140773.26447    124975.14446  24229737.8144   24229747.1454   24229737.886
        42.0004         38.0004
 -11164339.70248  -8701340.73347  22106519.7384   22106526.4824   22106519.744
        49.0004         44.0004
 -12222660.34848  -9470892.65747  22022229.9744   22022234.5234   22022229.978
        50.0004         45.0004
  -8145334.60747  -6285040.93546  23652716.3294   23652727.0114   23652716.928
        46.0004         41.0004
   1392416.31048   1081980.92248  20860659.8754   20860666.9654   20860659.889
        53.0004         49.0004
 -27159754.88649 -21119122.12648  20293335.5904   20293340.9904   20293335.272
        54.0004         49.0004
 14  5 21  0 51  0.0000000  0 10G09G10G07G08G26G28G02G17G30G04
 -10546655.76349  -8213200.49148  20619262.8364   20619268.5574   20619262.517
        54.0004         49.0004
 -18344404.16948 -14287920.56247  22236451.5864   22236457.5274   22236451.955
        48.0004         44.0004
 -11361803.80147  -8817491.01547  22581764.3154   22581770.2514   22581763.479
        47.0004         43.0004
 -15589921.86148 -12115386.28247  20655878.6764   20655883.4534   20655878.426
        52.0004         47.0004
    156576.34647    137289.39546  24232744.3994   24232754.6264   24232744.494
        43.0004         38.0004
 -11220545.86648  -8745137.65347  22095824.4484   22095831.0354   22095824.200
        49.0004         44.0004
 -12272416.24148  -9509663.42847  22012761.8064   22012765.4674   22012762.174
        50.0004         45.0004
  -8116076.24847  -6262242.20646  23658284.2414   23658295.0564   23658284.033
        46.0004         41.0004
   1452191.85348   1128559.29148  20872034.8694   20872042.3304   20872034.544
        53.0004         49.0004
 -27159326.78949 -21118788.53848  20293416.7184   20293422.8784   20293416.387
        54.0004         49.0004
 14  5 21  0 51 30.0000000  0 10G09G10G07G08G26G28G02G17G30G04
 -10487286.87749  -8166939.00148  20630560.0074   20630565.7354   20630560.088
        54.0004         49.0004
 -18415737.28648 -14343504.75247  22222877.0584   22222883.1974   22222877.668
        48.0004         44.0004
 -11261222.79947  -8739116.19647  22600904.4324   22600908.6374   22600903.479
        47.0004         43.0004
 -15520846.90148 -12061561.62047  20669023.5244   20669028.5994   20669023.429
        52.0004         47.0004
    172430.63047    149643.51746  24235762.2124   24235770.1074   24235761.581
        42.0004         38.0004
 -11276622.01148  -8788833.26047  22085153.5904   22085160.0794   22085153.115
        49.0004         44.0004
 -12321746.86148  -9548102.81447  22003374.4144   22003378.7934   22003374.437
        50.0004         45.0004
  -8087019.53447  -6239600.59646  23663813.5554   23663824.1324   23663813.040
        45.0004         41.0004
   1512390.75248   1175467.54848  20883490.1974   20883497.4724   20883490.145
        53.0004         49.0004
 -27158350.83149 -21118028.04948  20293602.7374   20293608.2734   20293602.468
        54.0004         49.0004
 14  5 21  0 52  0.0000000  0 10G09G10G07G08G26G28G02G17G30G04
 -10427486.57949  -8120341.34048  20641939.9904   20641945.3724   20641939.877
        54.0004         49.0004
 -18487023.77948 -14399052.60947  22209312.2374   22209318.2404   22209312.351
        48.0004         44.0004
 -11160471.61147  -8660608.76647  22620075.9714   22620081.3604   22620075.801
        47.0004         42.0004
 -15451279.77648 -12007353.44947  20682261.3544   20682266.4884   20682261.094
        52.0004         47.0004
    188333.20947    162035.30046  24238787.7094   24238797.5774   24238787.784
        42.0004         38.0004
 -11332565.81448  -8832425.73547  22074507.0354   22074514.0334   22074506.975
        49.0004         44.0004
 -12370651.57448  -9586210.32647  21994068.6394   21994072.8314   21994069.353
        50.0004         45.0004
  -8058166.54147  -6217117.73246  23669304.8924   23669313.3654   23669303.613
        45.0004         41.0004
   1573009.91748   1222703.28348  20895025.8044   20895033.2004   20895025.520
        53.0004         49.0004
 -27156828.76249 -21116842.01848  20293892.1024   20293898.0864   20293891.709
        54.0004         49.0004
 14  5 21  0 52 30.0000000  0 10G09G10G07G08G26G28G02G17G30G04
 -10367256.07248  -8073408.45148  20653401.1514   20653406.6334   20653400.980
        53.0004         49.0004
 -18558259.22748 -14454560.68947  22195756.4054   22195761.3934   22195756.482
        49.0004         44.0004
 -11059551.21347  -8581969.48547  22639280.8614   22639284.9444   22639280.316
        47.0004         42.0004
 -15381221.67248 -11952762.70447  20695592.5464   20695598.6504   20695593.023
        52.0004         47.0004
    204283.65447    174464.34846  24241823.3714   24241833.2684   24241822.823
        42.0004         38.0004
 -11388372.36548  -8875911.26647  22063887.1794   22063894.1594   22063887.651
        49.0004         44.0004
 -12419128.26848  -9623984.31647  21984842.2854   21984847.2474   21984843.345
        50.0004         45.0004
  -8029516.33447  -6194792.88346  23674755.2824   23674766.8044   23674755.532
        45.0004         41.0004
   1634048.65248   1270265.95548  20906641.0284   20906648.0854   20906640.773
        53.0004         49.0004
 -27154759.23548 -21115229.39248  20294286.0394   20294291.8914   20294285.678
        53.0004         49.0004
 14  5 21  0 53  0.0000000  0 10G09G10G07G08G26G28G02G17G30G04
 -10306599.36648  -8026143.46048  20664943.9764   20664948.9624   20664943.836
        53.0004         49.0004
 -18629442.04648 -14510027.76747  22182209.7444   22182217.0524   22182210.799
        49.0004         44.0004
 -10958466.49647  -8503202.15447  22658517.1834   22658521.4804   22658516.032
        47.0004         42.0004
 -15310676.75948 -11897792.61847  20709016.4374   20709022.9974   20709016.830
        52.0004         47.0004
    220278.40947    186927.94146  24244866.2864   24244876.4354   24244866.367
        42.0004         38.0004
 -11444040.28548  -8919288.78347  22053294.0374   22053301.2764   22053294.237
        49.0004         44.0004
 -12467177.11048  -9661424.92047  21975700.3214   21975703.5114   21975700.014
        50.0004         45.0004
  -8001070.83147  -6172627.54846  23680169.3894   23680178.8314   23680169.270
        45.0004         40.0004
   1695503.17648   1318152.61748  20918335.3614   20918342.6754   20918335.348
        53.0004         49.0004
 -27152144.23549 -21113191.72948  20294783.5224   20294789.6864   20294783.395
        54.0004         49.0004
 14  5 21  0 53 30.0000000  0 10G09G10G07G08G26G28G02G17G30G04
 -10245518.78848  -7978548.18148  20676567.2774   20676572.5054   20676567.305
        53.0004         49.0004
 -18700568.88648 -14565451.22247  22168674.8814   22168680.8364   22168675.937
        49.0004         44.0004
 -10857219.52247  -8424308.39547  22677783.4934   22677786.7964   22677782.798
        47.0004         42.0004
 -15239647.47048 -11842445.11347  20722533.2804   20722539.0474   20722533.471
        52.0004         47.0004
    236315.89147    199424.82246  24247918.6884   24247927.1214   24247918.505
        43.0004         38.0004
 -11499565.91248  -8962555.41647  22042727.9634   22042734.3944   22042728.098
        49.0004         44.0004
 -12514796.60548  -9698530.96247  21966638.0034   21966642.5474   21966638.376
        50.0004         45.0004
  -7972830.84247  -6150622.36646  23685542.9704   23685553.0354   23685542.772
        45.0004         40.0004
   1757371.62848   1366361.82548  20930108.0894   20930115.6264   20930108.174
        53.0004         49.0004
 -27148983.98449 -21110729.19348  20295384.7484   20295390.9994   20295384.595
        54.0004         49.0004
 14  5 21  0 54  0.0000000  0 10G09G10G07G08G26G28G02G17G30G04
 -10184017.97149  -7930625.44648  20688270.2844   20688275.6134   20688270.330
        54.0004         49.0004
 -18771638.17348 -14620829.83547  22155150.7744   22155157.8304   22155151.849
        49.0004         44.0004
 -10755814.33347  -8345291.35347  22697079.9104   22697085.3914   22697079.480
        47.0004         42.0004
 -15168137.63248 -11786723.13747  20736141.1374   20736146.7974   20736141.108
        52.0004         47.0004
    252392.83747    211952.43846  24250976.1114   24250986.9494   24250976.945
        43.0004         38.0004
 -11554947.12448  -9005709.51747  22032188.6884   22032195.9834   22032188.935
        49.0004         44.0004
 -12561986.76148  -9735302.45947  21957657.9234   21957662.4114   21957658.417
        50.0004         45.0004
  -7944798.09247  -6128778.67146  23690877.5934   23690887.1744   23690876.950
        45.0004         40.0004
   1819650.65648   1414890.95548  20941959.4784   20941966.9204   20941959.819
        53.0004         49.0004
 -27145280.39749 -21107843.27948  20296089.8174   20296095.6404   20296089.508
        54.0004         49.0004
 14  5 21  0 54 30.0000000  0 10G09G10G07G08G26G28G02G17G30G04
 -10122100.06648  -7882377.70048  20700052.8124   20700058.1124   20700052.952
        53.0004         49.0004
 -18842647.46748 -14676161.69947  22141638.3854   22141644.8964   22141639.020
        49.0004         44.0004
 -10654254.32847  -8266153.67547  22716406.2304   22716411.3984   22716405.590
        47.0004         42.0004
 -15096150.86348 -11730629.53947  20749839.8164   20749845.4784   20749839.880
        52.0004         47.0004
    268506.75247    224508.88546  24254044.9844   24254052.8934   24254044.148
        43.0004         38.0004
 -11610181.43548  -9048749.15947  22021678.8724   22021685.7904   22021678.585
        49.0004         44.0004
 -12608746.92748  -9771738.89347  21948759.4824   21948763.9894   21948760.016
        50.0004         45.0004
  -7916973.61647  -6107097.26946  23696172.2324   23696182.7274   23696171.880
        45.0004         40.0004
   1882337.40648   1463737.79548  20953888.6964   20953895.5034   20953888.371
        53.0004         49.0004
 -27141034.18848 -21104534.54248  20296897.6584   20296903.3854   20296897.360
        53.0004         49.0004
 14  5 21  0 55  0.0000000  0 10G09G10G07G08G26G28G02G17G30G04
 -10059765.51948  -7833805.30548  20711914.8534   20711920.3254   20711914.590
        53.0004         49.0004
 -18913591.46748 -14731442.69347  22128138.2864   22128144.3084   22128139.277
        49.0004         44.0004
 -10552539.78747  -8186895.57747  22735761.3414   22735766.1104   22735761.160
        47.0004         42.0004
 -15023687.58848 -11674164.63347  20763629.5244   20763634.7694   20763629.209
        52.0004         47.0004
    284657.89747    237094.31446  24257117.6004   24257126.8504   24257116.679
        43.0004         38.0004
 -11665263.55048  -9091670.19847  22011194.9864   22011202.7514   22011195.978
        49.0004         44.0004
 -12655073.48548  -9807837.45247  21939943.1384   21939948.1454   21939944.746
        50.0004         45.0004
  -7889356.31047  -6085577.30046  23701428.2544   23701437.1354   23701427.030
        45.0004         40.0004
   1945431.81848   1512902.29548  20965895.1674   20965902.2474   20965895.086
        53.0004         49.0004
 -27136243.83748 -21100801.79948  20297809.3534   20297815.1594   20297809.063
        53.0004         49.0004
 14  5 21  0 55 30.0000000  0 10G09G10G07G08G26G28G02G17G30G04
  -9997020.02848  -7784912.68748  20723854.8584   20723860.0314   20723854.751
        53.0004         49.0004
 -18984470.78048 -14786673.27247  22114650.7404   22114655.8204   22114651.229
        49.0004         44.0004
 -10450677.14547  -8107522.07947  22755145.6944   22755149.6804   22755145.124
        47.0004         42.0004
 -14950753.67748 -11617332.99647  20777507.9184   20777513.5404   20777508.385
        52.0004         47.0004
    300840.87647    249704.58546  24260196.9894   24260206.3524   24260196.984
        43.0004         38.0004
 -11720193.25748  -9134472.48547  22000743.3874   22000750.4364   22000743.416
        49.0004         44.0004
 -12700969.18848  -9843600.27947  21931210.3004   21931214.6024   21931210.773
        50.0004         45.0004
  -7861949.92847  -6064221.67446  23706643.1584   23706651.7654   23706642.688
        45.0004         41.0004
   2008928.23548   1562380.04048  20977978.0234   20977985.3284   20977977.996
        53.0004         49.0004
 -27130913.43448 -21096648.23448  20298823.4904   20298829.4804   20298823.313
        53.0004         49.0004
 14  5 21  0 56  0.0000000  0 10G09G10G07G08G26G28G02G17G30G04
  -9933863.93348  -7735700.12448  20735872.6734   20735878.2554   20735872.796
        53.0004         49.0004
 -19055280.52548 -14841849.64747  22101175.3634   22101181.7664   22101176.110
        49.0004         44.0004
 -10348666.95247  -8028033.60547  22774557.1704   22774562.2194   22774557.879
        47.0004         42.0004
 -14877349.86948 -11560135.20947  20791475.7464   20791481.6844   20791476.039
        52.0004         47.0004
    317055.81047    262339.72546  24263282.0514   24263290.6364   24263281.474
        43.0004         38.0004
 -11774965.02448  -9177151.69747  21990321.1584   21990327.2094   21990320.942
        49.0004         44.0004
 -12746431.02748  -9879025.03147  21922559.6404   21922563.9594   21922559.829
        50.0004         45.0004
  -7834752.89447  -6043029.19346  23711819.4154   23711828.0044   23711818.088
        45.0004         41.0004
   2072826.47448   1612170.89548  20990137.6254   20990144.7274   20990137.617
        53.0004         49.0004
 -27125041.51748 -21092072.71848  20299941.1714   20299947.0124   20299940.978
        53.0004         49.0004
 14  5 21  0 56 30.0000000  0 10G09G10G07G08G26G28G02G17G30G04
  -9870301.44248  -7686170.88648  20747968.4364   20747974.2524   20747968.366
        53.0004         49.0004
 -19126018.83048 -14896970.35547  22087714.8894   22087720.6224   22087715.168
        49.0004         44.0004
 -10246513.04447  -7948433.14547  22793996.2394   22794002.0054   22793996.450
        47.0004         42.0004
 -14803480.51848 -11502574.66047  20805532.8874   20805538.6554   20805533.051
        51.0004         47.0004
    333299.51747    274997.30246  24266373.0914   24266383.0614   24266372.597
        43.0004         38.0004
 -11829577.52748  -9219706.81447  21979928.4614   21979934.3454   21979928.325
        49.0004         44.0004
 -12791459.01948  -9914111.72147  21913990.4114   21913994.2194   21913991.253
        50.0004         45.0004
  -7807767.19047  -6022001.37946  23716953.8444   23716964.4404   23716953.092
        46.0004         41.0004
   2137122.93648   1662272.05048  21002372.4264   21002380.0424   21002372.573
        53.0004         48.0004
 -27118629.95148 -21087076.69448  20301161.3444   20301166.9244   20301160.822
        53.0004         49.0004
 14  5 21  0 57  0.0000000  0 10G09G10G07G08G26G28G02G17G30G04
  -9806334.68048  -7636326.63348  20760140.9114   20760146.1954   20760140.849
        53.0004         49.0004
 -19196682.31248 -14952032.75947  22074267.9724   22074274.1414   22074268.365
        49.0004         44.0004
 -10144217.92347  -7868722.64647  22813463.1524   22813467.2084   22813461.954
        47.0004         42.0004
 -14729147.71748 -11444652.98347  20819677.8424   20819683.5614   20819678.425
        51.0004         47.0004
    349570.53547    287676.12746  24269469.8604   24269478.3654   24269468.950
        43.0004         38.0004
 -11884026.94148  -9262134.84647  21969566.5794   21969572.3314   21969566.753
        49.0004         44.0004
 -12836051.67648  -9948859.18547  21905505.6254   21905508.7464   21905505.386
        50.0004         45.0004
  -7780993.02747  -6001138.40846  23722048.3074   23722058.3204   23722048.040
        46.0004         41.0004
   2201815.88848   1712682.16048  21014683.1894   21014690.5594   21014683.304
        53.0004         48.0004
 -27111678.82448 -21081660.23048  20302484.2564   20302489.6044   20302483.784
        53.0004         49.0004
 14  5 21  0 57 30.0000000  0 10G09G10G07G08G26G28G02G17G30G04
  -9741967.65848  -7586170.48748  20772389.3654   20772395.1304   20772389.603
        53.0004         49.0004
 -19267269.01748 -15007035.33547  22060835.0204   22060840.7274   22060836.426
        49.0004         44.0004
 -10041785.34447  -7788905.04447  22832955.2504   22832960.1384   22832954.710
        47.0004         42.0004
 -14654355.58048 -11386373.37547  20833910.2104   20833916.0324   20833910.414
        51.0004         47.0004
    365865.59947    300373.72446  24272569.9454   24272579.2344   24272570.043
        43.0004         38.0004
 -11938311.22948  -9304434.20747  21959237.1964   21959243.7064   21959237.063
        49.0004         45.0004
 -12880209.10648  -9983267.51247  21897102.2654   21897106.1724   21897102.287
        50.0004         45.0004
  -7754431.89947  -5980441.45146  23727103.3904   23727113.2424   23727102.739
        45.0004         41.0004
   2266901.76848   1763398.44748  21027068.7804   21027076.0214   21027068.826
        53.0004         48.0004
 -27104190.19448 -21075824.93848  20303909.2294   20303914.8624   20303908.957
        53.0004         49.0004
 14  5 21  0 58  0.0000000  0 10G09G10G07G08G26G28G02G17G30G04
  -9677205.23648  -7535706.24248  20784713.4784   20784718.6464   20784713.548
        53.0004         49.0004
 -19337778.57648 -15061977.79947  22047418.7584   22047423.4544   22047418.781
        49.0004         44.0004
  -9939220.65947  -7708984.50247  22852471.9004   22852477.0044   22852472.243
        46.0004         42.0004
 -14579109.48448 -11327740.03947  20848229.2434   20848234.7344   20848229.656
        51.0004         47.0004
    382180.28947    313086.59346  24275674.5014   24275683.8484   24275673.776
        43.0004         38.0004
 -11992429.43848  -9346604.16147  21948938.4384   21948945.1774   21948938.539
        49.0004         45.0004
 -12923932.83548 -10017337.88947  21888781.3634   21888785.2404   21888782.074
        50.0004         45.0004
  -7728086.67647  -5959912.73346  23732115.8174   23732126.1594   23732115.728
        46.0004         41.0004
   2332375.66548   1814417.08748  21039527.6234   21039535.0974   21039527.835
        53.0004         48.0004
 -27096167.38248 -21069573.39948  20305435.4864   20305441.6974   20305435.049
        53.0004         49.0004
 14  5 21  0 58 30.0000000  0 10G09G10G07G08G26G28G02G17G30G04
  -9612044.07648  -7484931.28748  20797113.2054   20797118.5264   20797113.218
        53.0004         49.0004
 -19408202.12248 -15116853.24647  22034017.4634   22034023.1864   22034017.688
        49.0004         44.0004
  -9836520.82047  -7628958.63047  22872015.5424   22872020.3524   22872015.076
        46.0004         42.0004
 -14503406.43248 -11268750.62947  20862634.6304   20862640.7814   20862635.247
        51.0004         47.0004
    398518.45147    325817.77146  24278783.1564   24278793.1794   24278783.620
        42.0004         38.0004
 -12046372.66448  -9388637.76647  21938673.1074   21938680.4964   21938673.381
        49.0004         45.0004
 -12967216.18748 -10051065.12547  21880544.8764   21880549.0144   21880545.309
        50.0004         45.0004
  -7701952.49247  -5939548.44946  23737089.3084   23737099.7064   23737089.134
        46.0004         41.0004
   2398241.15848   1865740.86348  21052061.8324   21052068.9774   21052061.752
        53.0004         48.0004
 -27087605.15648 -21062901.53448  20307065.3804   20307070.7924   20307064.846
        53.0004         49.0004
 14  5 21  0 59  0.0000000  0 10G09G10G07G08G26G28G02G17G30G04
  -9546493.27648  -7433852.72348  20809587.0634   20809592.2904   20809587.156
        53.0004         49.0004
 -19478543.18548 -15171664.41347  22020631.0244   22020637.5924   22020632.250
        49.0004         44.0004
  -9733694.85747  -7548834.49346  22891582.1184   22891587.4514   22891581.818
        46.0004         41.0004
 -14427255.72748 -11209412.40547  20877126.1694   20877131.6724   20877126.454
        51.0004         47.0004
    414871.64747    338560.64046  24281895.1804   24281903.6624   24281894.728
        42.0004         38.0004
 -12100144.08848  -9430537.49947  21928440.8074   21928447.9974   21928441.413
        49.0004         45.0004
 -13010064.61748 -10084453.45847  21872391.5294   21872395.5014   21872391.498
        50.0004         45.0004
  -7676036.90047  -5919354.50946  23742021.1444   23742031.1924   23742020.673
        46.0004         41.0004
   2464489.28048   1917362.79548  21064668.6834   21064675.0634   21064668.270
        53.0004         48.0004
 -27078510.88348 -21055815.09248  20308795.6204   20308801.4604   20308795.342
        53.0004         49.0004
 14  5 21  0 59 30.0000000  0 10G09G10G07G08G26G28G02G17G30G04
  -9480552.35048  -7382470.15448  20822134.9154   20822140.5024   20822134.806
        53.0004         48.0004
 -19548795.51148 -15226406.44547  22007263.1944   22007268.1264   22007263.318
        49.0004         44.0004
  -9630742.10847  -7468611.56646  22911173.8654   22911179.0094   22911172.984
        46.0004         41.0004
 -14350656.93148 -11149725.01947  20891702.7804   20891708.1534   20891702.492
        51.0004         47.0004
    431241.29447    351316.34446  24285009.2614   24285020.0544   24285010.187
        42.0004         38.0004
 -12153737.18948  -9472298.28547  21918242.5864   21918248.7094   21918242.658
        49.0004         45.0004
 -13052474.08648 -10117499.73547  21864321.0184   21864324.8444   21864321.279
        50.0004         45.0004
  -7650336.50547  -5899328.25346  23746912.8184   23746922.4684   23746911.284
        46.0004         41.0004
   2531121.19448   1969283.78148  21077347.8554   21077354.7334   21077347.840
        53.0004         48.0004
 -27068881.85449 -21048311.95448  20310628.0774   20310634.0014   20310627.613
        54.0004         49.0004
 14  5 21  1  0  0.0000000  0 10G09G10G07G08G26G28G02G17G30G04
  -9414226.10748  -7330787.34848  20834756.4804   20834761.5564   20834756.633
        53.0004         48.0004
 -19618958.00048 -15281078.46647  21993911.0324   21993917.6094   21993912.148
        49.0004         45.0004
  -9527667.62247  -7388293.77246  22930787.6234   22930793.4564   22930787.833
        46.0004         41.0004
 -14273615.00048 -11089692.32847  20906362.8994   20906368.6964   20906363.245
        51.0004         46.0004
    447623.34147    364081.71346  24288127.1804   24288136.0814   24288127.617
        42.0004         38.0004
 -12207150.80548  -9513919.20247  21908077.7214   21908084.7924   21908077.788
        49.0004         45.0004
 -13094445.50348 -10150204.68547  21856333.9614   21856337.5964   21856334.100
        50.0004         45.0004
  -7624854.01047  -5879471.78646  23751761.5944   23751771.3104   23751760.590
        46.0004         41.0004
   2598132.31548   2021500.25448  21090099.6594   21090106.6374   21090099.590
        53.0004         48.0004
 -27058720.99549 -21040394.40648  20312561.6994   20312567.2994   20312561.439
        54.0004         49.0004
 14  5 21  1  0 30.0000000  0 10G09G10G07G08G26G28G02G17G30G04
  -9347514.04948  -7278803.89948  20847451.5784   20847456.6534   20847451.258
        53.0004         48.0004
 -19689024.57448 -15335675.75447  21980577.8414   21980583.4604   21980578.246
        49.0004         45.0004
  -9424470.81947  -7307880.66846  22950425.7444   22950431.0644   22950425.017
        46.0004         41.0004
 -14196129.69148 -11029314.14847  20921107.0474   20921114.1544   20921107.893
        51.0004         46.0004
    464019.01347    376857.69746  24291246.8624   24291257.0704   24291246.702
        42.0004         37.0004
 -12260378.56448  -9555395.30747  21897949.1354   21897954.8744   21897949.497
        49.0004         45.0004
 -13135975.01148 -10182565.28247  21848431.0484   21848435.2844   21848431.459
        50.0004         45.0004
  -7599586.61647  -5859782.93146  23756569.0434   23756579.4294   23756568.616
        46.0004         41.0004
   2665523.43748   2074012.83248  21102923.5294   21102930.7534   21102923.861
        53.0004         48.0004
 -27048026.07349 -21032060.70748  20314596.7534   20314602.5154   20314596.358
        54.0004         49.0004
 14  5 21  1  1  0.0000000  0 10G09G10G07G08G26G28G02G17G30G04
  -9280423.90448  -7226525.84448  20860218.1524   20860223.5554   20860218.375
        53.0004         48.0004
 -19758996.93848 -15390199.63647  21967262.3384   21967268.4114   21967263.260
        49.0004         45.0004
  -9321159.19247  -7227378.09346  22970084.9354   22970089.8014   22970084.511
        46.0004         41.0004
 -14118208.89948 -10968596.63547  20935935.5264   20935941.6194   20935935.817
        51.0004         46.0004
    480421.43347    389638.95146  24294367.6934   24294378.5274   24294368.773
        42.0004         38.0004
 -12313422.32048  -9596728.02047  21887854.6384   21887862.1624   21887855.055
        49.0004         45.0004
 -13177066.50948 -10214584.57447  21840611.2814   21840616.0754   21840611.892
        50.0004         45.0004
  -7574539.82547  -5840265.98346  23761336.2254   23761345.9804   23761334.983
        45.0004         41.0004
   2733287.30648   2126815.86548  21115818.4304   21115825.5954   21115818.435
        53.0004         48.0004
 -27036802.87349 -21023315.35948  20316732.2594   20316737.9804   20316732.185
        54.0004         49.0004
 14  5 21  1  1 30.0000000  0 10G09G10G07G08G26G28G02G17G30G04
  -9212955.19048  -7173952.79848  20873057.5284   20873062.5754   20873057.200
        53.0004         48.0004
 -19828869.26348 -15444645.56647  21953966.7394   21953971.9944   21953967.349
        49.0004         45.0004
  -9217732.56747  -7146785.91846  22989766.8614   22989771.6834   22989766.342
        46.0004         41.0004
 -14039852.63448 -10907539.78947  20950846.7824   20950852.1964   20950846.602
        51.0004         46.0004
    496831.65047    402426.27046  24297490.4654   24297498.9674   24297489.876
        42.0004         38.0004
 -12366275.61448  -9637912.33247  21877797.7744   21877804.0364   21877797.525
        49.0004         45.0004
 -13217716.39048 -10246259.75747  21832876.1874   21832880.0664   21832876.786
        50.0004         46.0004
  -7549711.50047  -5820919.26446  23766059.7824   23766069.9434   23766059.917
        45.0004         41.0004
   2801424.43148   2179909.73848  21128785.3374   21128791.9464   21128785.019
        53.0004         48.0004
 -27025049.35449 -21014156.78548  20318969.0784   20318975.1934   20318968.680
        54.0004         49.0004
 14  5 21  1  2  0.0000000  0 10G09G10G07G08G26G28G02G17G30G04
  -9145111.97748  -7121087.93548  20885967.2324   20885972.2044   20885967.338
        53.0004         48.0004
 -19898639.86348 -15499012.23447  21940689.8454   21940694.8954   21940689.925
        49.0004         45.0004
  -9114194.89947  -7066107.20546  23009469.6984   23009474.7594   23009469.109
        46.0004         41.0004
 -13961065.34948 -10846147.08347  20965839.0224   20965844.5934   20965839.276
        51.0004         46.0004
    513246.30047    415217.05746  24300615.1924   24300622.6954   24300615.203
        42.0004         37.0004
 -12418936.49348  -9678946.70947  21867775.8734   21867782.4204   21867776.414
        49.0004         45.0004
 -13257925.08548 -10277591.15347  21825225.1874   21825228.3054   21825224.867
        50.0004         46.0004
  -7525103.19747  -5801743.97646  23770743.7454   23770754.1144   23770742.900
        45.0004         41.0004
   2869931.00148   2233291.49448  21141821.4564   21141828.1224   21141821.086
        53.0004         48.0004
 -27012767.85449 -21004586.79048  20321306.2504   20321312.3844   20321305.845
        54.0004         49.0004
 14  5 21  1  2 30.0000000  0 10G09G10G07G08G26G28G02G17G30G04
  -9076898.03048  -7067934.18848  20898948.1004   20898953.1974   20898947.639
        53.0004         48.0004
 -19968306.65548 -15553298.00747  21927431.9704   21927437.8924   21927432.674
        49.0004         45.0004
  -9010550.74447  -6985345.52046  23029192.2714   23029196.8564   23029192.227
        46.0004         41.0004
 -13881851.00148 -10784421.60847  20980912.8364   20980918.5124   20980913.259
        51.0004         46.0004
    529662.24647    428008.84146  24303737.7204   24303746.9844   24303737.809
        42.0004         37.0004
 -12471403.30248  -9719829.86547  21857791.3054   21857798.7894   21857792.479
        49.0004         45.0004
 -13297692.98648 -10308579.07647  21817657.1904   21817660.8984   21817657.768
        50.0004         46.0004
  -7500716.64147  -5782741.48746  23775383.1904   23775394.8094   23775382.919
        45.0004         40.0004
   2938803.40148   2286958.31048  21154927.4754   21154934.4204   21154927.245
        53.0004         48.0004
 -26999960.51449 -20994607.05048  20323743.3924   20323748.9114   20323743.022
        54.0004         49.0004
 14  5 21  1  3  0.0000000  0 10G09G10G07G08G26G28G02G17G30G04
  -9008315.41748  -7014493.17348  20911998.9334   20912004.0734   20911998.831
        53.0004         48.0004
 -20037865.76448 -15607499.87047  21914195.6384   21914201.9354   21914196.534
        49.0004         45.0004
  -8906801.06347  -6904501.61046  23048935.1474   23048939.8204   23048935.433
        46.0004         41.0004
 -13802211.72648 -10722365.01947  20996067.2934   20996073.4934   20996068.246
        51.0004         46.0004
    546078.54047    440800.89846  24306860.9644   24306869.7244   24306861.659
        42.0004         38.0004
 -12523671.69948  -9760558.41747  21847845.2404   21847852.4604   21847845.848
        49.0004         45.0004
 -13337018.44248 -10339222.24447  21810173.4814   21810177.7034   21810173.670
        50.0004         46.0004
  -7476551.10947  -5763911.22746  23779981.0684   23779992.7194   23779981.830
        45.0004         40.0004
   3008040.12848   2340909.02048  21168102.6574   21168109.3514   21168102.302
        53.0004         48.0004
 -26986627.18649 -20984217.44948  20326280.6394   20326286.2014   20326280.246
        54.0004         49.0004
 14  5 21  1  3 30.0000000  0 10G09G10G07G08G26G28G02G17G30G04
  -8939369.14948  -6960768.78848  20925118.6154   20925124.1424   20925118.596
        53.0004         48.0004
 -20107316.26748 -15661617.12347  21900978.8104   21900986.1174   21900979.759
        49.0004         45.0004
  -8802951.00247  -6823579.49346  23068697.9154   23068701.1384   23068696.731
        46.0004         41.0004
 -13722152.32648 -10659981.06447  21011301.8904   21011308.5734   21011302.872
        51.0004         46.0004
    562491.07247    453590.02646  24309985.7644   24309993.4764   24309985.468
        42.0004         38.0004
 -12575740.58248  -9801131.50447  21837937.0604   21837944.2834   21837937.304
        50.0004         45.0004
 -13375902.75048 -10369521.66247  21802773.8194   21802778.3934   21802774.255
        50.0004         46.0004
  -7452609.26947  -5745255.27546  23784537.3454   23784548.2224   23784537.055
        45.0004         41.0004
   3077636.66648   2395140.09548  21181346.3894   21181353.2014   21181346.566
        53.0004         48.0004
 -26972771.17949 -20973420.56848  20328917.4414   20328923.0784   20328916.905
        54.0004         49.0004
 14  5 21  1  4  0.0000000  0 10G09G10G07G08G26G28G02G17G30G04
  -8870057.37648  -6906759.59748  20938308.0784   20938313.3894   20938308.327
        53.0004         48.0004
 -20176650.73248 -15715643.95147  21887785.2594   21887791.0974   21887786.134
        50.0004         45.0004
  -8698998.80047  -6742577.78446  23088478.6984   23088482.9324   23088478.665
        46.0004         41.0004
 -13641671.39248 -10597268.63747  21026617.4944   21026622.8894   21026617.869
        51.0004         46.0004
    578902.38947    466378.21146  24313107.2214   24313116.8644   24313107.704
        42.0004         38.0004
 -12627601.95148  -9841542.88647  21828068.1004   21828075.1484   21828068.520
        50.0004         45.0004
 -13414340.84848 -10399473.38847  21795459.5324   21795463.7134   21795459.733
        50.0004         46.0004
  -7428887.65747  -5726770.92346  23789053.2794   23789062.5494   23789051.418
        45.0004         41.0004
   3147594.94848   2449653.05248  21194658.9044   21194665.9034   21194659.012
        53.0004         48.0004
 -26958388.95749 -20962213.65148  20331654.1704   20331660.1254   20331653.817
        54.0004         49.0004
 14  5 21  1  4 30.0000000  0 10G09G10G07G08G26G28G02G17G30G04
  -8800387.56648  -6852471.41448  20951565.9644   20951570.9894   20951566.028
        53.0004         48.0004
 -20245870.72948 -15769581.57947  21874613.0464   21874619.9034   21874614.218
        50.0004         45.0004
  -8594951.75847  -6661502.17146  23108278.1704   23108282.5994   23108277.810
        46.0004         41.0004
 -13560776.67748 -10534233.79147  21042011.9294   21042016.9414   21042011.977
        51.0004         46.0004
    595305.87847    479160.28746  24316229.4274   24316238.4264   24316228.883
        42.0004         37.0004
 -12679257.63948  -9881794.01447  21818238.2914   21818244.7344   21818238.860
        50.0004         45.0004
 -13452337.08648 -10429080.79947  21788228.6264   21788233.0364   21788229.262
        50.0004         46.0004
  -7405390.81147  -5708461.70946  23793523.8654   23793533.7464   23793523.178
        45.0004         41.0004
   3217907.85948   2504442.34048  21208039.1184   21208046.2104   21208038.884
        52.0004         48.0004
 -26943486.29449 -20950601.18848  20334489.8584   20334496.0024   20334489.495
        54.0004         49.0004
 14  5 21  1  5  0.0000000  0 10G09G10G07G08G26G28G02G17G30G04
  -8730360.48648  -6797904.84048  20964891.5544   20964896.9854   20964891.840
        53.0004         48.0004
 -20314971.36848 -15823426.19847  21861464.0544   21861470.0594   21861464.699
        50.0004         45.0004
  -8490810.77347  -6580353.36246  23128095.7544   23128099.8254   23128095.616
        46.0004         41.0004
 -13479469.42248 -10470877.48747  21057483.5124   21057489.3594   21057483.918
        51.0004         46.0004
    611701.46147    491936.19146  24319348.4984   24319357.7244   24319349.265
        42.0004         37.0004
 -12730702.82348  -9921881.10047  21808448.8824   21808455.2944   21808448.854
        50.0004         45.0004
 -13489888.24948 -10458341.40747  21781083.0804   21781087.0994   21781083.779
        50.0004         46.0004
  -7382117.71847  -5690326.85146  23797951.8694   23797962.3894   23797951.943
        45.0004         41.0004
   3288574.61448   2559507.35448  21221486.9164   21221493.1114   21221486.667
        52.0004         48.0004
 -26928062.63149 -20938582.76248  20337425.0424   20337430.8944   20337424.775
        54.0004         49.0004
 14  5 21  1  5 30.0000000  0 10G09G10G07G08G26G28G02G17G30G04
  -8659982.14548  -6743064.55848  20978284.3674   20978289.5884   20978284.124
        53.0004         48.0004
 -20383952.53148 -15877177.72747  21848337.3134   21848343.9854   21848337.877
        50.0004         45.0004
  -8386581.42747  -6499135.68946  23147929.7374   23147934.9144   23147929.382
        46.0004         41.0004
 -13397755.81548 -10407204.53747  21073033.3324   21073038.3674   21073033.777
        51.0004         46.0004
    628084.02047    504701.96646  24322466.6404   24322475.9534   24322466.459
        42.0004         37.0004
 -12781936.71148  -9961803.54947  21798699.8894   21798705.2914   21798699.381
        50.0004         45.0004
 -13526996.96248 -10487257.24347  21774022.0494   21774025.4534   21774021.904
        50.0004         46.0004
  -7359071.56647  -5672368.83446  23802337.9964   23802348.8534   23802336.911
        45.0004         41.0004
   3359589.77248   2614843.85148  21234999.6524   21235007.0914   21235000.020
        52.0004         48.0004
 -26912121.85749 -20926161.38848  20340458.5574   20340464.3944   20340458.223
        54.0004         49.0004
 14  5 21  1  6  0.0000000  0 10G09G10G07G08G26G28G02G17G30G04
  -8589252.83948  -6687950.79748  20991743.6404   20991748.6504   20991743.796
        53.0004         48.0004
 -20452808.92448 -15930832.02947  21835234.4464   21835240.3884   21835235.259
        50.0004         45.0004
  -8282263.87047  -6417849.28946  23167780.4624   23167785.0644   23167780.501
        45.0004         41.0004
 -13315636.47248 -10343215.43247  21088660.5354   21088665.6674   21088660.331
        51.0004         46.0004
    644454.39647    517458.24046  24325581.7754   24325589.5494   24325580.754
        42.0004         37.0004
 -12832953.63148 -10001556.91747  21788991.0264   21788998.2804   21788990.655
        50.0004         45.0004
 -13563660.13148 -10515825.89947  21767044.9634   21767048.3774   21767045.376
        51.0004         46.0004
  -7336249.95747  -5654585.79046  23806680.7244   23806690.6084   23806679.714
        45.0004         41.0004
   3430953.50748   2670451.97048  21248579.9804   21248587.4484   21248580.164
        52.0004         48.0004
 -26895662.65249 -20913336.04048  20343590.7224   20343596.2144   20343590.323
        54.0004         49.0004
 14  5 21  1  6 30.0000000  0 10G09G10G07G08G26G28G02G17G30G04
  -8518174.13048  -6632564.77348  21005269.2334   21005274.4524   21005269.242
        53.0004         48.0004
 -20521536.34148 -15984385.83147  21822156.2834   21822161.7634   21822156.458
        50.0004         45.0004
  -8177859.72447  -6336495.41346  23187648.1484   23187652.8404   23187647.861
        45.0004         41.0004
 -13233112.93548 -10278911.37047  21104363.7744   21104369.3454   21104364.135
        51.0004         46.0004
    660811.65447    530204.30546  24328695.3184   24328702.6854   24328694.730
        42.0004         38.0004
 -12883749.55648 -10041138.09447  21779324.8344   21779331.3544   21779325.480
        50.0004         45.0004
 -13599875.83048 -10544045.88647  21760153.4334   21760157.3504   21760153.861
        51.0004         46.0004
  -7313652.58747  -5636977.47646  23810980.5084   23810991.0924   23810980.341
        45.0004         41.0004
   3502664.23548   2726330.47048  21262226.1444   21262233.3804   21262226.376
        52.0004         48.0004
 -26878685.13249 -20900106.81448  20346821.2234   20346827.1654   20346820.799
        54.0004         49.0004
 14  5 21  1  7  0.0000000  0 10G09G10G07G08G26G28G02G17G30G04
  -8446752.69548  -6576911.69248  21018860.9154   21018865.3214   21018860.571
        53.0004         48.0004
 -20590135.18048 -16037839.44747  21809101.6514   21809109.0264   21809102.621
        50.0004         45.0004
  -8073375.66247  -6255079.27046  23207530.9164   23207534.7984   23207530.434
        45.0004         40.0004
 -13150192.14348 -10214297.76347  21120143.4374   21120148.7444   21120143.342
        51.0004         46.0004
    677149.97047    542935.58546  24331804.1894   24331811.4994   24331803.379
        42.0004         38.0004
 -12934325.37248 -10080547.75147  21769700.6594   21769706.9524   21769700.499
        50.0004         45.0004
 -13635647.48448 -10571919.86847  21753346.3004   21753349.7404   21753346.743
        51.0004         46.0004
  -7291283.43647  -5619547.00446  23815237.5464   23815247.9374   23815237.055
        45.0004         41.0004
   3574715.64748   2782474.43948  21275937.3764   21275944.6424   21275937.141
        52.0004         48.0004
 -26861194.34848 -20886477.64348  20350149.6974   20350155.5324   20350149.412
        53.0004         49.0004
 14  5 21  1  7 30.0000000  0 10G09G10G07G08G26G28G02G17G30G04
  -8374989.83548  -6520992.56548  21032516.4224   21032521.6104   21032516.353
        53.0004         48.0004
 -20658601.13648 -16091189.51447  21796072.9724   21796079.4334   21796073.847
        50.0004         45.0004
  -7968812.57647  -6173601.55846  23227428.3414   23227433.9774   23227427.468
        45.0004         40.0004
 -13066875.82348 -10149375.95447  21135997.9514   21136003.5474   21135998.293
        51.0004         46.0004
    693469.04547    555651.88446  24334909.5454   24334916.6774   24334908.326
        42.0004         38.0004
 -12984676.45148 -10119782.29047  21760119.2034   21760125.7394   21760119.353
        50.0004         45.0004
 -13670972.95248 -10599446.16647  21746623.4934   21746627.6394   21746624.015
        51.0004         46.0004
  -7269141.79947  -5602293.80746  23819451.3454   23819461.5234   23819450.457
        45.0004         41.0004
   3647106.70648   2838883.06848  21289712.8184   21289719.9704   21289712.907
        52.0004         48.0004
 -26843189.75048 -20872448.09548  20353575.7304   20353581.7994   20353575.369
        53.0004         49.0004
 14  5 21  1  8  0.0000000  0 10G09G10G07G08G26G28G02G17G30G04
  -8302889.09048  -6464810.15348  21046236.9724   21046241.8074   21046236.809
        52.0004         48.0004
 -20726931.42948 -16144433.86147  21783070.0604   21783075.5094   21783071.128
        50.0004         45.0004
  -7864173.63647  -6092064.72846  23247340.5964   23247345.9704   23247339.975
        45.0004         40.0004
 -12983167.87548 -10084148.97747  21151926.6354   21151932.4874   21151927.150
        51.0004         46.0004
    709766.27447    568351.14346  24338010.6694   24338017.6004   24338010.019
        42.0004         38.0004
 -13034799.10548 -10158838.83447  21750580.7964   21750587.1314   21750580.926
        50.0004         45.0004
 -13705852.47748 -10626624.98447  21739986.6604   21739991.0274   21739987.337
        51.0004         46.0004
  -7247228.07447  -5585218.20246  23823621.1054   23823631.7884   23823620.717
        46.0004         41.0004
   3719834.23448   2895553.87648  21303552.3184   21303559.6204   21303552.054
        52.0004         48.0004
 -26824673.72548 -20858020.03548  20357099.0754   20357105.4414   20357098.960
        53.0004         49.0004
 14  5 21  1  8 30.0000000  0 10G09G10G07G08G26G28G02G17G30G04
  -8230453.11448  -6408366.51948  21060020.6554   21060025.7974   21060020.861
        52.0004         48.0004
 -20795123.26948 -16197570.33247  21770093.2114   21770100.3034   21770094.542
        50.0004         45.0004
  -7759461.69647  -6010471.01546  23267266.4624   23267271.4494   23267266.344
        45.0004         40.0004
 -12899071.27248 -10018619.15247  21167929.6454   21167935.7674   21167930.099
        50.0004         46.0004
    726039.74947    581031.89346  24341106.4834   24341114.5164   24341106.139
        42.0004         37.0004
 -13084691.05148 -10197715.60847  21741086.6254   21741093.4254   21741086.644
        50.0004         45.0004
 -13740285.35348 -10653455.75847  21733434.5024   21733437.4904   21733434.415
        51.0004         46.0004
  -7225542.81347  -5568320.62846  23827746.8364   23827757.9864   23827746.757
        46.0004         41.0004
   3792895.66148   2952484.87148  21317455.9814   21317462.6814   21317455.384
        52.0004         48.0004
 -26805647.04448 -20843194.06348  20360719.8804   20360725.5864   20360719.662
        53.0004         49.0004
 14  5 21  1  9  0.0000000  0 10G09G10G07G08G26G28G02G17G30G04
  -8157683.87248  -6351663.19948  21073868.2914   21073873.7314   21073868.278
        52.0004         48.0004
 -20863172.50448 -16250595.68047  21757143.8744   21757150.7304   21757144.968
        50.0004         45.0004
  -7654678.64347  -5928821.89746  23287206.4354   23287210.5484   23287205.722
        45.0004         40.0004
 -12814588.12348  -9952788.11947  21184006.4434   21184012.0734   21184006.503
        50.0004         46.0004
    742288.57147    593693.44246  24344198.8804   24344205.8934   24344198.073
        42.0004         38.0004
 -13134348.35548 -10236409.54147  21731636.4984   21731643.5534   21731637.086
        50.0004         45.0004
 -13774270.16448 -10679937.39247  21726967.3814   21726970.5764   21726967.646
        51.0004         46.0004
  -7204085.56447  -5551600.71746  23831830.9584   23831841.5294   23831830.472
        45.0004         41.0004
   3866289.43948   3009674.83648  21331422.2454   21331428.7034   21331421.676
        52.0004         48.0004
 -26786110.05848 -20827970.45248  20364437.7864   20364443.5314   20364437.454
        53.0004         49.0004
 14  5 21  1  9 30.0000000  0 10G09G10G07G08G26G28G02G17G30G04
  -8084587.46548  -6294704.94548  21087777.7824   21087783.4434   21087778.009
        52.0004         48.0004
 -20931079.37048 -16303510.09447  21744222.3634   21744228.4244   21744222.889
        50.0004         45.0004
  -7549829.93847  -5847121.61946  23307157.7754   23307163.0114   23307157.705
        45.0004         40.0004
 -12729724.57248  -9886660.67447  21200155.3014   21200160.9114   21200155.767
        50.0004         46.0004
    758507.52147    606331.71046  24347284.9204   24347292.0854   24347285.025
        42.0004         38.0004
 -13183770.46348 -10274920.21147  21722233.0534   21722238.9464   21722232.662
        50.0004         45.0004
 -13807809.67948 -10706072.04047  21720584.6314   21720588.3694   21720585.271
        51.0004         46.0004
  -7182859.63647  -5535061.05346  23835869.4154   23835880.1514   23835869.598
        45.0004         41.0004
   3940009.74048   3067119.23847  21345450.3784   21345456.9914   21345450.381
        52.0004         47.0004
 -26766067.47848 -20812352.87648  20368252.3624   20368258.0904   20368251.818
        53.0004         49.0004
 14  5 21  1 10  0.0000000  0 10G09G10G07G08G26G28G02G17G30G04
  -8011164.41648  -6237492.16848  21101749.5334   21101755.4354   21101749.923
        52.0004         48.0004
 -20998838.35348 -16356309.27647  21731327.7024   21731334.5554   21731328.708
        50.0004         45.0004
  -7444915.96547  -5765370.48346  23327122.3854   23327127.6874   23327121.936
        44.0004         40.0004
 -12644481.44248  -9820237.45247  21216376.2084   21216382.2604   21216376.932
        50.0004         46.0004
    774697.14647    618947.12846  24350364.5964   24350373.1914   24350364.648
        42.0004         38.0004
 -13232951.85148 -10313243.30447  21712873.3544   21712880.0174   21712873.453
        50.0004         45.0004
 -13840901.24048 -10731857.63947  21714287.7604   21714291.4664   21714288.162
        51.0004         46.0004
  -7161863.08947  -5518700.14046  23839864.6234   23839875.5294   23839864.706
        45.0004         41.0004
   4014056.41548   3124817.95347  21359541.3494   21359547.5164   21359541.033
        52.0004         47.0004
 -26745518.19748 -20796340.47048  20372162.4104   20372168.2464   20372161.756
        53.0004         49.0004
 14  5 21  1 10 30.0000000  0 10G09G10G07G08G26G28G02G17G30G04
  -7937417.50248  -6180027.02248  21115783.7344   21115788.6344   21115783.441
        52.0004         48.0004
 -21066446.01348 -16408990.54347  21718462.5214   21718468.3534   21718463.138
        50.0004         45.0004
  -7339939.63147  -5683570.76546  23347099.1784   23347104.3434   23347099.491
        44.0004         40.0004
 -12558862.00848  -9753521.01147  21232668.9954   21232675.1734   21232669.854
        50.0004         46.0004
    790855.56947    631538.22646  24353440.6364   24353447.5754   24353440.270
        42.0004         38.0004
 -13281889.57348 -10351376.53247  21703561.5484   21703567.1834   21703561.464
        50.0004         45.0004
 -13873544.11748 -10757293.61547  21708076.2114   21708079.5894   21708076.260
        51.0004         46.0004
  -7141096.39047  -5502518.31946  23843817.2374   23843827.5794   23843817.294
        45.0004         41.0004
   4088426.84348   3182768.94347  21373693.3954   21373700.3864   21373693.211
        52.0004         47.0004
 -26724463.72048 -20779934.39648  20376168.8674   20376174.5054   20376168.401
        53.0004         49.0004
 14  5 21  1 11  0.0000000  0 10G09G10G07G08G26G28G02G17G30G04
  -7863352.44948  -6122313.98148  21129877.7804   21129882.8394   21129877.899
        52.0004         48.0004
 -21133902.49848 -16461554.00947  21705626.4364   21705632.5014   21705626.859
        50.0004         45.0004
  -7234906.45347  -5601726.74646  23367085.9244   23367090.0754   23367086.589
        44.0004         40.0004
 -12472872.47748  -9686516.17547  21249032.7874   21249038.2954   21249032.986
        50.0004         46.0004
    806977.91447    644101.21946  24356508.0124   24356517.1424   24356508.257
        42.0004         38.0004
 -13330582.98248 -10389319.37747  21694294.6344   21694300.8144   21694294.690
        50.0004         45.0004
 -13905740.93048 -10782382.00647  21701949.1164   21701952.3814   21701949.402
        51.0004         46.0004
  -7120562.62447  -5486518.00746  23847724.4884   23847734.4254   23847724.573
        46.0004         41.0004
   4163115.48748   3240967.89547  21387906.0454   21387912.8404   21387905.984
        52.0004         47.0004
 -26702908.03048 -20763137.77148  20380270.9184   20380276.8214   20380270.454
        53.0004         49.0004
 14  5 21  1 11 30.0000000  0 10G09G10G07G08G26G28G02G17G30G04
  -7788968.31148  -6064352.30248  21144032.6644   21144037.6224   21144032.569
        52.0004         48.0004
 -21201200.89348 -16513994.29447  21692820.2364   21692825.7974   21692820.491
        50.0004         45.0004
  -7129814.87847  -5519837.23246  23387084.6274   23387089.8444   23387083.726
        44.0004         40.0004
 -12386512.02748  -9619222.31447  21265466.3074   21265472.3054   21265466.985
        50.0004         46.0004
    823066.01547    656637.52646  24359569.1624   24359575.9164   24359568.789
        42.0004         38.0004
 -13379025.50748 -10427066.73247  21685076.1624   21685082.9764   21685076.851
        50.0004         45.0004
 -13937487.48148 -10807119.55447  21695908.0134   21695910.7714   21695907.924
        51.0004         46.0004
  -7100258.32747  -5470696.50046  23851588.7194   23851598.9064   23851588.538
        46.0004         41.0004
   4238123.53248   3299415.73447  21402179.1254   21402186.4374   21402179.331
        52.0004         47.0004
 -26680848.87848 -20745948.83948  20384467.9174   20384473.9484   20384467.984
        53.0004         49.0004
 14  5 21  1 12  0.0000000  0 10G09G10G07G08G26G28G02G17G30G04
  -7714273.37148  -6006148.43548  21158246.6714   21158251.2204   21158246.534
        52.0004         48.0004
 -21268343.21048 -16566312.96147  21680043.7394   21680049.2564   21680043.829
        50.0004         45.0004
  -7024672.71147  -5437908.29646  23407092.5184   23407097.4554   23407091.808
        44.0004         40.0004
 -12299789.09148  -9551645.98947  21281969.0544   21281974.2154   21281969.505
        50.0004         45.0004
    839112.78047    669141.60546  24362623.4564   24362632.0054   24362622.081
        42.0004         38.0004
 -13427219.04648 -10464620.08147  21675905.4844   21675911.5134   21675905.315
        50.0004         45.0004
 -13968788.83548 -10831510.18547  21689951.6614   21689954.5074   21689951.447
        51.0004         46.0004
  -7080188.66147  -5455057.81746  23855408.1354   23855417.7844   23855407.867
        46.0004         41.0004
   4313443.20448   3358106.39447  21416512.3244   21416519.2024   21416512.286
        52.0004         47.0004
 -26658292.98348 -20728372.83648  20388760.6264   20388766.4594   20388760.316
        53.0004         49.0004
 14  5 21  1 12 30.0000000  0 10G09G10G07G08G26G28G02G17G30G04
  -7639266.16048  -5947701.24148  21172519.7764   21172524.9084   21172519.955
        52.0004         48.0004
 -21335321.94748 -16618504.16247  21667298.0264   21667302.0844   21667297.963
        50.0004         45.0004
  -6919478.19347  -5355938.56646  23427110.2604   23427114.2264   23427109.428
        44.0004         40.0004
 -12212702.32548  -9483786.17147  21298541.1924   21298546.9234   21298541.846
        50.0004         46.0004
    855120.74447    681615.45346  24365669.0794   24365676.9784   24365669.659
        43.0004         38.0004
 -13475156.16548 -10501973.61547  21666783.7544   21666788.9664   21666783.084
        50.0004         45.0004
 -13999640.05948 -10855550.06647  21684080.5954   21684084.1134   21684080.997
        51.0004         46.0004
  -7060350.06247  -5439599.19546  23859182.6694   23859192.9004   23859182.880
        46.0004         41.0004
   4389076.16848   3417041.18047  21430904.8914   21430911.8724   21430904.645
        52.0004         47.0004
 -26635237.36448 -20710407.44148  20393147.9844   20393153.7134   20393147.511
        53.0004         49.0004
 14  5 21  1 13  0.0000000  0 10G09G10G07G08G26G28G02G17G30G04
  -7563951.96648  -5889014.84048  21186851.9044   21186856.9424   21186851.725
        52.0004         48.0004
 -21402136.57748 -16670567.48747  21654582.7854   21654588.9294   21654583.732
        50.0004         46.0004
  -6814236.61847  -5273932.15846  23447136.7774   23447141.6004   23447136.682
        44.0004         39.0004
 -12125257.15048  -9415647.07347  21315181.5264   21315186.7814   21315181.932
        50.0004         45.0004
    871085.56847    694055.69846  24368706.5694   24368715.3484   24368706.070
        43.0004         38.0004
 -13522836.03048 -10539126.69347  21657710.1044   21657716.3614   21657710.162
        50.0004         45.0004
 -14030043.30048 -10879240.88047  21678294.6574   21678298.6484   21678294.401
        51.0004         46.0004
  -7040744.73947  -5424322.33346  23862913.9334   23862923.8894   23862913.074
        46.0004         41.0004
   4465017.46348   3476216.21847  21445355.9734   21445362.9514   21445356.160
        52.0004         47.0004
 -26611686.00548 -20692055.75248  20397629.5034   20397635.6134   20397629.434
        53.0004         49.0004
 14  5 21  1 13 30.0000000  0 10G09G10G07G08G26G28G02G17G30G04
  -7488334.19548  -5830091.89048  21201241.2224   21201246.7584   21201241.561
        52.0004         48.0004
 -21468784.45648 -16722500.88647  21641900.7434   21641906.5834   21641901.005
        50.0004         46.0004
  -6708951.00647  -5191891.44346  23467172.5744   23467176.9684   23467171.925
        44.0004         39.0004
 -12037457.66348  -9347231.88147  21331889.7054   21331894.9324   21331889.575
        50.0004         45.0004
    887004.92947    706460.50446  24371736.2254   24371745.1484   24371737.047
        43.0004         38.0004
 -13570255.83148 -10576077.13447  21648686.0904   21648692.6764   21648686.384
        50.0004         45.0004
 -14059998.65548 -10902582.68547  21672594.4204   21672598.5584   21672595.075
        51.0004         46.0004
  -7021373.46947  -5409227.84946  23866599.6644   23866610.3754   23866599.571
        46.0004         41.0004
   4541263.87748   3535629.01547  21459864.4674   21459872.1594   21459864.499
        52.0004         47.0004
 -26587640.98848 -20673319.39748  20402205.2334   20402211.2034   20402205.033
        53.0004         49.0004
 14  5 21  1 14  0.0000000  0 11G09G10G07G08G26G28G02G17G30G05G04
  -7412415.86948  -5770934.73348  21215687.9834   21215693.0624   21215687.851
        52.0004         48.0004
 -21535262.61248 -16774302.02047  21629250.7354   21629256.4114   21629250.604
        50.0004         46.0004
  -6603623.92947  -5109818.40946  23487216.4264   23487220.3794   23487215.521
        44.0004         39.0004
 -11949306.83248  -9278542.92647  21348663.9304   21348670.2864   21348664.247
        50.0004         45.0004
    902876.81347    718828.31846  24374757.1374   24374763.8204   24374756.725
        43.0004         38.0004
 -13617412.69448 -10612822.67247  21639712.0784   21639718.4464   21639712.371
        50.0004         45.0004
 -14089506.08048 -10925575.45847  21666979.5414   21666983.2424   21666979.744
        51.0004         46.0004
  -7002236.94647  -5394316.29346  23870241.3764   23870251.3634   23870240.891
        45.0004         41.0004
   4617812.76648   3595277.50547  21474431.4984   21474439.1244   21474431.728
        52.0004         47.0004
                                                                  24699597.156

 -26563103.41048 -20654199.22548  20406874.8464   20406880.2864   20406874.292
        53.0004         49.0004
 14  5 21  1 14 30.0000000  0 10G09G10G07G08G26G28G02G17G30G04
  -7336196.90248  -5711543.31547  21230191.7904   21230197.4774   21230191.883
        52.0004         47.0004
 -21601564.90148 -16825966.13147  21616632.9124   21616638.7624   21616633.836
        50.0004         46.0004
  -6498254.95947  -5027712.73546  23507267.3934   23507271.1954   23507266.055
        44.0004         39.0004
 -11860805.11748  -9209580.54347  21365506.1534   21365511.0024   21365505.375
        50.0004         45.0004
    918702.27147    731159.95646  24377767.6884   24377775.1834   24377767.769
        43.0004         38.0004
 -13664300.54448 -10649358.59447  21630790.1994   21630796.7244   21630790.093
        50.0004         45.0004
 -14118562.33348 -10948216.67247  21661450.3684   21661454.2074   21661450.656
        51.0004         46.0004
  -6983332.07847  -5379585.24546  23873839.8644   23873849.0004   23873838.757
        45.0004         40.0004
   4694664.36548   3655161.86947  21489056.5604   21489062.8114   21489056.108
        52.0004         47.0004
 -26538072.47948 -20634694.62648  20411637.8794   20411643.6864   20411637.591
        53.0004         49.0004
 14  5 21  1 15  0.0000000  0 11G09G10G07G08G26G28G02G17G30G05G04
  -7259687.30448  -5651925.43547  21244751.2554   21244756.4594   21244751.487
        52.0004         47.0004
 -21667695.40548 -16877496.37447  21604048.4924   21604055.0434   21604049.266
        50.0004         46.0004
  -6392854.26747  -4945582.35146  23527323.0024   23527329.4004   23527322.589
        44.0004         39.0004
 -11771962.89548  -9140352.83447  21382410.9734   21382417.2924   21382411.866
        50.0004         45.0004
    934472.10447    743448.25146  24380768.4074   24380776.0564   24380768.342
        43.0004         38.0004
 -13710923.43748 -10685688.06547  21621918.2304   21621924.5164   21621917.924
        50.0004         45.0004
 -14147174.49348 -10970511.83547  21656005.4404   21656009.0014   21656005.694
        51.0004         46.0004
  -6964666.41347  -5365040.58446  23877390.8394   23877401.5964   23877390.695
        45.0004         41.0004
   4771808.71848   3715274.36047  21503736.1414   21503743.2424   21503735.930
        52.0004         47.0004
  -1856122.24748  -1213823.06046  24665616.4344   24665622.7344   24665616.264
        50.0004         37.0004
 -26512556.71948 -20614812.23948  20416493.5114   20416499.3154   20416493.004
        53.0004         49.0004
 14  5 21  1 15 30.0000000  0 11G09G10G07G08G26G28G02G17G30G05G04
  -7182883.04948  -5592077.94647  21259366.7564   21259371.9534   21259366.586
        52.0004         47.0004
 -21733644.12248 -16928884.97247  21591499.3034   21591505.1504   21591499.856
        50.0004         46.0004
  -6287417.36247  -4863423.74246  23547387.2154   23547391.5234   23547386.815
        44.0004         39.0004
 -11682776.32448  -9070856.80547  21399382.9974   21399387.8824   21399383.236
        50.0004         45.0004
    950191.68147    755697.39146  24383761.2804   24383769.5624   24383760.595
        43.0004         38.0004
 -13757271.42248 -10721803.31347  21613097.8324   21613104.0694   21613098.119
        50.0004         45.0004
 -14175335.36448 -10992455.35047  21650647.1964   21650650.1804   21650646.891
        51.0004         46.0004
  -6946233.28547  -5350677.12446  23880898.4074   23880908.8304   23880897.675
        45.0004         40.0004
   4849250.35048   3775618.48847  21518472.6774   21518480.1474   21518473.001
        51.0004         47.0004
  -1945629.09847  -1283568.44846  24648585.5104   24648591.8824   24648583.931
        46.0004         37.0004
 -26486550.73648 -20594547.86148  20421442.1894   20421448.0634   20421441.907
        53.0004         49.0004
 14  5 21  1 16  0.0000000  0 11G09G10G07G08G26G28G02G17G30G05G04
  -7105790.01048  -5532005.43547  21274037.2724   21274042.3834   21274036.932
        52.0004         47.0004
 -21799410.77648 -16980131.70147  21578984.4304   21578990.2194   21578984.854
        50.0004         46.0004
  -6181949.65047  -4781241.12846  23567456.0314   23567462.4074   23567456.529
        44.0004         39.0004
 -11593251.59748  -9001097.27847  21416418.5094   21416423.6144   21416419.021
        50.0004         45.0004
    965856.00747    767903.45746  24386740.8844   24386747.8304   24386740.782
        43.0004         38.0004
 -13803344.38048 -10757704.26147  21604330.4414   21604337.1324   21604330.865
        50.0004         46.0004
 -14203047.75648 -11014049.39847  21645373.3654   21645376.6384   21645373.573
        51.0004         46.0004
  -6928035.87147  -5336497.35346  23884362.3264   23884371.9004   23884361.099
        45.0004         40.0004
   4926983.52648   3836189.80347  21533265.0574   21533271.8654   21533264.699
        51.0004         47.0004
  -2035281.47247  -1353427.22946  24631524.8344   24631530.0904   24631523.579
        43.0004         38.0004
 -26460059.07048 -20573905.02648  20426483.5284   20426489.6264   20426482.928
        53.0004         49.0004
 14  5 21  1 16 30.0000000  0 11G09G10G07G08G26G28G02G17G30G05G04
  -7028411.12248  -5471710.17947  21288761.2184   21288766.6544   21288761.626
        52.0004         47.0004
 -21864992.21748 -17031234.10947  21566505.0144   21566510.2294   21566504.875
        50.0004         46.0004
  -6076453.59647  -4699036.43646  23587532.8734   23587536.5754   23587532.180
        44.0004         39.0004
 -11503392.16148  -8931076.93147  21433518.2714   21433523.7284   21433519.243
        50.0004         45.0004
    981463.40047    780065.19346  24389710.5384   24389717.5564   24389710.148
        42.0004         38.0004
 -13849138.96348 -10793388.29447  21595615.7484   21595622.8294   21595616.261
        50.0004         46.0004
 -14230311.30348 -11035293.70847  21640185.2404   21640188.6174   21640185.244
        51.0004         46.0004
  -6910074.08547  -5322501.19046  23887778.6004   23887790.5364   23887778.691
        45.0004         40.0004
   5005005.68848   3896986.29247  21548112.1704   21548119.1944   21548112.329
        51.0004         47.0004
  -2125077.57647  -1423398.01346  24614435.9434   24614443.1504   24614436.495
        43.0004         38.0004
 -26433083.33648 -20552885.00348  20431616.8074   20431622.7084   20431616.416
        53.0004         49.0004
 14  5 21  1 17  0.0000000  0 11G09G10G07G08G26G28G02G17G30G05G04
  -6950750.06248  -5411195.05747  21303540.1434   21303545.2504   21303539.945
        52.0004         47.0004
 -21930386.22348 -17082190.46047  21554059.8384   21554066.0724   21554061.257
        50.0004         46.0004
  -5970932.40447  -4616812.16746  23607612.1314   23607618.6304   23607612.359
        44.0004         39.0004
 -11413201.72448  -8860798.66647  21450680.9434   21450686.8454   21450681.465
        50.0004         45.0004
    997011.18747    792180.46646  24392669.0194   24392676.7904   24392669.177
        43.0004         38.0004
 -13894652.47748 -10828853.31447  21586955.9224   21586961.6284   21586955.664
        50.0004         46.0004
 -14257126.49248 -11056188.62947  21635082.0234   21635085.7564   21635082.589
        51.0004         46.0004
  -6892348.75747  -5308689.28146  23891151.5854   23891163.1254   23891152.293
        45.0004         40.0004
   5083313.37248   3958005.26747  21563013.6514   21563020.2454   21563013.700
        51.0004         47.0004
  -2215016.00047  -1493479.70946  24597322.3604   24597328.0574   24597321.620
        42.0004         38.0004
 -26405626.00548 -20531489.70148  20436841.7124   20436847.4564   20436841.389
        53.0004         49.0004
 14  5 21  1 17 30.0000000  0 11G09G10G07G08G26G28G02G17G30G05G04
  -6872808.64548  -5350461.47047  21318372.0604   21318377.5054   21318371.886
        52.0004         47.0004
 -21995588.59448 -17132997.49247  21541652.7874   21541658.7684   21541653.485
        50.0004         46.0004
  -5865387.57347  -4534569.47646  23627697.2994   23627701.4094   23627696.695
        44.0004         39.0004
 -11322682.38148  -8790264.11847  21467906.6224   21467912.1144   21467906.888
        49.0004         45.0004
   1012498.64247    804248.73146  24395616.0824   24395624.2644   24395615.739
        43.0004         38.0004
 -13939881.13948 -10864096.36947  21578348.8804   21578354.9434   21578348.655
        50.0004         46.0004
 -14283492.22648 -11076733.33747  21630064.9034   21630068.9744   21630065.110
        51.0004         46.0004
  -6874859.26147  -5295061.14346  23894480.5554   23894492.0404   23894480.701
        45.0004         40.0004
   5161904.98248   4019245.49547  21577968.7474   21577975.6674   21577969.078
        51.0004         47.0004
  -2305094.23347  -1563670.34446  24580179.1494   24580186.1984   24580179.090
        43.0004         38.0004
 -26377687.41748 -20509719.39848  20442158.4944   20442164.2094   20442158.229
        53.0004         49.0004
 14  5 21  1 18  0.0000000  0 11G09G10G07G08G26G28G02G17G30G05G04
  -6794592.04348  -5289513.45647  21333255.8784   21333261.2394   21333255.718
        52.0004         47.0004
 -22060598.01048 -17183654.16647  21529282.2924   21529287.5014   21529282.673
        50.0004         46.0004
  -5759824.02747  -4452312.20246  23647786.0524   23647790.5684   23647784.935
        44.0004         39.0004
 -11231839.67448  -8719477.59447  21485193.6894   21485199.1094   21485193.718
        49.0004         45.0004
   1027921.62747    816266.75146  24398550.8294   24398559.3854   24398551.036
        43.0004         38.0004
 -13984823.66848 -10899116.46647  21569796.0644   21569801.8114   21569796.486
        50.0004         46.0004
 -14309410.69848 -11096929.52947  21625133.1324   21625136.2734   21625133.165
        51.0004         46.0004
  -6857607.24047  -5281618.02646  23897763.9444   23897773.5754   23897763.667
        45.0004         40.0004
   5240775.67848   4080703.18147  21592977.5824   21592984.4354   21592977.792
        51.0004         47.0004
  -2395312.27447  -1633969.93346  24563013.6544   24563019.1584   24563012.198
        43.0004         38.0004
 -26349271.90548 -20487577.47148  20447565.5064   20447571.5534   20447565.212
        53.0004         49.0004
 14  5 21  1 18 30.0000000  0 11G09G10G07G08G26G28G02G17G30G05G04
  -6716100.76148  -5228351.40447  21348192.6374   21348197.5124   21348192.628
        52.0004         47.0004
 -22125409.36048 -17234156.50147  21516948.4184   21516954.2024   21516949.217
        50.0004         46.0004
  -5654241.82247  -4370040.38446  23667877.7754   23667881.1144   23667877.108
        44.0004         39.0004
 -11140674.66448  -8648439.91447  21502541.8454   21502546.6334   21502541.458
        49.0004         45.0004
   1043280.73247    828234.99146  24401474.9844   24401481.1044   24401474.143
        43.0004         38.0004
 -14029474.83548 -10933909.52347  21561299.6324   21561305.1744   21561300.006
        50.0004         46.0004
 -14334879.50648 -11116775.33647  21620286.4484   21620289.4464   21620286.888
        51.0004         46.0004
  -6840591.33047  -5268358.90546  23901000.9674   23901012.8704   23901001.480
        45.0004         40.0004
   5319925.08748   4142378.05247  21608039.7154   21608046.8554   21608039.217
        51.0004         47.0004
  -2485666.05947  -1704375.30046  24545817.5824   24545823.6274   24545817.712
        42.0004         38.0004
 -26320378.40948 -20465063.08048  20453063.6564   20453069.5844   20453063.450
        53.0004         49.0004
 14  5 21  1 19  0.0000000  0 11G09G10G07G08G26G28G02G17G30G05G04
  -6637340.77948  -5166979.97647  21363180.0584   21363184.6924   21363179.680
        52.0004         47.0004
 -22190022.22648 -17284504.17847  21504653.3434   21504658.9014   21504653.912
        50.0004         46.0004
  -5548646.15547  -4287758.08046  23687971.3624   23687976.0664   23687971.389
        44.0004         39.0004
 -11049193.11148  -8577155.58147  21519949.4434   21519955.7754   21519950.122
        49.0004         45.0004
   1058571.10647    840149.67846  24404383.6794   24404390.2704   24404383.135
        43.0004         38.0004
 -14073834.91148 -10968475.75847  21552858.3204   21552863.9514   21552857.997
        50.0004         46.0004
 -14359901.40548 -11136272.91047  21615524.9644   21615528.1834   21615525.322
        51.0004         46.0004
  -6823814.50747  -5255286.09246  23904193.5384   23904203.8164   23904194.002
        44.0004         40.0004
   5399347.58648   4204265.71747  21623152.7794   21623159.1454   21623153.031
        51.0004         46.0004
  -2576155.99447  -1774886.75546  24528598.8064   24528605.0424   24528597.412
        42.0004         38.0004
 -26291011.66348 -20442179.93448  20458651.7354   20458658.0734   20458651.743
        53.0004         49.0004
 14  5 21  1 19 30.0000000  0 11G09G10G07G08G26G28G02G17G30G05G04
  -6558312.85648  -5105399.76247  21378218.0564   21378223.8094   21378218.116
        52.0004         47.0004
 -22254431.25048 -17334693.01347  21492396.4644   21492402.3244   21492397.087
        50.0004         46.0004
  -5443037.55347  -4205465.69546  23708069.0084   23708072.5534   23708067.359
        44.0004         39.0004
 -10957396.19048  -8505625.51747  21537418.3784   21537423.3454   21537418.518
        49.0004         45.0004
   1073793.33747    852011.26446  24407280.0814   24407287.1304   24407279.897
        43.0004         38.0004
 -14117897.96448 -11002810.55147  21544473.5694   21544479.4514   21544473.059
        50.0004         45.0004
 -14384474.22948 -11155420.54847  21610849.0024   21610851.8134   21610848.623
        51.0004         46.0004
  -6807274.07947  -5242397.47746  23907341.9914   23907352.2024   23907341.542
        44.0004         39.0004
   5479042.80848   4266365.89747  21638318.8124   21638325.1704   21638318.488
        51.0004         47.0004
  -2666777.47247  -1845500.70746  24511353.8014   24511359.9744   24511352.755
        42.0004         38.0004
 -26261171.16548 -20418927.62548  20464330.2914   20464336.4334   20464330.414
        53.0004         49.0004
 14  5 21  1 20  0.0000000  0 11G09G10G07G08G26G28G02G17G30G05G04
  -6479021.03948  -5043613.91647  21393306.9214   21393312.3504   21393307.004
        52.0004         47.0004
 -22318634.56948 -17384721.55547  21480179.2134   21480185.6534   21480179.790
        51.0004         46.0004
  -5337419.90847  -4123166.26746  23728166.5094   23728171.1764   23728166.029
        44.0004         39.0004
 -10865288.29148  -8433853.12647  21554944.4214   21554951.7134   21554945.602
        49.0004         44.0004
   1088944.35247    863817.34646  24410162.4444   24410170.2194   24410162.157
        43.0004         38.0004
 -14161662.33748 -11036912.59547  21536144.6484   21536151.1244   21536144.912
        50.0004         46.0004
 -14408599.17448 -11174219.18747  21606257.5954   21606261.1014   21606258.681
        51.0004         46.0004
  -6790971.70347  -5229694.35946  23910444.5934   23910454.6924   23910443.957
        44.0004         39.0004
   5559006.73848   4328675.46147  21653535.0504   21653542.6154   21653534.978
        51.0004         47.0004
  -2757530.80447  -1916217.40646  24494083.4564   24494089.5894   24494082.466
        42.0004         38.0004
 -26230860.02948 -20395308.58748  20470098.4774   20470104.7224   20470098.245
        53.0004         49.0004
 14  5 21  1 20 30.0000000  0 11G09G10G07G08G26G28G02G17G30G05G04
  -6399469.53148  -4981625.72047  21408445.2144   21408450.2924   21408444.895
        52.0004         47.0004
 -22382630.49648 -17434588.49647  21468000.4174   21468006.3724   21468001.703
        51.0004         46.0004
  -5231796.66847  -4040862.48446  23748265.8654   23748270.1744   23748265.308
        44.0004         39.0004
 -10772874.05048  -8361842.02447  21572532.8254   21572537.9414   21572532.152
        49.0004         44.0004
   1104020.98147    875565.48046  24413030.9784   24413039.8684   24413031.760
        43.0004         38.0004
 -14205126.16748 -11070780.45647  21527873.7444   21527879.7284   21527874.037
        50.0004         46.0004
 -14432277.34748 -11192669.69947  21601751.6644   21601755.7944   21601752.521
        51.0004         46.0004
  -6774908.45247  -5217177.56546  23913501.1864   23913511.4874   23913500.775
        44.0004         39.0004
   5639235.47948   4391191.36747  21668802.3614   21668809.1114   21668802.221
        51.0004         46.0004
  -2848414.94547  -1987036.04046  24476788.2954   24476795.6114   24476788.064
        42.0004         38.0004
 -26200081.15848 -20371325.08048  20475955.6204   20475961.9644   20475955.543
        53.0004         49.0004
 14  5 21  1 21  0.0000000  0 11G09G10G07G08G26G28G02G17G30G05G04
  -6319659.15848  -4919435.80747  21423632.2914   21423637.8494   21423632.654
        52.0004         47.0004
 -22446413.82748 -17484289.77547  21455864.2894   21455868.8674   21455864.135
        51.0004         46.0004
  -5126168.35147  -3958554.73846  23768366.4114   23768371.3314   23768366.064
        44.0004         39.0004
 -10680154.45148  -8289592.97947  21590175.6564   21590181.2734   21590176.188
        49.0004         44.0004
   1119023.70347    887256.01846  24415887.3904   24415894.0864   24415886.667
        43.0004         38.0004
 -14248284.25948 -11104410.07847  21519661.3884   21519667.4394   21519660.977
        50.0004         46.0004
 -14455506.67448 -11210770.45647  21597331.4344   21597335.5964   21597331.933
        51.0004         46.0004
  -6759082.34247  -5204845.54446  23916511.9004   23916524.5424   23916511.681
        44.0004         39.0004
   5719728.54048   4453913.24147  21684119.7284   21684126.0514   21684119.349
        51.0004         46.0004
  -2939425.24747  -2057952.99146  24459469.8544   24459475.3294   24459469.090
        43.0004         38.0004
 -26168834.25948 -20346976.87548  20481901.8134   20481908.0214   20481901.427
        53.0004         49.0004
 14  5 21  1 21 30.0000000  0 11G09G10G07G08G26G28G02G17G30G05G04
  -6239595.52148  -4857048.54647  21438868.3244   21438872.6854   21438867.999
        51.0004         47.0004
 -22509983.97348 -17533824.93847  21443766.2614   21443772.0674   21443767.029
        51.0004         46.0004
  -5020540.27647  -3876247.19146  23788466.2354   23788471.9494   23788466.642
        43.0004         39.0004
 -10587135.71448  -8217110.84147  21607876.1814   21607882.0114   21607876.467
        49.0004         44.0004
   1133947.98347    898885.43246  24418727.1544   24418734.6474   24418726.880
        43.0004         38.0004
 -14291136.28748 -11137801.21247  21511506.9324   21511512.5484   21511506.730
        50.0004         46.0004
 -14478289.89148 -11228523.59247  21592995.8854   21592999.6624   21592996.252
        51.0004         46.0004
  -6743496.21047  -5192700.51246  23919478.9774   23919489.7104   23919477.963
        44.0004         39.0004
   5800480.48248   4516836.83747  21699485.7764   21699493.0174   21699486.318
        51.0004         46.0004
  -3030562.77147  -2128969.05946  24442126.0914   24442132.3364   24442126.828
        43.0004         38.0004
 -26137123.90348 -20322267.53448  20487936.2414   20487941.6964   20487935.957
        53.0004         49.0004
 14  5 21  1 22  0.0000000  0 11G09G10G07G08G26G28G02G17G30G05G04
  -6159280.36648  -4794465.30147  21454151.8454   21454156.7324   21454151.552
        51.0004         47.0004
 -22573336.42748 -17583190.47247  21431710.4644   21431717.0874   21431711.342
        51.0004         46.0004
  -4914913.27947  -3793940.48146  23808566.8074   23808571.1384   23808566.524
        43.0004         38.0004
 -10493819.49048  -8144396.90347  21625633.3724   21625638.7754   21625634.312
        49.0004         44.0004
   1148793.21647    910453.24246  24421551.4464   24421558.3364   24421550.774
        43.0004         38.0004
 -14333677.87148 -11170950.43947  21503411.3454   21503417.2584   21503411.224
        51.0004         46.0004
 -14500626.22548 -11245928.52147  21588746.3514   21588749.1424   21588746.708
        51.0004         46.0004
  -6728148.73647  -5180741.45946  23922398.5044   23922409.4614   23922398.323
        44.0004         40.0004
   5881489.77748   4579960.96647  21714901.4274   21714908.7074   21714901.386
        51.0004         46.0004
  -3121823.89047  -2200081.44946  24424759.0524   24424766.6164   24424760.247
        43.0004         38.0004
 -26104950.63448 -20297197.48448  20494058.5344   20494064.5894   20494058.226
        53.0004         49.0004
 14  5 21  1 22 30.0000000  0 11G09G10G07G08G26G28G02G17G30G05G04
  -6078717.34648  -4731688.91647  21469482.4804   21469487.3574   21469482.119
        51.0004         47.0004
 -22636468.94448 -17632384.62347  21419696.8064   21419703.0284   21419697.620
        51.0004         46.0004
  -4809290.72647  -3711637.23446  23828666.1174   23828670.8334   23828665.725
        43.0004         38.0004
 -10400209.95948  -8071454.41147  21643447.4534   21643452.8594   21643447.541
        49.0004         44.0004
   1163556.86747    921957.49646  24424360.6224   24424367.9014   24424360.872
        43.0004         38.0004
 -14375906.86748 -11203856.10147  21495374.8574   21495380.9254   21495375.410
        51.0004         46.0004
 -14522516.18748 -11262985.62747  21584579.7924   21584583.9774   21584579.565
        51.0004         46.0004
  -6713040.56547  -5168968.86846  23925273.9764   23925284.1604   23925273.684
        44.0004         40.0004
   5962752.95848   4643282.92847  21730365.5904   21730372.4834   21730365.359
        51.0004         46.0004
  -3213207.70947  -2271289.45046  24407371.1234   24407376.8494   24407370.315
        43.0004         39.0004
 -26072317.20348 -20271768.86648  20500268.6384   20500274.8784   20500268.292
        53.0004         49.0004
 14  5 21  1 23  0.0000000  0 11G09G10G07G08G26G28G02G17G30G05G04
  -5997909.58448  -4668721.82247  21484859.7754   21484864.6734   21484859.568
        52.0004         47.0004
 -22699378.62448 -17681405.13347  21407725.8774   21407731.8104   21407726.433
        51.0004         46.0004
  -4703675.09247  -3629339.37746  23848764.3904   23848769.4334   23848763.529
        43.0004         38.0004
 -10306310.64148  -7998286.10547  21661315.5694   21661321.2344   21661315.856
        49.0004         44.0004
   1178236.96947    933396.61746  24427153.3024   24427160.5724   24427154.353
        42.0004         38.0004
 -14417820.19948 -11236515.78147  21487399.0294   21487405.3654   21487399.327
        51.0004         46.0004
 -14543959.87948 -11279694.98347  21580499.0764   21580503.0534   21580500.510
        51.0004         46.0004
  -6698172.40847  -5157383.29146  23928102.5934   23928112.9414   23928102.909
        44.0004         40.0004
   6044267.18548   4706800.51447  21745877.3784   21745884.1534   21745877.303
        51.0004         46.0004
  -3304712.02747  -2342591.34646  24389957.6924   24389963.4904   24389957.149
        43.0004         39.0004
 -26039225.45548 -20245983.11648  20506565.9114   20506571.9094   20506565.300
        53.0004         49.0004
 14  5 21  1 23 30.0000000  0 11G09G10G07G08G26G28G02G17G30G05G04
  -5916859.43548  -4605565.85747  21500283.6404   21500288.0944   21500282.885
        51.0004         47.0004
 -22762061.65848 -17730249.03547  21395797.4074   21395802.8654   21395798.345
        51.0004         46.0004
  -4598068.55047  -3547048.61146  23868860.3224   23868864.6844   23868859.899
        43.0004         38.0004
 -10212124.16948  -7924894.05047  21679238.0994   21679244.9174   21679238.920
        49.0004         44.0004
   1192832.35147    944769.73746  24429931.8254   24429939.4124   24429930.569
        42.0004         38.0004
 -14459414.22848 -11268926.65747  21479484.0214   21479490.0644   21479484.643
        51.0004         46.0004
 -14564956.82648 -11296056.23447  21576503.9194   21576507.4014   21576504.364
        51.0004         46.0004
  -6683543.34047  -5145984.04246  23930886.3654   23930898.0174   23930886.481
        44.0004         40.0004
   6126030.29748   4770512.03147  21761435.8094   21761442.5794   21761436.018
        51.0004         46.0004
  -3396334.30347  -2413985.16746  24372522.0354   24372529.2224   24372521.813
        44.0004         39.0004
 -26005676.91848 -20219841.42948  20512949.5804   20512956.0904   20512949.304
        53.0004         49.0004
 14  5 21  1 24  0.0000000  0 11G09G10G07G08G26G28G02G17G30G05G04
  -5835569.65448  -4542223.16047  21515751.9984   21515756.8564   21515752.091
        51.0004         47.0004
 -22824514.47348 -17778913.55547  21383913.8674   21383919.2344   21383913.808
        51.0004         46.0004
  -4492473.11047  -3464766.48746  23888955.4164   23888959.7824   23888953.957
        43.0004         38.0004
 -10117653.33848  -7851280.40547  21697215.2134   21697220.7754   21697216.486
        49.0004         44.0004
   1207341.55847    956075.72146  24432691.8174   24432700.6144   24432692.669
        43.0004         38.0004
 -14500685.63848 -11301086.13947  21471629.8474   21471636.0604   21471630.849
        51.0004         46.0004
 -14585507.18648 -11312069.49247  21572593.2044   21572596.7924   21572593.503
        51.0004         46.0004
  -6669153.09347  -5134770.86446  23933625.3134   23933636.6044   23933625.580
        44.0004         40.0004
   6208039.89448   4834415.62447  21777041.8534   21777048.4674   21777041.890
        51.0004         46.0004
  -3488072.18247  -2485469.06646  24355064.7604   24355070.6114   24355064.636
        44.0004         39.0004
 -25971673.02148 -20193344.91348  20519420.6074   20519426.5284   20519420.452
        53.0004         48.0004
 14  5 21  1 24 30.0000000  0 11G09G10G07G08G26G28G02G17G30G05G04
  -5754045.61148  -4478697.92847  21531265.2134   21531270.2294   21531265.383
        51.0004         47.0004
 -22886736.14648 -17827397.95347  21372073.0644   21372078.6814   21372073.590
        51.0004         46.0004
  -4386893.66347  -3382496.83046  23909045.2914   23909049.9014   23909044.571
        43.0004         38.0004
 -10022903.87448  -7777449.65047  21715245.7264   21715251.7234   21715246.345
        49.0004         44.0004
   1221760.42647    967311.30146  24435435.4604   24435443.7464   24435436.114
        43.0004         38.0004
 -14541633.91148 -11332993.83347  21463838.1684   21463843.8934   21463838.517
        51.0004         46.0004
 -14605613.31748 -11327736.59747  21568767.6734   21568770.3644   21568768.020
        51.0004         46.0004
  -6655003.92747  -5123745.54646  23936317.7114   23936328.1014   23936317.532
        44.0004         40.0004
   6290290.89848   4898507.31447  21792693.8574   21792700.1014   21792693.567
        51.0004         46.0004
  -3579925.46947  -2557042.89346  24337585.0664   24337590.2124   24337585.245
        43.0004         39.0004
 -25937218.21548 -20166497.04548  20525976.9504   20525983.0384   20525976.703
        53.0004         48.0004
 14  5 21  1 25  0.0000000  0 11G09G10G07G08G26G28G02G17G30G05G04
  -5672288.20348  -4414990.85747  21546823.0884   21546828.3934   21546823.044
        51.0004         47.0004
 -22948721.92048 -17875698.54047  21360276.7054   21360283.2744   21360278.133
        51.0004         46.0004
  -4281330.67147  -3300240.00346  23929133.5984   23929139.2164   23929132.648
        43.0004         38.0004
  -9927877.33048  -7703402.99647  21733328.8714   21733334.5884   21733329.185
        49.0004         44.0004
   1236089.01247    978476.51746  24438163.1004   24438170.4604   24438163.497
        42.0004         38.0004
 -14582254.56648 -11364646.24247  21456107.8034   21456114.3354   21456108.715
        51.0004         46.0004
 -14625273.85748 -11343056.49047  21565025.2754   21565029.6724   21565026.162
        51.0004         46.0004
  -6641094.15047  -5112906.76446  23938964.6204   23938975.5504   23938964.888
        44.0004         40.0004
   6372782.31148   4962786.34347  21808391.5804   21808398.5444   21808391.011
        51.0004         46.0004
  -3671891.02847  -2628704.19946  24320084.5494   24320091.0004   24320084.500
        43.0004         39.0004
 -25902312.46048 -20139297.78948  20532619.5564   20532625.3044   20532619.355
        53.0004         49.0004
 14  5 21  1 25 30.0000000  0 11G09G10G07G08G26G28G02G17G30G05G04
  -5590302.11248  -4351105.58947  21562424.6994   21562430.3814   21562424.618
        51.0004         47.0004
 -23010470.29848 -17923814.14147  21348527.1804   21348533.5634   21348527.624
        51.0004         47.0004
  -4175788.10947  -3217999.09646  23949218.6414   23949222.9084   23949216.735
        43.0004         38.0004
  -9832578.62848  -7629144.26047  21751463.5314   21751469.3354   21751464.062
        48.0004         44.0004
   1250323.93947    989568.76046  24440871.1774   24440879.5154   24440870.765
        42.0004         38.0004
 -14622545.73448 -11396041.90747  21448441.0534   21448447.0414   21448441.313
        51.0004         46.0004
 -14644490.32948 -11358030.35547  21561368.8284   21561372.7594   21561369.392
        51.0004         47.0004
  -6627425.02647  -5102255.50546  23941566.4994   23941576.9874   23941565.884
        44.0004         40.0004
   6455509.95948   5027249.44947  21824134.0234   21824141.2564   21824134.004
        50.0004         46.0004
  -3763967.66747  -2700452.07746  24302563.1914   24302569.4624   24302562.947
        43.0004         39.0004
 -25866959.49448 -20111750.05348  20539346.8334   20539353.0064   20539346.425
        53.0004         48.0004
 14  5 21  1 26  0.0000000  0 11G09G10G07G08G26G28G02G17G30G05G04
  -5508088.18348  -4287042.78347  21578069.5524   21578074.2164   21578069.285
        51.0004         47.0004
 -23071975.93148 -17971740.58947  21336822.7214   21336828.8444   21336823.628
        51.0004         47.0004
  -4070266.05147  -3135774.15746  23969298.7014   23969301.7104   23969297.494
        43.0004         38.0004
  -9737008.59648  -7554674.10747  21769649.9974   21769655.5024   21769650.290
        48.0004         44.0004
   1264465.95747   1000588.60146  24443562.1324   24443569.7834   24443563.435
        42.0004         38.0004
 -14662501.92848 -11427176.55147  21440837.2004   21440843.9954   21440837.859
        50.0004         46.0004
 -14663260.81148 -11372656.69847  21557797.5814   21557800.7614   21557797.523
        51.0004         47.0004
  -6613994.33347  -5091790.02046  23944122.0474   23944132.4414   23944121.594
        44.0004         40.0004
   6538473.48848   5091896.35547  21839921.5964   21839928.5634   21839921.284
        51.0004         46.0004
  -3856151.13047  -2772283.19446  24285020.3414   24285026.9794   24285020.989
        43.0004         38.0004
 -25831158.76348 -20083853.41548  20546159.7304   20546165.6934   20546159.529
        53.0004         48.0004
 14  5 21  1 26 30.0000000  0 11G09G10G07G08G26G28G02G17G30G05G04
  -5425653.08348  -4222807.63847  21593756.3624   21593761.7684   21593756.156
        51.0004         47.0004
 -23133239.84348 -18019478.67747  21325164.5654   21325170.5854   21325165.514
        51.0004         47.0004
  -3964770.91247  -3053570.20346  23989373.0884   23989377.8154   23989372.804
        42.0004         38.0004
  -9641174.56748  -7479998.23947  21787886.9204   21787892.2724   21787887.238
        48.0004         43.0004
   1278509.25247   1011531.51646  24446235.3904   24446242.1834   24446235.913
        43.0004         38.0004
 -14702124.52748 -11458051.25547  21433297.5714   21433304.2444   21433297.811
        50.0004         46.0004
 -14681589.54748 -11386938.82847  21554309.7174   21554312.8774   21554309.883
        51.0004         46.0004
  -6600806.18747  -5081513.54446  23946631.7454   23946642.1464   23946631.258
        44.0004         40.0004
   6621666.03848   5156721.73047  21855752.3754   21855759.3364   21855752.413
        50.0004         46.0004
  -3948443.43547  -2844199.13146  24267457.3594   24267464.3704   24267458.072
        43.0004         39.0004
 -25794916.63248 -20055612.83148  20553056.2464   20553062.4374   20553055.755
        53.0004         48.0004
 14  5 21  1 27  0.0000000  0 11G09G10G07G08G26G28G02G17G30G05G04
  -5342998.05448  -4158401.12247  21609485.2894   21609490.2584   21609485.199
        51.0004         47.0004
 -23194256.79848 -18067024.33847  21313553.4754   21313559.1044   21313554.283
        51.0004         47.0004
  -3859303.26547  -2971387.66346  24009442.4964   24009446.6514   24009442.380
        42.0004         38.0004
  -9545077.89848  -7405117.71547  21806173.4794   21806178.0934   21806173.117
        48.0004         43.0004
   1292453.78347   1022397.49046  24448889.1894   24448895.2554   24448887.469
        43.0004         38.0004
 -14741408.79048 -11488662.31447  21425822.1884   21425828.0984   21425822.392
        50.0004         46.0004
 -14699474.97948 -11400875.51447  21550906.1114   21550909.5394   21550906.021
        51.0004         47.0004
  -6587858.74447  -5071424.62446  23949095.4614   23949105.5084   23949095.303
        44.0004         40.0004
   6705086.73048   5221724.87247  21871626.8244   21871633.3204   21871626.682
        50.0004         46.0004
  -4040840.25947  -2916196.51746  24249876.7164   24249881.2754   24249875.757
        44.0004         39.0004
 -25758232.98748 -20027028.20348  20560036.7714   20560042.9004   20560036.721
        53.0004         48.0004
 14  5 21  1 27 30.0000000  0 11G09G10G07G08G26G28G02G17G30G05G04
  -5260124.06248  -4093823.98347  21625255.5904   21625260.7494   21625255.191
        51.0004         47.0004
 -23255021.78648 -18114373.66147  21301990.3094   21301995.6954   21301990.895
        51.0004         46.0004
  -3753863.44147  -2889226.82046  24029506.3374   24029512.5024   24029507.718
        42.0004         38.0004
  -9448719.90748  -7330033.56847  21824509.8804   21824514.8474   21824509.749
        48.0004         44.0004
   1306300.32747   1033187.12646  24451522.2604   24451529.4004   24451523.208
        43.0004         38.0004
 -14780349.44648 -11519005.64047  21418411.8474   21418417.4954   21418412.199
        51.0004         46.0004
 -14716915.42848 -11414465.47347  21547586.8654   21547590.3884   21547587.466
        51.0004         47.0004
  -6575149.54647  -5061521.34746  23951514.2214   23951524.3724   23951513.495
        44.0004         40.0004
   6788734.93548   5286905.29647  21887545.3314   21887551.7534   21887544.823
        50.0004         46.0004
  -4133337.92847  -2988272.48846  24232274.1374   24232279.5304   24232273.815
        44.0004         39.0004
 -25721107.98448 -19998099.66548  20567101.8354   20567108.1794   20567101.018
        53.0004         48.0004
 14  5 21  1 28  0.0000000  0 11G09G10G07G08G26G28G02G17G30G05G04
  -5177037.75148  -4029081.40047  21641066.0064   21641071.4574   21641066.073
        51.0004         47.0004
 -23315535.23748 -18161526.98047  21290474.8784   21290480.5764   21290475.553
        51.0004         47.0004
  -3648457.64947  -2807092.48046  24049564.7854   24049570.5134   24049565.674
        42.0004         38.0004
  -9352107.27748  -7254750.99647  21842895.0174   21842899.8434   21842894.442
        48.0004         44.0004
   1320043.09247   1043895.85046  24454139.2354   24454145.2674   24454139.028
        43.0004         38.0004
 -14818947.52748 -11549082.02147  21411066.4824   21411072.8634   21411067.107
        51.0004         46.0004
 -14733915.07148 -11427711.94147  21544352.0614   21544355.5744   21544352.270
        51.0004         47.0004
  -6562682.48847  -5051806.76646  23953886.8164   23953896.7444   23953886.151
        44.0004         40.0004
   6872604.00948   5352257.82047  21903504.3134   21903511.1204   21903504.393
        50.0004         46.0004
  -4225937.72447  -3060428.03946  24214654.0694   24214658.7964   24214652.501
        44.0004         39.0004
 -25683547.40148 -19968831.71348  20574248.8774   20574255.2944   20574248.786
        53.0004         48.0004
 14  5 21  1 28 30.0000000  0 11G09G10G07G08G26G28G02G17G30G05G04
  -5093742.06248  -3964175.67247  21656916.9344   21656921.8794   21656916.944
        51.0004         46.0004
 -23375794.01948 -18208481.85747  21279008.3914   21279014.3574   21279008.571
        51.0004         47.0004
  -3543088.37047  -2724986.60146  24069617.5274   24069620.9794   24069617.082
        42.0004         38.0004
  -9255243.72748  -7179272.90547  21861326.8954   21861332.6284   21861326.916
        48.0004         44.0004
   1333679.96147   1054522.09046  24456733.2814   24456740.3354   24456732.849
        43.0004         38.0004
 -14857200.12148 -11578889.18947  21403787.8394   21403793.0224   21403787.906
        51.0004         46.0004
 -14750474.09048 -11440615.06847  21541201.3024   21541205.1454   21541201.645
        51.0004         47.0004
  -6550456.76647  -5042280.24446  23956212.6824   23956222.6724   23956211.965
        44.0004         39.0004
   6956691.32548   5417780.41147  21919506.1704   21919512.6024   21919505.751
        50.0004         46.0004
  -4318637.57547  -3132661.54646  24197012.5324   24197018.1194   24197012.260
        44.0004         39.0004
 -25645553.32748 -19939225.97948  20581479.1384   20581485.5114   20581478.935
        53.0004         48.0004
 14  5 21  1 29  0.0000000  0 11G09G10G07G08G26G28G02G17G30G05G04
  -5010236.86048  -3899106.67647  21672807.5104   21672812.7734   21672807.201
        51.0004         46.0004
 -23435792.23848 -18255233.69647  21267590.9984   21267596.6994   21267591.384
        51.0004         47.0004
  -3437754.58547  -2642908.38146  24089660.9584   24089665.5224   24089661.043
        42.0004         38.0004
  -9158129.37548  -7103599.38247  21879807.1654   21879812.3214   21879807.637
        48.0004         44.0004
   1347213.08947   1065067.47746  24459308.9494   24459316.0414   24459308.323
        43.0004         38.0004
 -14895100.93548 -11608422.24147  21396575.8874   21396581.6424   21396575.569
        51.0004         46.0004
 -14766589.91948 -11453172.85247  21538134.3714   21538137.9644   21538134.703
        51.0004         47.0004
  -6538469.87047  -5032939.80846  23958493.5844   23958505.0924   23958493.222
        44.0004         40.0004
   7040997.26148   5483473.35447  21935548.4844   21935556.1684   21935548.468
        50.0004         46.0004
  -4411432.07647  -3204968.80546  24179354.3444   24179360.3694   24179353.974
        44.0004         39.0004
 -25607124.73148 -19909281.65148  20588791.9624   20588797.7204   20588791.650
        53.0004         48.0004
 14  5 21  1 29 30.0000000  0 11G09G10G07G08G26G28G02G17G30G05G04
  -4926527.48348  -3833878.59047  21688737.2174   21688741.8674   21688736.634
        51.0004         46.0004
 -23495529.23948 -18301781.98947  21256222.6634   21256228.9514   21256223.629
        51.0004         47.0004
  -3332461.46247  -2560861.86146  24109698.9704   24109702.9624   24109697.028
        42.0004         38.0004
  -9060769.85148  -7027734.82647  21898334.4294   21898339.8474   21898334.600
        48.0004         44.0004
   1360637.43347   1075528.07746  24461862.8064   24461871.2094   24461863.223
        43.0004         38.0004
 -14932649.54348 -11637680.85147  21389430.1474   21389435.9114   21389430.473
        51.0004         46.0004
 -14782265.02348 -11465387.21947  21535151.3334   21535155.0904   21535151.828
        51.0004         47.0004
  -6526724.22847  -5023787.36546  23960728.4394   23960738.7884   23960728.337
        44.0004         40.0004
   7125516.62248   5549332.59547  21951632.1474   21951639.6524   21951631.963
        50.0004         46.0004
  -4504321.69247  -3277350.18746  24161678.4804   24161683.4534   24161677.737
        44.0004         39.0004
 -25568266.07248 -19879002.21248  20596186.3104   20596192.6974   20596186.361
        53.0004         48.0004
 14  5 21  1 30  0.0000000  0 11G09G10G07G08G26G28G02G17G30G05G04
  -4842617.34948  -3768494.06947  21704704.2114   21704709.4774   21704704.215
        51.0004         46.0004
 -23555002.12148 -18348124.48147  21244905.8334   21244911.3764   21244906.519
        51.0004         47.0004
  -3227211.46447  -2478848.92846  24129725.7264   24129731.6944   24129725.157
        42.0004         38.0004
  -8963168.97948  -6951682.20147  21916907.0704   21916911.8794   21916906.985
        48.0004         43.0004
   1373951.21947   1085902.55246  24464396.2584   24464404.8034   24464396.115
        43.0004         38.0004
 -14969843.87448 -11666663.40147  21382352.4254   21382357.9874   21382352.461
        51.0004         46.0004
 -14797500.73048 -11477259.20047  21532252.0754   21532256.1574   21532252.541
        51.0004         47.0004
  -6515219.89047  -5014822.95146  23962917.7994   23962928.4494   23962917.604
        44.0004         40.0004
   7210246.06048   5615355.53747  21967755.4224   21967762.0624   21967755.734
        50.0004         45.0004
  -4597304.41047  -3349804.12146  24143983.2684   24143989.5084   24143983.384
        44.0004         39.0004
 -25528980.29648 -19848389.95948  20603662.2714   20603668.5374   20603662.018
        53.0004         48.0004
 14  5 21  1 30 30.0000000  0 11G09G10G07G08G26G28G02G17G30G05G04
  -4758508.14248  -3702954.42647  21720709.7004   21720714.8954   21720709.686
        51.0004         46.0004
 -23614206.57248 -18394257.80447  21233639.6484   21233645.2684   21233640.359
        51.0004         47.0004
  -3122005.63747  -2396870.42646  24149746.6084   24149751.0124   24149745.908
        42.0004         38.0004
  -8865328.83448  -6875443.11847  21935525.2144   21935528.5224   21935525.770
        48.0004         43.0004
   1387154.28447   1096190.75346  24466908.2394   24466916.1864   24466909.014
        43.0004         38.0004
 -15006679.47948 -11695366.41447  21375342.7784   21375348.7724   21375342.810
        51.0004         46.0004
 -14812295.84848 -11488787.85947  21529436.5724   21529440.1624   21529437.249
        51.0004         47.0004
  -6503955.34047  -5006045.38346  23965061.1764   23965072.0284   23965061.070
        45.0004         40.0004
   7295184.26848   5681541.16347  21983918.8924   21983925.2414   21983918.649
        50.0004         46.0004
  -4690376.98047  -3422328.06446  24126272.7274   24126278.5614   24126272.315
        44.0004         39.0004
 -25489267.83148 -19817445.22148  20611219.5914   20611225.7494   20611219.154
        53.0004         48.0004
 14  5 21  1 31  0.0000000  0 11G09G10G07G08G26G28G02G17G30G05G04
  -4674204.76948  -3637263.48647  21736752.1904   21736757.0364   21736751.903
        51.0004         46.0004
 -23673141.08648 -18440180.78747  21222424.6934   21222430.7204   21222425.451
        51.0004         47.0004
  -3016848.12847  -2314929.57046  24169756.8464   24169761.7684   24169756.954
        42.0004         38.0004
  -8767253.99648  -6799021.16747  21954187.9164   21954194.0834   21954188.694
        48.0004         43.0004
   1400243.14347   1106389.96346  24469398.1024   24469405.9024   24469398.996
        43.0004         38.0004
 -15043155.09648 -11723788.92547  21368401.2364   21368407.0774   21368401.637
        51.0004         46.0004
 -14826652.65348 -11499974.98647  21526705.0914   21526708.3824   21526705.050
        51.0004         47.0004
  -6492932.02447  -4997455.78646  23967159.1014   23967170.0984   23967158.750
        45.0004         40.0004
   7380326.78648   5747885.99047  22000121.3414   22000127.4974   22000120.670
        50.0004         45.0004
  -4783538.65747  -3494921.46146  24108544.4554   24108549.6494   24108544.412
        44.0004         39.0004
 -25449132.72648 -19786171.16048  20618857.0144   20618863.4624   20618856.768
        53.0004         48.0004
 14  5 21  1 31 30.0000000  0 11G09G10G07G08G26G28G02G17G30G05G04
  -4589709.86848  -3571423.30247  21752831.3914   21752835.4004   21752831.041
        51.0004         46.0004
 -23731802.69848 -18485891.11747  21211261.5324   21211267.9254   21211262.369
        51.0004         47.0004
  -2911741.10347  -2233028.05946  24189760.1034   24189763.7104   24189757.878
        42.0004         37.0004
  -8668947.80248  -6722418.94247  21972894.9444   21972901.6874   21972895.606
        48.0004         43.0004
   1413216.15747   1116498.89646  24471868.9344   24471875.7694   24471868.795
        43.0004         38.0004
 -15079267.70348 -11751928.57047  21361529.4964   21361535.5244   21361529.529
        51.0004         46.0004
 -14840571.77648 -11510821.06547  21524056.0944   21524059.4434   21524056.203
        51.0004         47.0004
  -6482149.79147  -4989054.04946  23969211.3104   23969222.0074   23969210.716
        45.0004         40.0004
   7465670.98448   5814387.96547  22016361.3694   22016368.1684   22016361.015
        50.0004         45.0004
  -4876786.63647  -3567582.11146  24090799.6144   24090805.3064   24090799.639
        44.0004         39.0004
 -25408577.18548 -19754569.47848  20626574.4614   20626580.3404   20626574.105
        53.0004         48.0004
 14  5 21  1 32  0.0000000  0 11G09G10G07G08G26G28G02G17G30G05G04
  -4505024.84548  -3505434.97347  21768946.0494   21768950.7944   21768945.940
        51.0004         46.0004
 -23790186.60248 -18531385.05947  21200151.2044   21200157.4144   21200152.343
        51.0004         47.0004
  -2806685.15747  -2151166.35046  24209749.2244   24209754.4234   24209749.263
        42.0004         37.0004
  -8570412.05448  -6645637.84647  21991647.1844   21991652.1974   21991646.395
        48.0004         43.0004
   1426073.39547   1126517.61246  24474314.7394   24474321.7564   24474315.263
        43.0004         38.0004
 -15115012.84948 -11779781.88247  21354727.0234   21354732.9454   21354727.719
        51.0004         46.0004
 -14854051.89048 -11521325.04747  21521490.6494   21521494.5974   21521491.252
        51.0004         47.0004
  -6471607.10447  -4980838.96946  23971217.7854   23971227.9654   23971216.918
        45.0004         40.0004
   7551215.84048   5881046.30047  22032639.9604   22032647.1604   22032639.741
        50.0004         45.0004
  -4970117.73147  -3640307.53046  24073039.2914   24073045.0504   24073038.609
        44.0004         39.0004
 -25367601.44848 -19722640.37648  20634372.3664   20634378.3534   20634371.679
        53.0004         48.0004
 14  5 21  1 32 30.0000000  0 11G09G10G07G08G26G28G02G17G30G05G04
  -4420154.15948  -3439301.97047  21785096.6914   21785101.5014   21785096.484
        51.0004         46.0004
 -23848290.94648 -18576661.16147  21189094.9384   21189100.3264   21189095.355
        51.0004         47.0004
  -2701684.20047  -2069347.48846  24229731.1894   24229735.8964   24229730.105
        42.0004         37.0004
  -8471651.27448  -6568681.39847  22010439.3974   22010446.3454   22010440.126
        48.0004         43.0004
   1438811.73247   1136443.68446  24476738.6194   24476746.5874   24476737.617
        43.0004         38.0004
 -15150389.20548 -11807347.82547  21347994.7314   21348001.5904   21347995.157
        51.0004         46.0004
 -14867094.67648 -11531488.26947  21519009.4294   21519012.2804   21519009.300
        51.0004         47.0004
  -6461304.55447  -4972811.00146  23973177.8764   23973187.7244   23973177.277
        45.0004         40.0004
   7636957.17848   5947857.73347  22048956.1114   22048962.7594   22048955.770
        50.0004         45.0004
  -5063530.98847  -3713096.97746  24055262.4964   24055268.1024   24055262.161
        44.0004         39.0004
 -25326209.13348 -19690386.66948  20642248.7934   20642255.0014   20642248.246
        53.0004         48.0004
 14  5 21  1 33  0.0000000  0 11G09G10G07G08G26G28G02G17G30G05G04
  -4335102.01048  -3373027.56747  21801281.7204   21801286.8124   21801281.500
        51.0004         46.0004
 -23906114.23448 -18621718.25747  21178091.4384   21178096.8774   21178091.875
        51.0004         47.0004
  -2596741.95047  -1987574.37846  24249700.0434   24249705.8614   24249700.494
        42.0004         37.0004
  -8372670.40348  -6491553.44347  22029275.3924   22029279.5754   22029275.458
        48.0004         43.0004
   1451427.89347   1146274.54346  24479140.0584   24479146.6374   24479139.210
        43.0004         38.0004
 -15185395.73748 -11834625.59847  21341334.2144   21341339.1404   21341334.392
        51.0004         46.0004
 -14879702.59948 -11541312.62847  21516609.7854   21516613.3954   21516610.189
        51.0004         47.0004
  -6451243.89347  -4964971.52346  23975091.9164   23975103.0394   23975091.835
        45.0004         40.0004
   7722890.58048   6014818.82547  22065308.9314   22065315.8274   22065308.398
        50.0004         45.0004
  -5157025.93647  -3785950.09046  24037471.8244   24037476.9224   24037470.749
        44.0004         39.0004
 -25284404.19948 -19657811.43848  20650204.0964   20650209.9624   20650203.673
        53.0004         48.0004
 14  5 21  1 33 30.0000000  0 11G09G10G07G08G26G28G02G17G30G05G04
  -4249870.31848  -3306613.26247  21817500.4604   21817505.2254   21817500.380
        51.0004         46.0004
 -23963652.54948 -18666553.29747  21167142.2824   21167147.7584   21167142.937
        52.0004         47.0004
  -2491859.74847  -1905848.07346  24269658.3784   24269663.2214   24269658.993
        42.0004         37.0004
  -8273471.63648  -6414255.70947  22048151.9304   22048157.5414   22048152.426
        48.0004         43.0004
   1463921.24147   1156009.69746  24481515.5514   24481524.7364   24481517.388
        43.0004         38.0004
 -15220028.12648 -11861611.82547  21334743.1144   21334749.0904   21334743.313
        51.0004         46.0004
 -14891875.01048 -11550797.63047  21514293.6564   21514296.6764   21514293.660
        51.0004         47.0004
  -6441424.01947  -4957319.66646  23976961.1124   23976971.5924   23976960.625
        45.0004         40.0004
   7809014.33448   6081928.24047  22081697.6394   22081704.0874   22081697.231
        50.0004         45.0004
  -5250599.04647  -3858864.09346  24019665.9694   24019670.8674   24019665.157
        44.0004         40.0004
 -25242188.01948 -19624915.76148  20658237.5494   20658243.4254   20658237.242
        53.0004         48.0004
 14  5 21  1 34  0.0000000  0 11G09G10G07G08G26G28G02G17G30G05G04
  -4164459.34648  -3240059.26047  21833753.6924   21833758.8284   21833753.673
        50.0004         46.0004
 -24020900.04848 -18711161.72847  21156247.9384   21156253.7104   21156248.925
        52.0004         47.0004
  -2387037.02247  -1824168.09146  24289606.8584   24289611.0694   24289606.542
        42.0004         37.0004
  -8174055.57248  -6336788.65047  22067070.1044   22067076.1574   22067070.555
        48.0004         43.0004
   1476292.80747   1165649.97146  24483869.9674   24483878.5484   24483870.106
        43.0004         38.0004
 -15254281.01648 -11888302.34447  21328225.4304   21328230.5594   21328225.496
        51.0004         46.0004
 -14903610.01148 -11559941.79147  21512060.5364   21512063.7644   21512060.570
        51.0004         47.0004
  -6431841.61147  -4949852.85446  23978784.5614   23978794.6684   23978783.734
        45.0004         40.0004
   7895328.44248   6149185.99147  22098121.9684   22098129.1764   22098122.227
        50.0004         45.0004
  -5344245.33047  -3931835.11646  24001845.2924   24001849.6294   24001844.504
        44.0004         40.0004
 -25199559.99848 -19591699.17448  20666349.6824   20666355.5554   20666349.262
        53.0004         48.0004
 14  5 21  1 34 30.0000000  0 11G09G10G07G08G26G28G02G17G30G05G04
  -4078876.39848  -3173371.25147  21850038.4294   21850044.1304   21850039.338
        50.0004         46.0004
 -24077857.83648 -18755544.41347  21145409.3844   21145415.7924   21145410.188
        52.0004         47.0004
  -2282280.10547  -1742539.40546  24309541.5814   24309546.1034   24309541.043
        42.0004         37.0004
  -8074429.36548  -6259157.83947  22086029.3294   22086034.5814   22086028.388
        48.0004         43.0004
   1488536.97747   1175190.97646  24486199.9084   24486208.4384   24486200.056
        43.0004         38.0004
 -15288155.92448 -11914698.33447  21321778.8614   21321784.7414   21321779.377
        51.0004         46.0004
 -14914912.25348 -11568748.74347  21509908.9224   21509913.2204   21509910.044
        51.0004         47.0004
  -6422500.60947  -4942574.15646  23980561.7074   23980571.6224   23980561.596
        45.0004         40.0004
   7981826.06448   6216586.73647  22114582.0054   22114589.1594   22114581.702
        50.0004         45.0004
  -5437966.66547  -4004864.62746  23984010.5284   23984015.6234   23984009.320
        45.0004         40.0004
 -25156526.29148 -19558166.46748  20674538.3974   20674544.9144   20674537.951
        53.0004         48.0004
 14  5 21  1 35  0.0000000  0 11G09G10G07G08G26G28G02G17G30G05G04
  -3993124.59248  -3106551.65447  21866357.5504   21866362.3024   21866357.219
        50.0004         46.0004
 -24134523.10248 -18799699.15447  21134627.1664   21134632.3634   21134627.463
        52.0004         47.0004
  -2177591.56347  -1660963.99346  24329461.0214   24329468.4134   24329462.630
        42.0004         37.0004
  -7974596.84547  -6181366.27747  22105025.5664   22105032.0254   22105026.175
        47.0004         43.0004
   1500651.74747   1184631.13946  24488506.9834   24488513.3644   24488506.137
        43.0004         38.0004
 -15321650.14848 -11940797.67947  21315405.0074   21315410.7654   21315405.627
        51.0004         46.0004
 -14925782.47848 -11577219.05947  21507840.8294   21507844.7374   21507841.376
        51.0004         47.0004
  -6413401.13347  -4935483.64946  23982293.4614   23982304.6274   23982293.076
        45.0004         40.0004
   8068504.18148   6284128.12147  22131076.6624   22131083.7244   22131076.651
        50.0004         45.0004
  -5531760.86347  -4077950.91946  23966162.0694   23966167.3174   23966161.373
        45.0004         40.0004
 -25113089.77548 -19524319.88248  20682804.1734   20682810.2864   20682804.041
        53.0004         48.0004
 14  5 21  1 35 30.0000000  0 11G09G10G07G08G26G28G02G17G30G05G04
  -3907203.82848  -3039600.40647  21882708.6824   21882712.4824   21882707.640
        50.0004         46.0004
 -24190889.41848 -18843620.95647  21123900.2564   21123905.9834   21123901.032
        52.0004         47.0004
  -2072970.72747  -1579441.35346  24349371.0104   24349376.0764   24349371.277
        42.0004         37.0004
  -7874557.90247  -6103413.85347  22124063.2314   22124068.8714   22124062.817
        47.0004         43.0004
   1512638.87547   1193971.85046  24490786.4824   24490794.1284   24490787.108
        43.0004         38.0004
 -15354757.69448 -11966595.72247  21309104.5614   21309110.3884   21309105.351
        51.0004         46.0004
 -14936218.03248 -11585350.66847  21505855.5404   21505858.8484   21505855.633
        51.0004         47.0004
  -6404539.70747  -4928578.62046  23983980.0184   23983990.6254   23983979.052
        45.0004         40.0004
   8155363.35448   6351810.58847  22147605.3214   22147612.8694   22147605.214
        50.0004         45.0004
  -5625622.35447  -4151089.65046  23948300.9804   23948305.8834   23948300.229
        45.0004         40.0004
 -25069249.23048 -19490158.46548  20691146.6104   20691152.5844   20691146.242
        53.0004         48.0004
 14  5 21  1 36  0.0000000  0 11G09G10G07G08G26G28G02G17G30G05G04
  -3821119.87248  -2972522.00347  21899088.8024   21899093.9954   21899088.639
        50.0004         46.0004
 -24246956.73948 -18887309.76747  21113230.8514   21113236.9314   21113231.807
        52.0004         47.0004
  -1968422.26647  -1497975.09746  24369267.0254   24369272.7884   24369266.618
        42.0004         37.0004
  -7774318.55847  -6025305.27447  22143138.1144   22143143.0894   22143137.599
        47.0004         43.0004
   1524493.66847   1203209.44646  24493042.3884   24493050.2774   24493042.827
        43.0004         38.0004
 -15387478.48348 -11992092.39447  21302878.8544   21302884.5024   21302878.898
        51.0004         46.0004
 -14946222.63648 -11593146.48047  21503951.4194   21503955.2864   21503952.010
        52.0004         47.0004
  -6395918.78747  -4921861.00546  23985620.3174   23985631.1814   23985619.639
        45.0004         40.0004
   8242397.91448   6419629.71747  22164167.3844   22164174.6994   22164167.190
        49.0004         45.0004
  -5719551.78647  -4224281.32646  23930426.6514   23930431.0184   23930426.180
        45.0004         40.0004
 -25025010.17048 -19455686.52548  20699565.0904   20699571.4494   20699564.863
        53.0004         48.0004
 14  5 21  1 36 30.0000000  0 11G09G10G07G08G26G28G02G17G30G05G04
  -3734874.77948  -2905318.03647  21915500.8524   21915506.1044   21915501.034
        50.0004         46.0004
 -24302721.23848 -18930762.61647  21102619.9514   21102625.0174   21102620.077
        52.0004         47.0004
  -1863947.92647  -1416566.60546  24389147.0784   24389152.5614   24389146.719
        42.0004         37.0004
  -7673881.72247  -5947042.80447  22162250.6194   22162255.6954   22162250.699
        47.0004         43.0004
   1536215.31447   1212343.28746  24495273.7844   24495280.3704   24495273.418
        43.0004         38.0004
 -15419809.51148 -12017285.35847  21296725.9704   21296731.7534   21296726.307
        51.0004         46.0004
 -14955796.42948 -11600606.58547  21502129.8074   21502133.0654   21502129.733
        52.0004         47.0004
  -6387537.13547  -4915329.83346  23987215.3564   23987225.2414   23987214.645
        45.0004         40.0004
   8329605.72648   6487583.85847  22180762.4284   22180769.8954   22180762.480
        49.0004         45.0004
  -5813546.11247  -4297523.58446  23912538.8934   23912543.9034   23912538.837
        45.0004         40.0004
 -24980373.85448 -19420905.02348  20708059.4014   20708065.0794   20708058.823
        53.0004         48.0004
 14  5 21  1 37  0.0000000  0 11G09G10G07G08G26G28G02G17G30G05G04
  -3648471.35748  -2837990.69447  21931943.2634   21931947.6414   21931942.588
        50.0004         46.0004
 -24358179.63848 -18973976.94547  21092066.0794   21092071.3404   21092066.780
        52.0004         47.0004
  -1759549.73247  -1335217.43646  24409012.0704   24409017.8604   24409012.449
        42.0004         37.0004
  -7573250.58647  -5868628.94947  22181400.0524   22181405.2134   22181400.123
        47.0004         43.0004
   1547802.32947   1221372.20846  24497479.4054   24497485.3344   24497478.202
        43.0004         38.0004
 -15451747.76148 -12042172.25947  21290648.6404   21290653.9764   21290648.825
        51.0004         47.0004
 -14964939.65348 -11607731.18347  21500390.0684   21500392.8634   21500390.301
        52.0004         47.0004
  -6379394.80747  -4908985.13546  23988764.4044   23988775.2574   23988763.978
        45.0004         41.0004
   8416984.29548   6555671.05047  22197390.3824   22197396.9964   22197390.418
        49.0004         45.0004
  -5907602.99247  -4370814.57746  23894641.2754   23894646.4514   23894640.658
        45.0004         40.0004
 -24935342.69748 -19385815.86248  20716628.5984   20716634.8364   20716628.134
        52.0004         48.0004
 14  5 21  1 37 30.0000000  0 11G09G10G07G08G26G28G02G17G30G05G04
  -3561913.06148  -2770542.66747  21948413.8924   21948419.1324   21948413.809
        50.0004         46.0004
 -24413329.47848 -19016950.84447  21081571.6214   21081577.1814   21081572.055
        52.0004         47.0004
  -1655230.47547  -1253929.78546  24428865.1244   24428868.9344   24428864.459
        42.0004         37.0004
  -7472428.60847  -5790066.36847  22200585.4454   22200589.7464   22200585.860
        47.0004         43.0004
   1559252.45147   1230294.45946  24499656.6784   24499664.9624   24499656.933
        43.0004         38.0004
 -15483291.11748 -12066751.45647  21284645.9514   21284651.7364   21284646.024
        51.0004         47.0004
 -14973653.90648 -11614521.52747  21498731.5404   21498735.1684   21498731.733
        52.0004         47.0004
  -6371492.21747  -4902827.24146  23990268.8414   23990278.2964   23990268.395
        45.0004         41.0004
   8504530.24848   6623888.66847  22214048.6584   22214057.0134   22214049.306
        49.0004         45.0004
  -6001720.76447  -4444153.01346  23876731.2994   23876736.5424   23876731.114
        45.0004         40.0004
 -24889919.63448 -19350421.32348  20725272.1594   20725278.2924   20725271.739
        53.0004         48.0004
 14  5 21  1 38  0.0000000  0 11G09G10G07G08G26G28G02G17G30G05G04
  -3475202.12448  -2702975.70647  21964914.4214   21964919.6414   21964914.872
        50.0004         46.0004
 -24468167.13748 -19059681.48047  21071135.9164   21071141.9694   21071136.905
        52.0004         47.0004
  -1550991.72047  -1172704.87546  24448701.8984   24448706.9074   24448700.692
        42.0004         37.0004
  -7371418.67147  -5711357.33647  22219806.2304   22219813.0794   22219807.092
        47.0004         42.0004
   1570564.79447   1239109.33546  24501809.7994   24501817.2074   24501810.405
        43.0004         38.0004
 -15514436.21848 -12091020.32147  21278719.6644   21278724.5624   21278719.530
        51.0004         47.0004
 -14981939.13648 -11620977.55847  21497154.8964   21497158.8114   21497155.310
        52.0004         47.0004
  -6363827.91747  -4896855.02846  23991726.0814   23991736.4234   23991726.702
        46.0004         41.0004
   8592241.51148   6692235.10047  22230740.1004   22230746.3614   22230740.299
        49.0004         45.0004
  -6095896.02747  -4517536.25746  23858810.9064   23858815.1524   23858810.176
        45.0004         40.0004
 -24844106.32848 -19314722.69548  20733990.0704   20733996.4504   20733989.911
        53.0004         48.0004
 14  5 21  1 38 30.0000000  0 11G09G10G07G08G26G28G02G17G30G05G04
  -3388342.90448  -2635293.19747  21981442.8654   21981448.2304   21981443.445
        50.0004         46.0004
 -24522691.10248 -19102167.68847  21060760.4264   21060766.0234   21060761.382
        52.0004         47.0004
  -1446837.07747  -1091545.50646  24468521.3734   24468526.5704   24468521.084
        42.0004         37.0004
  -7270225.28447  -5632505.35247  22239063.1164   22239068.7514   22239063.855
        47.0004         42.0004
   1581736.60047   1247814.72446  24503935.7054   24503942.7364   24503935.709
        43.0004         38.0004
 -15545181.29248 -12114977.47647  21272868.3684   21272874.2614   21272868.781
        51.0004         47.0004
 -14989797.50948 -11627100.98247  21495659.4764   21495662.5424   21495659.938
        52.0004         47.0004
  -6356402.79747  -4891069.16646  23993140.1204   23993150.8294   23993139.390
        46.0004         41.0004
   8680114.15448   6760707.28647  22247461.9164   22247469.0954   22247462.397
        49.0004         45.0004
  -6190128.10847  -4590963.78146  23840878.3704   23840883.7644   23840877.797
        45.0004         40.0004
 -24797906.48948 -19278722.87948  20742781.8964   20742788.1604   20742781.262
        53.0004         48.0004
 14  5 21  1 39  0.0000000  0 11G09G10G07G08G26G28G02G17G30G05G04
  -3301337.92248  -2567497.10847  21998000.2664   21998004.6664   21998000.017
        50.0004         46.0004
 -24576897.52448 -19144406.45947  21050445.5354   21050451.2794   21050446.212
        52.0004         47.0004
  -1342767.78347  -1010452.63946  24488326.6384   24488330.1594   24488324.890
        42.0004         37.0004
  -7168851.17747  -5553512.55447  22258353.7214   22258359.8974   22258354.684
        47.0004         42.0004
   1592766.74947   1256409.73846  24506034.3084   24506040.2804   24506034.858
        43.0004         38.0004
 -15575523.52148 -12138620.72647  21267094.9184   21267100.2354   21267095.022
        51.0004         47.0004
 -14997229.10948 -11632891.85247  21494245.5224   21494248.6074   21494245.718
        52.0004         47.0004
  -6349216.24047  -4885469.21046  23994508.0294   23994517.8854   23994507.593
        45.0004         41.0004
   8768145.90548   6829303.45047  22264213.0834   22264221.0964   22264214.017
        49.0004         45.0004
  -6284414.15647  -4664433.35346  23822936.0034   23822940.1724   23822935.796
        45.0004         40.0004
 -24751321.86148 -19242423.22648  20751646.8534   20751652.9484   20751646.473
        53.0004         48.0004
 14  5 21  1 39 30.0000000  0 11G09G10G07G08G26G28G02G17G30G05G04
  -3214183.09148  -2499584.25647  22014585.2084   22014589.8154   22014585.672
        50.0004         45.0004
 -24630777.02048 -19186390.47447  21040192.4294   21040198.0264   21040193.270
        52.0004         47.0004
  -1238779.76047   -929423.12746  24508113.0384   24508118.2624   24508113.529
        42.0004         37.0004
  -7067292.77847  -5474376.15147  22277680.5024   22277687.5484   22277680.436
        47.0004         42.0004
   1603660.21147   1264898.21546  24508108.1194   24508114.7414   24508108.750
        43.0004         38.0004
 -15605453.76948 -12161942.95547  21261399.1544   21261404.2464   21261399.378
        51.0004         47.0004
 -15004228.37748 -11638345.84347  21492913.4634   21492916.7794   21492913.652
        52.0004         47.0004
  -6342261.35647  -4880049.77246  23995830.5314   23995841.2414   23995830.499
        45.0004         40.0004
   8856340.54548   6898026.54147  22280997.3164   22281004.4014   22280996.847
        49.0004         45.0004
  -6378744.92947  -4737937.77946  23804985.8804   23804991.4154   23804985.632
        45.0004         41.0004
 -24704348.51148 -19205820.67048  20760585.4894   20760592.1194   20760584.837
        53.0004         48.0004
 14  5 21  1 40  0.0000000  0 11G09G10G07G08G26G28G02G17G30G05G04
  -3126895.91748  -2431568.28047  22031195.6164   22031200.0814   22031195.473
        50.0004         45.0004
 -24684340.59648 -19228128.32547  21029999.8464   21030005.1444   21030000.316
        52.0004         47.0004
  -1134889.16146   -848469.51646  24527883.0694   24527887.6494   24527882.978
        41.0004         37.0004
  -6965567.52647  -5395109.72947  22297038.8864   22297044.7274   22297038.003
        47.0004         42.0004
   1614401.22547   1273267.90546  24510151.6834   24510157.6854   24510151.065
        43.0004         38.0004
 -15634983.43948 -12184953.03847  21255779.6154   21255785.6514   21255779.972
        51.0004         47.0004
 -15010810.28648 -11643474.62047  21491661.1974   21491664.5164   21491661.587
        52.0004         47.0004
  -6335551.75347  -4874821.48246  23997107.7414   23997118.3514   23997107.253
        45.0004         40.0004
   8944681.19848   6966863.40147  22297807.3334   22297813.9494   22297807.425
        49.0004         44.0004
  -6473132.44847  -4811486.43246  23787024.5334   23787028.8754   23787024.056
        45.0004         41.0004
 -24657002.79848 -19168927.96748  20769595.2494   20769601.5974   20769594.742
        53.0004         48.0004
 14  5 21  1 40 30.0000000  0 11G09G10G07G08G26G28G02G17G30G05G04
  -3039471.38048  -2363445.26647  22047831.3814   22047836.7434   22047831.532
        50.0004         45.0004
 -24737577.73448 -19269611.81247  21019869.0524   21019874.4634   21019869.991
        52.0004         47.0004
  -1031090.50946   -767587.55346  24547634.6644   24547639.9234   24547635.126
        41.0004         37.0004
  -6863670.82047  -5315709.71747  22316427.7854   22316434.8384   22316428.258
        47.0004         42.0004
   1624996.18047   1281523.80146  24512166.9324   24512174.5964   24512167.179
        43.0004         38.0004
 -15664101.88548 -12207642.69847  21250238.6504   21250244.1584   21250238.562
        51.0004         47.0004
 -15016968.01048 -11648272.86447  21490489.0574   21490492.7564   21490489.647
        52.0004         47.0004
  -6329079.36047  -4869778.02646  23998338.8644   23998350.3094   23998338.562
        45.0004         40.0004
   9033173.04348   7035818.07847  22314647.1084   22314654.1694   22314646.573
        49.0004         44.0004
  -6567566.44647  -4885071.29746  23769053.8244   23769058.7304   23769053.645
        45.0004         41.0004
 -24609279.29948 -19131740.88148  20778676.4064   20778682.6334   20778676.228
        52.0004         48.0004
 14  5 21  1 41  0.0000000  0 11G09G10G07G08G26G28G02G17G30G05G04
  -2951912.06848  -2295217.23847  22064494.0464   22064499.3164   22064493.734
        50.0004         45.0004
 -24790485.06848 -19310838.30547  21009800.8944   21009807.0934   21009801.700
        52.0004         47.0004
   -927385.71046   -686778.73146  24567369.1174   24567375.8364   24567369.168
        41.0004         36.0004
  -6761605.69847  -5236178.46347  22335850.1914   22335856.4834   22335851.049
        47.0004         42.0004
   1635443.75547   1289664.83946  24514155.7324   24514162.0314   24514155.944
        43.0004         38.0004
 -15692806.43348 -12230009.83747  21244776.7044   21244781.7694   21244776.356
        51.0004         47.0004
 -15022701.92348 -11652740.85747  21489398.3234   21489401.8104   21489398.354
        52.0004         47.0004
  -6322843.21647  -4864918.65246  23999525.7774   23999536.5614   23999525.712
        45.0004         40.0004
   9121813.58348   7104888.61947  22331514.5714   22331521.8134   22331514.746
        49.0004         44.0004
  -6662044.14447  -4958690.20946  23751076.0464   23751080.1114   23751074.397
        45.0004         41.0004
 -24561180.36848 -19094261.24848  20787829.2264   20787836.2164   20787829.077
        52.0004         48.0004
 14  5 21  1 41 30.0000000  0 11G09G10G07G08G26G28G02G17G30G05G04
  -2864221.91748  -2226887.25147  22081181.0544   22081185.8074   22081180.465
        50.0004         45.0004
 -24843060.40448 -19351806.09847  20999796.5254   20999802.6044   20999797.167
        52.0004         47.0004
   -823778.10946   -606045.62546  24587086.5694   24587092.5614   24587085.435
        41.0004         37.0004
  -6659376.51347  -5156519.36947  22355303.9864   22355309.5504   22355304.467
        47.0004         42.0004
   1645741.33747   1297688.99846  24516116.1564   24516121.8314   24516115.377
        43.0004         38.0004
 -15721095.54248 -12252053.25247  21239392.7944   21239398.6174   21239393.077
        51.0004         47.0004
 -15028013.82248 -11656880.01947  21488387.6004   21488390.5954   21488387.924
        52.0004         47.0004
  -6316844.13047  -4860244.00746  24000667.3044   24000678.0824   24000667.200
        45.0004         41.0004
   9210599.07848   7174072.11647  22348409.4904   22348417.1404   22348409.699
        49.0004         44.0004
  -6756564.10347  -5032342.05946  23733087.9634   23733094.3404   23733088.088
        45.0004         41.0004
 -24512709.18148 -19056491.55048  20797053.2124   20797060.0674   20797052.910
        52.0004         48.0004
 14  5 21  1 42  0.0000000  0 11G09G10G07G08G26G28G02G17G30G05G04
  -2776404.50348  -2158458.10347  22097891.0794   22097896.0184   22097891.642
        50.0004         45.0004
 -24895301.47448 -19392513.42647  20989855.4604   20989861.1084   20989855.766
        52.0004         47.0004
   -720269.68146   -525389.81546  24606783.2184   24606788.0594   24606782.486
        41.0004         37.0004
  -6556986.96347  -5076735.32347  22374788.5614   22374793.0184   22374788.657
        47.0004         42.0004
   1655886.88147   1305594.70146  24518046.2954   24518051.8214   24518045.156
        43.0004         38.0004
 -15748966.97348 -12273771.21347  21234089.2824   21234094.9364   21234089.302
        51.0004         47.0004
 -15032905.47448 -11660691.70847  21487456.5534   21487460.0854   21487456.284
        52.0004         47.0004
  -6311082.38447  -4855754.30346  24001763.5164   24001773.8764   24001763.355
        45.0004         41.0004
   9299526.22948   7243365.98647  22365331.8414   22365338.7324   22365332.125
        49.0004         44.0004
  -6851124.12847  -5106025.12746  23715094.8344   23715099.2094   23715093.994
        45.0004         41.0004
 -24463869.01648 -19018434.33848  20806347.1544   20806353.9834   20806347.067
        52.0004         48.0004
 14  5 21  1 42 30.0000000  0 11G09G10G07G08G26G28G02G17G30G05G04
  -2688461.53048  -2089931.11647  22114625.7634   22114631.0404   22114626.613
        50.0004         45.0004
 -24947203.92648 -19432956.89947  20979978.3354   20979984.2384   20979979.334
        52.0004         47.0004
   -616861.69246   -444812.26346  24626460.6114   24626467.4334   24626460.496
        41.0004         37.0004
  -6454439.23747  -4996828.01747  22394302.7914   22394307.4994   22394303.255
        47.0004         42.0004
   1665879.95147   1313381.58646  24519948.0284   24519952.2014   24519947.400
        43.0004         38.0004
 -15776417.20148 -12295160.95147  21228865.4924   21228871.3824   21228865.526
        51.0004         47.0004
 -15037376.79748 -11664175.86647  21486605.8854   21486609.2064   21486606.404
        52.0004         47.0004
  -6305556.09847  -4851448.07146  24002816.2994   24002826.6334   24002815.262
        45.0004         41.0004
   9388593.35648   7312768.93547  22382280.2114   22382288.5204   22382280.926
        49.0004         44.0004
  -6945721.63247  -5179737.40046  23697093.3334   23697098.0794   23697093.012
        46.0004         41.0004
 -24414661.32848 -18980090.74748  20815710.9194   20815717.8724   20815710.865
        52.0004         48.0004
 14  5 21  1 43  0.0000000  0 11G09G10G07G08G26G28G02G17G30G05G04
  -2600398.57048  -2021310.62847  22131384.4264   22131389.6524   22131384.626
        50.0004         45.0004
 -24998767.80348 -19473136.54447  20970166.3344   20970172.1134   20970166.733
        52.0004         47.0004
   -513559.42646   -364317.08146  24646118.4084   24646125.3234   24646118.296
        41.0004         37.0004
  -6351739.26647  -4916802.08347  22413845.8734   22413852.0014   22413846.134
        47.0004         42.0004
   1675716.26747   1321046.30946  24521819.1454   24521825.4844   24521818.879
        43.0004         38.0004
 -15803446.41648 -12316222.64047  21223721.9124   21223727.1874   21223722.210
        51.0004         47.0004
 -15041431.27748 -11667335.21647  21485834.1934   21485837.9714   21485834.379
        52.0004         47.0004
  -6300267.93447  -4847327.40146  24003822.3644   24003832.5104   24003821.578
        45.0004         41.0004
   9477795.07548   7382276.75547  22399254.7994   22399262.4874   22399255.415
        49.0004         44.0004
  -7040356.54847  -5253478.82546  23679085.0534   23679089.4484   23679084.368
        46.0004         41.0004
 -24365091.21148 -18941464.73848  20825144.5324   20825150.6194   20825143.702
        52.0004         48.0004
 14  5 21  1 43 30.0000000  0 11G09G10G07G08G26G28G02G17G30G05G04
  -2512215.75848  -1952596.76147  22148165.5604   22148170.2784   22148165.316
        50.0004         45.0004
 -25049987.42348 -19513047.93347  20960419.5814   20960425.2144   20960420.242
        52.0004         47.0004
   -410361.81746   -283903.45446  24665757.0864   24665762.8454   24665755.915
        41.0004         37.0004
  -6248887.37147  -4836657.76147  22433418.1994   22433424.0784   22433417.850
        46.0004         42.0004
   1685397.26747   1328590.01546  24523661.7724   24523668.8994   24523660.552
        43.0004         38.0004
 -15830049.33248 -12336952.13947  21218659.3404   21218665.3414   21218659.785
        51.0004         47.0004
 -15045066.96848 -11670168.24047  21485142.3014   21485146.0714   21485142.562
        52.0004         47.0004
  -6295214.87447  -4843389.92846  24004783.6654   24004793.5444   24004783.494
        45.0004         41.0004
   9567131.55148   7451889.58447  22416255.2014   22416263.5484   22416255.668
        48.0004         44.0004
  -7135022.98447  -5327244.82346  23661070.0604   23661074.8594   23661069.244
        45.0004         41.0004
 -24315158.19048 -18902555.95448  20834646.3284   20834652.5974   20834645.566
        52.0004         48.0004
 14  5 21  1 44  0.0000000  0 11G09G10G07G08G26G28G02G17G30G05G04
  -2423917.51748  -1883792.92947  22164967.9354   22164973.1254   22164967.946
        50.0004         45.0004
 -25100861.39948 -19552689.99647  20950738.8334   20950743.8444   20950738.997
        52.0004         47.0004
   -307272.96046   -203574.57746  24685375.2484   24685381.3674   24685373.570
        41.0004         36.0004
  -6145888.58447  -4756398.98547  22453017.6864   22453024.4124   22453018.066
        46.0004         42.0004
   1694919.50747   1336010.01946  24525473.3264   24525479.2864   24525472.366
        43.0004         38.0004
 -15856225.60448 -12357349.19347  21213678.7144   21213684.6344   21213678.758
        51.0004         47.0004
 -15048286.76048 -11672677.19147  21484529.4494   21484533.3794   21484530.020
        52.0004         47.0004
  -6290397.84547  -4839636.37446  24005699.7474   24005710.6214   24005699.027
        45.0004         41.0004
   9656598.22948   7521603.86247  22433281.1644   22433287.5344   22433280.927
        48.0004         44.0004
  -7229721.16047  -5401035.54846  23643049.9354   23643054.6134   23643048.862
        45.0004         41.0004
 -24264866.77348 -18863367.90248  20844215.9024   20844222.5664   20844215.988
        52.0004         48.0004
 14  5 21  1 44 30.0000000  0 11G09G10G07G08G26G28G02G17G30G05G04
  -2335504.83248  -1814899.92847  22181792.3934   22181796.7254   22181792.308
        50.0004         45.0004
 -25151384.98048 -19592059.02047  20941124.3064   20941130.2674   20941124.880
        52.0004         47.0004
   -204292.75246   -123330.34646  24704969.8624   24704974.8524   24704970.515
        41.0004         36.0004
  -6042743.73547  -4676026.39947  22472644.7604   22472652.0224   22472645.897
        46.0004         42.0004
   1704283.73547   1343306.89146  24527255.2204   24527261.5554   24527255.392
        43.0004         38.0004
 -15881970.22648 -12377409.89047  21208779.2894   21208784.6614   21208779.281
        51.0004         47.0004
 -15051089.53948 -11674861.19247  21483996.8544   21483999.9414   21483996.354
        52.0004         47.0004
  -6285814.01447  -4836064.53646  24006572.2304   24006582.7684   24006571.687
        45.0004         41.0004
   9746194.53148   7591419.15747  22450330.8314   22450336.9854   22450330.430
        48.0004         44.0004
  -7324446.14047  -5474847.15846  23625023.6084   23625029.8404   23625024.057
        46.0004         41.0004
 -24214217.11548 -18823900.69348  20853854.6294   20853861.1454   20853854.271
        52.0004         48.0004
 14  5 21  1 45  0.0000000  0 11G09G10G07G08G26G28G02G17G30G05G04
  -2246984.14248  -1745922.76847  22198637.1394   22198642.2304   22198637.157
        50.0004         45.0004
 -25201558.65748 -19631155.39647  20931576.3664   20931582.3724   20931577.123
        52.0004         47.0004
   -101426.41146    -43174.84946  24724545.3514   24724550.8434   24724545.089
        40.0004         36.0004
  -5939459.96847  -4595545.54947  22492300.5004   22492305.3664   22492299.867
        46.0004         42.0004
   1713484.85347   1350476.66246  24529006.4564   24529013.0724   24529006.151
        43.0004         38.0004
 -15907284.24848 -12397135.05947  21203962.2044   21203967.5704   21203962.333
        51.0004         47.0004
 -15053479.86448 -11676723.80647  21483541.1364   21483544.8334   21483541.464
        52.0004         47.0004
  -6281466.69447  -4832676.99146  24007399.2884   24007409.8874   24007398.914
        45.0004         41.0004
   9835914.15048   7661330.53347  22467403.6774   22467410.7634   22467403.736
        48.0004         44.0004
  -7419198.92647  -5548680.44246  23606993.0834   23606998.8174   23606992.927
        45.0004         41.0004
 -24163215.64048 -18784159.35248  20863560.1244   20863566.8994   20863559.447
        52.0004         48.0004
 14  5 21  1 45 30.0000000  0 11G09G10G07G08G26G28G02G17G30G05G04
  -2158355.99148  -1676861.87047  22215502.1434   22215507.5274   22215502.372
        49.0004         45.0004
 -25251377.53848 -19669975.30447  20922096.2614   20922101.8284   20922096.674
        52.0004         47.0004
      1325.71646     36891.64645  24744098.9854   24744105.0234   24744097.986
        40.0004         35.0004
  -5836038.36847  -4514957.30847  22511980.0024   22511986.5974   22511980.242
        46.0004         42.0004
   1722523.40947   1357519.76246  24530724.9684   24530732.0614   24530724.813
        43.0004         38.0004
 -15932163.08148 -12416521.11447  21199227.6134   21199233.6204   21199227.667
        51.0004         46.0004
 -15055456.99248 -11678264.43947  21483165.0684   21483168.4004   21483165.384
        52.0004         47.0004
  -6277353.24347  -4829471.69046  24008182.2334   24008192.0644   24008181.857
        45.0004         41.0004
   9925756.40548   7731337.47047  22484499.9884   22484507.5014   22484499.494
        48.0004         44.0004
  -7513975.07547  -5622531.92346  23588958.5174   23588963.2744   23588956.970
        45.0004         41.0004
 -24111862.62248 -18744144.06948  20873331.9524   20873338.9244   20873331.848
        52.0004         48.0004
 14  5 21  1 46  0.0000000  0 11G09G10G07G08G26G28G02G17G30G05G04
  -2069624.62948  -1607720.55647  22232387.0764   22232392.4864   22232387.119
        49.0004         45.0004
 -25300839.78448 -19708517.31447  20912683.9844   20912689.8344   20912684.513
        52.0004         47.0004
    103960.66846    116866.81945  24763629.5844   24763639.1624   24763629.169
        40.0004         35.0004
  -5732483.10347  -4434264.91147  22531686.1364   22531691.1364   22531686.585
        46.0004         42.0004
   1731396.94347   1364434.28546  24532414.3564   24532419.8184   24532413.505
        43.0004         38.0004
 -15956604.91548 -12435566.66147  21194577.0394   21194582.0094   21194577.101
        51.0004         47.0004
 -15057022.84148 -11679484.59647  21482867.4014   21482870.4224   21482868.028
        52.0004         47.0004
  -6273474.15847  -4826449.01546  24008920.4194   24008930.7664   24008919.666
        45.0004         41.0004
  10015717.59048   7801437.08547  22501619.4744   22501626.4174   22501618.605
        48.0004         44.0004
  -7608773.35047  -5696400.65446  23570917.8244   23570922.7744   23570918.053
        46.0004         41.0004
 -24060161.69148 -18703857.69147  20883170.2434   20883177.0474   20883169.940
        52.0004         47.0004
 14  5 21  1 46 30.0000000  0 11G09G10G07G08G26G28G02G17G30G05G04
  -1980790.97548  -1538499.53047  22249291.5044   22249296.4534   22249291.886
        49.0004         45.0004
 -25349940.38048 -19746777.52447  20903341.1264   20903346.1334   20903341.127
        52.0004         47.0004
    206478.28046    196750.58145  24783137.3194   24783140.5214   24783137.784
        39.0004         34.0004
  -5628795.23747  -4353469.17546  22551417.1684   22551423.0634   22551417.579
        46.0004         41.0004
   1740105.86647   1371220.52446  24534071.5554   24534077.5304   24534071.711
        43.0004         38.0004
 -15980606.05348 -12454268.79747  21190009.3574   21190014.7644   21190009.401
        51.0004         47.0004
 -15058176.50748 -11680383.57447  21482647.7004   21482650.9874   21482647.898
        52.0004         47.0004
  -6269827.19047  -4823607.21546  24009614.3744   24009624.5424   24009614.047
        46.0004         41.0004
  10105797.01048   7871628.82847  22518760.3794   22518768.0204   22518760.705
        48.0004         44.0004
  -7703588.68947  -5770282.68846  23552875.4804   23552879.6064   23552874.919
        46.0004         41.0004
 -24008113.62348 -18663300.81948  20893075.1734   20893081.7774   20893074.651
        52.0004         48.0004
 14  5 21  1 47  0.0000000  0 11G09G10G07G08G26G28G02G17G30G05G04
  -1891861.18948  -1469203.60247  22266214.3994   22266219.3104   22266214.597
        49.0004         44.0004
 -25398680.01748 -19784756.46047  20894065.4414   20894070.8884   20894066.207
        52.0004         47.0004
    308872.68446    276538.29645  24802621.1294   24802630.3284   24802623.371
        39.0004         35.0004
  -5524981.35147  -4272575.24847  22571172.2694   22571178.4334   22571173.060
        46.0004         42.0004
   1748645.41347   1377874.76946  24535696.1854   24535703.1704   24535696.483
        43.0004         38.0004
 -16004167.41548 -12472628.25647  21185526.3584   21185530.4454   21185525.826
        51.0004         47.0004
 -15058922.57848 -11680964.95147  21482505.4354   21482509.3154   21482505.949
        52.0004         47.0004
  -6266415.12247  -4820948.45846  24010263.6724   24010273.8604   24010263.764
        46.0004         41.0004
  10195988.54748   7941907.92847  22535923.8014   22535930.4214   22535923.073
        48.0004         44.0004
  -7798422.57847  -5844179.16646  23534829.1514   23534833.5694   23534828.422
        46.0004         41.0004
 -23955724.18948 -18622477.94648  20903044.6514   20903051.4544   20903044.233
        52.0004         48.0004
 14  5 21  1 47 30.0000000  0 11G09G10G07G08G26G28G02G17G30G05G04
  -1802834.93348  -1399832.48747  22283156.1154   22283160.1204   22283155.592
        49.0004         44.0004
 -25447052.29148 -19822449.14347  20884860.4894   20884866.6734   20884861.219
        52.0004         47.0004
    411145.71446    356231.48545  24822082.8454   24822092.5374   24822084.965
        39.0004         35.0004
  -5421041.46447  -4191583.14646  22590952.9704   22590956.8154   22590952.101
        46.0004         41.0004
   1757017.41847   1384398.48646  24537289.5164   24537295.5534   24537288.804
        43.0004         38.0004
 -16027283.25848 -12490640.54847  21181126.8834   21181132.5604   21181127.282
        51.0004         47.0004
 -15059258.99348 -11681227.11847  21482441.7454   21482445.2324   21482441.892
        52.0004         47.0004
  -6263234.23647  -4818469.84446  24010868.6284   24010879.6104   24010868.217
        46.0004         41.0004
  10286292.79248   8012274.86147  22553106.2354   22553115.1264   22553107.718
        48.0004         43.0004
  -7893269.29547  -5918085.64546  23516780.5404   23516785.9064   23516779.923
        46.0004         41.0004
 -23902992.63548 -18581388.49247  20913079.0604   20913085.8034   20913078.776
        52.0004         47.0004
 14  5 21  1 48  0.0000000  0 11G09G10G07G08G26G28G02G17G30G05G04
  -1713716.74248  -1330389.75047  22300114.9224   22300119.2434   22300114.422
        49.0004         45.0004
 -25495056.23048 -19859854.81447  20875725.9864   20875731.1574   20875726.434
        52.0004         47.0004
    513293.64646    435827.16145  24841524.7864   24841530.0464   24841523.359
        39.0004         35.0004
  -5316980.73747  -4110496.88246  22610753.8504   22610758.1474   22610753.812
        46.0004         41.0004
   1765218.51047   1390789.00046  24538849.1784   24538856.2854   24538849.227
        43.0004         38.0004
 -16049953.20748 -12508305.39347  21176812.6994   21176818.4994   21176813.424
        51.0004         47.0004
 -15059188.77148 -11681172.41747  21482454.9144   21482458.8824   21482455.360
        52.0004         47.0004
  -6260285.85147  -4816172.40146  24011429.3034   24011440.3104   24011429.673
        46.0004         41.0004
  10376705.13348   8082726.02847  22570311.8914   22570320.6934   22570312.507
        48.0004         44.0004
  -7988128.06747  -5992001.51446  23498729.5614   23498734.4484   23498728.771
        46.0004         41.0004
 -23849923.45748 -18540035.95447  20923177.5784   20923184.4894   20923177.350
        52.0004         47.0004
 14  5 21  1 48 30.0000000  0 11G09G10G07G08G26G28G02G17G30G05G04
  -1624508.98348  -1260877.20947  22317089.7554   22317094.6954   22317090.151
        49.0004         44.0004
 -25542688.56648 -19896970.92147  20866661.8054   20866667.1334   20866662.063
        52.0004         47.0004
    615314.69846    515323.96145  24860934.6604   24860941.3004   24860937.000
        39.0004         35.0004
  -5212801.73947  -4029318.46346  22630578.8304   22630583.4904   22630578.327
        46.0004         41.0004
   1773247.81747   1397045.65646  24540377.4154   24540384.2944   24540378.708
        43.0004         38.0004
 -16072174.28848 -12525620.46947  21172584.0384   21172589.6714   21172584.414
        51.0004         47.0004
 -15058712.36648 -11680801.21347  21482545.7814   21482549.4534   21482545.954
        52.0004         47.0004
  -6257568.63147  -4814055.08546  24011947.4914   24011957.7294   24011947.068
        46.0004         41.0004
  10467223.54548   8153259.84147  22587537.4994   22587545.5314   22587537.496
        48.0004         43.0004
  -8082995.60447  -6065924.22146  23480676.3924   23480680.8844   23480675.929
        46.0004         41.0004
 -23796518.72948 -18498421.94247  20933340.7444   20933347.1764   20933340.257
        52.0004         47.0004
 14  5 21  1 49  0.0000000  0 11G09G10G07G08G26G28G02G17G30G05G04
  -1535215.95348  -1191298.22847  22334081.7154   22334087.2904   22334081.952
        49.0004         44.0004
 -25589947.96748 -19933796.43548  20857668.3064   20857673.9454   20857668.903
        52.0004         48.0004
    717205.43946    594719.22145  24880326.6124   24880331.9304   24880326.370
        39.0004         35.0004
  -5108509.16047  -3948051.54646  22650423.7284   22650430.4074   22650424.716
        46.0004         41.0004
   1781102.48647   1403166.23646  24541872.5674   24541879.5654   24541873.446
        43.0004         38.0004
 -16093945.50148 -12542585.00047  21168441.1834   21168446.4814   21168441.586
        51.0004         47.0004
 -15057832.51048 -11680115.63647  21482712.9694   21482717.1154   21482713.361
        51.0004         47.0004
  -6255083.45347  -4812118.59146  24012419.5954   24012430.1604   24012419.569
        46.0004         41.0004
  10557843.86548   8223873.05647  22604782.4374   22604789.1454   22604782.294
        48.0004         43.0004
  -8177870.88947  -6139852.96546  23462622.9234   23462626.9234   23462621.617
        46.0004         41.0004
 -23742782.64048 -18456549.72447  20943566.2964   20943572.5384   20943565.699
        52.0004         47.0004
 14  5 21  1 49 30.0000000  0 11G09G10G07G08G26G28G02G17G30G05G04
  -1445839.04748  -1121653.89247  22351089.7254   22351094.5354   22351089.709
        49.0004         44.0004
 -25636830.04348 -19970327.93148  20848746.8844   20848752.8914   20848747.804
        52.0004         48.0004
    818965.22846    674012.41745  24899689.5194   24899700.5654   24899690.832
        39.0004         35.0004
  -5004104.72247  -3866697.46946  22670292.3274   22670297.2404   22670292.804
        46.0004         41.0004
   1788782.54647   1409150.75446  24543333.9564   24543341.1284   24543333.599
        43.0004         38.0004
 -16115263.50448 -12559196.37747  21164385.0564   21164390.2024   21164384.998
        51.0004         47.0004
 -15056549.06648 -11679115.56047  21482957.0654   21482960.8484   21482957.598
        51.0004         47.0004
  -6252828.67747  -4810361.62146  24012848.5584   24012859.8674   24012848.497
        46.0004         41.0004
  10648564.77348   8294564.65847  22622046.6844   22622052.5504   22622046.127
        48.0004         43.0004
  -8272750.02347  -6213784.70846  23444566.8734   23444572.0874   23444566.657
        46.0004         41.0004
 -23688716.12448 -18414420.03847  20953854.6034   20953861.3594   20953854.401
        52.0004         47.0004
 14  5 21  1 50  0.0000000  0 11G09G10G07G08G26G28G02G17G30G05G04
  -1356381.54448  -1051946.75147  22368113.2044   22368117.7974   22368112.556
        49.0004         44.0004
 -25683332.52248 -20006563.63148  20839898.2014   20839903.7044   20839898.580
        52.0004         48.0004
    920591.84346    753201.87845  24919028.2204   24919037.7934   24919029.976
        39.0004         34.0004
  -4899591.93347  -3785258.95246  22690180.8974   22690185.2304   22690180.823
        46.0004         41.0004
   1796286.12947   1414997.78246  24544762.4494   24544768.9684   24544761.098
        43.0004         38.0004
 -16136125.83148 -12575452.68647  21160414.7874   21160420.2124   21160415.011
        51.0004         47.0004
 -15054863.51848 -11677802.16947  21483278.3314   21483281.9564   21483278.721
        52.0004         47.0004
  -6250803.96247  -4808783.92846  24013235.1964   24013244.5874   24013234.175
        46.0004         41.0004
  10739383.14748   8365332.20947  22639328.0964   22639335.8924   22639327.962
        48.0004         43.0004
  -8367631.07647  -6287717.94647  23426512.5404   23426517.2674   23426511.506
        46.0004         42.0004
 -23634322.55048 -18372035.49747  20964205.6564   20964212.0794   20964205.362
        52.0004         47.0004
 14  5 21  1 50 30.0000000  0 11G09G10G07G08G26G28G02G17G30G05G04
  -1266846.31848   -982179.04847  22385150.5374   22385155.9404   22385151.029
        49.0004         44.0004
 -25729452.58048 -20042501.34548  20831121.8854   20831127.0764   20831122.403
        52.0004         48.0004
   1022083.25646    832285.95345  24938345.3014   24938349.7064   24938343.452
        39.0004         34.0004
  -4794973.79047  -3703738.34646  22710089.5874   22710094.6094   22710089.025
        46.0004         41.0004
   1803611.76947   1420706.13846  24546156.1594   24546162.8874   24546155.576
        43.0004         38.0004
 -16156530.62048 -12591352.47647  21156532.0564   21156536.9324   21156531.966
        51.0004         47.0004
 -15052776.98748 -11676176.31847  21483675.8394   21483678.4884   21483675.633
        52.0004         47.0004
  -6249008.59547  -4807384.95146  24013575.8584   24013585.5404   24013575.347
        46.0004         41.0004
  10830296.33948   8436173.64047  22656628.4234   22656634.6324   22656628.089
        48.0004         43.0004
  -8462511.25947  -6361650.50347  23408456.6994   23408460.9814   23408456.882
        46.0004         42.0004
 -23579604.32648 -18329397.98247  20974618.2754   20974625.4294   20974617.709
        52.0004         47.0004
 14  5 21  1 51  0.0000000  0 11G09G10G07G08G26G28G02G17G30G05G04
  -1177236.53048   -912353.24947  22402203.2364   22402206.8714   22402203.657
        49.0004         44.0004
 -25775187.80848 -20078139.18648  20822418.5224   20822423.5994   20822419.011
        52.0004         48.0004
   1123436.96946    911262.74545  24957630.3004   24957635.2244   24957629.430
        39.0004         34.0004
  -4690253.81747  -3622138.39446  22730016.2464   22730022.0214   22730016.385
        46.0004         41.0004
   1810757.67447   1426274.44046  24547516.5484   24547522.3984   24547515.144
        43.0004         38.0004
 -16176476.28148 -12606894.49847  21152735.8764   21152741.8164   21152736.243
        51.0004         47.0004
 -15050291.47848 -11674239.57847  21484148.1344   21484151.4284   21484148.879
        52.0004         47.0004
  -6247442.40347  -4806164.55146  24013873.7914   24013885.1724   24013873.770
        46.0004         41.0004
  10921301.27348   8507086.55547  22673946.2214   22673953.3334   22673945.989
        48.0004         43.0004
  -8557388.81847  -6435581.02047  23390402.0824   23390406.9544   23390402.165
        46.0004         42.0004
 -23524564.64648 -18286509.98347  20985091.4864   20985098.8554   20985091.523
        52.0004         47.0004
 14  5 21  1 51 30.0000000  0 11G09G10G07G08G26G28G02G17G30G05G04
  -1087555.76048   -842472.12247  22419269.7304   22419273.8754   22419269.049
        49.0004         44.0004
 -25820536.02248 -20113475.45948  20813789.3484   20813794.7664   20813789.801
        52.0004         48.0004
  -5077029.47146  -3920269.70745  24976890.5024   24976897.4164   24976889.780
        39.0004         35.0004
  -4585435.90947  -3540462.12846  22749963.2974   22749967.2764   22749962.210
        45.0004         41.0004
   1817721.87547   1431701.15146  24548841.3864   24548847.1464   24548840.005
        43.0004         38.0004
 -16195960.90348 -12622077.27047  21149028.5074   21149033.1144   21149028.475
        51.0004         47.0004
 -15047409.25548 -11671993.70847  21484697.0634   21484700.7554   21484696.643
        52.0004         47.0004
  -6246105.05347  -4805122.45546  24014128.4954   24014138.3454   24014127.894
        46.0004         41.0004
  11012394.61148   8578068.36147  22691281.6694   22691286.8964   22691280.857
        48.0004         43.0004
  -8652261.75547  -6509507.93447  23372348.6664   23372353.1814   23372347.850
        46.0004         42.0004
 -23469206.57848 -18243373.88647  20995626.0534   20995632.7174   20995625.897
        52.0004         47.0004
 14  5 21  1 52  0.0000000  0 11G09G10G07G08G26G28G02G17G30G05G04
   -997805.96548   -772537.23047  22436347.6864   22436352.4724   22436347.734
        49.0004         44.0004
 -25865493.83848 -20148507.52648  20805234.0724   20805239.4904   20805234.567
        52.0004         48.0004
  -4975957.16546  -3841512.19345  24996123.5804   24996129.1944   24996124.077
        40.0004         35.0004
  -4480522.43347  -3458711.38946  22769927.0604   22769932.8784   22769926.602
        45.0004         41.0004
   1824503.81647   1436985.82546  24550131.2044   24550138.9264   24550131.180
        43.0004         38.0004
 -16214981.25948 -12636898.27747  21145409.0324   21145414.2604   21145408.963
        51.0004         47.0004
 -15044130.15948 -11669438.59047  21485320.7804   21485324.3254   21485321.348
        52.0004         47.0004
  -6244995.43847  -4804257.83146  24014339.2854   24014350.4564   24014339.152
        46.0004         41.0004
  11103574.60048   8649117.68847  22708631.3504   22708639.6654   22708631.579
        48.0004         43.0004
  -8747126.05947  -6583428.12647  23354297.0054   23354301.7164   23354296.048
        46.0004         42.0004
 -23413532.22848 -18199991.33547  21006220.7284   21006227.8154   21006220.422
        52.0004         47.0004
 14  5 21  1 52 30.0000000  0 11G09G10G07G08G26G28G02G17G30G05G04
   -907989.67148   -702550.51647  22453438.7674   22453444.5194   22453439.380
        49.0004         44.0004
 -25910058.37048 -20183233.13748  20796753.3874   20796758.9694   20796753.925
        52.0004         48.0004
  -4875027.87046  -3762866.14345  25015330.2004   25015337.5814   25015329.589
        40.0004         35.0004
  -4375516.14947  -3376888.33746  22789908.7004   22789914.4854   22789908.987
        45.0004         41.0004
   1831102.28947   1442127.54546  24551387.0114   24551392.5284   24551387.472
        43.0004         38.0004
 -16233535.18048 -12651355.83047  21141878.4204   21141883.5224   21141878.238
        51.0004         47.0004
 -15040455.59948 -11666575.32047  21486019.7804   21486023.5954   21486020.204
        52.0004         47.0004
  -6244112.96147  -4803570.20346  24014507.5394   24014518.4604   24014507.535
        46.0004         41.0004
  11194838.67348   8720232.52747  22725998.0064   22726005.2514   22725998.087
        48.0004         43.0004
  -8841979.69947  -6657340.01447  23336246.9704   23336250.7914   23336246.298
        46.0004         42.0004
 -23357544.06548 -18156364.26647  21016874.9864   21016881.9894   21016874.403
        52.0004         47.0004
 14  5 21  1 53  0.0000000  0 11G09G10G07G08G26G28G02G17G30G05G04
   -818109.80548   -632514.27447  22470543.3944   22470548.1124   22470542.836
        49.0004         44.0004
 -25954226.73348 -20217650.05048  20788348.5104   20788354.2354   20788349.187
        52.0004         48.0004
  -4774243.64346  -3684333.11145  25034510.3094   25034516.2694   25034508.289
        40.0004         35.0004
  -4270420.43947  -3294995.61246  22809907.8854   22809913.6774   22809907.671
        45.0004         41.0004
   1837515.75047   1447125.08546  24552607.4364   24552613.5374   24552608.165
        43.0004         38.0004
 -16251620.46948 -12665448.21447  21138436.0814   21138442.6574   21138436.472
        51.0004         47.0004
 -15036387.08748 -11663405.06847  21486794.6184   21486797.6814   21486794.546
        52.0004         47.0004
  -6243456.50447  -4803058.68346  24014631.6174   24014642.8304   24014631.932
        46.0004         41.0004
  11286184.12748   8791410.77547  22743380.8884   22743387.9914   22743380.475
        48.0004         43.0004
  -8936819.85747  -6731241.39947  23318200.1134   23318203.8484   23318198.331
        46.0004         42.0004
 -23301244.72048 -18112494.70447  21027588.4804   21027595.2804   21027588.211
        52.0004         47.0004
 14  5 21  1 53 30.0000000  0 11G09G10G07G08G26G28G02G17G30G05G04
   -728170.86648   -562431.98947  22487657.0354   22487662.7994   22487657.573
        49.0004         44.0004
 -25997998.03648 -20251757.56048  20780019.1244   20780024.8694   20780019.743
        52.0004         48.0004
  -4673607.68246  -3605915.62745  25053658.7344   25053664.4234   25053659.499
        39.0004         35.0004
  -4165239.86947  -3213036.76446  22829921.9264   22829928.7014   22829922.824
        45.0004         41.0004
   1843741.38447   1451976.27046  24553792.3454   24553797.9864   24553793.517
        43.0004         38.0004
 -16269236.90748 -12679175.26947  21135084.4924   21135089.3844   21135084.193
        51.0004         47.0004
 -15031927.42248 -11659930.02747  21487642.5164   21487646.5794   21487643.105
        52.0004         47.0004
  -6243027.71747  -4802724.57846  24014713.8884   24014724.1794   24014713.579
        46.0004         41.0004
  11377606.72647   8862649.14147  22760778.9764   22760785.8884   22760778.157
        47.0004         43.0004
  -9031645.95747  -6805131.83347  23300153.3754   23300158.8364   23300153.193
        46.0004         42.0004
 -23244638.57448 -18068386.07347  21038360.5174   21038367.4944   21038359.992
        52.0004         47.0004
 14  5 21  1 54  0.0000000  0 11G09G10G07G08G26G28G02G17G30G05G04
   -638174.57848   -492305.02647  22504783.3594   22504788.4384   22504782.914
        48.0004         44.0004
 -26041368.20248 -20285552.49748  20771766.0434   20771771.6664   20771766.687
        52.0004         48.0004
  -4573121.45646  -3527614.81245  25072778.7334   25072786.0184   25072781.050
        40.0004         35.0004
  -4059976.73847  -3131013.57046  22849954.1004   22849959.4384   22849954.800
        45.0004         41.0004
   1849778.67947   1456680.71846  24554941.2304   24554947.0524   24554939.721
        43.0004         38.0004
 -16286380.83048 -12692534.12247  21131821.9474   21131826.9964   21131822.007
        51.0004         47.0004
 -15027077.10048 -11656150.57347  21488565.6254   21488569.5954   21488566.425
        52.0004         47.0004
  -6242824.44047  -4802566.18046  24014752.8974   24014763.0994   24014752.282
        45.0004         41.0004
  11469104.79247   8933946.31047  22778189.7084   22778196.5484   22778189.293
        47.0004         43.0004
  -9126453.75347  -6879007.99347  23282112.8594   23282117.0414   23282112.300
        46.0004         42.0004
 -23187727.26848 -18024039.66747  21049190.2554   21049196.8564   21049189.892
        52.0004         47.0004
 14  5 21  1 54 30.0000000  0 11G09G10G07G08G26G28G02G17G30G05G04
   -548122.53348   -422134.61547  22521919.2434   22521925.6374   22521919.404
        48.0004         44.0004
 -26084333.48648 -20319031.93748  20763590.1714   20763595.8744   20763590.643
        52.0004         48.0004
  -4472785.12146  -3449430.82145  25091874.7064   25091883.1044   25091874.648
        40.0004         35.0004
  -3954632.80447  -3048927.41146  22870000.9724   22870006.0634   22870000.934
        45.0004         41.0004
   1855627.67747   1461238.43646  24556053.6374   24556060.8114   24556053.074
        43.0004         38.0004
 -16303049.59148 -12705522.72847  21128650.0604   21128655.0574   21128650.145
        51.0004         47.0004
 -15021835.93648 -11652066.56847  21489563.2034   21489566.6584   21489563.709
        52.0004         47.0004
  -6242844.76847  -4802582.03646  24014748.7954   24014758.6514   24014748.615
        45.0004         41.0004
  11560676.97247   9005301.23947  22795615.9804   22795621.7884   22795615.441
        47.0004         43.0004
  -9221239.90247  -6952867.28847  23264074.7154   23264079.1664   23264075.347
        46.0004         42.0004
 -23130512.25348 -17979456.60247  21060077.7914   21060084.7564   21060077.320
        52.0004         47.0004
 14  5 21  1 55  0.0000000  0 11G09G10G07G08G26G28G02G17G30G05G04
   -458018.06148   -351923.34247  22539065.6834   22539072.1924   22539065.831
        48.0004         44.0004
 -26126892.06548 -20352194.46748  20755491.6374   20755497.3214   20755492.388
        53.0004         48.0004
  -4372601.13446  -3371365.52346  25110939.6984   25110944.1954   25110939.822
        40.0004         36.0004
  -3849211.84147  -2966781.24246  22890061.4514   22890067.7024   22890061.454
        45.0004         40.0004
   1861286.38647   1465647.87046  24557129.8274   24557138.0664   24557130.047
        43.0004         38.0004
 -16319241.60548 -12718139.84247  21125568.1864   21125574.1794   21125568.692
        51.0004         47.0004
 -15016206.28248 -11647679.84547  21490634.2664   21490637.5974   21490634.703
        52.0004         47.0004
  -6243089.02847  -4802772.37146  24014702.5884   24014713.1124   24014701.904
        45.0004         41.0004
  11652319.96347   9076711.33947  22813054.4304   22813062.0084   22813054.283
        47.0004         43.0004
  -9316002.29547  -7026708.07647  23246042.7654   23246047.0824   23246042.061
        47.0004         42.0004
 -23072996.92048 -17934639.52347  21071022.8764   21071029.9124   21071022.400
        52.0004         47.0004
 14  5 21  1 55 30.0000000  0 11G09G10G07G08G26G28G02G17G30G05G04
   -367865.44948   -281674.56247  22556221.7524   22556226.6834   22556221.297
        48.0004         44.0004
 -26169042.58248 -20385039.02048  20747470.4874   20747476.5774   20747471.092
        53.0004         48.0004
  -4272573.45446  -3293422.03146  25129976.7494   25129981.3664   25129973.758
        40.0004         36.0004
  -3743718.47547  -2884578.65446  22910135.7854   22910141.9574   22910136.494
        45.0004         40.0004
   1866751.86147   1469906.72646  24558170.6494   24558177.2964   24558170.577
        43.0004         38.0004
 -16334956.04748 -12730384.81747  21122577.6084   21122583.5894   21122578.194
        51.0004         47.0004
 -15010191.12448 -11642992.72647  21491778.8754   21491783.7624   21491779.582
        52.0004         47.0004
  -6243557.68947  -4803137.57146  24014613.3174   24014622.5824   24014612.838
        45.0004         40.0004
  11744029.52447   9148173.31647  22830505.6254   22830513.7894   22830506.184
        47.0004         43.0004
  -9410739.85947  -7100529.52147  23228014.7624   23228019.5374   23228014.199
        47.0004         42.0004
 -23015185.40348 -17889591.64647  21082024.3624   21082030.8364   21082023.742
        52.0004         47.0004
 14  5 21  1 56  0.0000000  0 11G09G10G07G08G26G28G02G17G30G05G04
   -277667.06948   -211390.13047  22573385.5884   22573390.4984   22573385.858
        48.0004         44.0004
 -26210781.68048 -20417562.99048  20739527.6704   20739533.4334   20739528.367
        53.0004         48.0004
  -4172702.88046  -3215600.95445  25148979.3654   25148987.0064   25148979.471
        40.0004         35.0004
  -3638155.32347  -2802321.67146  22930224.4854   22930228.7104   22930224.724
        45.0004         40.0004
   1872023.27347   1474014.36546  24559173.7184   24559179.8324   24559173.372
        43.0004         38.0004
 -16350190.76048 -12742255.98347  21119679.2394   21119684.3954   21119679.247
        51.0004         47.0004
 -15003791.68148 -11638006.16847  21492996.8814   21493000.9374   21492997.122
        51.0004         47.0004
  -6244249.53547  -4803676.68346  24014481.6544   24014491.7364   24014481.523
        45.0004         40.0004
  11835803.51347   9219685.49647  22847969.8184   22847976.9404   22847969.803
        47.0004         43.0004
  -9505449.77147  -7174329.41147  23209992.3664   23209996.2444   23209991.920
        47.0004         42.0004
 -22957080.29248 -17844314.99847  21093080.8444   21093088.3704   21093080.670
        52.0004         47.0004
 14  5 21  1 56 30.0000000  0 11G09G10G07G08G26G28G02G17G30G05G04
   -187425.49548   -141072.04147  22590558.1224   22590563.4804   22590557.887
        48.0004         44.0004
 -26252106.59948 -20449764.22248  20731663.8704   20731669.2804   20731664.468
        53.0004         48.0004
  -4072991.33046  -3137903.81545  25167954.3864   25167960.2684   25167953.614
        40.0004         35.0004
  -3532525.23247  -2720012.55046  22950325.1864   22950330.8624   22950325.479
        45.0004         40.0004
   1877099.56747   1477969.96546  24560139.9424   24560146.2244   24560139.183
        43.0004         38.0004
 -16364943.11848 -12753751.28447  21116871.5124   21116877.0274   21116871.726
        51.0004         47.0004
 -14997008.86848 -11632720.87547  21494287.6924   21494291.4324   21494288.172
        52.0004         47.0004
  -6245163.54347  -4804388.89546  24014308.0474   24014318.2364   24014307.157
        45.0004         40.0004
  11927639.59347   9291246.07147  22865445.8134   22865452.8824   22865446.173
        47.0004         42.0004
  -9600129.10447  -7248105.47847  23191974.6884   23191979.8894   23191974.153
        47.0004         42.0004
 -22898683.79448 -17798811.29947  21104194.1104   21104201.2034   21104193.416
        52.0004         47.0004
 14  5 21  1 57  0.0000000  0 10G09G10G08G26G28G02G17G30G05G04
    -97142.37048    -70721.57647  22607739.2354   22607743.8354   22607738.224
        48.0004         44.0004
 -26293013.97748 -20481640.09848  20723879.5704   20723885.3584   20723880.146
        53.0004         48.0004
  -3426830.13647  -2637652.77246  22970438.7214   22970444.1154   22970437.874
        45.0004         40.0004
   1881980.44047   1481773.27846  24561069.1614   24561074.6954   24561068.316
        43.0004         38.0004
 -16379210.42348 -12764868.62447  21114156.5584   21114162.3164   21114156.639
        51.0004         47.0004
 -14989843.16248 -11627137.22847  21495651.3704   21495655.0724   21495651.702
        52.0004         47.0004
  -6246297.87447  -4805272.80746  24014091.9494   24014101.0774   24014090.904
        45.0004         40.0004
  12019536.14947   9362853.75147  22882933.2304   22882940.3014   22882933.259
        47.0004         42.0004
  -9694773.82347  -7321854.58447  23173965.0264   23173969.5674   23173964.066
        47.0004         42.0004
 -22839997.66648 -17753081.90547  21115361.4924   21115368.3644   21115360.827
        52.0004         47.0004
 14  5 21  1 57 30.0000000  0 10G09G10G08G26G28G02G17G30G05G04
     -6821.67648      -341.83247  22624925.7964   22624931.4514   22624925.648
        48.0004         44.0004
 -26333502.02748 -20513189.22748  20716174.9334   20716180.9484   20716175.305
        53.0004         48.0004
  -3321074.23147  -2555245.59946  22990562.9104   22990568.8694   22990562.700
        44.0004         40.0004
   1886663.44247   1485422.41146  24561959.2144   24561965.6684   24561958.801
        43.0004         38.0004
 -16392991.77348 -12775607.30147  21111533.7264   21111539.3264   21111534.404
        52.0004         47.0004
 -14982297.59848 -11621257.59247  21497086.9444   21497091.1534   21497087.823
        52.0004         47.0004
  -6247653.11447  -4806328.86446  24013833.9414   24013843.5884   24013833.359
        45.0004         40.0004
  12111489.35947   9434505.57047  22900431.7774   22900437.9194   22900431.381
        47.0004         42.0004
  -9789382.73247  -7395575.78647  23155960.9194   23155965.7244   23155961.026
        47.0004         42.0004
 -22781025.80648 -17707129.86747  21126583.1704   21126590.0314   21126582.486
        51.0004         47.0004
 14  5 21  1 58  0.0000000  0 10G09G10G08G26G28G02G17G30G05G04
     83534.08348     70065.23747  22642119.9604   22642124.9954   22642120.151
        48.0004         43.0004
 -26373568.12048 -20544409.55548  20708550.4904   20708556.4284   20708551.157
        53.0004         48.0004
  -3215260.41947  -2472793.31146  23010698.4734   23010702.6814   23010698.190
        45.0004         40.0004
   1891147.49447   1488916.52246  24562811.5634   24562819.3614   24562811.149
        43.0004         38.0004
 -16406285.11148 -12785965.70247  21109004.9264   21109009.6764   21109004.813
        52.0004         47.0004
 -14974373.19748 -11615082.75847  21498595.0064   21498599.1344   21498595.187
        52.0004         47.0004
  -6249228.93947  -4807556.80846  24013534.3664   24013544.2484   24013533.763
        45.0004         40.0004
  12203496.83047   9506199.68147  22917940.0644   22917945.8064   22917939.610
        47.0004         42.0004
  -9883952.96247  -7469266.84747  23137964.8724   23137969.9974   23137964.868
        47.0004         42.0004
 -22721770.89348 -17660957.26347  21137858.6634   21137865.9804   21137858.740
        51.0004         47.0004
