     2.11           OBSERVATION DATA    G (GPS)             RINEX VERSION / TYPE
teqc  2013Mar15     gpsops              20140517 00:23:20UTCPGM / RUN BY / DATE
Linux 2.4.21-27.ELsmp|Opteron|gcc -static|Linux x86_64|=+   COMMENT
BIT 2 OF LLI FLAGS DATA COLLECTED UNDER A/S CONDITION       COMMENT
GLPS                                                        MARKER NAME
42005M002                                                   MARKER NUMBER
GGN                 JPL                                     OBSERVER / AGENCY
ZR220013847         ASHTECH UZ-12       CQ00                REC # / TYPE / VERS
CR519992104         ASH701945B_M    SCIT                    ANT # / TYPE
   -33801.4662 -6377516.5323   -82154.3508                  APPROX POSITION XYZ
        0.0083        0.0000        0.0000                  ANTENNA: DELTA H/E/N
     1     1                                                WAVELENGTH FACT L1/2
     7    L1    L2    P1    P2    C1    S1    S2            # / TYPES OF OBSERV
    30.0000                                                 INTERVAL
                                                            COMMENT
This data is provided as a public service by NASA/JPL.      COMMENT
No warranty is expressed or implied regarding suitability   COMMENT
for use.  For further information, contact:                 COMMENT
Dave Stowers, NASA/JPL m/s 238-600                          COMMENT
4800 Oak Grove Drive, Pasadena CA 91109 USA                 COMMENT
                                                            COMMENT
Forced Modulo Decimation to 30 seconds                      COMMENT
 SNR is mapped to RINEX snr flag value [0-9]                COMMENT
  L1 & L2: min(max(int(snr_dBHz/6), 0), 9)                  COMMENT
pseudorange smoothing corrections not applied               COMMENT
  2014     5    16     0     0    0.0000000     GPS         TIME OF FIRST OBS
                                                            END OF HEADER
 14  5 16  0  0  0.0000000  0 11G07G01G09G30G26G17G13G04G10G28G20
 -22294302.08748 -17343432.38948  20461309.7654   20461316.2634   20461309.478
        53.0004         48.0004
  -4494059.10447  -3472860.89846  23825303.2794   23825319.5804   23825303.021
        44.0004         39.0004
 -20599979.17749 -16038132.47748  20048776.8344   20048784.4134   20048776.925
        54.0004         49.0004
 -10294416.08349  -8005318.70348  20228651.6274   20228661.0934   20228651.648
        55.0004         50.0004
  -1842579.23947  -1413719.83546  24102731.4414   24102749.3194   24102730.313
        42.0004         37.0004
 -13349931.86948 -10351176.58647  22604533.6524   22604543.6984   22604533.337
        49.0004         44.0004
  -1622510.66946  -1204672.91446  24135224.7044   24135231.4004   24135223.259
        41.0004         37.0004
 -23286412.86948 -18083049.53747  21308164.9424   21308173.1664   21308164.803
        51.0004         46.0004
  -8077094.19947  -6283466.15546  24050556.8714   24050567.2344   24050557.094
        42.0004         38.0004
  -3447546.29947  -2686709.27546  23628974.7744   23628986.1924   23628975.051
        44.0004         39.0004
  -4577461.38146  -3504666.52646  23644074.3264   23644086.0384   23644074.730
        41.0004         37.0004
 14  5 16  0  0 30.0000000  0 11G07G01G09G30G26G17G13G04G10G28G20
 -22248265.87648 -17307559.98148  20470070.2824   20470076.6584   20470069.782
        53.0004         48.0004
  -4393737.90847  -3394688.62046  23844393.9274   23844409.7194   23844393.698
        44.0004         39.0004
 -20620811.91149 -16054365.70748  20044812.2084   20044820.3794   20044812.413
        54.0004         49.0004
 -10309992.78649  -8017456.33048  20225687.2174   20225696.7574   20225687.269
        55.0004         50.0004
  -1855874.77247  -1424079.76546  24100202.1294   24100219.1094   24100201.005
        42.0004         37.0004
 -13307952.63148 -10318465.53647  22612521.8754   22612532.7394   22612521.623
        49.0004         44.0004
  -1549729.32246  -1147960.08346  24149073.5294   24149081.1304   24149072.580
        41.0004         37.0004
 -23358217.47448 -18139001.09447  21294501.6654   21294508.7014   21294501.184
        51.0004         46.0004
  -8133422.58947  -6327358.24046  24039836.9494   24039847.8534   24039838.285
        42.0004         37.0004
  -3496297.53947  -2724697.04046  23619696.7574   23619710.4914   23619697.747
        44.0004         39.0004
  -4567150.51246  -3496632.06446  23646036.1444   23646046.7594   23646036.598
        41.0004         36.0004
 14  5 16  0  1  0.0000000  0 12G07G01G09G30G26G17G13G04G10G28G02G20
 -22201678.10648 -17271257.78548  20478935.5864   20478941.8564   20478935.104
        53.0004         48.0004
  -4293228.40847  -3316369.61046  23863520.6714   23863536.4994   23863520.254
        44.0004         39.0004
 -20641044.81749 -16070131.53848  20040961.8114   20040969.8674   20040962.163
        54.0004         49.0004
 -10325013.42249  -8029160.65948  20222829.1164   20222838.5414   20222829.239
        55.0004         50.0004
  -1868836.64947  -1434179.68346  24097733.0344   24097752.8764   24097732.816
        42.0004         37.0004
 -13265922.05848 -10285714.49447  22620519.9164   22620530.7264   22620519.453
        49.0004         44.0004
  -1477140.91646  -1091397.59846  24162886.3394   24162895.2974   24162885.731
        41.0004         36.0004
 -23429625.33448 -18194643.49547  21280912.9044   21280920.7694   21280912.336
        51.0004         46.0004
  -8189967.85947  -6371419.31646  24029077.8814   24029089.1634   24029078.249
        42.0004         38.0004
  -3545250.04347  -2762841.64646  23610383.1594   23610395.5114   23610381.865
        44.0004         39.0004
  -1147308.41747   -872073.56846  24030838.6494   24030848.2214   24030839.070
        46.0004         38.0004
  -4556596.90146  -3488408.45046  23648044.8454   23648055.4794   23648045.244
        41.0004         36.0004
 14  5 16  0  1 30.0000000  0 12G07G01G09G30G26G17G13G04G10G28G02G20
 -22154535.98648 -17234523.63148  20487906.4364   20487912.8944   20487905.942
        53.0004         48.0004
  -4192529.22447  -3237902.78146  23882683.5164   23882699.7164   23882682.582
        43.0004         39.0004
 -20660672.86849 -16085426.05648  20037227.0084   20037234.2674   20037227.035
        54.0004         49.0004
 -10339472.98449  -8040427.78548  20220077.6014   20220086.7144   20220077.242
        55.0004         50.0004
  -1881461.93446  -1444017.35046  24095330.2274   24095347.0294   24095331.644
        41.0004         37.0004
 -13223838.46248 -10252922.12647  22628529.2454   22628540.6614   22628528.042
        49.0004         44.0004
  -1404742.54346  -1034983.20046  24176664.6754   24176671.8514   24176662.475
        41.0004         36.0004
 -23500630.03448 -18249971.74247  21267400.9624   21267408.7144   21267400.734
        51.0004         46.0004
  -8246724.97447  -6415645.47446  24018274.9894   24018287.9844   24018276.102
        42.0004         37.0004
  -3594398.27747  -2801138.76046  23601029.9184   23601042.9634   23601029.787
        44.0004         39.0004
  -1240669.30147   -944822.06846  24013073.4864   24013082.5044   24013073.847
        44.0004         38.0004
  -4545794.98846  -3479991.36346  23650101.1114   23650110.7374   23650100.666
        41.0004         36.0004
 14  5 16  0  2  0.0000000  0 12G07G01G09G30G26G17G13G04G10G28G02G20
 -22106844.10548 -17197361.08548  20496981.7564   20496988.2994   20496981.505
        53.0004         48.0004
  -4091645.58747  -3159292.22546  23901881.1624   23901897.6164   23901880.079
        44.0004         39.0004
 -20679698.16249 -16100250.88548  20033606.3944   20033614.3334   20033606.468
        54.0004         49.0004
 -10353373.37849  -8051259.19648  20217432.6194   20217441.2104   20217432.417
        55.0004         50.0004
  -1893754.92646  -1453596.06746  24092991.1634   24093009.7344   24092990.612
        41.0004         37.0004
 -13181706.86748 -10220092.36547  22636545.4884   22636557.0414   22636545.062
        49.0004         44.0004
  -1332538.60746   -978720.29746  24190403.8844   24190410.9014   24190402.302
        41.0004         36.0004
 -23571231.76048 -18304985.98247  21253966.0634   21253973.6614   21253965.675
        51.0004         46.0004
  -8303695.33047  -6460037.78746  24007434.7734   24007444.6814   24007435.461
        42.0004         37.0004
  -3643743.39047  -2839589.28646  23591638.8904   23591650.6154   23591639.267
        44.0004         39.0004
  -1333867.17947  -1017443.57646  23995337.5344   23995346.3064   23995338.117
        43.0004         38.0004
  -4534745.79146  -3471381.55346  23652201.5664   23652216.1044   23652203.121
        41.0004         36.0004
 14  5 16  0  2 30.0000000  0 12G07G01G09G30G26G17G13G04G10G28G02G20
 -22058601.66148 -17159769.53248  20506162.0484   20506168.1904   20506161.595
        53.0004         48.0004
  -3990577.87147  -3080538.23546  23921112.4444   23921129.8974   23921112.540
        44.0004         39.0004
 -20698117.77949 -16114603.76348  20030101.2614   20030108.8834   20030101.340
        54.0004         49.0004
 -10366711.47349  -8061652.45348  20214894.1644   20214903.3334   20214893.876
        55.0004         50.0004
  -1905714.46446  -1462914.94146  24090714.8554   24090733.2734   24090716.342
        41.0004         37.0004
 -13139527.06148 -10187225.03047  22644572.0584   22644584.1674   22644571.327
        49.0004         44.0004
  -1260528.04646   -922608.09946  24204103.8234   24204115.4244   24204105.345
        41.0004         36.0004
 -23641425.78648 -18359682.53447  21240607.7954   21240616.0304   21240608.079
        51.0004         46.0004
  -8360875.78147  -6504593.81946  23996553.3724   23996565.3584   23996554.543
        42.0004         38.0004
  -3693281.49947  -2878190.19046  23582211.9204   23582223.3314   23582211.817
        44.0004         39.0004
  -1426897.97547  -1089934.88746  23977634.6824   23977643.8204   23977634.699
        43.0004         38.0004
  -4523445.53546  -3462576.14546  23654353.2074   23654365.4314   23654353.270
        41.0004         36.0004
 14  5 16  0  3  0.0000000  0 12G07G01G09G30G26G17G13G04G10G28G02G20
 -22009811.41448 -17121751.12248  20515446.4954   20515452.9364   20515445.926
        53.0004         48.0004
  -3889329.60247  -3001643.54546  23940380.2694   23940396.7844   23940379.542
        43.0004         39.0004
 -20715931.74749 -16128484.70548  20026711.4044   20026719.1234   20026711.539
        54.0004         49.0004
 -10379487.46549  -8071607.70648  20212463.1284   20212472.2644   20212462.821
        55.0004         50.0004
  -1917343.03646  -1471975.91246  24088502.6094   24088521.2944   24088501.682
        41.0004         37.0004
 -13097303.10548 -10154323.30147  22652607.5624   22652618.8384   22652606.917
        49.0004         44.0004
  -1188713.06346   -866648.28346  24217771.4394   24217780.3944   24217771.074
        41.0004         36.0004
 -23711210.89448 -18414060.44847  21227328.6124   21227336.6434   21227328.376
        51.0004         46.0004
  -8418266.46247  -6549313.64946  23985632.0734   23985642.4814   23985633.400
        42.0004         38.0004
  -3743011.91747  -2916940.93346  23572748.2894   23572760.9804   23572748.629
        44.0004         39.0004
  -1519759.89247  -1162294.60446  23959964.5174   23959973.0934   23959963.356
        42.0004         38.0004
  -4511893.64046  -3453574.65446  23656549.9324   23656563.6034   23656550.825
        41.0004         36.0004
 14  5 16  0  3 30.0000000  0 12G07G01G09G30G26G17G13G04G10G28G02G20
 -21960476.60548 -17083308.37848  20524834.4634   20524840.9744   20524834.314
        53.0004         48.0004
  -3787904.95847  -2922611.43046  23959681.0904   23959697.5814   23959680.528
        43.0004         39.0004
 -20733140.96949 -16141894.41748  20023436.6474   20023444.2584   20023436.527
        54.0004         49.0004
 -10391702.04449  -8081125.49948  20210138.3734   20210147.5434   20210138.270
        55.0004         50.0004
  -1928643.45546  -1480781.18446  24086353.6704   24086371.0444   24086352.063
        41.0004         37.0004
 -13055038.59948 -10121389.96847  22660649.9704   22660661.3594   22660649.800
        49.0004         44.0004
  -1117096.49046   -810843.05646  24231399.0154   24231407.3474   24231399.431
        41.0004         36.0004
 -23780586.13248 -18468118.98847  21214127.7174   21214134.8944   21214126.663
        51.0004         47.0004
  -8475867.74947  -6594197.60346  23974670.8724   23974682.5114   23974671.648
        43.0004         38.0004
  -3792934.90847  -2955841.75146  23563248.8344   23563260.8354   23563248.360
        44.0004         39.0004
  -1612451.90047  -1234521.93446  23942323.6294   23942334.4644   23942323.999
        42.0004         38.0004
  -4500090.36846  -3444377.27146  23658797.6244   23658810.2384   23658797.848
        41.0004         36.0004
 14  5 16  0  4  0.0000000  0 12G07G01G09G30G26G17G13G04G10G28G02G20
 -21910596.81948 -17044440.97948  20534326.1014   20534332.9124   20534325.624
        53.0004         48.0004
  -3686304.32547  -2843442.14346  23979016.3104   23979031.0194   23979014.433
        43.0004         39.0004
 -20749742.62449 -16154830.70348  20020277.0994   20020285.1284   20020277.202
        54.0004         49.0004
 -10403352.36449  -8090203.60848  20207921.6794   20207930.7154   20207921.481
        55.0004         50.0004
  -1939614.99346  -1489330.16546  24084263.5884   24084280.4104   24084263.806
        41.0004         37.0004
 -13012733.91648 -10088425.32547  22668700.1564   22668711.5504   22668699.857
        49.0004         44.0004
  -1045677.68546   -755191.94945  24244990.8814   24245000.1494   24244989.912
        40.0004         35.0004
 -23849546.62248 -18521854.34047  21201004.3854   21201012.1344   21201003.914
        51.0004         47.0004
  -8533676.54247  -6639243.25246  23963671.0734   23963681.4234   23963671.216
        43.0004         38.0004
  -3843046.46547  -2994889.47746  23553710.9434   23553724.5734   23553712.125
        44.0004         40.0004
  -1704969.40147  -1306613.27346  23924718.3754   23924727.6724   23924718.807
        42.0004         38.0004
  -4488031.44946  -3434980.68946  23661091.4504   23661103.4784   23661092.118
        41.0004         37.0004
 14  5 16  0  4 30.0000000  0 12G07G01G09G30G26G17G13G04G10G28G02G20
 -21860174.72148 -17005151.00248  20543921.2664   20543927.5024   20543920.767
        53.0004         48.0004
  -3584531.31547  -2764138.57546  23998380.5704   23998398.3814   23998381.041
        43.0004         39.0004
 -20765736.82349 -16167293.64848  20017233.5444   20017241.2294   20017233.749
        54.0004         49.0004
 -10414438.57149  -8098842.14748  20205811.9644   20205820.5024   20205811.658
        55.0004         50.0004
  -1950259.94646  -1497624.67546  24082239.1994   24082257.0594   24082238.166
        41.0004         37.0004
 -12970391.92348 -10055431.61347  22676757.7254   22676769.2624   22676757.363
        49.0004         44.0004
   -974458.65146   -699696.50245  24258542.5004   24258552.8064   24258542.236
        40.0004         35.0004
 -23918091.24948 -18575265.64347  21187960.2334   21187968.2484   21187960.214
        51.0004         47.0004
  -8591692.69947  -6684450.46846  23952629.8794   23952641.0754   23952630.945
        43.0004         38.0004
  -3893345.76247  -3034083.48146  23544139.0244   23544152.4144   23544139.820
        44.0004         40.0004
  -1797311.11347  -1378567.64146  23907146.7024   23907154.5224   23907146.760
        43.0004         38.0004
  -4475716.33046  -3425384.45746  23663435.2294   23663446.7244   23663436.630
        41.0004         36.0004
 14  5 16  0  5  0.0000000  0 12G07G01G09G30G26G17G13G04G10G28G02G20
 -21809213.90748 -16965441.23948  20553618.3574   20553625.0204   20553618.071
        53.0004         48.0004
  -3482590.33047  -2684704.10446  24017779.3894   24017796.6584   24017779.879
        43.0004         39.0004
 -20781124.83049 -16179284.22348  20014305.0614   20014312.9824   20014305.179
        54.0004         49.0004
 -10424961.86749  -8107042.05748  20203809.0754   20203818.3354   20203809.287
        55.0004         50.0004
  -1960581.61646  -1505667.25146  24080274.3414   24080291.8154   24080274.105
        41.0004         37.0004
 -12928017.15448 -10022412.36147  22684822.1364   22684832.2094   22684820.890
        49.0004         44.0004
   -903442.85346   -644359.42345  24272055.3094   24272066.6694   24272056.371
        40.0004         35.0004
 -23986219.59048 -18628352.57347  21174996.6284   21175004.2104   21174995.889
        51.0004         47.0004
  -8649916.96947  -6729819.86446  23941550.4234   23941561.5284   23941550.798
        43.0004         38.0004
  -3943833.28247  -3073424.16746  23534533.3914   23534544.7984   23534532.700
        44.0004         40.0004
  -1889476.36847  -1450384.51946  23889608.9524   23889616.3854   23889607.318
        43.0004         38.0004
  -4463145.53546  -3415589.02446  23665828.3744   23665838.8334   23665828.773
        41.0004         37.0004
 14  5 16  0  5 30.0000000  0 12G07G01G09G30G26G17G13G04G10G28G02G20
 -21757712.25948 -16925310.05348  20563419.1404   20563425.3834   20563418.622
        53.0004         48.0004
  -3380480.08947  -2605137.73146  24037210.7414   24037227.3614   24037210.767
        43.0004         39.0004
 -20795902.17649 -16190798.97148  20011493.4874   20011500.9674   20011493.642
        54.0004         49.0004
 -10434917.71349  -8114799.79448  20201914.6034   20201923.6134   20201914.333
        55.0004         50.0004
  -1970577.62446  -1513456.08146  24078370.1574   24078388.7164   24078371.175
        41.0004         37.0004
 -12885607.79548  -9989366.14547  22692891.8244   22692903.6974   22692891.653
        49.0004         44.0004
   -832627.55046   -589178.57946  24285532.1714   24285538.3164   24285531.868
        40.0004         36.0004
 -24053925.25648 -18681110.14247  21162112.0554   21162120.0844   21162111.796
        51.0004         47.0004
  -8708344.64447  -6775347.75846  23930431.0114   23930442.4484   23930432.385
        43.0004         38.0004
  -3994503.35747  -3112907.10346  23524890.6704   23524902.2024   23524890.801
        45.0004         40.0004
  -1981459.20647  -1522059.24346  23872103.7764   23872112.2784   23872103.822
        43.0004         38.0004
  -4450313.63146  -3405590.11546  23668269.1704   23668281.0284   23668270.427
        41.0004         36.0004
 14  5 16  0  6  0.0000000  0 12G07G01G09G30G26G17G13G04G10G28G02G20
 -21705675.48348 -16884761.87648  20573321.3384   20573327.6744   20573320.777
        53.0004         48.0004
  -3278207.10947  -2525444.55146  24056673.6064   24056689.6504   24056673.195
        43.0004         39.0004
 -20810072.03649 -16201840.34048  20008796.6014   20008804.3934   20008796.803
        54.0004         49.0004
 -10444309.29349  -8122117.84948  20200127.3544   20200136.3904   20200127.428
        55.0004         50.0004
  -1980253.15746  -1520995.17746  24076530.4474   24076547.9654   24076529.740
        41.0004         37.0004
 -12843170.29748  -9956298.00947  22700968.0134   22700978.5384   22700967.004
        49.0004         44.0004
   -762017.95146   -534158.01746  24298969.0434   24298977.6984   24298968.270
        40.0004         36.0004
 -24121209.88648 -18733539.62647  21149308.1894   21149315.4164   21149308.052
        51.0004         47.0004
  -8766978.19047  -6821036.05946  23919273.4564   23919283.9974   23919274.668
        43.0004         39.0004
  -4045358.63247  -3152534.36146  23515213.1874   23515224.7314   23515212.972
        45.0004         40.0004
  -2073260.96547  -1593592.87346  23854634.8854   23854643.6634   23854635.037
        43.0004         38.0004
  -4437222.93746  -3395389.54046  23670760.8364   23670771.9384   23670761.057
        41.0004         37.0004
 14  5 16  0  6 30.0000000  0 12G07G01G09G30G26G17G13G04G10G28G02G20
 -21653102.91748 -16843796.20448  20583325.8804   20583332.1864   20583325.296
        53.0004         48.0004
  -3175771.29047  -2445624.48346  24076166.7194   24076182.4364   24076166.037
        43.0004         39.0004
 -20823631.38449 -16212405.99148  20006216.3164   20006224.4194   20006216.362
        54.0004         49.0004
 -10453133.37749  -8128993.69248  20198448.2914   20198457.2694   20198448.266
        55.0004         50.0004
  -1989607.09446  -1528283.68446  24074747.5534   24074767.9204   24074748.880
        41.0004         36.0004
 -12800704.27248  -9923207.65047  22709048.2584   22709059.5354   22709048.468
        49.0004         44.0004
   -691612.51746   -479296.54846  24312366.1264   24312374.0174   24312366.005
        40.0004         36.0004
 -24188068.34548 -18785637.03947  21136585.3574   21136593.1184   21136585.072
        51.0004         47.0004
  -8825813.67247  -6866881.71746  23908077.4034   23908089.4464   23908078.099
        43.0004         39.0004
  -4096394.12847  -3192302.05646  23505500.0514   23505513.3784   23505500.664
        45.0004         40.0004
  -2164876.80647  -1664981.63946  23837201.4644   23837209.7864   23837201.842
        43.0004         39.0004
  -4423869.21546  -3384984.02746  23673302.1134   23673314.2174   23673301.433
        41.0004         37.0004
 14  5 16  0  7  0.0000000  0 12G07G01G09G30G26G17G13G04G10G28G02G20
 -21599996.88448 -16802414.84748  20593431.3154   20593437.8144   20593430.960
        53.0004         48.0004
  -3073175.93047  -2365680.11046  24095689.4304   24095705.9234   24095689.347
        44.0004         39.0004
 -20836580.62749 -16222496.23548  20003752.3624   20003759.4224   20003752.387
        54.0004         49.0004
 -10461390.03049  -8135427.38348  20196876.8264   20196885.8794   20196876.926
        55.0004         50.0004
  -1998641.61146  -1535323.29446  24073030.7734   24073047.1644   24073030.099
        41.0004         37.0004
 -12758212.62748  -9890097.30847  22717134.4284   22717145.7064   22717134.071
        49.0004         44.0004
   -621413.15446   -424595.64845  24325726.3394   24325733.5754   24325723.863
        40.0004         35.0004
 -24254499.12648 -18837401.19147  21123943.7484   21123951.8854   21123943.611
        52.0004         47.0004
  -8884850.93047  -6912884.59646  23896844.2014   23896855.4054   23896844.043
        44.0004         39.0004
  -4147608.99847  -3232209.52846  23495755.5154   23495766.3144   23495755.143
        45.0004         40.0004
  -2256304.74847  -1736223.98246  23819802.7524   23819810.3834   23819803.167
        43.0004         39.0004
  -4410251.70946  -3374372.97546  23675892.4764   23675905.0684   23675893.740
        41.0004         36.0004
 14  5 16  0  7 30.0000000  0 12G07G01G09G30G26G17G13G04G10G28G02G20
 -21546361.21148 -16760620.77848  20603637.9964   20603644.3294   20603637.561
        53.0004         48.0004
  -2970425.65447  -2285615.00346  24115242.4254   24115258.3244   24115242.016
        44.0004         39.0004
 -20848921.26649 -16232112.24248  20001403.9474   20001411.3554   20001403.645
        54.0004         49.0004
 -10469080.68849  -8141420.04348  20195413.4504   20195422.5934   20195413.164
        55.0004         50.0004
  -2007360.18246  -1542116.68546  24071371.9244   24071390.0674   24071371.761
        41.0004         37.0004
 -12715699.78848  -9856970.46647  22725224.4884   22725236.7924   22725224.015
        49.0004         44.0004
   -551423.16946   -370057.89945  24339042.2934   24339052.0044   24339042.906
        40.0004         35.0004
 -24320501.95048 -18888831.87147  21111384.0234   21111392.0384   21111383.461
        52.0004         47.0004
  -8944090.70247  -6959045.28146  23885569.3464   23885580.8044   23885571.051
        44.0004         39.0004
  -4199003.73147  -3272257.16446  23485973.8674   23485986.0754   23485974.264
        45.0004         40.0004
  -2347544.42947  -1807319.63346  23802439.2224   23802447.8474   23802440.223
        43.0004         39.0004
  -4396370.88846  -3363556.72646  23678535.5994   23678545.3324   23678534.546
        41.0004         37.0004
 14  5 16  0  8  0.0000000  0 12G07G01G09G30G26G17G13G04G10G28G02G20
 -21492195.49748 -16718413.69548  20613945.4104   20613951.4824   20613944.542
        53.0004         48.0004
  -2867520.61647  -2205429.30446  24134825.0814   24134841.8394   24134823.881
        44.0004         39.0004
 -20860650.24849 -16241251.63148  19999171.8334   19999179.1254   19999171.726
        54.0004         49.0004
 -10476202.39749  -8146969.36248  20194058.0544   20194067.0894   20194058.125
        55.0004         50.0004
  -2015761.92946  -1548663.21846  24069772.3564   24069787.6574   24069771.340
        41.0004         37.0004
 -12673165.58448  -9823826.97047  22733318.4884   22733328.6624   22733318.054
        49.0004         44.0004
   -481641.40546   -315682.40845  24352325.1434   24352330.0984   24352322.333
        40.0004         35.0004
 -24386072.18348 -18939925.46947  21098905.8244   21098914.4314   21098905.751
        52.0004         47.0004
  -9003529.56847  -7005361.10846  23874259.7014   23874270.6264   23874259.970
        44.0004         39.0004
  -4250573.94347  -3312441.52646  23476160.8734   23476172.6284   23476160.812
        45.0004         40.0004
  -2438591.13247  -1878264.90846  23785114.0544   23785121.6784   23785114.102
        43.0004         39.0004
  -4382223.00046  -3352532.39046  23681226.1504   23681236.1994   23681227.203
        41.0004         36.0004
 14  5 16  0  8 30.0000000  0 12G07G01G09G30G26G17G13G04G10G28G02G20
 -21437502.99648 -16675796.12548  20624352.9954   20624358.9424   20624352.057
        53.0004         48.0004
  -2764464.94447  -2125126.21946  24154435.4364   24154452.5244   24154434.863
        44.0004         39.0004
 -20871768.76749 -16249915.33948  19997056.0304   19997063.3304   19997055.895
        54.0004         49.0004
 -10482756.20649  -8152076.16148  20192811.0704   20192819.6904   20192810.853
        55.0004         50.0004
  -2023849.80346  -1554965.16346  24068234.2124   24068250.8724   24068232.903
        41.0004         37.0004
 -12630613.74848  -9790669.72147  22741416.3224   22741427.8984   22741415.185
        49.0004         44.0004
   -412070.46446   -261471.20845  24365560.3764   24365568.6184   24365560.985
        40.0004         35.0004
 -24451209.00148 -18990681.33247  21086511.0774   21086518.3234   21086510.400
        52.0004         47.0004
  -9063167.90647  -7051832.36846  23862911.3394   23862920.7384   23862911.799
        44.0004         39.0004
  -4302319.54747  -3352762.57846  23466313.1764   23466324.9104   23466314.185
        45.0004         40.0004
  -2529443.97847  -1949059.12246  23767825.3984   23767833.9454   23767825.685
        43.0004         39.0004
  -4367808.15546  -3341300.03546  23683969.4934   23683980.8144   23683970.219
        41.0004         36.0004
 14  5 16  0  9  0.0000000  0 12G07G01G09G30G26G17G13G04G10G28G02G20
 -21382284.84148 -16632768.95748  20634860.4914   20634866.8394   20634860.317
        53.0004         48.0004
  -2661260.09347  -2044706.89446  24174075.0404   24174090.8484   24174074.087
        43.0004         39.0004
 -20882275.21949 -16258102.10748  19995056.4944   19995063.9774   19995056.518
        54.0004         50.0004
 -10488740.44549  -8156739.13748  20191672.0874   20191681.2924   20191672.278
        55.0004         50.0004
  -2031624.16546  -1561022.80446  24066753.5634   24066771.2864   24066752.772
        41.0004         37.0004
 -12588045.65948  -9757499.82547  22749516.0384   22749527.7454   22749515.938
        49.0004         44.0004
   -342710.55846   -207424.42246  24378758.2464   24378769.9874   24378760.378
        40.0004         36.0004
 -24515909.15148 -19041096.94647  21074199.1864   21074207.1324   21074198.557
        52.0004         47.0004
  -9123003.38947  -7098457.24146  23851523.5794   23851535.2684   23851524.964
        44.0004         39.0004
  -4354237.59747  -3393218.01146  23456433.5334   23456445.3634   23456434.680
        45.0004         40.0004
  -2620099.59347  -2019699.64146  23750572.8764   23750583.1424   23750574.559
        43.0004         39.0004
  -4353123.74546  -3329857.60746  23686765.5674   23686773.5114   23686765.191
        41.0004         36.0004
 14  5 16  0  9 30.0000000  0 12G07G01G09G30G26G17G13G04G10G28G02G20
 -21326543.07448 -16589333.77248  20645467.7694   20645473.8874   20645467.151
        53.0004         48.0004
  -2557908.83947  -1964173.50346  24193742.5864   24193758.1834   24193740.869
        43.0004         38.0004
 -20892169.54149 -16265811.89348  19993173.5914   19993181.1784   19993173.755
        54.0004         49.0004
 -10494154.82749  -8160958.06948  20190641.5204   20190650.4114   20190641.541
        55.0004         50.0004
  -2039086.89946  -1566837.60346  24065331.9064   24065348.8854   24065332.615
        41.0004         37.0004
 -12545463.48048  -9724318.94847  22757618.9424   22757630.9984   22757618.748
        49.0004         44.0004
   -273562.78246   -153542.97345  24391918.0124   24391925.3794   24391918.299
        40.0004         35.0004
 -24580170.46448 -19091170.61347  21061970.6474   21061977.7974   21061970.023
        52.0004         47.0004
  -9183034.94947  -7145234.89946  23840100.8674   23840111.8594   23840101.347
        44.0004         39.0004
  -4406326.57647  -3433806.63846  23446521.6244   23446534.1674   23446522.015
        45.0004         40.0004
  -2710555.61447  -2090184.63546  23733360.0024   23733369.1954   23733360.777
        43.0004         39.0004
  -4338168.54846  -3318204.21046  23689609.9904   23689621.9374   23689610.472
        41.0004         36.0004
 14  5 16  0 10  0.0000000  0 12G07G01G09G30G26G17G13G04G10G28G02G20
 -21270281.55848 -16545493.59348  20656173.8034   20656180.1814   20656173.770
        53.0004         48.0004
  -2454415.68747  -1883529.53046  24213435.9984   24213452.0934   24213435.371
        43.0004         38.0004
 -20901453.17049 -16273045.81448  19991406.9844   19991414.6374   19991406.999
        54.0004         49.0004
 -10499000.83749  -8164734.11848  20189719.4614   20189728.5834   20189719.491
        55.0004         50.0004
  -2046241.36247  -1572412.21446  24063972.0824   24063988.9194   24063970.854
        42.0004         37.0004
 -12502871.59948  -9691130.49547  22765723.4274   22765736.1044   22765723.956
        49.0004         44.0004
   -204630.30046    -99829.26545  24405035.5914   24405044.3104   24405035.127
        40.0004         35.0004
 -24643992.58648 -19140902.04847  21049824.9804   21049833.0174   21049824.646
        52.0004         47.0004
  -9243263.27247  -7192165.88746  23828639.3364   23828649.5054   23828639.812
        44.0004         39.0004
  -4458586.72347  -3474528.66046  23436577.2514   23436588.9854   23436576.927
        45.0004         41.0004
  -2800811.63347  -2160513.80146  23716185.2924   23716193.8264   23716185.006
        43.0004         39.0004
  -4322942.55646  -3306339.79046  23692510.0144   23692516.1574   23692507.266
        40.0004         36.0004
 14  5 16  0 10 30.0000000  0 12G07G01G09G30G26G17G13G04G10G28G02G20
 -21213500.46248 -16501248.54148  20666978.9044   20666985.3564   20666978.165
        53.0004         48.0004
  -2350781.52847  -1802775.66746  24233156.6374   24233174.0084   24233156.296
        42.0004         38.0004
 -20910124.01449 -16279802.24248  19989757.1184   19989764.4454   19989756.851
        54.0004         49.0004
 -10503276.34349  -8168065.61348  20188905.7364   20188914.3464   20188905.761
        55.0004         50.0004
  -2053087.32447  -1577746.42446  24062668.0874   24062685.3114   24062668.246
        42.0004         37.0004
 -12460270.59948  -9657934.94947  22773830.0784   22773842.2744   22773830.423
        48.0004         44.0004
   -135912.51246    -46282.86045  24418112.6744   24418121.1354   24418112.074
        40.0004         35.0004
 -24707371.68248 -19190288.26747  21037764.6734   21037772.3554   21037764.553
        52.0004         47.0004
  -9303685.31347  -7239247.82646  23817140.9824   23817151.7044   23817141.460
        43.0004         39.0004
  -4511014.61447  -3515381.39946  23426599.8574   23426611.5004   23426600.357
        45.0004         41.0004
  -2890863.56147  -2230683.92846  23699047.8314   23699056.3264   23699048.921
        43.0004         39.0004
  -4307443.01146  -3294262.21145  23695454.2854   23695466.9224   23695456.561
        40.0004         35.0004
 14  5 16  0 11  0.0000000  0 12G07G01G09G30G26G17G13G04G10G28G02G20
 -21156201.55948 -16456600.01348  20677883.0144   20677888.5984   20677882.401
        53.0004         48.0004
  -2247008.64747  -1721913.70446  24252905.0984   24252919.1384   24252903.304
        42.0004         38.0004
 -20918181.58249 -16286080.78948  19988223.4564   19988230.9154   19988223.525
        54.0004         49.0004
 -10506980.67349  -8170952.04048  20188200.9954   20188209.9374   20188200.911
        55.0004         50.0004
  -2059626.19047  -1582841.34746  24061423.4074   24061440.8634   24061424.013
        42.0004         37.0004
 -12417662.22448  -9624733.65247  22781938.5214   22781950.2354   22781938.809
        49.0004         44.0004
    -67410.56146      7095.37245  24431149.3144   24431154.3624   24431147.684
        40.0004         35.0004
 -24770304.92948 -19239327.08147  21025788.7164   21025796.3974   21025788.323
        52.0004         47.0004
  -9364299.66447  -7286479.60846  23805606.4694   23805616.7204   23805606.752
        43.0004         39.0004
  -4563607.45947  -3556362.69646  23416591.6744   23416603.1334   23416592.509
        45.0004         41.0004
  -2980709.13347  -2300693.25146  23681951.9284   23681959.2264   23681951.655
        43.0004         39.0004
  -4291668.33946  -3281970.26345  23698459.9764   23698470.0114   23698458.999
        40.0004         35.0004
 14  5 16  0 11 30.0000000  0 12G07G01G09G30G26G17G13G04G10G28G02G20
 -21098387.78848 -16411550.30048  20688884.1284   20688890.3424   20688883.608
        53.0004         48.0004
  -2143100.45447  -1640946.30546  24272677.4264   24272694.4144   24272676.537
        42.0004         37.0004
 -20925626.54749 -16291881.99048  19986806.7864   19986814.1384   19986806.834
        54.0004         49.0004
 -10510114.37049  -8173393.81348  20187604.3774   20187613.3604   20187604.537
        55.0004         50.0004
  -2065860.36047  -1587698.82946  24060237.1914   24060253.7484   24060237.150
        42.0004         38.0004
 -12375049.65148  -9591529.09547  22790047.6494   22790059.5754   22790047.589
        48.0004         44.0004
       873.86046     60304.09845  24444140.8924   24444151.7854   24444141.012
        40.0004         35.0004
 -24832791.60448 -19288017.90847  21013897.6654   21013905.3854   21013897.346
        52.0004         47.0004
  -9425105.77547  -7333860.81846  23794034.6734   23794044.6254   23794036.270
        43.0004         39.0004
  -4616364.93147  -3597472.27646  23406552.6864   23406564.1324   23406552.525
        45.0004         40.0004
  -3070346.18447  -2370540.10846  23664894.0674   23664900.9854   23664894.425
        43.0004         39.0004
  -4275617.83146  -3269463.34545  23701511.5094   23701523.1924   23701513.525
        40.0004         35.0004
 14  5 16  0 12  0.0000000  0 12G07G01G09G30G26G17G13G04G10G28G02G20
 -21040061.31748 -16366101.06748  20699983.2904   20699989.5434   20699983.025
        53.0004         48.0004
  -2039059.61847  -1559875.52146  24292474.2484   24292491.4684   24292474.920
        42.0004         37.0004
 -20932458.71049 -16297205.67848  19985506.5414   19985514.1334   19985506.786
        54.0004         49.0004
 -10512677.06949  -8175390.66048  20187116.8204   20187125.8344   20187116.670
        55.0004         50.0004
  -2071791.45347  -1592320.15946  24059108.9724   24059124.4594   24059108.739
        43.0004         38.0004
 -12332435.22148  -9558323.08147  22798157.0964   22798169.2854   22798157.395
        48.0004         44.0004
     68939.66646    113342.48345  24457093.5304   24457101.3924   24457093.241
        40.0004         35.0004
 -24894829.09248 -19336358.72647  21002092.6184   21002100.5554   21002091.879
        52.0004         47.0004
  -9486102.53447  -7381390.57546  23782427.5724   23782437.8594   23782428.191
        43.0004         39.0004
  -4669285.09247  -3638708.64446  23396481.3184   23396493.0014   23396482.205
        45.0004         40.0004
  -3159772.54047  -2440222.77146  23647876.2354   23647885.1074   23647877.381
        44.0004         39.0004
  -4259289.92746  -3256740.30945  23704622.3594   23704630.3324   23704620.715
        40.0004         35.0004
 14  5 16  0 12 30.0000000  0 12G07G01G09G30G26G17G13G04G10G28G02G20
 -20981224.57548 -16320254.18748  20711179.3024   20711185.6694   20711178.935
        53.0004         48.0004
  -1934888.95046  -1478703.58146  24312300.1104   24312315.1294   24312297.899
        41.0004         37.0004
 -20938678.08949 -16302051.87448  19984322.9814   19984330.3024   19984323.030
        54.0004         49.0004
 -10514668.78249  -8176942.58048  20186737.6754   20186746.7564   20186737.707
        55.0004         50.0004
  -2077421.30447  -1596706.73746  24058036.5424   24058052.9214   24058036.631
        43.0004         38.0004
 -12289821.30948  -9525117.46147  22806267.1644   22806278.6414   22806266.104
        49.0004         44.0004
    136785.33846    166209.32345  24470005.4704   24470013.5064   24470003.626
        40.0004         35.0004
 -24956415.83048 -19384348.31147  20990372.4784   20990380.2844   20990372.408
        52.0004         47.0004
  -9547289.05247  -7429068.21346  23770784.4164   23770794.3084   23770784.578
        43.0004         39.0004
  -4722366.50747  -3680070.67846  23386380.4584   23386392.1954   23386381.168
        45.0004         40.0004
  -3248986.60447  -2509740.02446  23630899.8584   23630907.3394   23630900.528
        44.0004         39.0004
  -4242683.91446  -3243800.54645  23707780.5744   23707789.0684   23707780.309
        40.0004         35.0004
 14  5 16  0 13  0.0000000  0 12G07G01G09G30G26G17G13G04G10G28G02G20
 -20921878.95348 -16274010.80748  20722472.1864   20722478.9994   20722472.143
        52.0004         48.0004
  -1830590.37746  -1397431.95146  24332146.4254   24332160.5984   24332145.614
        41.0004         37.0004
 -20944284.01949 -16306420.05248  19983256.2054   19983263.4964   19983256.349
        54.0004         50.0004
 -10516088.60649  -8178048.87448  20186467.7784   20186476.4734   20186467.451
        55.0004         50.0004
  -2082751.02047  -1600859.47746  24057021.9304   24057038.9704   24057022.508
        43.0004         38.0004
 -12247209.73548  -9491913.67047  22814376.0614   22814386.7894   22814374.485
        49.0004         44.0004
    204410.77446    218904.55745  24482873.5104   24482880.4164   24482872.170
        40.0004         35.0004
 -25017548.81848 -19431984.32647  20978739.7644   20978747.3344   20978738.775
        52.0004         47.0004
  -9608663.07047  -7476891.95346  23759105.4064   23759115.3304   23759105.589
        44.0004         39.0004
  -4775606.69547  -3721556.41646  23376248.6204   23376260.4004   23376249.592
        45.0004         40.0004
  -3337985.10947  -2579089.29546  23613963.5774   23613971.8544   23613963.886
        44.0004         39.0004
  -4225797.54646  -3230642.31645  23710991.7684   23711004.7084   23710993.684
        40.0004         35.0004
 14  5 16  0 13 30.0000000  0 12G07G01G09G30G26G17G13G04G10G28G02G20
 -20862025.53548 -16227371.74348  20733862.1304   20733868.8524   20733861.793
        52.0004         48.0004
  -1726165.68046  -1316062.04746  24352015.7634   24352031.7194   24352016.783
        41.0004         36.0004
 -20949275.37949 -16310309.35148  19982306.5824   19982313.2984   19982306.487
        54.0004         49.0004
 -10516935.39949  -8178708.65148  20186306.4824   20186315.3434   20186306.296
        55.0004         50.0004
  -2087781.27847  -1604778.83246  24056065.4884   24056080.9754   24056064.156
        43.0004         38.0004
 -12204601.85348  -9458712.75847  22822483.5874   22822494.3034   22822482.724
        48.0004         44.0004
    271815.29146    271427.65445  24495700.8594   24495710.4744   24495698.911
        40.0004         35.0004
 -25078225.04048 -19479264.41647  20967193.3164   20967200.7964   20967192.997
        52.0004         47.0004
  -9670222.70447  -7524860.32346  23747391.2754   23747400.1764   23747391.289
        44.0004         39.0004
  -4829002.49147  -3763163.41046  23366088.7154   23366099.3514   23366088.852
        45.0004         40.0004
  -3426764.67147  -2648267.98146  23597069.2814   23597077.7274   23597069.095
        44.0004         39.0004
  -4208628.62946  -3217263.96245  23714260.6094   23714272.6374   23714261.100
        40.0004         35.0004
 14  5 16  0 14  0.0000000  0 12G07G01G09G30G26G17G13G04G10G28G02G20
 -20801668.89248 -16180340.55248  20745347.8934   20745353.8544   20745347.222
        52.0004         48.0004
  -1621619.75546  -1234597.68746  24371913.4024   24371929.2604   24371911.182
        41.0004         36.0004
 -20953654.60549 -16313721.65748  19981473.1184   19981480.5534   19981472.978
        54.0004         50.0004
 -10517211.30349  -8178923.58248  20186253.8684   20186262.8544   20186253.608
        55.0004         50.0004
  -2092516.17947  -1608468.05846  24055162.9384   24055179.9844   24055163.661
        43.0004         38.0004
 -12162002.23748  -9425518.27547  22830589.2704   22830600.6594   22830589.563
        49.0004         44.0004
    338995.64846    323776.05946  24508481.5914   24508490.3984   24508482.845
        40.0004         36.0004
 -25138445.08748 -19526189.05147  20955733.3974   20955741.6454   20955733.466
        52.0004         47.0004
  -9731968.81547  -7572973.99046  23735640.2614   23735650.9434   23735641.019
        44.0004         39.0004
  -4882554.74047  -3804892.31646  23355897.7394   23355909.2104   23355897.986
        44.0004         40.0004
  -3515325.81247  -2717276.45946  23580216.4404   23580223.7994   23580216.916
        44.0004         39.0004
  -4191178.08146  -3203666.11645  23717581.9134   23717590.6644   23717581.936
        40.0004         35.0004
 14  5 16  0 14 30.0000000  0 12G07G01G09G30G26G17G13G04G10G28G02G20
 -20740810.77548 -16132918.60348  20756928.6014   20756934.3564   20756928.324
        52.0004         48.0004
  -1516954.71246  -1153040.50046  24391828.5864   24391847.3774   24391828.311
        41.0004         36.0004
 -20957421.12849 -16316656.53748  19980756.6024   19980763.3374   19980756.344
        54.0004         50.0004
 -10516915.65249  -8178693.14048  20186310.0254   20186318.8944   20186309.969
        55.0004         50.0004
  -2096956.79547  -1611927.96546  24054317.5924   24054335.7224   24054316.969
        42.0004         38.0004
 -12119412.61048  -9392331.58647  22838695.0394   22838706.9214   22838694.127
        49.0004         44.0004
    405951.29946    375949.37145  24521224.2744   24521232.0894   24521224.454
        40.0004         35.0004
 -25198206.10448 -19572755.99847  20944361.7294   20944369.0684   20944361.221
        52.0004         47.0004
  -9793899.72147  -7621231.65946  23723855.3124   23723865.4314   23723855.797
        44.0004         39.0004
  -4936260.94947  -3846741.21646  23345677.7434   23345687.7514   23345677.643
        44.0004         40.0004
  -3603665.15647  -2786112.11046  23563406.4644   23563413.6874   23563406.420
        44.0004         39.0004
  -4173444.13846  -3189847.47445  23720957.1984   23720969.5184   23720957.032
        40.0004         35.0004
 14  5 16  0 15  0.0000000  0 12G07G01G09G30G26G17G13G04G10G28G02G20
 -20679451.40248 -16085106.06148  20768604.9594   20768611.0774   20768604.104
        52.0004         48.0004
  -1412171.13546  -1071390.94046  24411767.0074   24411783.8624   24411768.207
        41.0004         36.0004
 -20960573.02449 -16319112.48748  19980156.2524   19980163.6094   19980156.345
        54.0004         49.0004
 -10516046.34249  -8178015.69248  20186475.6704   20186484.1134   20186475.139
        55.0004         50.0004
  -2101102.94347  -1615158.43946  24053530.2574   24053544.1434   24053529.670
        42.0004         37.0004
 -12076833.01548  -9359152.70947  22846797.5494   22846809.0544   22846797.184
        49.0004         44.0004
    472683.22446    427948.34645  24533919.6154   24533931.4304   24533922.402
        40.0004         35.0004
 -25257504.07548 -19618962.12847  20933077.3124   20933084.9064   20933076.821
        52.0004         47.0004
  -9856011.92147  -7669630.58446  23712036.3334   23712046.1724   23712036.171
        44.0004         39.0004
  -4990117.40647  -3888707.16246  23335428.4034   23335439.9134   23335428.879
        44.0004         40.0004
  -3691778.49247  -2854771.64446  23546638.2654   23546646.1314   23546638.385
        44.0004         39.0004
  -4155423.58546  -3175805.48045  23724382.2564   23724395.7914   23724385.489
        40.0004         35.0004
 14  5 16  0 15 30.0000000  0 12G07G01G09G30G26G17G13G04G10G28G02G20
 -20617595.09848 -16036906.31048  20780375.2524   20780381.8114   20780375.091
        52.0004         48.0004
  -1307274.04046   -989652.93046  24431729.8684   24431744.7454   24431729.527
        40.0004         36.0004
 -20963112.46949 -16321091.20048  19979672.9984   19979680.2564   19979672.975
        54.0004         49.0004
 -10514605.58049  -8176892.95848  20186749.6154   20186758.4304   20186749.601
        55.0004         50.0004
  -2104958.62247  -1618162.56446  24052795.5054   24052812.4184   24052794.503
        42.0004         38.0004
 -12034267.77748  -9325985.00747  22854897.8334   22854908.8244   22854896.862
        49.0004         44.0004
    539188.29146    479770.55145  24546578.1744   24546587.5434   24546578.399
        40.0004         35.0004
 -25316339.50048 -19664807.83947  20921881.4594   20921889.1084   20921880.848
        52.0004         47.0004
  -9918306.73947  -7718171.83046  23700182.2784   23700189.6744   23700182.335
        44.0004         39.0004
  -5044124.37647  -3930790.40446  23325151.4664   23325162.6924   23325151.787
        44.0004         40.0004
  -3779666.22447  -2923255.40846  23529913.7114   23529921.7124   23529913.501
        44.0004         40.0004
  -4137117.40446  -3161540.92945  23727870.6784   23727877.9144   23727868.966
        40.0004         35.0004
 14  5 16  0 16  0.0000000  0 12G07G01G09G30G26G17G13G04G10G28G02G20
 -20555243.09748 -15988320.29248  20792240.7604   20792246.5114   20792240.274
        52.0004         48.0004
  -1202264.71246   -907827.46346  24451713.0234   24451728.9524   24451711.876
        41.0004         36.0004
 -20965038.38649 -16322591.84448  19979306.4984   19979313.9024   19979306.521
        54.0004         49.0004
 -10512592.05449  -8175323.91448  20187132.6704   20187141.8824   20187132.448
        55.0004         50.0004
  -2108524.34147  -1620940.76146  24052116.2284   24052132.9884   24052116.783
        42.0004         38.0004
 -11991718.35948  -9292829.63047  22862993.7364   22863005.7884   22862993.540
        49.0004         44.0004
    605466.39346    531415.88345  24559189.7964   24559199.0934   24559190.681
        40.0004         35.0004
 -25374708.97948 -19710290.47747  20910773.7964   20910781.4374   20910773.696
        52.0004         47.0004
  -9980781.48947  -7766853.27846  23688291.1284   23688301.9194   23688292.864
        44.0004         39.0004
  -5098278.80747  -3972988.51846  23314846.8514   23314858.4044   23314846.525
        44.0004         40.0004
  -3867324.50547  -2991560.36346  23513233.0024   23513239.6744   23513233.538
        44.0004         39.0004
  -4118523.32146  -3147052.04945  23731406.1024   23731418.8074   23731407.303
        40.0004         35.0004
 14  5 16  0 16 30.0000000  0 12G07G01G09G30G26G17G13G04G10G28G02G20
 -20492398.83348 -15939350.69848  20804199.6764   20804205.7224   20804199.386
        52.0004         48.0004
  -1097146.88646   -825917.44346  24471717.7934   24471732.2974   24471715.213
        41.0004         37.0004
 -20966352.12149 -16323615.46248  19979056.3034   19979063.5344   19979056.453
        54.0004         50.0004
 -10510006.75049  -8173309.33348  20187624.6194   20187633.5684   20187624.614
        55.0004         51.0004
  -2111802.91547  -1623495.22546  24051492.4294   24051508.4844   24051491.573
        42.0004         38.0004
 -11949187.59048  -9259688.78447  22871087.2814   22871098.6804   22871087.167
        49.0004         44.0004
    671515.64746    582882.89445  24571757.8724   24571767.2174   24571759.964
        40.0004         35.0004
 -25432611.52448 -19755409.26647  20899754.9024   20899762.4744   20899754.476
        52.0004         47.0004
 -10043435.76047  -7815674.61246  23676369.3664   23676380.5694   23676370.114
        44.0004         39.0004
  -5152579.67647  -4015300.74446  23304512.9304   23304524.7834   23304513.016
        44.0004         40.0004
  -3954752.27247  -3059685.70446  23496595.2274   23496602.7484   23496595.889
        44.0004         40.0004
  -4099640.87046  -3132338.45645  23735000.7494   23735013.7574   23735000.128
        40.0004         35.0004
 14  5 16  0 17  0.0000000  0 12G07G01G09G30G26G17G13G04G10G28G02G20
 -20429062.21048 -15889997.44248  20816252.1194   20816258.1284   20816251.673
        52.0004         48.0004
   -991920.99046   -743923.23346  24491739.2064   24491756.4694   24491739.034
        41.0004         36.0004
 -20967051.68749 -16324160.50748  19978923.2484   19978930.3964   19978923.368
        54.0004         50.0004
 -10506847.55549  -8170847.56348  20188225.8024   20188234.4754   20188225.812
        55.0004         51.0004
  -2114793.85047  -1625825.54646  24050924.0824   24050938.7864   24050923.251
        43.0004         38.0004
 -11906675.99748  -9226562.88447  22879177.2954   22879188.0144   22879176.668
        49.0004         44.0004
    737337.09246    634172.40645  24584285.4474   24584295.9004   24584285.222
        40.0004         35.0004
 -25490042.99848 -19800160.98547  20888826.4194   20888833.9414   20888826.143
        52.0004         47.0004
 -10106266.23147  -7864633.24646  23664413.6444   23664423.0074   23664413.846
        44.0004         39.0004
  -5207022.94947  -4057723.92446  23294152.7694   23294163.2124   23294152.692
        45.0004         40.0004
  -4041945.02847  -3127627.92546  23480003.0994   23480010.5344   23480003.105
        44.0004         39.0004
  -4080466.72646  -3117397.56745  23738651.5534   23738659.2144   23738650.049
        40.0004         35.0004
 14  5 16  0 17 30.0000000  0 12G07G01G09G30G26G17G13G04G10G28G02G20
 -20365238.01548 -15840264.26648  20828397.7834   20828403.7244   20828397.179
        52.0004         48.0004
   -886591.84946   -661848.56646  24511782.0434   24511800.0464   24511782.284
        41.0004         37.0004
 -20967139.39649 -16324228.77848  19978906.4644   19978913.6714   19978906.754
        54.0004         50.0004
 -10503116.68749  -8167940.33448  20188935.6124   20188944.4374   20188935.545
        55.0004         50.0004
  -2117501.29447  -1627934.98746  24050408.0044   24050423.6664   24050407.596
        43.0004         38.0004
 -11864187.73048  -9193455.14847  22887262.4894   22887273.8254   22887261.897
        48.0004         44.0004
    802927.60746    685281.96345  24596766.9144   24596775.1834   24596766.494
        40.0004         35.0004
 -25547004.02248 -19844546.12647  20877986.8744   20877994.4904   20877986.439
        52.0004         47.0004
 -10169274.15947  -7913730.15346  23652423.5014   23652432.3254   23652423.643
        44.0004         39.0004
  -5261609.15347  -4100258.47946  23283766.0234   23283776.5984   23283765.016
        45.0004         40.0004
  -4128902.61447  -3195386.89646  23463456.5714   23463462.3724   23463455.858
        44.0004         40.0004
  -4061001.91246  -3102230.18346  23742355.1844   23742364.0164   23742353.500
        40.0004         36.0004
 14  5 16  0 18  0.0000000  0 12G07G01G09G30G26G17G13G04G10G28G02G20
 -20300927.38748 -15790152.05348  20840635.0094   20840641.9964   20840635.080
        52.0004         48.0004
   -781161.08246   -579694.69746  24531845.3404   24531861.0284   24531844.919
        41.0004         37.0004
 -20966614.24649 -16323819.50048  19979006.5594   19979013.6254   19979006.425
        54.0004         50.0004
 -10498813.19849  -8164586.90748  20189754.6734   20189763.2124   20189754.516
        55.0004         50.0004
  -2119925.93547  -1629824.05346  24049946.9464   24049961.6974   24049946.332
        43.0004         38.0004
 -11821724.11148  -9160366.62147  22895343.4414   22895353.8144   22895342.544
        48.0004         44.0004
    868287.11246    736211.51445  24609201.7424   24609211.0674   24609203.842
        40.0004         35.0004
 -25603491.55648 -19888562.31447  20867237.7974   20867245.2674   20867237.522
        52.0004         47.0004
 -10232456.62747  -7962963.08246  23640399.2724   23640408.3144   23640399.540
        44.0004         39.0004
  -5316335.20747  -4142902.00046  23273350.6874   23273362.2294   23273351.228
        45.0004         40.0004
  -4215622.05847  -3262960.30746  23446954.5444   23446960.8144   23446954.275
        44.0004         40.0004
  -4041244.16046  -3086834.54245  23746111.9424   23746124.9424   23746113.109
        40.0004         35.0004
 14  5 16  0 18 30.0000000  0 12G07G01G09G30G26G17G13G04G10G28G02G20
 -20236133.25848 -15739663.08648  20852965.3584   20852971.2844   20852964.935
        52.0004         48.0004
   -675631.70246   -497463.99646  24551925.7734   24551943.9804   24551926.653
        41.0004         37.0004
 -20965476.91249 -16322933.19348  19979222.7834   19979229.5474   19979222.903
        54.0004         50.0004
 -10493937.56249  -8160787.64748  20190682.2014   20190691.1524   20190682.199
        55.0004         50.0004
  -2122070.05247  -1631494.54246  24049538.3034   24049554.2074   24049537.535
        43.0004         38.0004
 -11779287.66048  -9127299.26947  22903417.7824   22903429.2154   22903417.938
        48.0004         44.0004
    933413.99946    786959.82145  24621599.3744   24621604.6884   24621596.560
        40.0004         35.0004
 -25659503.93148 -19932208.25247  20856578.8284   20856586.2874   20856578.446
        52.0004         47.0004
 -10295812.68947  -8012331.27646  23628343.5064   23628354.4314   23628343.206
        44.0004         39.0004
  -5371199.81747  -4185653.49846  23262909.5264   23262921.0274   23262910.644
        45.0004         41.0004
  -4302101.29047  -3330346.52846  23430497.5944   23430504.5844   23430497.595
        44.0004         40.0004
  -4021192.73046  -3071210.05045  23749925.5264   23749938.7814   23749929.233
        40.0004         35.0004
 14  5 16  0 19  0.0000000  0 12G07G01G09G30G26G17G13G04G10G28G02G20
 -20170857.47048 -15688798.80147  20865386.7284   20865392.4924   20865386.603
        52.0004         47.0004
   -570005.85846   -415158.11446  24572027.6134   24572042.9074   24572026.533
        41.0004         37.0004
 -20963727.32749 -16321569.80648  19979555.7534   19979562.8514   19979555.620
        54.0004         50.0004
 -10488489.41849  -8156542.28348  20191719.0604   20191727.6694   20191718.797
        55.0004         50.0004
  -2123934.88047  -1632947.39146  24049182.3724   24049198.8884   24049182.558
        43.0004         38.0004
 -11736880.15448  -9094254.45747  22911488.3114   22911499.7994   22911487.834
        48.0004         44.0004
    998307.98346    837526.58445  24633944.8504   24633952.3254   24633945.423
        40.0004         35.0004
 -25715038.91348 -19975482.18947  20846010.8034   20846018.1834   20846010.531
        52.0004         47.0004
 -10359340.65147  -8061833.42446  23616254.6044   23616264.3884   23616254.496
        44.0004         39.0004
  -5426200.37547  -4228510.90146  23252444.8654   23252455.3944   23252444.584
        45.0004         40.0004
  -4388337.61747  -3397543.48746  23414086.6074   23414093.9984   23414086.306
        44.0004         40.0004
  -4000846.08446  -3055355.55945  23753800.2984   23753812.4044   23753800.908
        40.0004         35.0004
 14  5 16  0 19 30.0000000  0 12G07G01G09G30G26G17G13G04G10G28G02G20
 -20105102.37148 -15637561.02247  20877899.4954   20877905.5294   20877898.976
        52.0004         47.0004
   -464286.01846   -332778.99246  24592143.6754   24592161.4314   24592144.073
        41.0004         37.0004
 -20961365.67049 -16319729.48748  19980005.0514   19980012.0134   19980004.975
        54.0004         50.0004
 -10482468.80949  -8151850.84048  20192864.5944   20192873.1834   20192864.623
        55.0004         50.0004
  -2125522.20747  -1634184.01246  24048881.0084   24048895.5234   24048880.469
        43.0004         38.0004
 -11694503.50648  -9061233.69447  22919552.4454   22919565.0184   22919551.809
        48.0004         44.0004
   1062968.34146    887911.35945  24646248.1074   24646262.0264   24646250.074
        40.0004         35.0004
 -25770094.57448 -20018382.64647  20835534.1534   20835541.2654   20835533.905
        52.0004         47.0004
 -10423038.74747  -8111468.13146  23604133.0974   23604142.8904   23604133.123
        44.0004         39.0004
  -5481334.58147  -4271472.45246  23241952.4614   23241962.9314   23241952.236
        45.0004         40.0004
  -4474328.99047  -3464549.57546  23397722.5164   23397729.2224   23397722.793
        44.0004         40.0004
  -3980202.84146  -3039269.94045  23757726.8954   23757742.3654   23757728.987
        40.0004         35.0004
 14  5 16  0 20  0.0000000  0 12G07G01G09G30G26G17G13G04G10G28G02G20
 -20038871.65848 -15585952.63947  20890502.6884   20890508.7964   20890502.250
        52.0004         47.0004
   -358476.22147   -250329.77046  24612280.1094   24612296.0764   24612279.183
        42.0004         37.0004
 -20958393.60349 -16317413.51948  19980570.4634   19980577.3474   19980570.412
        54.0004         50.0004
 -10475877.29349  -8146714.53348  20194119.0624   20194127.6514   20194118.888
        55.0004         50.0004
  -2126835.30947  -1635206.94746  24048630.6424   24048646.1674   24048629.493
        43.0004         38.0004
 -11652161.46948  -9028239.89347  22927609.8264   22927621.3194   22927609.301
        48.0004         44.0004
   1127392.69046    938112.19845  24658510.5104   24658516.3124   24658509.692
        40.0004         35.0004
 -25824670.56048 -20060909.31847  20825148.6754   20825155.8824   20825147.478
        52.0004         47.0004
 -10486907.01447  -8161235.45046  23591978.9134   23591987.0464   23591979.640
        44.0004         39.0004
  -5536601.97747  -4314537.76946  23231435.3294   23231447.6404   23231435.351
        45.0004         40.0004
  -4560074.42247  -3531364.01446  23381405.0984   23381412.3984   23381406.690
        44.0004         40.0004
  -3959263.40946  -3022953.51045  23761715.3614   23761724.7964   23761713.243
        40.0004         35.0004
 14  5 16  0 20 30.0000000  0 12G07G01G09G30G26G17G13G04G10G28G02G20
 -19972165.58448 -15533973.84247  20903196.7754   20903202.4184   20903196.079
        52.0004         47.0004
   -252576.80146   -167810.71646  24632431.6334   24632448.5864   24632431.113
        41.0004         37.0004
 -20954809.28849 -16314620.47748  19981252.8304   19981259.6244   19981252.691
        54.0004         50.0004
 -10468712.80049  -8141131.75248  20195481.9954   20195490.8374   20195481.961
        55.0004         50.0004
  -2127873.73747  -1636015.85546  24048433.1584   24048447.3254   24048433.416
        43.0004         38.0004
 -11609853.84648  -8995272.90047  22935660.0764   22935671.4914   22935660.197
        48.0004         44.0004
   1191582.37346    988130.21545  24670722.9864   24670732.0124   24670724.189
        40.0004         35.0004
 -25878762.49648 -20103058.81647  20814855.5594   20814861.9694   20814855.544
        52.0004         47.0004
 -10550941.57147  -8211132.35046  23579793.2244   23579803.5614   23579793.918
        44.0004         39.0004
  -5591998.57647  -4357703.76946  23220893.4034   23220904.1354   23220893.504
        45.0004         41.0004
  -4645569.16247  -3597983.10546  23365135.7764   23365143.8334   23365136.632
        45.0004         40.0004
  -3938024.30546  -3006403.55745  23765756.1064   23765766.9114   23765756.031
        40.0004         35.0004
 14  5 16  0 21  0.0000000  0 12G07G01G09G30G26G17G13G04G10G28G02G20
 -19904984.75648 -15481625.11247  20915980.6714   20915986.7074   20915980.139
        52.0004         47.0004
   -146588.65946    -85222.52846  24652600.4624   24652616.6274   24652599.825
        41.0004         37.0004
 -20950611.57349 -16311349.45648  19982051.2404   19982058.1244   19982051.055
        54.0004         50.0004
 -10460973.88349  -8135101.36548  20196954.8954   20196963.2154   20196954.987
        55.0004         50.0004
  -2128637.68547  -1636610.88446  24048287.8604   24048302.3864   24048286.045
        43.0004         38.0004
 -11567581.18548  -8962333.16647  22943704.0094   22943715.7864   22943703.989
        48.0004         44.0004
   1255537.81546   1037965.66645  24682896.0474   24682900.1034   24682895.100
        40.0004         35.0004
 -25932367.14548 -20144828.61948  20804654.3544   20804661.7624   20804653.838
        52.0004         48.0004
 -10615139.55847  -8261156.59546  23567576.7224   23567586.5984   23567578.128
        44.0004         40.0004
  -5647520.55647  -4400967.46346  23210328.2174   23210338.8034   23210328.052
        45.0004         40.0004
  -4730809.38147  -3664403.88346  23348914.7354   23348923.4624   23348915.009
        45.0004         40.0004
  -3916482.56546  -2989617.82345  23769854.0344   23769862.5984   23769854.252
        40.0004         35.0004
 14  5 16  0 21 30.0000000  0 12G07G01G09G30G26G17G13G04G10G28G02G20
 -19837339.01348 -15428914.11347  20928853.1674   20928859.1084   20928852.654
        52.0004         47.0004
    -40521.67846     -2572.88246  24672784.5884   24672802.6594   24672783.601
        41.0004         36.0004
 -20945808.16749 -16307606.47448  19982964.9074   19982972.4024   19982965.265
        54.0004         50.0004
 -10452668.04249  -8128629.21948  20198535.2614   20198543.8204   20198534.882
        55.0004         50.0004
  -2129136.22347  -1636999.11146  24048191.7064   24048207.0124   24048192.596
        43.0004         38.0004
 -11525352.88548  -8929427.99947  22951741.3164   22951752.4144   22951740.105
        48.0004         44.0004
   1319251.26646   1087612.57545  24695020.3934   24695028.8534   24695019.350
        40.0004         35.0004
 -25985489.73048 -20186222.77148  20794545.5444   20794552.5754   20794545.260
        52.0004         48.0004
 -10679507.03447  -8311312.90246  23555327.8264   23555338.1754   23555328.948
        44.0004         40.0004
  -5703173.14547  -4444332.92046  23199737.9004   23199748.7964   23199737.775
        45.0004         40.0004
  -4815800.34647  -3730630.43146  23332742.3444   23332749.3584   23332742.014
        45.0004         40.0004
  -3894644.64846  -2972601.26245  23774011.8904   23774019.7504   23774010.532
        40.0004         35.0004
 14  5 16  0 22  0.0000000  0 12G07G01G09G30G26G17G13G04G10G28G02G20
 -19769223.84648 -15375837.33247  20941815.2864   20941821.0044   20941814.824
        52.0004         47.0004
     65628.66146     80141.70146  24692985.7044   24693000.6614   24692982.982
        40.0004         36.0004
 -20940392.34349 -16303386.28248  19983996.0224   19984002.6734   19983996.157
        54.0004         50.0004
 -10443788.46649  -8121710.01548  20200225.0474   20200233.7354   20200225.092
        55.0004         50.0004
  -2129364.29447  -1637176.55846  24048147.7534   24048162.8444   24048147.972
        43.0004         38.0004
 -11483164.02348  -8896553.54247  22959768.7784   22959780.1294   22959768.128
        48.0004         44.0004
   1382728.81546   1137075.65345  24707097.0534   24707107.2474   24707098.512
        39.0004         35.0004
 -26038121.88948 -20227234.78148  20784530.1184   20784537.0364   20784529.867
        52.0004         48.0004
 -10744035.16347  -8361594.39146  23543048.8934   23543057.9674   23543048.839
        44.0004         40.0004
  -5758947.35147  -4487793.14546  23189123.5304   23189134.2084   23189123.855
        45.0004         41.0004
  -4900532.82147  -3796655.56646  23316617.3304   23316625.4154   23316617.976
        45.0004         40.0004
  -3872502.31546  -2955347.53745  23778224.4484   23778231.6344   23778222.767
        39.0004         35.0004
 14  5 16  0 22 30.0000000  0 12G07G01G09G30G26G17G13G04G10G28G02G20
 -19700645.95148 -15322399.97547  20954865.2754   20954871.2964   20954864.593
        52.0004         47.0004
    171855.41846    162915.83846  24713198.0234   24713215.4234   24713198.109
        40.0004         36.0004
 -20934368.88749 -16298692.61048  19985141.7414   19985149.0164   19985141.596
        54.0004         50.0004
 -10434339.78549  -8114347.34648  20202022.8984   20202031.5534   20202022.946
        55.0004         50.0004
  -2129328.04747  -1637148.07246  24048154.4904   24048170.2794   24048154.175
        43.0004         38.0004
 -11441020.95748  -8863714.78647  22967788.3384   22967800.0544   22967788.126
        48.0004         44.0004
   1445965.23746   1186350.83845  24719132.8704   24719142.2394   24719131.895
        39.0004         35.0004
 -26090265.73448 -20267866.29648  20774607.2294   20774614.3414   20774606.809
        52.0004         48.0004
 -10808726.94747  -8412003.41546  23530737.7934   23530747.7904   23530738.631
        44.0004         40.0004
  -5814845.17947  -4531349.69746  23178485.4044   23178497.1174   23178487.082
        45.0004         41.0004
  -4985008.82447  -3862480.83946  23300542.2084   23300551.2504   23300542.910
        45.0004         40.0004
  -3850058.68346  -2937859.01745  23782494.8344   23782507.5054   23782495.734
        39.0004         35.0004
 14  5 16  0 23  0.0000000  0 12G07G01G09G30G26G17G13G04G10G28G02G20
 -19631605.75548 -15268602.38447  20968002.4704   20968008.8034   20968002.219
        52.0004         47.0004
    278158.12846    245749.16845  24733426.7384   24733443.4614   24733426.413
        40.0004         35.0004
 -20927736.15849 -16293524.18348  19986404.4024   19986410.9274   19986404.418
        54.0004         50.0004
 -10424320.21349  -8106539.83548  20203929.9504   20203938.3614   20203929.639
        55.0004         50.0004
  -2129027.25647  -1636913.43146  24048211.9314   24048227.5184   24048212.220
        43.0004         38.0004
 -11398923.64748  -8830911.67747  22975799.2584   22975810.0584   22975798.470
        48.0004         43.0004
   1508961.83246   1235439.12545  24731120.2584   24731127.9294   24731119.537
        39.0004         34.0004
 -26141917.74048 -20308114.55548  20764778.1174   20764785.4114   20764777.593
        52.0004         48.0004
 -10873578.82647  -8462537.18946  23518396.1894   23518406.3464   23518397.469
        44.0004         40.0004
  -5870862.65247  -4574999.47846  23167826.5924   23167837.4384   23167827.028
        46.0004         41.0004
  -5069224.00147  -3928102.88746  23284516.7484   23284524.2554   23284517.097
        45.0004         40.0004
  -3827310.62446  -2920133.27045  23786820.9714   23786834.9164   23786823.461
        39.0004         35.0004
 14  5 16  0 23 30.0000000  0 12G07G01G09G30G26G17G13G04G10G28G02G20
 -19562106.76548 -15214447.29747  20981227.6284   20981234.2174   20981227.606
        52.0004         47.0004
    384533.26746    328638.92545  24753670.7684   24753684.6854   24753668.683
        39.0004         35.0004
 -20920495.67349 -16287882.17648  19987781.9414   19987788.7304   19987781.765
        54.0004         50.0004
 -10413731.07249  -8098288.50048  20205944.7744   20205953.2024   20205944.695
        55.0004         50.0004
  -2128464.75447  -1636474.85946  24048319.6544   24048334.3834   24048319.481
        43.0004         38.0004
 -11356875.20448  -8798146.65847  22983801.0994   22983811.7664   22983800.293
        48.0004         43.0004
   1571716.73546   1284339.10645  24743060.7234   24743069.6944   24743061.383
        39.0004         35.0004
 -26193077.06148 -20347978.90348  20755043.2514   20755050.1324   20755042.972
        52.0004         48.0004
 -10938590.07147  -8513195.14146  23506026.1334   23506035.2784   23506025.657
        44.0004         40.0004
  -5926998.66247  -4618741.63646  23157144.2904   23157155.9614   23157144.460
        46.0004         41.0004
  -5153177.29247  -3993520.86146  23268540.5314   23268548.9944   23268541.023
        45.0004         41.0004
  -3804257.80446  -2902170.05845  23791208.7644   23791220.5724   23791210.641
        39.0004         35.0004
 14  5 16  0 24  0.0000000  0 12G07G01G09G30G26G17G13G04G10G28G02G20
 -19492150.20848 -15159935.66047  20994540.2014   20994546.0714   20994539.823
        52.0004         47.0004
    490979.49446    411584.06745  24773925.4554   24773943.2514   24773924.814
        39.0004         35.0004
 -20912646.70749 -16281766.03648  19989275.5804   19989282.3014   19989275.236
        54.0004         49.0004
 -10402571.42249  -8089592.61848  20208068.0944   20208076.8214   20208068.088
        55.0004         50.0004
  -2127641.22047  -1635832.88646  24048475.4304   24048491.5564   24048474.921
        43.0004         38.0004
 -11314876.54948  -8765420.42947  22991792.6394   22991804.3044   22991792.346
        48.0004         43.0004
   1634230.23546   1333050.97745  24754958.5144   24754966.2784   24754957.298
        39.0004         35.0004
 -26243740.54848 -20387456.88848  20745401.7574   20745408.7384   20745401.235
        52.0004         48.0004
 -11003757.81647  -8563975.04246  23493624.7034   23493634.0784   23493625.075
        44.0004         40.0004
  -5983249.76147  -4662573.47746  23146439.5174   23146449.4274   23146440.069
        46.0004         41.0004
  -5236864.94947  -4058731.85646  23252615.2984   23252622.4134   23252615.955
        45.0004         41.0004
  -3780898.17646  -2883967.76045  23795656.2064   23795668.5664   23795655.736
        39.0004         34.0004
 14  5 16  0 24 30.0000000  0 12G07G01G09G30G26G17G13G04G10G28G02G20
 -19421739.79948 -15105070.36947  21007939.1854   21007944.8084   21007938.585
        52.0004         47.0004
 -21458386.99446 -16691818.36745  24794193.5704   24794210.8224   24794193.802
        39.0004         34.0004
 -20904191.31749 -16275177.35348  19990884.3234   19990891.3454   19990884.548
        54.0004         50.0004
 -10390842.96449  -8080453.50748  20210299.6594   20210308.7154   20210299.815
        55.0004         50.0004
  -2126559.89647  -1634990.05646  24048680.9134   24048695.9964   24048681.030
        43.0004         38.0004
 -11272930.98248  -8732735.55147  22999774.6554   22999786.3564   22999774.477
        48.0004         43.0004
   1696500.18846   1381573.08845  24766808.5894   24766815.2184   24766805.942
        39.0004         34.0004
 -26293907.98348 -20426548.33648  20735855.5494   20735862.7944   20735855.324
        52.0004         48.0004
 -11069081.76047  -8614876.65946  23481193.5254   23481203.2574   23481194.372
        44.0004         40.0004
  -6039615.39747  -4706494.54747  23135714.4824   23135724.2124   23135713.987
        46.0004         42.0004
  -5320286.20847  -4123735.26746  23236740.8344   23236748.3504   23236741.565
        45.0004         41.0004
  -3757231.89846  -2865526.55045  23800160.8524   23800169.2284   23800158.862
        39.0004         34.0004
 14  5 16  0 25  0.0000000  0 12G07G01G09G30G26G17G13G04G10G28G02G20
 -19350876.85048 -15049852.46047  21021424.0374   21021429.6294   21021423.293
        52.0004         47.0004
 -21351807.26546 -16608769.18445  24814474.4674   24814493.7744   24814474.287
        38.0004         34.0004
 -20895128.53849 -16268115.38648  19992609.0984   19992615.6444   19992608.911
        54.0004         50.0004
 -10378544.71549  -8070870.40348  20212640.3304   20212648.8284   20212640.125
        55.0004         50.0004
  -2125221.20747  -1633946.65646  24048935.8874   24048951.1244   24048935.492
        43.0004         38.0004
 -11231039.15748  -8700092.56147  23007746.1704   23007757.6014   23007745.836
        48.0004         43.0004
   1758527.67746   1429906.23945  24778611.7034   24778618.3994   24778610.463
        39.0004         35.0004
 -26343576.23148 -20465250.81348  20726404.0314   20726410.5454   20726403.472
        52.0004         48.0004
 -11134559.07947  -8665897.78446  23468733.0854   23468742.0774   23468734.243
        44.0004         40.0004
  -6096091.85247  -4750501.97847  23124965.9544   23124976.5714   23124966.625
        46.0004         42.0004
  -5403437.37047  -4188528.21746  23220917.8554   23220924.8364   23220917.736
        45.0004         41.0004
  -3733256.56246  -2846844.48845  23804721.6894   23804730.5974   23804721.372
        39.0004         35.0004
 14  5 16  0 25 30.0000000  0 12G07G01G09G30G26G17G13G04G10G28G02G20
 -19279565.68448 -14994285.28847  21034993.9154   21034999.1524   21034993.371
        52.0004         47.0004
 -21245165.53556 -16525671.68555  24834767.7785   24834784.2745   24834768.394
        38.0004         33.0004
 -20885460.59749 -16260581.86748  19994448.9524   19994455.6764   19994448.849
        54.0004         50.0004
 -10365678.76349  -8060844.93448  20215088.4284   20215096.9014   20215088.415
        55.0004         50.0004
  -2123628.70047  -1632705.49446  24049238.3364   24049252.9034   24049238.988
        43.0004         38.0004
 -11189204.84448  -8667494.38447  23015707.4874   23015718.6714   23015706.871
        48.0004         43.0004
   1820309.98446   1478048.32545  24790366.7984   24790376.1774   24790367.442
        39.0004         35.0004
 -26392745.27348 -20503564.29048  20717046.8824   20717054.4804   20717046.389
        52.0004         48.0004
 -11200189.75447  -8717038.40646  23456245.0894   23456253.2924   23456245.291
        45.0004         40.0004
  -6152678.97347  -4794595.65247  23114196.9274   23114208.9874   23114198.281
        46.0004         42.0004
  -5486317.94047  -4253110.32546  23205146.2854   23205153.2304   23205146.158
        45.0004         41.0004
  -3708972.84546  -2827922.12745  23809341.8824   23809353.6534   23809342.894
        39.0004         35.0004
 14  5 16  0 26  0.0000000  0 12G07G01G09G30G26G17G13G04G10G28G02G20
 -19207806.91148 -14938369.33747  21048649.3334   21048654.9554   21048648.538
        52.0004         47.0004
 -21138462.62256 -16442526.48655  24855075.0445   24855089.2235   24855072.873
        38.0004         33.0004
 -20875186.25249 -16252575.82648  19996403.8984   19996410.6874   19996403.827
        54.0004         50.0004
 -10352243.73449  -8050376.03048  20217645.0194   20217653.4804   20217645.074
        55.0004         50.0004
  -2121782.68147  -1631266.78646  24049589.2614   24049605.0714   24049589.034
        43.0004         38.0004
 -11147428.11448  -8634941.09047  23023657.1734   23023667.7674   23023656.772
        48.0004         43.0004
   1881848.10046   1526000.13345  24802081.1734   24802085.1124   24802077.992
        39.0004         34.0004
 -26441411.75548 -20541486.17348  20707786.0354   20707793.4334   20707786.322
        52.0004         48.0004
 -11265970.32247  -8768295.83946  23443726.9504   23443735.4654   23443727.933
        45.0004         40.0004
  -6209372.34647  -4838772.12547  23103409.3604   23103418.2004   23103409.740
        46.0004         42.0004
  -5568924.39747  -4317478.82646  23189425.8704   23189434.0654   23189426.400
        45.0004         41.0004
  -3684377.91146  -2808757.28645  23814022.0614   23814034.9084   23814023.609
        39.0004         35.0004
 14  5 16  0 26 30.0000000  0 11G07G09G30G26G17G13G04G10G28G02G20
 -19135604.24048 -14882107.49147  21062388.6074   21062394.0194   21062388.352
        52.0004         47.0004
 -20864307.83849 -16244099.08248  19998473.9774   19998480.4264   19998473.920
        54.0004         50.0004
 -10338241.41549  -8039465.08648  20220309.4794   20220318.2984   20220309.398
        55.0004         50.0004
  -2119686.12347  -1629632.84946  24049988.9024   24050002.9484   24049989.336
        43.0004         38.0004
 -11105712.14848  -8602435.14447  23031595.0254   23031606.5324   23031594.796
        48.0004         43.0004
   1943140.10046   1573760.17445  24813738.5824   24813749.4054   24813740.328
        39.0004         34.0004
 -26489575.25048 -20579016.11348  20698621.2014   20698627.8024   20698619.983
        52.0004         48.0004
 -11331900.58547  -8819669.92046  23431180.9924   23431189.3354   23431181.108
        45.0004         40.0004
  -6266170.87147  -4883030.52246  23092600.4444   23092609.7854   23092600.955
        46.0004         41.0004
  -5651255.32647  -4381632.63246  23173758.4314   23173766.6934   23173759.582
        46.0004         41.0004
  -3659471.82846  -2789349.96845  23818761.2824   23818773.7004   23818762.283
        39.0004         35.0004
 14  5 16  0 27  0.0000000  0 12G07G01G09G30G26G17G13G04G10G28G02G20
 -19062960.61148 -14825502.04247  21076211.8314   21076218.4634   21076211.662
        52.0004         47.0004
 -20924886.78646 -16276103.70645  24895714.1984   24895730.8244   24895714.751
        38.0004         33.0004
 -20852825.95949 -16235152.10448  20000658.7474   20000665.5574   20000658.860
        54.0004         50.0004
 -10323672.28249  -8028112.47248  20223082.2854   20223090.2844   20223082.109
        55.0004         50.0004
  -2117341.16747  -1627805.36346  24050434.4704   24050448.0604   24050433.897
        43.0004         38.0004
 -11064059.08348  -8569978.20247  23039520.9594   23039532.9764   23039520.850
        48.0004         43.0004
   2004185.45646   1621327.99945  24825357.5994   24825364.6864   24825357.588
        39.0004         35.0004
 -26537234.25948 -20616152.94048  20689551.9144   20689558.7264   20689551.398
        52.0004         48.0004
 -11397978.85147  -8871159.33446  23418606.6574   23418614.0494   23418606.393
        45.0004         40.0004
  -6323072.81847  -4927369.51746  23081772.2964   23081783.5134   23081772.741
        46.0004         41.0004
  -5733308.57947  -4445570.07246  23158144.3714   23158151.2784   23158145.102
        46.0004         41.0004
  -3634253.58046  -2769699.40645  23823562.3594   23823573.2254   23823561.658
        39.0004         34.0004
 14  5 16  0 27 30.0000000  0 12G07G01G09G30G26G17G13G04G10G28G02G20
 -18989875.76548 -14768552.78647  21090119.9534   21090125.1104   21090119.553
        52.0004         47.0004
                 -16192828.06055                  24916070.6455   24916051.374
                        32.0004
 -20840738.59849 -16225733.32448  20002958.7154   20002965.5974   20002958.891
        54.0004         50.0004
 -10308534.32049  -8016316.60948  20225962.6184   20225971.0224   20225962.527
        55.0004         50.0004
  -2114747.03047  -1625783.70946  24050928.7834   24050942.6374   24050928.682
        43.0004         38.0004
 -11022468.25047  -8537569.75247  23047435.7254   23047447.4404   23047435.465
        47.0004         43.0004
   2064985.82146   1668704.92645  24836927.6724   24836933.9234   24836926.992
        39.0004         35.0004
 -26584384.27348 -20652893.15948  20680579.2774   20680586.1394   20680578.725
        52.0004         48.0004
 -11464200.93847  -8922760.81046  23406004.0874   23406013.9094   23406005.087
        45.0004         40.0004
  -6380073.43547  -4971785.41046  23070925.0254   23070936.8394   23070925.822
        46.0004         41.0004
  -5815079.52647  -4509287.52746  23142583.5064   23142591.7954   23142583.940
        46.0004         41.0004
  -3608720.03746  -2749803.16445  23828418.2624   23828429.8474   23828420.175
        39.0004         34.0004
 14  5 16  0 28  0.0000000  0 12G07G01G09G30G26G17G13G04G10G28G02G20
 -18916358.57948 -14711266.63847  21104109.5164   21104115.6114   21104108.887
        52.0004         47.0004
 -20711099.72356 -16109516.28055  24936395.1815   24936414.6825   24936397.829
        37.0004         33.0004
 -20828052.88649 -16215848.29748  20005372.8564   20005379.6944   20005372.731
        54.0004         50.0004
 -10292834.20249  -8004082.70848  20228950.4474   20228958.5774   20228950.395
        55.0004         50.0004
  -2111911.93447  -1623574.29746  24051467.4504   24051482.0664   24051466.674
        42.0004         38.0004
 -10980947.97648  -8505216.30647  23055336.6024   23055347.8664   23055336.690
        48.0004         43.0004
 -12053245.73746  -9332514.44745  24848450.0114   24848457.3824   24848449.238
        39.0004         34.0004
 -26631030.41948 -20689240.74448  20671702.5534   20671709.6574   20671702.046
        52.0004         48.0004
 -11530571.24347  -8974477.80346  23393374.9564   23393383.2824   23393374.973
        45.0004         40.0004
  -6437176.70747  -5016281.28946  23060059.1194   23060068.9004   23060059.152
        46.0004         41.0004
  -5896571.99847  -4572787.99246  23127075.8834   23127083.1554   23127076.943
        46.0004         41.0004
  -3582876.09946  -2729665.06145  23833339.4884   23833350.7804   23833337.576
        39.0004         34.0004
 14  5 16  0 28 30.0000000  0 11G07G09G30G26G17G13G04G10G28G02G20
 -18842406.09048 -14653641.29647  21118182.5734   21118187.9964   21118181.701
        51.0004         47.0004
 -20814763.83249 -16205493.13148  20007901.5814   20007908.3824   20007901.665
        54.0004         50.0004
 -10276566.88849  -7991406.83448  20232045.7264   20232054.0054   20232045.758
        55.0004         50.0004
  -2108832.08647  -1621174.16146  24052053.4954   24052067.1464   24052053.183
        42.0004         38.0004
 -10939494.66948  -8472915.02247  23063225.5774   23063236.6214   23063225.260
        48.0004         43.0004
 -11992944.01246  -9285526.08945  24859927.3894   24859934.5364   24859924.855
        39.0004         34.0004
 -26677165.14148 -20725189.82748  20662923.4974   20662930.9374   20662923.262
        53.0004         48.0004
 -11597082.59247  -9026304.67846  23380718.0294   23380726.2834   23380718.182
        45.0004         40.0004
  -6494374.69747  -5060850.98746  23049175.4184   23049186.3094   23049174.849
        46.0004         41.0004
  -5977778.36047  -4636065.51846  23111623.4884   23111629.2934   23111623.468
        46.0004         41.0004
  -3556715.15546  -2709279.96645  23838316.6814   23838324.5194   23838316.925
        39.0004         35.0004
 14  5 16  0 29  0.0000000  0 11G07G09G30G26G17G13G04G10G28G02G20
 -18768023.67548 -14595680.93847  21132336.1834   21132342.3184   21132336.020
        51.0004         47.0004
 -20800875.25249 -16194670.80548  20010544.6624   20010551.4054   20010544.542
        54.0004         50.0004
 -10259735.96949  -7978291.78548  20235248.5484   20235256.6344   20235248.572
        55.0004         50.0004
  -2105512.56747  -1618587.28346  24052683.6024   24052699.8574   24052684.300
        43.0004         38.0004
 -10898113.30148  -8440669.78847  23071099.7754   23071111.3544   23071099.378
        48.0004         43.0004
 -11932892.55356  -9238732.72655  24871349.2925   24871358.5135   24871351.354
        39.0004         34.0004
 -26722789.88048 -20760741.51348  20654241.2954   20654248.4204   20654240.922
        53.0004         48.0004
 -11663735.87847  -9078242.16846  23368034.4924   23368041.3564   23368034.367
        45.0004         40.0004
  -6551668.17747  -5105495.09446  23038271.5474   23038281.9214   23038272.485
        45.0004         41.0004
  -6058699.42847  -4699120.74446  23096224.0134   23096231.2314   23096224.371
        46.0004         41.0004
  -3530239.42146  -2688649.52645  23843353.9994   23843365.0414   23843353.984
        39.0004         34.0004
 14  5 16  0 29 30.0000000  0 11G07G09G30G26G17G13G04G10G28G02G20
 -18693212.29448 -14537386.33147  21146572.5394   21146578.7654   21146572.386
        51.0004         47.0004
 -20786386.36049 -16183380.70848  20013301.6214   20013308.1464   20013301.570
        54.0004         50.0004
 -10242340.40949  -7964736.76448  20238558.9604   20238567.2014   20238558.709
        55.0004         50.0004
  -2101953.67947  -1615813.86646  24053361.7514   24053376.3074   24053361.154
        42.0004         38.0004
 -10856803.86548  -8408480.61347  23078960.7784   23078973.0924   23078960.490
        48.0004         43.0004
 -11873090.61146  -9192133.79645  24882731.4074   24882738.4604   24882731.529
        39.0004         34.0004
 -26767901.65648 -20795893.48648  20645656.9564   20645663.8084   20645656.651
        53.0004         48.0004
 -11730527.95547  -9130287.79646  23355323.5574   23355333.5394   23355324.016
        45.0004         40.0004
  -6609052.80747  -5150210.22646  23027351.7824   23027361.4754   23027352.199
        45.0004         41.0004
  -6139331.65047  -4761950.88946  23080880.7994   23080887.1664   23080881.209
        46.0004         41.0004
  -3503446.04446  -2667771.62545  23848452.1234   23848462.8474   23848452.908
        39.0004         34.0004
 14  5 16  0 30  0.0000000  0 11G07G09G30G26G17G13G04G10G28G02G20
 -18617977.41448 -14478761.72247  21160889.4024   21160895.7714   21160889.001
        51.0004         47.0004
 -20771300.49849 -16171625.43448  20016172.0924   20016178.8694   20016172.301
        54.0004         50.0004
 -10224383.26549  -7950744.14048  20241976.2094   20241984.2654   20241976.067
        55.0004         50.0004
  -2098159.64247  -1612857.23146  24054083.2104   24054097.1474   24054083.145
        42.0004         38.0004
 -10815570.67648  -8376350.85747  23086806.9434   23086818.7234   23086806.915
        48.0004         43.0004
 -11813541.25446  -9145731.67045  24894060.8664   24894071.8854   24894062.838
        39.0004         34.0004
 -26812501.30848 -20830646.41348  20637170.1094   20637176.5824   20637169.494
        53.0004         48.0004
 -11797459.70347  -9182442.27446  23342586.8884   23342595.8194   23342587.583
        45.0004         40.0004
  -6666529.03447  -5194996.73546  23016415.4844   23016424.5374   23016414.747
        45.0004         41.0004
  -6219674.84247  -4824555.80146  23065592.0114   23065597.9564   23065592.596
        46.0004         41.0004
  -3476336.58746  -2646647.40545  23853613.7094   23853623.3454   23853612.134
        39.0004         34.0004
 14  5 16  0 30 30.0000000  0 11G07G09G30G26G17G13G04G10G28G02G20
 -18542317.23748 -14419805.71947  21175287.1004   21175292.7634   21175287.068
        51.0004         47.0004
 -20755614.06249 -16159402.18948  20019157.5044   20019164.1444   20019157.438
        54.0004         50.0004
 -10205860.72549  -7936310.95148  20245500.5844   20245508.8434   20245500.409
        55.0004         50.0004
  -2094128.00647  -1609715.44646  24054851.0844   24054864.3404   24054850.534
        42.0004         38.0004
 -10774411.28648  -8344278.60147  23094639.1724   23094651.1294   23094639.387
        48.0004         43.0004
 -11754240.20946  -9099523.06145  24905350.7974   24905355.7394   24905348.166
        39.0004         34.0004
 -26856582.97548 -20864995.71048  20628781.1884   20628788.5174   20628780.967
        53.0004         48.0004
 -11864524.97747  -9234700.78346  23329824.3414   23329832.8124   23329825.573
        45.0004         40.0004
  -6724089.92647  -5239849.22546  23005460.7104   23005469.1894   23005461.282
        46.0004         41.0004
  -6299722.46647  -4886930.40746  23050358.1114   23050365.9784   23050358.929
        46.0004         41.0004
  -3448905.78746  -2625272.76645  23858827.4694   23858842.4744   23858831.560
        38.0004         34.0004
 14  5 16  0 31  0.0000000  0 11G07G09G30G26G17G13G04G10G28G02G20
 -18466239.23348 -14360524.13447  21189764.6434   21189770.1234   21189763.760
        51.0004         47.0004
 -20739332.99849 -16146715.59448  20022255.6584   20022262.0714   20022255.562
        54.0004         50.0004
 -10186778.46749  -7921441.61748  20249132.0224   20249139.9354   20249132.126
        55.0004         50.0004
  -2089865.85147  -1606394.04046  24055660.6094   24055675.7324   24055660.927
        43.0004         38.0004
 -10733332.65848  -8312269.27147  23102457.2264   23102468.2124   23102456.234
        48.0004         43.0004
 -11695193.54746  -9053512.65845  24916585.7244   24916593.7124   24916584.456
        39.0004         34.0004
 -26900150.06748 -20898944.03048  20620490.5674   20620497.7504   20620490.105
        53.0004         48.0004
 -11931726.70447  -9287065.63646  23317036.0924   23317044.7024   23317037.647
        45.0004         40.0004
  -6781738.64947  -5284770.15546  22994491.4354   22994500.3154   22994490.812
        46.0004         41.0004
  -6379477.39047  -4949076.95546  23035182.1074   23035189.1694   23035181.843
        46.0004         41.0004
  -3421157.82446  -2603651.00545  23864109.6644   23864121.1414   23864112.255
        39.0004         34.0004
 14  5 16  0 31 30.0000000  0 11G07G09G30G26G17G13G04G10G28G02G20
 -18389743.97648 -14300917.41447  21204320.7644   21204326.7414   21204320.323
        51.0004         47.0004
 -20722456.06549 -16133564.68448  20025466.8874   20025473.6814   20025466.804
        54.0004         50.0004
 -10167135.17449  -7906135.10948  20252869.8494   20252878.0704   20252869.416
        55.0004         50.0004
  -2085373.07747  -1602892.92546  24056516.0094   24056528.9364   24056515.914
        43.0004         38.0004
 -10692334.53848  -8280322.67547  23110258.3734   23110269.6574   23110257.991
        48.0004         43.0004
 -11636399.60346  -9007699.15145  24927773.8524   24927783.3164   24927771.187
        39.0004         34.0004
 -26943199.10348 -20932488.67848  20612299.2744   20612305.6284   20612298.934
        53.0004         48.0004
 -11999061.18547  -9339533.92946  23304223.6454   23304232.2754   23304222.990
        45.0004         40.0004
  -6839470.67647  -5329755.99646  22983504.6464   22983514.3034   22983504.749
        46.0004         41.0004
  -6458935.56547  -5010992.25046  23020060.8794   23020067.7614   23020061.964
        46.0004         41.0004
  -3393089.37046  -2581779.48745  23869451.2144   23869465.1954   23869452.175
        39.0004         34.0004
 14  5 16  0 32  0.0000000  0 11G07G09G30G26G17G13G04G10G28G02G20
 -18312833.43448 -14240987.10447  21218956.7204   21218962.9344   21218956.360
        51.0004         47.0004
 -20704984.17249 -16119950.17248  20028791.6304   20028798.1244   20028791.933
        54.0004         50.0004
 -10146931.48849  -7890391.93848  20256714.3794   20256722.7144   20256714.599
        55.0004         50.0004
  -2080651.50547  -1599213.53546  24057414.7004   24057428.8804   24057414.665
        43.0004         38.0004
 -10651418.75448  -8248440.24247  23118044.5274   23118055.8394   23118043.949
        48.0004         43.0004
 -11577858.57846  -8962082.76045  24938914.1344   24938920.0894   24938911.890
        39.0004         34.0004
 -26985728.54648 -20965628.44248  20604205.3754   20604212.3024   20604204.824
        53.0004         48.0004
 -12066526.45647  -9392104.14546  23291385.3734   23291392.5474   23291384.944
        45.0004         40.0004
  -6897283.49747  -5374804.76846  22972501.9564   22972512.3814   22972502.912
        46.0004         41.0004
  -6538094.65747  -5072674.50946  23004997.0484   23005003.9424   23004997.411
        46.0004         41.0004
  -3364699.55146  -2559657.58645  23874853.9014   23874867.3514   23874856.043
        39.0004         34.0004
 14  5 16  0 32 30.0000000  0 11G07G09G30G26G17G13G04G10G28G02G20
 -18235511.13248 -14180735.93947  21233670.4854   21233676.3004   21233669.834
        51.0004         47.0004
 -20686918.29249 -16105872.81148  20032229.3844   20032235.9484   20032229.487
        54.0004         50.0004
 -10126167.98349  -7874212.54148  20260665.5824   20260673.8864   20260665.445
        55.0004         50.0004
  -2075702.99547  -1595357.29346  24058356.6964   24058369.2154   24058355.942
        43.0004         38.0004
 -10610586.86748  -8216623.17947  23125814.2494   23125826.0284   23125813.992
        48.0004         43.0004
 -11519571.16946  -8916663.98245  24950004.3694   24950010.1974   24950003.686
        39.0004         34.0004
 -27027737.00148 -20998362.24148  20596211.9614   20596218.5594   20596211.264
        53.0004         48.0004
 -12134120.46447  -9444774.67846  23278522.7214   23278530.5264   23278522.196
        45.0004         40.0004
  -6955174.55847  -5419914.52446  22961486.7854   22961496.9244   22961486.377
        46.0004         41.0004
  -6616952.29147  -5134121.86646  22989992.0714   22989997.9824   22989991.998
        46.0004         41.0004
  -3335987.37346  -2537284.47445  23880318.0204   23880330.2624   23880319.317
        39.0004         34.0004
 14  5 16  0 33  0.0000000  0 11G07G09G30G26G17G13G04G10G28G02G20
 -18157779.74248 -14120165.99947  21248462.4884   21248468.2244   21248462.022
        51.0004         47.0004
 -20668259.56449 -16091333.49248  20035780.0344   20035786.5874   20035780.282
        54.0004         50.0004
 -10104845.71349  -7857597.74448  20264723.0254   20264731.2694   20264723.001
        55.0004         50.0004
  -2070529.81647  -1591325.98846  24059340.5244   24059353.6904   24059340.495
        43.0004         38.0004
 -10569841.00648  -8184873.14647  23133568.3564   23133580.1334   23133567.743
        48.0004         43.0004
 -11461538.07746  -8871443.37045  24961046.7094   24961055.2774   24961047.016
        39.0004         34.0004
 -27069223.06748 -21030688.99848  20588317.3754   20588323.7814   20588317.029
        53.0004         48.0004
 -12201841.74447  -9497544.37746  23265633.5574   23265643.2624   23265635.124
        45.0004         40.0004
  -7013141.67747  -5465083.53546  22950455.0694   22950465.0524   22950455.955
        46.0004         41.0004
  -6695506.82047  -5195333.03346  22975043.1664   22975049.2784   22975043.852
        46.0004         41.0004
  -3306952.29146  -2514659.75745  23885844.8984   23885853.1254   23885845.197
        39.0004         35.0004
 14  5 16  0 33 30.0000000  0 11G07G09G30G26G17G13G04G10G28G02G20
 -18079642.83548 -14059280.07847  21263331.2794   21263336.8034   21263330.852
        51.0004         47.0004
 -20649010.06949 -16076333.83448  20039443.0694   20039449.7624   20039443.043
        54.0004         50.0004
 -10082966.46149  -7840548.94148  20268886.5974   20268894.7774   20268886.361
        55.0004         50.0004
  -2065135.04947  -1587122.01746  24060366.7864   24060380.3994   24060366.228
        43.0004         38.0004
 -10529184.23847  -8153192.54047  23141303.8654   23141315.4644   23141304.395
        47.0004         43.0004
 -11403760.63246  -8826421.93445  24972038.9524   24972048.6844   24972041.334
        38.0004         34.0004
 -27110186.63548 -21062608.60148  20580521.6514   20580529.2894   20580521.326
        53.0004         48.0004
 -12269689.66647  -9550412.76546  23252723.6554   23252731.7794   23252724.673
        45.0004         40.0004
  -7071183.55947  -5510310.79346  22939410.2244   22939420.2884   22939410.262
        46.0004         41.0004
  -6773757.13847  -5256307.16146  22960152.2434   22960158.9794   22960152.145
        46.0004         41.0004
  -3277594.63746  -2491783.69745  23891430.5234   23891441.3774   23891430.792
        39.0004         35.0004
 14  5 16  0 34  0.0000000  0 11G07G09G30G26G17G13G04G10G28G02G20
 -18001101.87848 -13998079.30747  21278276.7324   21278282.4824   21278276.318
        51.0004         47.0004
 -20629169.57649 -16060873.66248  20043218.5564   20043225.3544   20043218.666
        54.0004         50.0004
 -10060529.84249  -7823065.82148  20273156.1814   20273163.9474   20273156.219
        55.0004         50.0004
  -2059519.28047  -1582745.85746  24061434.7474   24061447.6324   24061434.778
        42.0004         38.0004
 -10488616.93347  -8121581.65047  23149024.9204   23149035.7094   23149023.732
        47.0004         43.0004
 -11346238.14646  -8781599.18945  24982988.8784   24982994.4474   24982987.798
        38.0004         34.0004
 -27150624.86948 -21094118.86448  20572826.6984   20572834.0984   20572826.553
        53.0004         48.0004
 -12337660.63947  -9603377.03746  23239789.6804   23239797.9844   23239790.372
        45.0004         41.0004
  -7129296.72447  -5555593.59646  22928351.3474   22928361.3164   22928351.851
        46.0004         41.0004
  -6851699.65847  -5317041.45047  22945320.7784   22945326.2144   22945320.196
        46.0004         42.0004
  -3247911.97146  -2468654.36845  23897078.5264   23897092.2784   23897079.575
        39.0004         35.0004
 14  5 16  0 34 30.0000000  0 11G07G09G30G26G17G13G04G10G28G02G20
 -17922161.43948 -13936567.25147  21293298.9674   21293304.8444   21293298.477
        51.0004         46.0004
 -20608740.74149 -16044955.03848  20047105.9964   20047112.7264   20047106.003
        54.0004         50.0004
 -10037538.12249  -7805150.15448  20277531.2214   20277539.5074   20277530.999
        55.0004         50.0004
  -2053686.06147  -1578200.26546  24062546.0384   24062558.3614   24062545.035
        42.0004         38.0004
 -10448142.57947  -8090043.19147  23156726.4714   23156738.1704   23156726.087
        47.0004         43.0004
 -11288972.77246  -8736976.76445  24993884.7394   24993892.3354   24993884.778
        38.0004         34.0004
 -27190538.24448 -21125220.14848  20565231.3204   20565237.8964   20565230.935
        53.0004         48.0004
 -12405754.41647  -9656437.00446  23226832.4654   23226839.6144   23226832.454
        45.0004         41.0004
  -7187479.96847  -5600931.00347  22917280.5904   22917289.9074   22917279.769
        46.0004         42.0004
  -6929333.82747  -5377535.46447  22930547.3994   22930552.6614   22930547.223
        46.0004         42.0004
  -3217904.96146  -2445272.32345  23902788.9714   23902798.9174   23902791.204
        40.0004         35.0004
 14  5 16  0 35  0.0000000  0 11G07G09G30G26G17G13G04G10G28G02G20
 -17842823.45248 -13874745.41547  21308396.0154   21308401.5974   21308395.795
        51.0004         46.0004
 -20587724.40049 -16028578.61748  20051105.1944   20051111.7064   20051105.240
        54.0004         50.0004
 -10013991.98649  -7786802.47748  20282011.6134   20282020.1214   20282011.616
        55.0004         50.0004
  -2047637.20547  -1573486.62846  24063696.4044   24063709.7054   24063695.471
        42.0004         38.0004
 -10407762.51747  -8058578.19647  23164410.2114   23164423.2074   23164409.960
        47.0004         43.0004
 -11231964.53646  -8692554.71045  25004730.6084   25004740.4354   25004733.568
        38.0004         33.0004
 -27229924.98548 -21155911.05948  20557736.1184   20557743.2264   20557736.021
        53.0004         48.0004
 -12473969.12947  -9709591.19646  23213850.5824   23213859.6304   23213851.134
        45.0004         41.0004
  -7245730.89747  -5646321.16047  22906193.8634   22906204.3024   22906194.805
        46.0004         42.0004
  -7006657.41647  -5437787.46447  22915831.9544   22915838.7784   22915832.780
        46.0004         42.0004
  -3187572.66546  -2421636.78545  23908563.8824   23908573.2204   23908563.665
        40.0004         35.0004
 14  5 16  0 35 30.0000000  0 11G07G09G30G26G17G13G04G10G28G02G20
 -17763089.43048 -13812614.97747  21323569.4364   21323575.0764   21323568.561
        51.0004         46.0004
 -20566120.63449 -16011744.46548  20055216.4974   20055222.5754   20055216.292
        54.0004         50.0004
  -9989890.95649  -7768022.41648  20286597.9564   20286606.3084   20286597.755
        55.0004         50.0004
  -2041373.35047  -1568605.47746  24064887.0564   24064901.1214   24064887.620
        42.0004         38.0004
 -10367477.38547  -8027187.17447  23172076.3874   23172087.7314   23172075.821
        47.0004         43.0004
 -11175212.30146  -8648332.17945  25015533.2314   25015541.3774   25015532.774
        38.0004         33.0004
 -27268782.45648 -21186189.55948  20550342.3774   20550348.5314   20550341.842
        53.0004         48.0004
 -12542301.37447  -9762836.99046  23200846.9254   23200854.4884   23200847.691
        45.0004         41.0004
  -7304045.33547  -5691760.80447  22895097.4874   22895106.3534   22895097.633
        46.0004         42.0004
  -7083667.13047  -5497794.89847  22901178.3314   22901184.9994   22901177.612
        47.0004         42.0004
  -3156912.87746  -2397746.07245  23914393.6264   23914407.1334   23914395.976
        39.0004         35.0004
 14  5 16  0 36  0.0000000  0 11G07G09G30G26G17G13G04G10G28G02G20
 -17682964.23548 -13750179.73147  21338815.9944   21338822.2444   21338815.832
        51.0004         46.0004
 -20543932.36049 -15994454.85348  20059438.3894   20059444.9624   20059438.358
        54.0004         50.0004
  -9965237.83549  -7748812.16048  20291289.4124   20291297.1674   20291289.239
        55.0004         50.0004
  -2034898.40147  -1563559.82646  24066119.6554   24066133.6144   24066119.735
        42.0004         38.0004
 -10327290.47347  -7995872.69247  23179723.5974   23179735.4574   23179723.156
        47.0004         43.0004
 -11118718.80846  -8604311.24845  25026282.9744   25026286.4934   25026283.351
        38.0004         33.0004
 -27307111.20448 -21216056.06348  20543048.2864   20543055.0674   20543047.841
        53.0004         48.0004
 -12610751.12247  -9816174.33646  23187821.4864   23187829.1794   23187822.109
        45.0004         41.0004
  -7362423.02547  -5737249.73346  22883989.1664   22883998.4494   22883988.748
        46.0004         41.0004
  -7160362.45547  -5557557.34947  22886584.1124   22886589.7974   22886583.841
        47.0004         42.0004
  -3125926.79046  -2373601.10545  23920292.6824   23920301.5814   23920293.081
        39.0004         35.0004
 14  5 16  0 36 30.0000000  0 11G07G09G30G26G17G13G04G10G28G02G20
 -17602449.21148 -13687440.72847  21354137.6824   21354143.6914   21354137.568
        51.0004         46.0004
 -20521159.43349 -15976709.67148  20063772.1424   20063778.7854   20063772.205
        54.0004         50.0004
  -9940032.25549  -7729171.41248  20296085.8284   20296094.0334   20296085.636
        55.0004         50.0004
  -2028213.05147  -1558350.22846  24067391.6354   24067405.1584   24067390.682
        42.0004         38.0004
 -10287202.46947  -7964635.29147  23187352.3954   23187363.3174   23187352.070
        47.0004         43.0004
 -11062482.96446  -8560491.04845  25036985.2734   25036994.2804   25036983.874
        38.0004         33.0004
 -27344908.91448 -21245508.77348  20535855.6574   20535862.0604   20535855.099
        53.0004         48.0004
 -12679314.95847  -9869600.58746  23174774.2064   23174782.5184   23174774.958
        45.0004         41.0004
  -7420860.21147  -5782785.02947  22872867.6194   22872877.7494   22872868.369
        46.0004         42.0004
  -7236740.14147  -5617072.29547  22872048.5384   22872055.4554   22872049.008
        47.0004         42.0004
  -3094612.24246  -2349200.18045  23926251.0164   23926261.3474   23926251.637
        39.0004         35.0004
 14  5 16  0 37  0.0000000  0 11G07G09G30G26G17G13G04G10G28G02G20
 -17521548.96448 -13624401.55147  21369532.7914   21369539.0164   21369532.086
        51.0004         46.0004
 -20497804.90149 -15958511.28348  20068216.1474   20068222.6684   20068216.216
        54.0004         50.0004
  -9914276.96449  -7709102.32548  20300986.4814   20300994.8274   20300986.169
        55.0004         50.0004
  -2021321.05647  -1552979.60746  24068701.8414   24068716.3634   24068703.006
        42.0004         38.0004
 -10247216.85447  -7933477.64947  23194961.0864   23194973.4534   23194961.053
        47.0004         42.0004
 -11006507.00046  -8516873.37645  25047633.2624   25047641.1974   25047635.189
        38.0004         33.0004
 -27382176.02448 -21274548.03048  20528763.5594   20528770.9194   20528763.533
        53.0004         48.0004
 -12747992.92147  -9923115.75946  23161705.0704   23161712.6234   23161706.143
        46.0004         41.0004
  -7479356.32747  -5828366.23947  22861737.3014   22861746.0814   22861736.872
        46.0004         42.0004
  -7312799.93547  -5676339.53947  22857574.7524   22857581.4234   22857575.447
        47.0004         42.0004
  -3062970.35446  -2324544.19245  23932273.3244   23932284.1544   23932272.018
        39.0004         34.0004
 14  5 16  0 37 30.0000000  0 11G07G09G30G26G17G13G04G10G28G02G20
 -17440260.91848 -13561060.18847  21385001.0904   21385007.2664   21385000.902
        51.0004         46.0004
 -20473864.96449 -15939856.74148  20072771.7494   20072778.1514   20072771.791
        54.0004         50.0004
  -9887967.93449  -7688601.75148  20305993.3524   20306001.3464   20305993.235
        55.0004         50.0004
  -2014219.55447  -1547445.74846  24070055.7014   24070067.8144   24070054.288
        43.0004         38.0004
 -10207330.37047  -7902397.26447  23202551.4854   23202562.7574   23202551.402
        47.0004         42.0004
                  -8473454.57445                  25058249.7624   25058238.305
                        33.0004
 -27418906.15648 -21303168.86548  20521774.1144   20521780.7854   20521773.761
        53.0004         48.0004
 -12816777.77947  -9976714.22846  23148614.9384   23148623.5084   23148616.156
        46.0004         41.0004
  -7537903.59347  -5873987.30147  22850594.9744   22850603.7274   22850595.097
        46.0004         42.0004
  -7388534.80147  -5735353.58647  22843162.5724   22843169.8604   22843163.919
        47.0004         42.0004
 -23511455.17256 -18258428.52155  23938357.9885   23938369.2505   23938358.692
        39.0004         34.0004
 14  5 16  0 38  0.0000000  0 11G07G09G30G26G17G13G04G10G28G02G20
 -17358595.15848 -13497424.50747  21400541.9164   21400547.3564   21400541.218
        51.0004         46.0004
 -20449347.47149 -15920752.14948  20077437.4514   20077443.9714   20077437.254
        54.0004         50.0004
  -9861112.99949  -7667675.79448  20311103.2384   20311111.8354   20311103.080
        55.0004         50.0004
  -2006917.31347  -1541755.46546  24071443.3794   24071455.8104   24071443.451
        43.0004         38.0004
 -10167551.46947  -7871400.71647  23210121.6984   23210132.3994   23210120.962
        47.0004         42.0004
 -10895327.86056  -8430240.20955  25068792.2335   25068801.2445   25068792.532
        37.0004         33.0004
 -27455105.15448 -21331375.83148  20514885.7534   20514892.4954   20514885.114
        53.0004         48.0004
 -12885674.42647 -10030399.82346  23135505.2594   23135512.5454   23135505.548
        46.0004         41.0004
  -7596506.46447  -5919651.70047  22839443.2124   22839452.8684   22839443.252
        46.0004         42.0004
  -7463949.26247  -5794117.98147  22828811.8124   22828818.2944   22828811.707
        47.0004         42.0004
 -23479152.86546 -18233257.92745  23944503.5484   23944518.1814   23944504.778
        39.0004         34.0004
 14  5 16  0 38 30.0000000  0 11G07G09G30G26G17G13G04G10G28G02G20
 -17276554.36348 -13433496.59247  21416153.2804   21416159.3754   21416153.107
        51.0004         46.0004
 -20424253.80749 -15901198.60548  20082212.3494   20082219.0064   20082212.293
        54.0004         50.0004
  -9833713.39649  -7646325.42648  20316317.4924   20316325.6804   20316317.365
        55.0004         50.0004
  -1999416.64747  -1535910.56446  24072870.7724   24072882.0774   24072870.857
        43.0004         38.0004
 -10127882.26747  -7840489.64847  23217670.4194   23217681.6524   23217669.576
        47.0004         42.0004
                  -8387230.52945                  25079305.5724   25079295.389
                        33.0004
 -27490771.89248 -21359168.05648  20508098.6164   20508105.2094   20508098.420
        53.0004         48.0004
 -12954681.16047 -10084171.19646  23122373.8524   23122380.8664   23122373.633
        46.0004         41.0004
  -7655162.65847  -5965357.63147  22828280.5944   22828290.9364   22828281.546
        46.0004         42.0004
  -7539041.85247  -5852631.57247  22814522.6954   22814528.7354   22814521.939
        47.0004         42.0004
 -23446522.90146 -18207832.01745  23950716.3784   23950727.0594   23950714.779
        39.0004         34.0004
 14  5 16  0 39  0.0000000  0 11G07G09G30G26G17G13G04G10G28G02G20
 -17194137.69948 -13369275.78647  21431836.9824   21431843.2994   21431836.488
        51.0004         46.0004
 -20398582.17149 -15881194.68948  20087097.2664   20087103.8184   20087097.598
        54.0004         50.0004
  -9805766.81649  -7624548.83548  20321635.3944   20321643.7684   20321635.228
        55.0004         50.0004
  -1991716.17047  -1529909.96946  24074336.4354   24074349.4494   24074335.537
        43.0004         38.0004
 -10088320.69947  -7809662.45147  23225198.4784   23225209.7794   23225197.911
        47.0004         43.0004
                  -8344423.57545                  25089756.7314   25089749.597
                        33.0004
 -27525902.14648 -21386542.23548  20501413.1584   20501420.4904   20501412.802
        53.0004         48.0004
 -13023792.59547 -10138024.15446  23109221.3364   23109229.3604   23109222.337
        46.0004         41.0004
  -7713866.53147  -6011100.72847  22817110.7114   22817119.8874   22817110.251
        47.0004         42.0004
  -7613806.78747  -5910889.85147  22800294.4634   22800301.0834   22800295.117
        47.0004         42.0004
 -23413561.20046 -18182147.57445  23956983.8504   23956998.2734   23956986.663
        39.0004         34.0004
 14  5 16  0 39 30.0000000  0 11G07G09G30G26G17G13G04G10G28G02G20
 -17111348.01348 -13304764.32447  21447591.2004   21447597.1474   21447590.767
        51.0004         46.0004
 -20372333.33949 -15860741.01548  20092092.5274   20092098.9774   20092092.591
        54.0004         50.0004
  -9777273.69949  -7602346.37848  20327057.3454   20327065.6284   20327057.462
        55.0004         50.0004
  -1983817.29847  -1523754.77546  24075838.6914   24075850.6264   24075838.981
        43.0004         38.0004
 -10048867.84047  -7778919.95947  23232705.6384   23232717.8254   23232705.518
        47.0004         43.0004
 -10730520.55046  -8301818.82045  25100153.7464   25100161.4084   25100155.052
        37.0004         33.0004
 -27560493.96548 -21413496.85548  20494830.8404   20494837.6414   20494830.665
        53.0004         48.0004
 -13093006.08047 -10191956.64146  23096051.1054   23096058.0804   23096051.969
        46.0004         41.0004
  -7772614.41347  -6056878.11947  22805931.1084   22805939.9434   22805930.807
        47.0004         42.0004
  -7688241.50647  -5968890.80047  22786130.1854   22786136.5704   22786131.745
        47.0004         42.0004
 -23380266.29046 -18156203.55045  23963320.9034   23963333.4084   23963322.998
        38.0004         34.0004
 14  5 16  0 40  0.0000000  0 11G07G09G30G26G17G13G04G10G28G02G20
 -17028189.95948 -13239965.82347  21463415.5444   21463421.6564   21463415.323
        51.0004         46.0004
 -20345510.88649 -15839840.35548  20097196.5184   20097203.1994   20097196.768
        54.0004         50.0004
  -9748237.32849  -7579720.60248  20332582.7784   20332590.8924   20332582.477
        55.0004         50.0004
  -1975724.31747  -1517448.32246  24077378.4644   24077391.9354   24077377.994
        43.0004         38.0004
 -10009527.86047  -7748265.42247  23240192.0134   23240204.4134   23240191.793
        47.0004         43.0004
 -10676106.65246  -8259418.36645  25110506.8434   25110515.6554   25110509.845
        37.0004         33.0004
 -27594548.60448 -21440032.89748  20488350.5064   20488357.4384   20488349.977
        53.0004         48.0004
 -13162321.66547 -10245968.67846  23082861.1254   23082868.3774   23082861.010
        46.0004         41.0004
  -7831405.94747  -6102689.52547  22794742.2874   22794752.0374   22794743.073
        47.0004         42.0004
  -7762346.38947  -6026634.74947  22772027.9974   22772034.7294   22772028.168
        47.0004         42.0004
 -23346640.04446 -18130001.31745  23969720.4484   23969733.8264   23969721.990
        39.0004         34.0004
 14  5 16  0 40 30.0000000  0 11G07G09G30G26G17G13G04G10G28G02G20
 -16944665.38748 -13174881.71947  21479310.1734   21479315.7124   21479309.549
        51.0004         46.0004
 -20318115.30449 -15818493.10248  20102409.5914   20102416.3184   20102409.619
        54.0004         50.0004
  -9718658.02249  -7556671.76148  20338211.4484   20338219.8924   20338211.248
        55.0004         50.0004
  -1967438.48347  -1510991.59646  24078955.6634   24078967.2644   24078955.182
        43.0004         38.0004
  -9970301.76847  -7717699.62547  23247656.3634   23247667.8004   23247656.167
        47.0004         42.0004
 -10621954.37546  -8217221.73845  25120814.2164   25120821.4154   25120814.976
        38.0004         34.0004
 -27628063.99948 -21466148.74348  20481972.5444   20481979.2154   20481972.162
        53.0004         48.0004
 -13231736.58847 -10300058.13346  23069651.8554   23069659.3194   23069651.521
        46.0004         41.0004
  -7890237.87547  -6148532.41447  22783548.3284   22783556.4714   22783547.588
        47.0004         42.0004
  -7836118.29347  -6084119.24147  22757990.0914   22757996.8114   22757991.149
        47.0004         42.0004
 -23312680.77846 -18103539.56745  23976182.6494   23976192.8094   23976182.908
        39.0004         34.0004
 14  5 16  0 41  0.0000000  0 11G07G09G30G26G17G13G04G10G28G02G20
 -16860777.22848 -13109514.29947  21495272.9704   21495279.2384   21495272.583
        51.0004         46.0004
 -20290148.07849 -15796700.41948  20107731.9564   20107738.2184   20107731.874
        54.0004         50.0004
  -9688536.77249  -7533200.62748  20343943.6264   20343951.8274   20343943.260
        54.0004         50.0004
  -1958961.66847  -1504386.04746  24080567.1964   24080580.9864   24080567.723
        43.0004         38.0004
  -9931190.63947  -7687223.41147  23255099.9514   23255110.6924   23255098.480
        47.0004         43.0004
 -10568063.62546  -8175228.92045  25131067.8694   25131076.8524   25131069.024
        38.0004         33.0004
 -27661039.00348 -21491843.50648  20475697.7864   20475704.7064   20475697.500
        53.0004         48.0004
 -13301248.93347 -10354223.48647  23056423.8914   23056431.5444   23056423.707
        46.0004         42.0004
  -7949107.83447  -6194404.94147  22772346.7874   22772355.7224   22772345.096
        47.0004         42.0004
  -7909555.30547  -6141342.77847  22744014.8964   22744021.9224   22744015.377
        47.0004         42.0004
 -23278387.65446 -18076817.68945  23982710.0454   23982721.0334   23982709.201
        39.0004         34.0004
 14  5 16  0 41 30.0000000  0 11G07G09G30G26G17G13G04G10G28G02G20
 -16776529.69548 -13043866.84547  21511304.6914   21511310.3564   21511304.208
        50.0004         46.0004
 -20261611.89749 -15774464.38948  20113161.8504   20113168.1444   20113161.812
        54.0004         50.0004
  -9657876.34349  -7509309.35548  20349777.7764   20349785.9724   20349777.844
        55.0004         50.0004
  -1950297.52747  -1497634.56046  24082216.5554   24082230.3484   24082216.539
        43.0004         38.0004
  -9892197.56347  -7656839.20847  23262519.7754   23262530.3404   23262518.977
        47.0004         43.0004
 -10514436.52546  -8133441.55145  25141271.1954   25141279.7914   25141274.117
        37.0004         33.0004
 -27693474.30648 -21517117.73148  20469525.1064   20469531.8004   20469524.645
        53.0004         48.0004
 -13370857.80147 -10408464.06447  23043177.7414   23043185.1114   23043178.035
        46.0004         42.0004
  -8008014.70547  -6240306.21447  22761135.4414   22761146.1184   22761135.607
        47.0004         42.0004
  -7982657.12747  -6198305.13947  22730104.8074   22730110.8184   22730105.026
        47.0004         42.0004
 -23243761.70446 -18049836.46545  23989297.2854   23989309.4814   23989299.367
        39.0004         35.0004
 14  5 16  0 42  0.0000000  0 11G07G09G30G26G17G13G04G10G28G02G20
 -16691923.30848 -12977939.77847  21527404.9154   21527410.8024   21527404.550
        50.0004         46.0004
 -20232505.91149 -15751784.36048  20118700.5324   20118707.0674   20118700.717
        54.0004         50.0004
  -9626675.58549  -7484997.04848  20355715.1204   20355723.3254   20355715.089
        55.0004         50.0004
  -1941445.80747  -1490736.89246  24083901.3684   24083912.8904   24083900.990
        43.0004         38.0004
  -9853322.34747  -7626546.84047  23269916.7924   23269928.1034   23269916.716
        47.0004         43.0004
 -10461070.89446  -8091857.93845  25151428.4314   25151437.4514   25151428.668
        38.0004         33.0004
 -27725366.35448 -21541968.64148  20463456.4674   20463463.1444   20463456.254
        53.0004         48.0004
 -13440558.70747 -10462776.36547  23029914.7964   23029921.6204   23029914.406
        46.0004         42.0004
  -8066953.47147  -6286232.35447  22749919.5114   22749928.2584   22749919.468
        47.0004         42.0004
  -8055419.23247  -6255002.76147  22716259.1574   22716264.1734   22716258.822
        47.0004         42.0004
 -23208799.79846 -18022593.45045  23995949.1284   23995962.2264   23995950.853
        39.0004         34.0004
 14  5 16  0 42 30.0000000  0 11G07G09G30G26G17G13G04G10G28G02G20
 -16606963.50848 -12911737.31847  21543572.4024   21543577.9074   21543571.835
        50.0004         46.0004
 -20202834.38349 -15728663.64848  20124346.9104   20124353.4404   20124346.805
        54.0004         50.0004
  -9594938.37949  -7460266.72748  20361754.4154   20361762.7494   20361754.400
        55.0004         50.0004
  -1932411.25647  -1483696.75246  24085620.8104   24085631.4744   24085620.014
        43.0004         38.0004
  -9814568.80847  -7596349.26947  23277291.5104   23277302.3994   23277290.981
        47.0004         43.0004
 -10407969.36346  -8050480.07945  25161532.5244   25161539.5484   25161533.810
        37.0004         33.0004
 -27756717.05548 -21566397.71848  20457490.4504   20457497.1064   20457490.104
        53.0004         48.0004
 -13510352.28147 -10517160.86547  23016632.0134   23016641.0584   23016632.724
        46.0004         42.0004
  -8125924.18047  -6332183.39447  22738697.6594   22738706.7834   22738697.981
        47.0004         42.0004
  -8127842.45647  -6311436.35547  22702476.9824   22702482.8254   22702476.789
        47.0004         42.0004
 -23173504.04446 -17995090.30245  24002668.5724   24002678.2324   24002668.612
        39.0004         34.0004
 14  5 16  0 43  0.0000000  0 11G07G09G30G26G17G13G04G10G28G02G20
 -16521651.43348 -12845260.35547  21559806.6834   21559812.5364   21559806.396
        50.0004         46.0004
 -20172597.21549 -15705102.17848  20130100.8524   20130107.3054   20130100.885
        54.0004         50.0004
  -9562664.18649  -7435117.97548  20367896.3804   20367904.4494   20367896.158
        55.0004         50.0004
  -1923194.10947  -1476514.33646  24087373.8194   24087387.0424   24087373.541
        43.0004         38.0004
  -9775936.98747  -7566246.55347  23284642.7724   23284654.7514   23284642.348
        47.0004         42.0004
                  -8009307.34045                  25171596.6144   25171588.933
                        32.0004
 -27787523.49548 -21590402.69948  20451628.5764   20451634.6624   20451628.147
        53.0004         48.0004
 -13580234.81147 -10571614.68747  23003334.6544   23003340.1594   23003334.535
        46.0004         42.0004
  -8184922.42047  -6378155.88147  22727470.6974   22727479.9984   22727470.436
        47.0004         42.0004
  -8199923.16747  -6367603.03347  22688759.5754   22688765.8724   22688760.746
        47.0004         42.0004
 -23137872.05846 -17967325.12745  24009448.8794   24009460.5904   24009448.803
        39.0004         34.0004
 14  5 16  0 43 30.0000000  0 11G07G09G30G26G17G13G04G10G28G02G20
 -16435991.57648 -12778512.39647  21576107.4664   21576112.9034   21576106.660
        50.0004         46.0004
 -20141797.48049 -15681102.34548  20135962.0294   20135968.3444   20135961.706
        54.0004         50.0004
  -9529855.85549  -7409553.01148  20374139.3604   20374147.5504   20374139.116
        55.0004         50.0004
  -1913798.05847  -1469192.51746  24089161.5394   24089174.9624   24089161.648
        43.0004         38.0004
  -9737430.02547  -7536241.13747  23291970.8434   23291982.0924   23291969.815
        47.0004         42.0004
 -10302557.22646  -7968340.74945  25181591.8904   25181598.8414   25181593.515
        37.0004         33.0004
 -27817786.41848 -21613984.16448  20445869.3304   20445876.2124   20445868.942
        53.0004         48.0004
 -13650205.66147 -10626137.33247  22990018.5944   22990026.8144   22990019.679
        46.0004         42.0004
  -8243947.53147  -6424149.30947  22716238.4044   22716246.4514   22716238.121
        47.0004         42.0004
  -8271660.59947  -6423502.23347  22675109.1204   22675114.8444   22675108.836
        47.0004         42.0004
 -23101904.83046 -17939298.79145  24016291.3574   24016304.5354   24016292.659
        39.0004         34.0004
 14  5 16  0 44  0.0000000  0 11G07G09G30G26G17G13G04G10G28G02G20
 -16349985.81648 -12711494.89247  21592473.3164   21592479.4664   21592472.951
        50.0004         46.0004
 -20110435.89549 -15656664.70848  20141929.8964   20141936.2004   20141929.813
        54.0004         50.0004
  -9496513.80549  -7383572.16148  20380484.4024   20380492.3334   20380484.112
        55.0004         50.0004
  -1904224.30247  -1461732.23346  24090983.7704   24090996.4624   24090983.167
        43.0004         38.0004
  -9699048.69947  -7506333.61247  23299274.4594   23299286.0324   23299274.185
        47.0004         42.0004
                  -7927579.66645                  25191553.3104   25191547.217
                        32.0004
 -27847504.09448 -21637140.75348  20440214.5494   20440221.0834   20440214.038
        53.0004         48.0004
 -13720261.83447 -10680726.47147  22976688.2764   22976695.3544   22976687.669
        46.0004         42.0004
  -8302995.57947  -6470160.59147  22705000.8924   22705012.2174   22705001.801
        47.0004         42.0004
  -8343052.41247  -6479132.12547  22661523.2894   22661529.1394   22661523.462
        47.0004         43.0004
 -23065601.06346 -17911010.14245  24023203.5414   24023214.8734   24023201.477
        39.0004         34.0004
 14  5 16  0 44 30.0000000  0 11G07G09G30G26G17G13G04G10G28G02G20
 -16263638.64248 -12644211.37347  21608904.7174   21608910.5014   21608904.835
        50.0004         46.0004
 -20078515.50149 -15631791.63748  20148004.2124   20148010.3174   20148004.005
        54.0004         50.0004
  -9462640.96449  -7357177.70748  20386929.7584   20386938.1044   20386929.871
        55.0004         50.0004
  -1894476.61247  -1454136.40946  24092836.9654   24092851.8934   24092838.060
        43.0004         38.0004
  -9660795.91647  -7476526.25547  23306553.8224   23306565.1454   23306553.271
        47.0004         42.0004
                  -7887025.52445                  25201456.5694   25201450.160
                        32.0004
 -27876677.21848 -21659873.02048  20434662.9124   20434669.6364   20434662.303
        53.0004         48.0004
 -13790402.93047 -10735381.79147  22963340.5094   22963347.9164   22963341.129
        46.0004         42.0004
  -8362065.33947  -6516188.80547  22693761.7684   22693768.8744   22693761.046
        47.0004         42.0004
  -8414098.06147  -6534492.27147  22648002.8594   22648010.0604   22648005.044
        47.0004         42.0004
 -23028961.69846 -17882460.01645  24030177.4664   24030184.3714   24030173.962
        39.0004         34.0004
 14  5 16  0 45  0.0000000  0 11G07G09G30G26G17G13G04G10G28G02G20
 -16176950.73148 -12576662.33047  21625401.3474   21625406.9744   21625400.790
        50.0004         46.0004
 -20046035.36449 -15606482.40048  20154184.6124   20154190.9794   20154184.559
        54.0004         50.0004
  -9428236.46149  -7330368.97448  20393477.0214   20393485.0504   20393476.634
        55.0004         50.0004
  -1884554.77847  -1446404.89246  24094725.8384   24094738.4294   24094725.882
        43.0004         38.0004
  -9622671.29547  -7446818.77047  23313808.8994   23313820.2354   23313808.270
        47.0004         42.0004
                  -7846676.92045                  25211312.4164   25211304.955
                        32.0004
 -27905302.82148 -21682178.64548  20429215.6584   20429222.3444   20429215.058
        53.0004         48.0004
 -13860624.55247 -10790099.84247  22949977.4754   22949984.0824   22949977.688
        46.0004         42.0004
  -8421152.37647  -6562230.47947  22682516.3174   22682526.9884   22682516.875
        47.0004         42.0004
  -8484793.43947  -6589579.48647  22634550.6664   22634556.9494   22634551.066
        47.0004         43.0004
 -22991983.99746 -17853646.30145  24037210.8754   24037223.4284   24037210.560
        39.0004         35.0004
 14  5 16  0 45 30.0000000  0 11G07G09G30G26G17G13G04G10G28G02G20
 -16089926.48448 -12508851.21047  21641961.7884   21641967.1124   21641960.914
        50.0004         46.0004
 -20012999.02549 -15580739.76048  20160471.2864   20160477.4044   20160471.150
        54.0004         50.0004
  -9393303.05049  -7303148.10548  20400124.3554   20400132.3774   20400124.329
        55.0004         50.0004
  -1874462.40747  -1438540.49746  24096644.5944   24096659.5044   24096645.629
        43.0004         38.0004
  -9584677.69747  -7417213.36547  23321038.0984   23321049.5694   23321037.866
        47.0004         42.0004
 -10094906.49446  -7806534.99545  25221107.0964   25221114.1154   25221107.133
        37.0004         32.0004
 -27933381.22748 -21704057.88648  20423872.3614   20423879.0034   20423871.986
        53.0004         49.0004
 -13930925.65747 -10844879.83947  22936599.4144   22936607.1834   22936600.271
        46.0004         42.0004
  -8480255.26047  -6608284.50847  22671269.2254   22671278.7504   22671270.034
        47.0004         42.0004
  -8555138.09447  -6644393.40747  22621164.3144   22621169.4524   22621165.063
        47.0004         43.0004
 -22954668.93146 -17824569.64045  24044311.8814   24044319.9024   24044311.515
        39.0004         35.0004
 14  5 16  0 46  0.0000000  0 11G07G09G30G26G17G13G04G10G28G02G20
 -16002568.83248 -12440780.29447  21658585.1324   21658590.7604   21658584.641
        50.0004         46.0004
 -19979408.49049 -15554565.27648  20166863.2244   20166869.3414   20166863.252
        54.0004         50.0004
  -9357842.31849  -7275516.33748  20406872.4684   20406880.5024   20406872.052
        55.0004         50.0004
  -1864201.73147  -1430544.93446  24098598.8234   24098611.2574   24098598.422
        43.0004         38.0004
  -9546816.73547  -7387711.31747  23328242.6084   23328255.4624   23328242.936
        47.0004         42.0004
                  -7766599.93345                  25230867.5304   25230859.562
                        32.0004
 -27960912.13048 -21725510.49948  20418633.4534   20418640.1924   20418632.586
        53.0004         48.0004
 -14001304.31647 -10899720.26347  22923206.4894   22923213.8134   22923206.898
        46.0004         42.0004
  -8539371.67247  -6654349.07247  22660020.9334   22660028.9284   22660020.560
        47.0004         42.0004
  -8625130.39247  -6698932.76647  22607845.5404   22607851.2484   22607845.256
        47.0004         43.0004
 -22917016.44846 -17795230.05345  24051474.5734   24051485.8664   24051475.584
        39.0004         35.0004
 14  5 16  0 46 30.0000000  0 11G07G09G30G26G17G13G04G10G28G02G20
 -15914880.54748 -12372451.75047  21675271.7424   21675276.5694   21675270.688
        50.0004         45.0004
 -19945265.12849 -15527960.02348  20173360.7034   20173366.5804   20173360.316
        54.0004         50.0004
  -9321855.57849  -7247474.69548  20413720.4444   20413728.6144   20413720.340
        55.0004         50.0004
  -1853774.79747  -1422419.84546  24100582.8944   24100594.7664   24100582.175
        43.0004         38.0004
  -9509090.15047  -7358313.97547  23335421.7664   23335433.6984   23335421.477
        47.0004         42.0004
                  -7726871.76345                  25240572.1154   25240561.670
                        32.0004
 -27987894.55948 -21746535.73348  20413498.9754   20413505.7334   20413498.767
        53.0004         49.0004
 -14071758.27047 -10954619.36647  22909800.3104   22909806.2724   22909799.802
        46.0004         42.0004
  -8598498.88447  -6700422.07247  22648769.5684   22648776.4754   22648768.637
        47.0004         42.0004
  -8694768.25647  -6753195.93847  22594594.2074   22594598.7594   22594594.020
        47.0004         43.0004
 -22879025.33046 -17765626.59445  24058704.6914   24058714.3024   24058705.988
        39.0004         34.0004
 14  5 16  0 47  0.0000000  0 11G07G09G30G26G17G13G04G10G28G02G20
 -15826864.60048 -12303867.88047  21692021.0534   21692025.6734   21692020.150
        50.0004         45.0004
 -19910570.69349 -15500925.35648  20179962.2944   20179968.6284   20179962.409
        54.0004         50.0004
  -9285344.30349  -7219024.32348  20420668.2244   20420676.5554   20420668.262
        55.0004         50.0004
  -1843183.81747  -1414166.91346  24102598.2904   24102609.6204   24102598.273
        43.0004         38.0004
  -9471499.26547  -7329022.38447  23342575.6964   23342586.6544   23342575.015
        47.0004         42.0004
  -9941953.51946  -7687350.88545  25250215.1024   25250226.1334   25250214.105
        37.0004         32.0004
 -28014327.71948 -21767132.96748  20408468.9144   20408475.2544   20408468.273
        53.0004         49.0004
 -14142285.53647 -11009575.61247  22896378.7694   22896385.8894   22896379.532
        46.0004         42.0004
  -8657633.91647  -6746501.16347  22637514.7434   22637522.9194   22637515.141
        47.0004         42.0004
  -8764049.89447  -6807181.54347  22581410.1204   22581414.5644   22581409.669
        47.0004         43.0004
 -22840695.33046 -17735759.10345  24066002.7874   24066008.4914   24065998.958
        39.0004         34.0004
 14  5 16  0 47 30.0000000  0 11G07G09G30G26G17G13G04G10G28G02G20
 -15738523.76448 -12235030.85047  21708830.8584   21708836.4864   21708830.638
        50.0004         45.0004
 -19875326.50449 -15473462.31648  20186669.4054   20186675.5204   20186669.088
        54.0004         50.0004
  -9248309.62049  -7190166.10248  20427715.7784   20427723.8574   20427715.522
        55.0004         50.0004
  -1832430.53247  -1405787.51946  24104642.8564   24104656.9544   24104642.676
        43.0004         38.0004
  -9434045.09647  -7299837.32347  23349703.0174   23349714.2444   23349702.444
        47.0004         42.0004
                  -7648036.75945                  25259822.4004   25259814.967
                        32.0004
 -28040210.58248 -21787301.39348  20403543.4404   20403550.1444   20403543.070
        53.0004         49.0004
 -14212883.48747 -11064586.93147  22882944.6794   22882951.2244   22882944.667
        46.0004         42.0004
  -8716774.16947  -6792584.32447  22626261.9294   22626269.8704   22626261.514
        47.0004         42.0004
  -8832973.26247  -6860887.95847  22568293.5784   22568299.3474   22568295.101
        47.0004         43.0004
 -22802026.27046 -17705627.40445  24073360.7214   24073369.9214   24073358.960
        39.0004         34.0004
 14  5 16  0 48  0.0000000  0 11G07G09G30G26G17G13G04G10G28G02G20
 -15649861.59148 -12165943.42047  21725703.0154   21725708.5354   21725702.377
        50.0004         45.0004
 -19839534.96949 -15445572.77048  20193480.3874   20193486.2474   20193480.075
        54.0004         50.0004
  -9210753.49449  -7160901.56548  20434862.4104   20434870.4634   20434862.249
        55.0004         50.0004
  -1821517.53747  -1397283.68446  24106721.0014   24106732.6934   24106720.621
        42.0004         38.0004
  -9396729.78447  -7270760.45947  23356803.7544   23356815.7064   23356803.371
        47.0004         42.0004
                  -7608930.18845                  25269376.6124   25269364.922
                        32.0004
 -28065543.14648 -21807041.02348  20398722.7294   20398729.4794   20398722.383
        53.0004         49.0004
 -14283550.02847 -11119651.69047  22869497.9234   22869504.5744   22869498.089
        46.0004         42.0004
  -8775917.36747  -6838669.78347  22615006.2244   22615015.1344   22615006.286
        47.0004         42.0004
  -8901536.98247  -6914314.13947  22555246.0544   22555252.3784   22555246.224
        47.0004         43.0004
 -22763017.74646 -17675231.18345  24080779.1274   24080794.2654   24080781.316
        39.0004         34.0004
 14  5 16  0 48 30.0000000  0 11G07G09G30G26G17G13G04G10G28G02G20
 -15560882.32548 -12096608.91647  21742633.7844   21742640.5224   21742634.280
        50.0004         45.0004
 -19803199.54049 -15417259.41048  20200394.3904   20200400.4954   20200394.247
        54.0004         49.0004
  -9172679.21349  -7131233.27348  20442107.6064   20442115.8604   20442107.549
        55.0004         50.0004
  -1810448.77747  -1388658.47346  24108825.0764   24108839.2234   24108826.220
        42.0004         38.0004
  -9359556.62347  -7241794.35147  23363876.9584   23363888.0404   23363877.052
        47.0004         42.0004
  -9791394.51846  -7570032.24245  25278861.4074   25278872.3604   25278864.033
        37.0004         33.0004
 -28090326.37248 -21826352.59448  20394006.2814   20394013.2854   20394006.050
        53.0004         49.0004
 -14354284.92047 -11174769.71647  22856036.1864   22856044.4114   22856036.906
        46.0004         42.0004
  -8835062.26447  -6884756.56547  22603749.9824   22603761.3084   22603751.440
        47.0004         42.0004
  -8969740.91148  -6967459.96547  22542267.8384   22542273.8594   22542268.801
        48.0004         43.0004
 -22723670.97246 -17644571.39245  24088265.5784   24088280.5964   24088268.785
        39.0004         34.0004
 14  5 16  0 49  0.0000000  0 10G07G09G30G26G17G04G10G28G02G20
 -15471586.33648 -12027027.60747  21759626.9544   21759633.5244   21759626.925
        50.0004         45.0004
 -19766319.58349 -15388521.74348  20207412.7754   20207418.8654   20207412.587
        54.0004         49.0004
  -9134085.67849  -7101160.36048  20449451.4724   20449459.7044   20449451.472
        54.0004         50.0004
  -1799223.76047  -1379911.49546  24110963.0104   24110974.5824   24110962.532
        42.0004         38.0004
  -9322524.11947  -7212937.85247  23370924.3574   23370936.0894   23370924.635
        47.0004         42.0004
 -28114557.07148 -21845233.62648  20389395.8714   20389402.1764   20389395.517
        53.0004         49.0004
 -14425083.67247 -11229937.49747  22842564.4314   22842572.0364   22842563.617
        46.0004         42.0004
  -8894203.45647  -6930840.47247  22592497.3214   22592505.7964   22592497.419
        47.0004         42.0004
  -9037580.62048  -7020321.97347  22529357.6934   22529363.7754   22529358.924
        48.0004         43.0004
 -22683983.15346 -17613645.82645  24095819.5784   24095835.3104   24095821.431
        39.0004         34.0004
 14  5 16  0 49 30.0000000  0 11G07G09G30G26G17G13G04G10G28G02G20
 -15381977.41548 -11957202.45047  21776679.2964   21776684.8764   21776678.851
        50.0004         45.0004
 -19728897.60049 -15359361.71548  20214533.2534   20214539.7804   20214533.468
        54.0004         49.0004
  -9094975.20849  -7070684.64348  20456894.1674   20456902.1704   20456894.170
        54.0004         50.0004
  -1787845.49547  -1371045.11946  24113127.8194   24113139.2954   24113126.711
        42.0004         38.0004
  -9285634.82247  -7184192.95247  23377944.5644   23377956.4954   23377943.767
        47.0004         42.0004
  -9692353.90146  -7492857.81145  25297707.2504   25297719.5814   25297710.957
        37.0004         33.0004
 -28138235.48348 -21863684.29948  20384889.5424   20384896.5124   20384889.131
        53.0004         49.0004
 -14495944.46147 -11285153.62647  22829079.5414   22829086.5934   22829079.799
        46.0004         42.0004
  -8953339.48447  -6976920.34847  22581242.3944   22581252.3344   22581244.038
        47.0004         42.0004
  -9105055.39548  -7072899.62747  22516518.7604   22516523.3474   22516518.543
        48.0004         43.0004
 -22643954.74546 -17582454.94045  24103438.6014   24103446.7904   24103439.498
        39.0004         34.0004
 14  5 16  0 50  0.0000000  0 11G07G09G30G26G17G13G04G10G28G02G20
 -15292059.84848 -11887136.80847  21793789.8734   21793796.5014   21793790.114
        50.0004         45.0004
 -19690936.92249 -15329781.93248  20221757.4734   20221763.5714   20221757.328
        54.0004         49.0004
  -9055350.82449  -7039808.47648  20464434.3224   20464442.3554   20464434.360
        54.0004         50.0004
  -1776317.34847  -1362061.94246  24115320.8694   24115333.0714   24115320.390
        42.0004         38.0004
  -9248891.70547  -7155561.95147  23384936.3054   23384948.2614   23384935.818
        47.0004         43.0004
                  -7454583.06145                  25307068.9324   25307057.920
                        32.0004
 -28161362.19548 -21881705.08048  20380488.8134   20380495.4744   20380488.402
        53.0004         49.0004
 -14566866.61747 -11340417.57047  22815582.8094   22815591.1604   22815583.666
        46.0004         42.0004
  -9012468.76147  -7022994.95147  22569991.7994   22570001.2164   22569992.514
        47.0004         43.0004
  -9172164.82648  -7125192.60047  22503747.3434   22503753.1794   22503748.309
        48.0004         43.0004
 -22603586.77346 -17550999.42245  24111121.2444   24111131.2134   24111120.191
        39.0004         34.0004
 14  5 16  0 50 30.0000000  0 11G07G09G30G26G17G13G04G10G28G02G20
 -15201835.23748 -11816831.89847  21810958.7564   21810965.1004   21810958.259
        50.0004         45.0004
 -19652438.11849 -15299782.82448  20229083.2274   20229089.6544   20229083.283
        54.0004         49.0004
  -9015212.90949  -7008532.15348  20472072.3584   20472080.4404   20472072.234
        54.0004         50.0004
  -1764640.53647  -1352962.93546  24117543.1094   24117554.9074   24117543.057
        42.0004         38.0004
  -9212295.10047  -7127045.10247  23391901.0484   23391911.7674   23391899.820
        47.0004         42.0004
  -9594381.84846  -7416516.04445  25316351.8824   25316359.8124   25316354.545
        37.0004         33.0004
 -28183935.70748 -21899294.79848  20376193.2724   20376199.9764   20376192.690
        53.0004         49.0004
 -14637846.42547 -11395726.43447  22802075.9964   22802082.9774   22802076.805
        46.0004         42.0004
  -9071587.42547  -7069061.30147  22558742.7064   22558751.6884   22558742.287
        47.0004         43.0004
  -9238905.80648  -7177198.46247  22491046.9864   22491053.9394   22491047.421
        48.0004         43.0004
 -22562877.49646 -17519277.92945  24118866.3354   24118876.2594   24118867.549
        39.0004         34.0004
 14  5 16  0 51  0.0000000  0 11G07G09G30G26G17G13G04G10G28G02G20
 -15111306.46748 -11746289.98047  21828186.5434   21828191.9454   21828185.982
        50.0004         45.0004
 -19613402.90849 -15269365.74248  20236511.3654   20236517.5564   20236511.474
        54.0004         49.0004
  -8974562.76249  -6976856.68848  20479807.5594   20479815.8544   20479807.739
        54.0004         50.0004
  -1752816.63547  -1343749.29146  24119792.4964   24119805.5854   24119792.972
        42.0004         38.0004
  -9175845.80647  -7098643.03847  23398837.1094   23398848.3304   23398836.076
        47.0004         42.0004
  -9545795.70846  -7378656.71645  25325599.6554   25325611.8754   25325599.964
        37.0004         32.0004
 -28205955.10048 -21916452.73048  20372002.8634   20372009.9484   20372002.692
        53.0004         49.0004
 -14708881.42247 -11451078.32447  22788558.5824   22788565.9754   22788559.300
        46.0004         42.0004
  -9130692.31147  -7115116.89947  22547493.4184   22547502.9514   22547494.546
        47.0004         42.0004
  -9305276.12548  -7228915.50047  22478417.8244   22478422.3504   22478417.641
        48.0004         43.0004
 -22521826.65246 -17487290.31345  24126678.7824   24126688.6994   24126678.487
        39.0004         34.0004
 14  5 16  0 51 30.0000000  0 11G07G09G30G26G17G13G04G10G28G02G20
 -15020477.78648 -11675514.37147  21845470.0734   21845476.0284   21845469.875
        50.0004         45.0004
 -19573834.31249 -15238533.03248  20244040.9374   20244047.3214   20244041.102
        54.0004         49.0004
  -8933403.02849  -6944784.14148  20487639.8684   20487648.4254   20487639.984
        54.0004         50.0004
  -1740848.94947  -1334423.64446  24122068.8244   24122081.9404   24122069.608
        42.0004         37.0004
  -9139546.69647  -7070357.99247  23405743.9744   23405755.3304   23405743.276
        47.0004         42.0004
  -9497477.05546  -7341005.86945  25334797.3394   25334804.7314   25334795.217
        37.0004         33.0004
 -28227420.94948 -21933179.34148  20367918.2274   20367924.6724   20367918.062
        53.0004         49.0004
 -14779970.35447 -11506472.23447  22775030.8754   22775038.1774   22775031.210
        47.0004         42.0004
  -9189781.79447  -7161160.51947  22536250.2184   22536258.3264   22536250.193
        47.0004         43.0004
  -9371275.62648  -7280343.58747  22465857.6154   22465863.7644   22465858.118
        48.0004         43.0004
 -22480434.52846 -17455036.76145  24134556.2144   24134566.3884   24134555.751
        39.0004         34.0004
 14  5 16  0 52  0.0000000  0 10G07G09G30G26G17G04G10G28G02G20
 -14929352.35848 -11604507.53547  21862811.0404   21862817.0774   21862810.091
        50.0004         45.0004
 -19533734.70649 -15207286.55148  20251671.7174   20251677.9154   20251671.401
        54.0004         49.0004
  -8891736.04549  -6912316.34248  20495568.9314   20495577.2724   20495568.754
        54.0004         50.0004
  -1728740.32547  -1324988.15746  24124374.0574   24124386.0084   24124373.738
        42.0004         38.0004
  -9103399.36547  -7042191.21747  23412622.0014   23412634.5634   23412622.265
        47.0004         42.0004
 -28248333.30748 -21949474.65248  20363938.2864   20363945.1464   20363938.085
        53.0004         49.0004
 -14851111.46447 -11561906.79547  22761491.5814   22761501.0594   22761493.445
        47.0004         42.0004
  -9248853.95447  -7207190.62947  22525007.5424   22525017.4624   22525008.561
        47.0004         43.0004
  -9436902.93348  -7331481.65347  22453370.0364   22453374.3234   22453370.157
        48.0004         43.0004
 -22438701.81146                  24142492.6764                   24142497.070
        39.0004
 14  5 16  0 52 30.0000000  0 10G07G09G30G26G17G04G10G28G02G20
 -14837934.06848 -11533272.49047  21880207.0554   21880212.4784   21880207.003
        50.0004         45.0004
 -19493107.04949 -15175628.60448  20259403.0994   20259409.0514   20259402.900
        54.0004         49.0004
  -8849564.19049  -6879455.13748  20503593.9254   20503602.1384   20503593.857
        54.0004         50.0004
  -1716493.52647  -1315444.99446  24126704.4224   24126715.1544   24126704.379
        42.0004         38.0004
  -9067405.95547  -7014144.37547  23419471.6354   23419482.6344   23419471.644
        47.0004         42.0004
 -28268692.59648 -21965339.00948  20360064.7134   20360071.2764   20360064.291
        53.0004         49.0004
 -14922303.06947 -11617380.71947  22747945.7864   22747953.3274   22747946.198
        47.0004         42.0004
  -9307906.52147  -7253205.47447  22513771.0404   22513779.8964   22513771.207
        47.0004         43.0004
  -9502156.99548  -7382328.88447  22440953.4374   22440956.7844   22440952.550
        48.0004         43.0004
 -22396628.78546 -17389733.66145  24150504.1994   24150513.7584   24150502.105
        39.0004         34.0004
 14  5 16  0 53  0.0000000  0 10G07G09G30G26G17G04G10G28G02G20
 -14746221.80748 -11461808.37747  21897659.9074   21897665.6254   21897659.067
        50.0004         45.0004
 -19451949.48349 -15143557.73948  20267235.1104   20267241.1594   20267234.965
        54.0004         49.0004
  -8806885.34049  -6846198.87348  20511715.7414   20511723.8544   20511715.572
        54.0004         50.0004
  -1704107.05047  -1305793.02046  24129061.3054   24129073.7884   24129059.927
        42.0004         37.0004
  -9031564.18847  -6986215.68347  23426292.0534   23426304.0274   23426291.866
        47.0004         42.0004
 -28288494.35548 -21980768.92648  20356296.5084   20356302.7804   20356295.902
        53.0004         49.0004
 -14993539.00947 -11672889.17347  22734390.6344   22734397.3944   22734390.492
        47.0004         42.0004
  -9366933.10947  -7299200.08147  22502537.8884   22502547.5684   22502538.975
        47.0004         43.0004
  -9567032.30048  -7432880.97847  22428606.8804   22428611.7784   22428606.536
        48.0004         43.0004
                 -17356681.16145                  24158583.7474   24158576.433
                        33.0004
 14  5 16  0 53 30.0000000  0  9G07G09G30G26G17G04G10G28G02
 -14654222.75348 -11390120.79647  21915166.9894   21915172.3004   21915165.985
        50.0004         45.0004
 -19410268.04249 -15111078.65648  20275166.4234   20275172.7914   20275166.513
        54.0004         49.0004
  -8763705.30149  -6812552.06848  20519932.6794   20519940.4464   20519932.554
        54.0004         50.0004
  -1691587.03447  -1296036.96746  24131444.3244   24131454.8604   24131443.992
        42.0004         38.0004
  -8995879.36547  -6958409.29847  23433083.5834   23433094.3514   23433082.252
        46.0004         42.0004
 -28307742.40148 -21995767.37948  20352633.0834   20352640.1214   20352632.821
        53.0004         49.0004
 -15064820.77847 -11728433.35147  22720825.1834   22720833.4424   22720825.746
        47.0004         42.0004
  -9425934.58848  -7345175.12047  22491310.2264   22491319.6504   22491311.224
        48.0004         43.0004
  -9631531.36748  -7483139.90947  22416333.2694   22416338.0484   22416332.864
        48.0004         43.0004
 14  5 16  0 54  0.0000000  0 11G07G08G09G30G26G17G04G10G28G02G20
 -14561932.84748 -11318206.57747  21932728.5504   21932734.4104   21932728.301
        49.0004         45.0004
   -322443.38248   -252709.29048  20230908.6964   20230915.6304   20230908.949
        53.0004         48.0004
 -19368057.86249 -15078187.57248  20283198.9334   20283205.3704   20283198.873
        54.0004         49.0004
  -8720018.76849  -6778510.59748  20528245.9554   20528253.9504   20528245.623
        54.0004         49.0004
  -1678928.59947  -1286173.08146  24133851.5764   24133864.0294   24133851.307
        42.0004         38.0004
  -8960346.10847  -6930721.00947  23439844.6224   23439855.7574   23439844.179
        46.0004         42.0004
 -28326429.34648 -22010328.61248  20349077.9194   20349083.8734   20349077.144
        53.0004         49.0004
 -15136139.30347 -11784006.16947  22707253.5084   22707261.1534   22707254.096
        47.0004         42.0004
  -9484901.00148  -7391122.83047  22480091.2234   22480098.0904   22480090.283
        48.0004         43.0004
  -9695645.61148  -7533098.97547  22404132.2724   22404137.7934   22404132.553
        48.0004         43.0004
 -22268347.64656 -17289774.42755  24174912.3125   24174926.8225   24174913.470
        38.0004         34.0004
 14  5 16  0 54 30.0000000  0 10G07G08G09G30G26G17G04G10G28G02
 -14469365.09548 -11246075.84447  21950344.0374   21950349.7504   21950343.091
        49.0004         45.0004
   -273852.35948   -214846.13248  20240155.3994   20240161.9794   20240155.630
        53.0004         48.0004
 -19325330.80949 -15044893.72948  20291329.2454   20291335.6734   20291329.366
        54.0004         49.0004
  -8675837.31649  -6744083.46748  20536653.1984   20536661.2684   20536653.097
        54.0004         50.0004
  -1666143.72747  -1276210.66846  24136284.8324   24136297.5604   24136285.418
        42.0004         38.0004
  -8924975.35547  -6903159.33747  23446575.1114   23446587.0084   23446575.608
        46.0004         42.0004
 -28344564.60748 -22024459.96048  20345626.4194   20345632.6524   20345626.024
        53.0004         49.0004
 -15207502.17747 -11839613.53647  22693674.0684   22693682.0584   22693674.296
        47.0004         42.0004
  -9543840.25048  -7437049.38147  22468873.8644   22468881.9564   22468874.425
        48.0004         43.0004
  -9759383.03548  -7582764.42147  22392002.2844   22392008.8964   22392003.299
        48.0004         43.0004
 14  5 16  0 55  0.0000000  0 10G07G08G09G30G26G17G04G10G28G02
 -14376519.76348 -11173728.82647  21968012.2624   21968016.6554   21968010.949
        49.0004         45.0004
   -224674.11948   -176525.40148  20249513.5744   20249520.0674   20249513.669
        53.0004         48.0004
 -19282086.51649 -15011196.84848  20299558.7224   20299564.9734   20299558.641
        54.0004         49.0004
  -8631160.35649  -6709270.23248  20545154.8664   20545163.0064   20545154.743
        54.0004         49.0004
  -1653232.27147  -1266149.60046  24138743.2264   24138752.8384   24138741.102
        42.0004         38.0004
  -8889765.99447  -6875723.43547  23453276.0414   23453287.3854   23453274.891
        46.0004         42.0004
 -28362145.40648 -22038159.26248  20342280.6474   20342286.9324   20342280.212
        53.0004         49.0004
 -15278904.57047 -11895251.69747  22680086.5764   22680093.3814   22680086.570
        47.0004         42.0004
  -9602746.56448  -7482950.26247  22457665.0024   22457673.2084   22457664.586
        48.0004         43.0004
  -9822739.69448  -7632133.17847  22379946.4864   22379951.7704   22379946.447
        48.0004         43.0004
 14  5 16  0 55 30.0000000  0 10G07G08G09G30G26G17G04G10G28G02
 -14283398.39148 -11101166.71747  21985731.1914   21985737.6344   21985731.456
        49.0004         44.0004
   -174909.51148   -137747.76348  20258983.6374   20258990.2944   20258983.875
        53.0004         48.0004
 -19238325.65449 -14977097.44448  20307886.1284   20307892.2154   20307886.136
        54.0004         49.0004
  -8585988.27449  -6674071.18648  20553750.8184   20553759.1794   20553750.824
        54.0004         49.0004
  -1640194.90447  -1255990.42746  24141223.3264   24141234.7814   24141222.833
        42.0004         38.0004
  -8854718.37047  -6848413.56247  23459944.3194   23459955.8994   23459944.258
        46.0004         42.0004
 -28379170.18448 -22051425.29648  20339041.0144   20339047.5384   20339040.725
        53.0004         49.0004
 -15350342.53947 -11950917.58947  22666492.3594   22666499.5654   22666492.873
        47.0004         42.0004
  -9661615.94648  -7528822.36147  22446462.2854   22446470.1724   22446462.195
        48.0004         43.0004
  -9885712.52948  -7681202.83147  22367963.9004   22367969.3934   22367963.960
        48.0004         43.0004
 14  5 16  0 56  0.0000000  0 10G07G08G09G30G26G17G04G10G28G02
 -14190005.21748 -11028392.80247  22003504.6514   22003509.4134   22003503.286
        49.0004         44.0004
   -124561.66948    -98515.65148  20268563.8544   20268570.8834   20268564.879
        53.0004         48.0004
 -19194051.40449 -14942597.99748  20316311.2484   20316317.3134   20316311.293
        54.0004         49.0004
  -8540323.99449  -6638488.60548  20562440.3414   20562448.6624   20562440.138
        54.0004         49.0004
  -1627035.00747  -1245735.78646  24143726.3164   24143738.5174   24143726.495
        42.0004         38.0004
  -8819833.88947  -6821230.81247  23466583.2314   23466594.8644   23466582.950
        46.0004         42.0004
 -28395639.73748 -22064258.69348  20335907.2884   20335913.6214   20335906.675
        53.0004         49.0004
 -15421814.97447 -12006610.33147  22652891.6694   22652898.6374   22652892.014
        47.0004         43.0004
  -9720446.30248  -7574664.05347  22435266.2734   22435276.0694   22435266.787
        48.0004         43.0004
  -9948301.02148  -7729973.01547  22356052.3144   22356058.0484   22356052.815
        48.0004         44.0004
 14  5 16  0 56 30.0000000  0 10G07G08G09G30G26G17G04G10G28G02
 -14096341.36348 -10955407.96947  22021327.7094   22021333.9824   22021327.150
        49.0004         44.0004
    -73630.69648    -58829.15748  20278256.0874   20278262.6704   20278256.237
        53.0004         48.0004
 -19149263.86649 -14907698.58948  20324834.1164   20324840.0934   20324833.953
        54.0004         49.0004
  -8494167.53449  -6602522.51448  20571224.0044   20571231.7564   20571223.941
        54.0004         49.0004
  -1613752.93647  -1235385.95146  24146254.9544   24146265.3444   24146253.983
        42.0004         38.0004
  -8785112.87547  -6794175.43447  23473189.7234   23473201.2494   23473190.022
        47.0004         42.0004
 -28411552.15148 -22076657.95348  20332878.8574   20332885.7214   20332878.288
        53.0004         49.0004
 -15493317.59247 -12062326.59147  22639284.7104   22639294.2374   22639285.923
        47.0004         43.0004
  -9779233.08548  -7620471.79447  22424079.2754   22424086.6084   22424079.876
        48.0004         43.0004
 -10010501.84548  -7778441.11447  22344216.8784   22344221.8564   22344217.071
        48.0004         43.0004
 14  5 16  0 57  0.0000000  0 10G07G08G09G30G26G17G04G10G28G02
 -14002411.18548 -10882215.61247  22039201.1614   22039207.8874   22039201.368
        49.0004         44.0004
    -22120.40748    -18691.24748  20288058.4324   20288065.1844   20288058.603
        53.0004         48.0004
 -19103966.98949 -14872402.29248  20333453.6924   20333459.5724   20333453.615
        54.0004         49.0004
  -8447522.21449  -6566175.48848  20580100.0554   20580108.2454   20580099.798
        54.0004         49.0004
  -1600352.28647  -1224943.71246  24148803.4474   24148815.3924   24148804.003
        43.0004         38.0004
  -8750558.32047  -6767249.75347  23479765.9424   23479777.0204   23479765.346
        47.0004         42.0004
 -28426908.49648 -22088623.91448  20329956.8244   20329963.5574   20329956.654
        53.0004         49.0004
 -15564849.40648 -12118065.60647  22625672.9754   22625679.4244   22625673.139
        48.0004         43.0004
  -9837975.00748  -7666244.57547  22412902.6004   22412909.9004   22412901.949
        48.0004         43.0004
 -10072315.10748  -7826607.22247  22332453.9304   22332459.4704   22332454.495
        48.0004         44.0004
 14  5 16  0 57 30.0000000  0 10G07G08G09G30G26G17G04G10G28G02
 -13908217.93648 -10808818.29147  22057126.1784   22057132.3874   22057125.639
        49.0004         44.0004
     29966.95648     21896.33748  20297970.0654   20297976.8454   20297970.295
        53.0004         48.0004
 -19058162.99349 -14836710.83448  20342169.5354   20342176.0674   20342169.884
        54.0004         49.0004
  -8400390.04549  -6529449.09848  20589068.9734   20589076.8624   20589068.875
        54.0004         49.0004
  -1586835.31147  -1214410.82746  24151376.0494   24151387.6334   24151376.594
        43.0004         38.0004
  -8716170.98747  -6740454.38547  23486309.6184   23486320.7334   23486308.888
        47.0004         42.0004
 -28441708.67848 -22100156.49848  20327140.3434   20327147.0024   20327139.836
        53.0004         49.0004
 -15636408.10348 -12173825.55747  22612055.8304   22612062.8324   22612056.889
        48.0004         43.0004
  -9896669.35748  -7711980.29247  22401731.7804   22401739.8074   22401732.509
        48.0004         43.0004
 -10133739.06548  -7874469.97947  22320764.7344   22320770.4924   22320765.279
        48.0004         44.0004
 14  5 16  0 58  0.0000000  0 10G07G08G09G30G26G17G04G10G28G02
 -13813764.53648 -10735218.23747  22075099.9744   22075105.7534   22075100.077
        49.0004         44.0004
     82629.15548     62931.84148  20307991.4504   20307997.6534   20307991.707
        53.0004         48.0004
 -19011854.34649 -14800626.14748  20350982.1824   20350988.2164   20350981.839
        54.0004         49.0004
  -8352772.95849  -6492344.85148  20598130.1544   20598138.0654   20598130.090
        54.0004         49.0004
  -1573204.33047  -1203789.10546  24153969.1904   24153981.4224   24153969.903
        43.0004         38.0004
  -8681952.38547  -6713790.48247  23492820.6724   23492832.1224   23492820.575
        47.0004         42.0004
 -28455952.77248 -22111255.76648  20324430.0264   20324436.5904   20324429.499
        53.0004         49.0004
 -15707991.10148 -12229604.44547  22598433.8204   22598441.7084   22598434.251
        48.0004         43.0004
  -9955313.50948  -7757676.88747  22390571.9874   22390579.4454   22390572.685
        48.0004         43.0004
 -10194772.50048  -7922028.43447  22309151.4754   22309155.5644   22309151.333
        48.0004         44.0004
 14  5 16  0 58 30.0000000  0 10G07G08G09G30G26G17G04G10G28G02
 -13719051.58248 -10661415.92547  22093123.7574   22093128.4484   22093122.590
        49.0004         44.0004
    135866.11048    104415.21448  20318121.4654   20318128.7534   20318122.140
        53.0004         48.0004
 -18965040.57249 -14764147.85248  20359890.3634   20359896.3524   20359890.473
        54.0004         49.0004
  -8304670.49249  -6454862.38648  20607283.7494   20607291.8374   20607283.820
        54.0004         49.0004
  -1559459.17147  -1193078.41246  24156585.5994   24156596.0354   24156585.403
        43.0004         38.0004
  -8647901.51947  -6687257.29647  23499299.8094   23499312.1984   23499300.299
        47.0004         42.0004
 -28469638.05348 -22121919.60348  20321825.6034   20321832.0434   20321825.317
        53.0004         49.0004
 -15779593.45048 -12285398.41247  22584808.9064   22584814.7344   22584808.276
        48.0004         43.0004
 -10013902.02348  -7803330.13147  22379422.7104   22379431.0454   22379423.790
        48.0004         43.0004
 -10255411.41448  -7969279.46147  22297611.6824   22297617.3904   22297611.947
        49.0004         44.0004
 14  5 16  0 59  0.0000000  0 10G07G08G09G30G26G17G04G10G28G02
 -13624086.39948 -10587417.06947  22111194.5764   22111200.7634   22111193.957
        49.0004         44.0004
    189671.42148    146341.45548  20328360.6984   20328366.8274   20328361.199
        53.0004         48.0004
 -18917728.32349 -14727281.13248  20368893.3874   20368899.4864   20368893.559
        54.0004         49.0004
  -8256088.89849  -6417006.57848  20616528.6954   20616536.5844   20616528.536
        54.0004         49.0004
  -1545606.19747  -1182283.71246  24159220.8344   24159233.1204   24159221.209
        43.0004         39.0004
  -8614023.65847  -6660858.90947  23505747.5374   23505757.9774   23505747.128
        47.0004         42.0004
 -28482769.00048 -22132151.48848  20319327.0264   20319333.0964   20319326.392
        53.0004         49.0004
 -15851217.31048 -12341209.14247  22571178.2174   22571187.3564   22571179.046
        48.0004         43.0004
 -10072436.16348  -7848941.02447  22368284.8334   22368292.6034   22368285.401
        48.0004         43.0004
 -10315658.53948  -8016225.20747  22286146.6544   22286152.3874   22286147.466
        49.0004         44.0004
 14  5 16  0 59 30.0000000  0 10G07G08G09G30G26G17G04G10G28G02
 -13528869.37148 -10513221.96547  22129314.2484   22129319.3574   22129313.443
        49.0004         44.0004
    244045.43848    188710.84948  20338707.6064   20338714.2194   20338708.233
        53.0004         48.0004
 -18869917.21949 -14690025.69848  20377991.6134   20377997.5424   20377991.588
        54.0004         49.0004
  -8207027.50049  -6378776.89048  20625864.7634   20625872.4994   20625864.450
        54.0004         49.0004
  -1531645.06647  -1171404.73146  24161879.4014   24161889.2294   24161878.279
        43.0004         39.0004
  -8580317.64947  -6634594.42947  23512161.2884   23512173.0674   23512161.231
        47.0004         42.0004
 -28495342.69348 -22141949.15148  20316933.9364   20316940.4594   20316933.741
        53.0004         49.0004
 -15922857.60948 -12397032.67347  22557545.3104   22557552.3054   22557546.804
        48.0004         43.0004
 -10130910.94348  -7894505.65847  22357158.1174   22357165.2694   22357157.681
        48.0004         43.0004
 -10375509.72248  -8062862.41747  22274758.1464   22274762.4104   22274757.767
        49.0004         44.0004
 14  5 16  1  0  0.0000000  0 10G07G08G09G30G26G17G04G10G28G02
 -13433403.37248 -10438832.86447  22147481.8644   22147486.2454   22147480.368
        48.0004         44.0004
    298986.01648    231521.71248  20349162.4604   20349169.3214   20349162.794
        52.0004         48.0004
 -18821609.45949 -14652383.25548  20387184.5334   20387190.6604   20387184.476
        54.0004         49.0004
  -8157488.15549  -6340174.77848  20635291.6924   20635299.5514   20635291.503
        54.0004         49.0004
  -1517577.76647  -1160443.03146  24164554.1324   24164566.3884   24164554.439
        43.0004         39.0004
  -8546784.28147  -6608464.47447  23518542.3144   23518552.6754   23518542.060
        46.0004         42.0004
 -28507358.96648 -22151312.46348  20314647.3984   20314654.0114   20314647.058
        53.0004         49.0004
 -15994511.76848 -12452867.01747  22543911.4044   22543919.2724   22543910.777
        48.0004         43.0004
 -10189323.08148  -7940021.46847  22346041.6874   22346049.3964   22346041.900
        48.0004         43.0004
 -10434963.63848  -8109190.08447  22263443.3594   22263450.4424   22263444.182
        49.0004         44.0004
 14  5 16  1  0 30.0000000  0 10G07G08G09G30G26G17G04G10G28G02
 -13337693.85048 -10364254.00247  22165693.8354   22165698.8894   22165692.804
        48.0004         44.0004
    354488.16748    274770.16948  20359724.3454   20359730.3634   20359724.621
        52.0004         48.0004
 -18772810.26849 -14614357.88348  20396470.0404   20396476.4914   20396470.288
        54.0004         49.0004
  -8107475.46849  -6301203.82148  20644808.5924   20644816.6624   20644808.380
        54.0004         49.0004
  -1503409.18547  -1149402.40446  24167251.0224   24167262.9634   24167251.523
        43.0004         38.0004
  -8513427.89447  -6582472.42647  23524890.2924   23524901.2544   23524889.606
        46.0004         42.0004
 -28518820.52348 -22160243.52748  20312466.4404   20312472.5074   20312466.198
        53.0004         49.0004
 -16066179.92348 -12508712.25547  22530271.2944   22530280.2854   22530272.352
        48.0004         43.0004
 -10247672.13048  -7985488.12547  22334938.6534   22334947.0544   22334938.368
        48.0004         43.0004
 -10494021.21248  -8155208.90647  22252206.0294   22252210.4714   22252206.036
        49.0004         44.0004
 14  5 16  1  1  0.0000000  0 10G07G08G09G30G26G17G04G10G28G02
 -13241741.07048 -10289485.60147  22183953.4184   22183957.4744   22183951.981
        48.0004         44.0004
    410552.36048    318456.57848  20370392.8954   20370399.0654   20370392.949
        52.0004         48.0004
 -18723518.87549 -14575948.97448  20405850.5514   20405856.4524   20405850.421
        54.0004         49.0004
  -8056988.51649  -6261863.31448  20654416.0814   20654423.7974   20654416.232
        54.0004         49.0004
  -1489138.49047  -1138282.21246  24169966.6734   24169977.9774   24169966.284
        43.0004         38.0004
  -8480246.22547  -6556616.50946  23531204.4574   23531214.6214   23531204.055
        46.0004         41.0004
 -28529724.39448 -22168740.02848  20310391.2534   20310397.9484   20310391.075
        53.0004         49.0004
 -16137856.34448 -12564563.93947  22516633.8234   22516640.9424   22516633.407
        48.0004         43.0004
 -10305952.21248  -8030901.05247  22323848.5604   22323856.0694   22323848.195
        48.0004         43.0004
 -10552678.21648  -8200915.58947  22241042.6294   22241047.9724   22241043.847
        49.0004         44.0004
 14  5 16  1  1 30.0000000  0 10G07G08G09G30G26G17G04G10G28G02
 -13145549.97948 -10214531.49147  22202256.7764   22202262.6144   22202256.998
        48.0004         44.0004
    467174.27448    362577.57048  20381167.7394   20381174.2714   20381168.205
        52.0004         48.0004
 -18673739.63249 -14537159.92248  20415322.7474   20415329.1294   20415322.602
        54.0004         49.0004
  -8006031.47149  -6222156.49748  20664112.7324   20664120.6034   20664112.684
        54.0004         49.0004
  -1474770.03747  -1127085.83546  24172700.8474   24172711.9254   24172700.345
        43.0004         38.0004
  -8447242.52347  -6530899.28046  23537484.7324   23537496.6564   23537484.548
        46.0004         41.0004
 -28540072.59048 -22176803.53848  20308422.0904   20308428.3934   20308422.034
        53.0004         49.0004
 -16209540.67248 -12620421.78647  22502991.0764   22502998.4634   22502992.040
        48.0004         43.0004
 -10364162.96648  -8076259.95947  22312770.2624   22312777.9704   22312770.962
        48.0004         44.0004
 -10610935.16948  -8246310.55947  22229958.2834   22229962.2124   22229957.826
        49.0004         44.0004
 14  5 16  1  2  0.0000000  0 10G07G08G09G30G26G17G04G10G28G02
 -13049123.27648 -10139393.78547  22220606.0844   22220611.3794   22220606.129
        48.0004         44.0004
    524351.97448    407131.64948  20392048.0934   20392054.6784   20392048.432
        52.0004         48.0004
 -18623474.42849 -14497992.20148  20424888.2064   20424894.0884   20424888.298
        54.0004         49.0004
  -7954605.84249  -6182084.54948  20673899.0094   20673906.9524   20673898.843
        54.0004         49.0004
  -1460305.56147  -1115814.64846  24175453.2644   24175465.0764   24175453.238
        43.0004         38.0004
  -8414418.20647  -6505321.81046  23543731.3514   23543741.8254   23543730.166
        46.0004         41.0004
 -28549864.78648 -22184433.80048  20306559.2194   20306565.1004   20306558.317
        53.0004         49.0004
 -16281230.02448 -12676283.55447  22489349.4684   22489356.3844   22489349.660
        48.0004         43.0004
 -10422300.83448  -8121562.06447  22301707.5024   22301714.2344   22301707.405
        48.0004         44.0004
 -10668790.28948  -8291392.40247  22218947.5274   22218952.9124   22218948.396
        49.0004         44.0004
 14  5 16  1  2 30.0000000  0 10G07G08G09G30G26G17G04G10G28G02
 -12952462.91148 -10064074.01047  22238999.3184   22239006.2054   22238999.614
        48.0004         44.0004
    582083.84048    452117.55048  20403034.1934   20403040.5544   20403034.662
        52.0004         48.0004
 -18572724.50649 -14458446.78048  20434545.4194   20434551.5964   20434545.584
        54.0004         49.0004
  -7902712.92049  -6141648.47548  20683773.6054   20683781.6524   20683773.681
        54.0004         49.0004
  -1445746.42947  -1104469.70546  24178223.0084   24178234.6074   24178222.839
        43.0004         38.0004
  -8381773.20747  -6479884.07646  23549943.1244   23549953.9684   23549942.285
        46.0004         41.0004
 -28559100.30748 -22191630.28848  20304801.1224   20304807.7374   20304800.721
        53.0004         49.0004
 -16352921.03748 -12732146.60047  22475707.2064   22475713.6524   22475707.515
        48.0004         43.0004
 -10480361.82248  -8166804.27847  22290658.8394   22290666.4194   22290658.911
        48.0004         44.0004
 -10726241.41148  -8336159.44147  22208015.4314   22208020.9094   22208015.365
        49.0004         44.0004
 14  5 16  1  3  0.0000000  0 10G07G08G09G30G26G17G04G10G28G02
 -12855572.32248  -9988574.81847  22257438.0224   22257444.6124   22257437.681
        48.0004         43.0004
    640367.39048    497533.32848  20414124.9354   20414131.8114   20414125.398
        52.0004         48.0004
 -18521492.74749 -14418525.90448  20444294.6464   20444300.5374   20444294.409
        54.0004         49.0004
  -7850355.06749  -6100850.11548  20693736.6234   20693744.7344   20693736.857
        54.0004         49.0004
  -1431095.04747  -1093052.87846  24181011.3274   24181022.4074   24181011.614
        43.0004         38.0004
  -8349308.75447  -6454587.02546  23556120.4334   23556130.8144   23556119.671
        46.0004         41.0004
 -28567779.50049 -22198393.27848  20303149.7364   20303156.2504   20303149.531
        54.0004         49.0004
 -16424611.32848 -12788009.07947  22462064.5974   22462071.5064   22462065.196
        48.0004         43.0004
 -10538343.50948  -8211984.68347  22279624.2184   22279632.8804   22279624.866
        48.0004         44.0004
 -10783287.19448  -8380610.64147  22197159.9514   22197165.0314   22197160.149
        49.0004         44.0004
 14  5 16  1  3 30.0000000  0 10G07G08G09G30G26G17G04G10G28G02
 -12758457.06848  -9912900.58447  22275918.6404   22275924.0904   22275918.087
        48.0004         43.0004
    699197.24648    543374.80348  20425320.1124   20425327.2434   20425320.444
        52.0004         48.0004
 -18469784.38549 -14378233.64348  20454134.3074   20454139.9264   20454134.202
        54.0004         49.0004
  -7797536.92149  -6059693.08648  20703787.9914   20703795.8364   20703787.955
        54.0004         49.0004
  -1416356.28347  -1081567.96346  24183815.8414   24183827.1734   24183815.184
        43.0004         38.0004
  -8317028.77247  -6429433.71646  23562263.0364   23562274.0484   23562262.245
        46.0004         41.0004
 -28575905.25649 -22204725.02348  20301603.4804   20301610.1594   20301602.944
        54.0004         49.0004
 -16496301.07048 -12843871.13747  22448422.3494   22448429.5924   22448422.938
        48.0004         43.0004
 -10596245.68248  -8257103.14847  22268606.0284   22268614.1814   22268606.465
        48.0004         44.0004
 -10839929.31348  -8424747.28847  22186381.2854   22186387.0404   22186381.964
        49.0004         44.0004
 14  5 16  1  4  0.0000000  0 10G07G08G09G30G26G17G04G10G28G02
 -12661117.27448  -9837051.37947  22294441.4924   22294447.9024   22294440.614
        48.0004         43.0004
    758573.86548    589642.32948  20436619.3624   20436625.3974   20436619.527
        52.0004         48.0004
 -18417598.94249 -14337569.63548  20464064.9284   20464070.8974   20464064.652
        54.0004         49.0004
  -7744257.82849  -6018176.88248  20713926.6854   20713934.4304   20713926.394
        54.0004         49.0004
  -1401529.50147  -1070014.45046  24186637.3414   24186647.9004   24186637.395
        43.0004         38.0004
  -8284931.66147  -6404422.91347  23568371.1984   23568382.4264   23568370.579
        46.0004         42.0004
 -28583474.77649 -22210623.33248  20300163.0494   20300169.4334   20300162.781
        54.0004         49.0004
 -16567984.87748 -12899728.58247  22434780.6374   22434789.6814   22434781.777
        48.0004         43.0004
 -10654062.50348  -8302155.09947  22257603.7664   22257611.3874   22257604.328
        49.0004         44.0004
 -10896163.64948  -8468566.19247  22175679.8124   22175685.1934   22175680.244
        49.0004         45.0004
 14  5 16  1  4 30.0000000  0 10G07G08G09G30G26G17G04G10G28G02
 -12563556.85148  -9761030.26347  22313006.4194   22313011.8644   22313006.110
        48.0004         43.0004
    818493.62948    636333.07948  20448021.7254   20448028.2664   20448021.551
        52.0004         48.0004
 -18364939.77449 -14296536.48848  20474085.2704   20474091.9304   20474085.327
        54.0004         49.0004
  -7690520.90149  -5976303.92048  20724152.2934   20724160.1734   20724152.351
        54.0004         49.0004
  -1386617.86947  -1058394.84846  24189474.8294   24189485.0834   24189474.571
        43.0004         38.0004
  -8253019.39047  -6379556.13447  23574443.8304   23574455.2694   23574443.501
        46.0004         42.0004
 -28590489.12949 -22216089.04748  20298828.2044   20298834.4904   20298827.755
        54.0004         49.0004
 -16639661.17648 -12955580.16147  22421142.0994   22421149.6214   22421142.486
        48.0004         43.0004
 -10711791.91148  -8347138.94147  22246618.5804   22246626.2974   22246618.667
        48.0004         44.0004
 -10951989.97348  -8512067.15747  22165057.4284   22165061.7714   22165056.640
        49.0004         44.0004
 14  5 16  1  5  0.0000000  0 10G07G08G09G30G26G17G04G10G28G02
 -12465779.12748  -9684839.81747  22331612.5904   22331620.2744   22331612.459
        48.0004         43.0004
    878953.88148    683444.98948  20459526.7564   20459533.2084   20459526.918
        52.0004         48.0004
 -18311809.51449 -14255136.25448  20484195.7884   20484201.8014   20484195.744
        54.0004         49.0004
  -7636328.45849  -5934076.00948  20734464.7714   20734472.8024   20734464.735
        54.0004         49.0004
  -1371623.76547  -1046710.97246  24192328.3344   24192339.2604   24192327.667
        43.0004         38.0004
  -8221293.22347  -6354834.36546  23580480.5504   23580491.3664   23580480.155
        46.0004         41.0004
 -28596948.83849 -22221122.57248  20297598.9544   20297605.3014   20297598.669
        54.0004         49.0004
 -16711327.59848 -13011424.05147  22407504.3524   22407510.4484   22407504.683
        48.0004         43.0004
 -10769431.43848  -8392052.74747  22235649.6414   22235656.4754   22235649.901
        48.0004         44.0004
 -11007406.55848  -8555248.85347  22154511.0904   22154516.3284   22154511.105
        49.0004         44.0004
 14  5 16  1  5 30.0000000  0 10G07G08G09G30G26G17G04G10G28G02
 -12367787.36448  -9608482.57947  22350259.0504   22350265.5734   22350259.156
        48.0004         43.0004
    939951.77048    730975.83748  20471134.0334   20471140.6114   20471134.593
        52.0004         48.0004
 -18258210.98449 -14213371.13748  20494395.0314   20494401.3644   20494394.889
        54.0004         49.0004
  -7581683.12149  -5891495.20348  20744863.4754   20744871.4104   20744863.541
        54.0004         49.0004
  -1356549.74147  -1034964.80546  24195194.8254   24195207.5624   24195195.926
        43.0004         38.0004
  -8189754.61747  -6330258.75946  23586482.1994   23586493.7374   23586481.815
        46.0004         41.0004
 -28602854.61649 -22225724.45648  20296474.9914   20296481.3704   20296474.416
        54.0004         49.0004
 -16782982.03148 -13067258.60247  22393868.4324   22393875.7624   22393869.308
        48.0004         43.0004
 -10826978.26348  -8436894.31147  22224698.8774   22224706.6024   22224699.268
        48.0004         44.0004
 -11062412.77548  -8598110.77347  22144043.7724   22144048.8204   22144043.607
        49.0004         44.0004
 14  5 16  1  6  0.0000000  0 10G07G08G09G30G26G17G04G10G28G02
 -12269583.78948  -9531960.29847  22368947.1244   22368953.0624   22368947.203
        48.0004         43.0004
   1001485.63348    778924.32948  20482844.0134   20482850.2334   20482844.050
        52.0004         48.0004
 -18204145.75349 -14171242.36048  20504683.8534   20504689.2814   20504683.568
        54.0004         49.0004
  -7526586.08249  -5848562.41748  20755348.1554   20755355.6604   20755347.991
        54.0004         49.0004
  -1341397.11747  -1023157.38746  24198079.4104   24198090.1344   24198078.977
        43.0004         38.0004
  -8158403.74047  -6305829.43946  23592447.9984   23592459.4064   23592447.321
        46.0004         41.0004
 -28608205.78849 -22229894.18048  20295456.6224   20295462.9604   20295456.419
        54.0004         49.0004
 -16854620.63948 -13123080.82147  22380236.2904   22380243.2074   22380236.665
        48.0004         43.0004
 -10884428.63948  -8481660.73047  22213765.7704   22213774.1984   22213766.574
        48.0004         44.0004
 -11117006.54848  -8640651.32047  22133654.7994   22133659.6854   22133654.965
        49.0004         45.0004
 14  5 16  1  6 30.0000000  0 10G07G08G09G30G26G17G04G10G28G02
 -12171173.09748  -9455276.62447  22387674.7684   22387680.2944   22387674.115
        48.0004         43.0004
   1063550.78348    827286.80548  20494654.4774   20494660.9414   20494654.651
        52.0004         48.0004
 -18149618.34649 -14128753.44048  20515059.7664   20515065.6604   20515059.550
        54.0004         49.0004
  -7471041.61649  -5805280.99148  20765917.7234   20765925.6744   20765917.837
        54.0004         49.0004
  -1326170.10647  -1011292.02846  24200976.5924   24200987.5964   24200976.538
        43.0004         38.0004
  -8127243.97047  -6281549.02346  23598376.9004   23598388.4334   23598377.170
        46.0004         41.0004
 -28613004.55649 -22233633.46648  20294543.8464   20294549.9634   20294543.152
        54.0004         49.0004
 -16926243.05048 -13178890.41147  22366607.0934   22366614.0634   22366607.341
        48.0004         43.0004
 -10941781.44348  -8526351.12047  22202852.4654   22202859.4814   22202852.885
        48.0004         44.0004
 -11171188.62448  -8682871.06747  22123344.2354   22123349.0554   22123345.055
        49.0004         45.0004
 14  5 16  1  7  0.0000000  0 10G07G08G09G30G26G17G04G10G28G02
 -12072555.59848  -9378431.82447  22406440.3424   22406446.9804   22406440.870
        48.0004         43.0004
   1126147.55848    876063.53548  20506565.9604   20506572.3184   20506566.448
        52.0004         48.0004
 -18094628.43549 -14085904.13348  20525523.8154   20525529.7574   20525523.783
        54.0004         49.0004
  -7415048.88449  -5761650.26348  20776572.7714   20776580.8114   20776572.476
        54.0004         49.0004
  -1310867.87347   -999368.04546  24203888.7294   24203898.9204   24203888.606
        43.0004         38.0004
  -8096273.02847  -6257415.75247  23604271.1204   23604283.1164   23604270.409
        46.0004         42.0004
 -28617248.30149 -22236940.26548  20293735.9454   20293742.4334   20293735.460
        54.0004         49.0004
 -16997843.55848 -13234682.93947  22352981.7224   22352988.2654   22352982.497
        48.0004         43.0004
 -10999030.93548  -8570961.00547  22191957.6824   22191965.8154   22191958.601
        49.0004         44.0004
 -11224954.70148  -8724766.65147  22113112.5684   22113118.0064   22113113.272
        49.0004         45.0004
 14  5 16  1  7 30.0000000  0 10G07G08G09G30G26G17G04G10G28G02
 -11973737.73748  -9301430.87747  22425245.4094   22425251.8014   22425244.705
        48.0004         43.0004
   1189269.81648    925249.73348  20518577.4114   20518583.7284   20518577.858
        52.0004         48.0004
 -18039182.05149 -14042699.13748  20536075.3694   20536081.2814   20536075.015
        54.0004         49.0004
  -7358613.72249  -5717674.78548  20787312.0474   20787319.8444   20787311.864
        54.0004         49.0004
  -1295496.11547   -987389.88646  24206813.6274   24206824.3354   24206812.704
        43.0004         38.0004
  -8065495.65247  -6233433.31546  23610127.5554   23610139.4164   23610127.264
        46.0004         41.0004
 -28620940.97149 -22239817.65248  20293033.4664   20293039.8924   20293033.071
        54.0004         49.0004
 -17069423.08848 -13290459.12247  22339360.7094   22339367.2974   22339361.579
        48.0004         43.0004
 -11056177.81148  -8615490.92847  22181082.9584   22181090.6694   22181083.420
        49.0004         44.0004
 -11278307.14048  -8766339.92047  22102960.1894   22102965.3094   22102960.554
        49.0004         45.0004
 14  5 16  1  8  0.0000000  0 10G07G08G09G30G26G17G04G10G28G02
 -11874720.54248  -9224274.60347  22444088.0854   22444092.8514   22444087.626
        48.0004         43.0004
   1252916.96748    974844.94048  20530689.4124   20530695.6784   20530689.830
        52.0004         48.0004
 -17983279.57949 -13999138.74448  20546712.5434   20546718.9744   20546712.696
        54.0004         49.0004
  -7301736.27749  -5673354.67048  20798135.1994   20798143.1414   20798135.165
        54.0004         49.0004
  -1280055.14747   -975357.78346  24209752.0834   24209761.6694   24209751.757
        43.0004         38.0004
  -8034910.73647  -6209600.85546  23615947.3994   23615959.9774   23615947.144
        46.0004         41.0004
 -28624081.01349 -22242264.42748  20292435.8874   20292442.1724   20292435.314
        54.0004         49.0004
 -17140977.21948 -13346215.51447  22325743.4724   22325751.7494   22325744.459
        48.0004         44.0004
 -11113216.81248  -8659936.79947  22170229.8344   22170236.3224   22170229.515
        49.0004         44.0004
 -11331242.77448  -8807588.41247  22092887.0074   22092892.3404   22092886.619
        49.0004         45.0004
 14  5 16  1  8 30.0000000  0 10G07G08G09G30G26G17G04G10G28G02
 -11775506.72748  -9146965.12747  22462967.0174   22462974.5254   22462967.485
        48.0004         43.0004
   1317086.56448   1024847.24048  20542900.6404   20542906.9934   20542900.763
        52.0004         48.0004
 -17926923.93949 -13955225.23048  20557436.7464   20557442.9554   20557436.767
        54.0004         49.0004
  -7244418.81749  -5628691.69248  20809042.4114   20809050.0464   20809042.590
        54.0004         49.0004
  -1264546.95747   -963273.32946  24212702.2104   24212714.1744   24212702.095
        42.0004         38.0004
  -8004519.40047  -6185919.24546  23621731.5444   23621741.9214   23621730.705
        46.0004         41.0004
 -28626668.76749 -22244280.84648  20291943.4294   20291949.8584   20291943.106
        54.0004         49.0004
 -17212502.95248 -13401949.78747  22312132.4974   22312140.5644   22312134.299
        48.0004         44.0004
 -11170144.71948  -8704296.11047  22159395.1794   22159404.7944   22159396.092
        48.0004         44.0004
 -11383760.43148  -8848511.20147  22082892.5784   22082898.0544   22082893.368
        49.0004         45.0004
 14  5 16  1  9  0.0000000  0 10G07G08G09G30G26G17G04G10G28G02
 -11676101.46548  -9069506.45147  22481884.0144   22481889.2144   22481883.185
        48.0004         43.0004
   1381773.60748   1075252.74647  20555209.6534   20555216.5194   20555210.134
        52.0004         47.0004
 -17870119.54449 -13910962.04148  20568246.4074   20568252.8614   20568246.426
        54.0004         49.0004
  -7186665.67849  -5583689.22148  20820032.6504   20820040.4204   20820032.474
        54.0004         49.0004
  -1248975.87247   -951139.85746  24215664.4304   24215675.1284   24215665.205
        42.0004         38.0004
  -7974324.69047  -6162390.83746  23627476.7984   23627487.8994   23627476.105
        46.0004         41.0004
 -28628706.48348 -22245868.66148  20291555.4744   20291562.0944   20291555.202
        53.0004         49.0004
 -17283999.90748 -13457661.63347  22298529.0524   22298534.5984   22298528.519
        48.0004         44.0004
 -11226961.15348  -8748568.54647  22148584.5514   22148592.1434   22148584.112
        48.0004         44.0004
 -11435861.10148  -8889109.07647  22072977.9344   22072983.2114   22072978.617
        49.0004         44.0004
 14  5 16  1  9 30.0000000  0 10G07G08G09G30G26G17G04G10G28G02
 -11576505.24148  -8991898.99247  22500836.3324   22500841.0794   22500835.812
        48.0004         43.0004
   1446978.19348   1126061.53747  20567617.7054   20567624.1984   20567618.180
        52.0004         47.0004
 -17812866.26649 -13866349.07348  20579141.3134   20579147.3644   20579141.478
        54.0004         49.0004
  -7128476.49549  -5538346.97348  20831105.9754   20831113.3384   20831105.587
        54.0004         49.0004
  -1233341.51347   -938957.08946  24218641.4354   24218652.1164   24218640.933
        42.0004         38.0004
  -7944324.77547  -6139014.22846  23633185.8144   23633196.2344   23633185.323
        46.0004         41.0004
 -28630192.20849 -22247026.35448  20291272.4854   20291278.9954   20291272.395
        54.0004         49.0004
 -17355462.83848 -13513346.96147  22284929.1884   22284935.8604   22284929.399
        48.0004         44.0004
 -11283660.20248  -8792749.52447  22137793.8014   22137801.3354   22137794.597
        48.0004         44.0004
 -11487541.07048  -8929379.13247  22063143.4804   22063149.3334   22063144.220
        49.0004         45.0004
 14  5 16  1 10  0.0000000  0 10G07G08G09G30G26G17G04G10G28G02
 -11476721.95647  -8914145.73847  22519823.0564   22519830.1404   22519823.882
        47.0004         43.0004
   1512696.38848   1177270.53547  20580123.9234   20580130.3054   20580124.109
        52.0004         47.0004
 -17755167.71549 -13821389.13748  20590121.0234   20590127.2494   20590120.905
        54.0004         49.0004
  -7069854.74049  -5492667.65848  20842260.9264   20842268.9024   20842260.849
        54.0004         49.0004
  -1217647.13547   -926727.54246  24221626.4224   24221637.3314   24221626.555
        42.0004         38.0004
  -7914521.89747  -6115791.15546  23638856.2144   23638867.3724   23638856.499
        46.0004         41.0004
 -28631127.57648 -22247755.20248  20291094.9924   20291101.0904   20291094.525
        53.0004         49.0004
 -17426889.99948 -13569004.41847  22271337.3474   22271344.4214   22271336.987
        48.0004         44.0004
 -11340239.93848  -8836837.53647  22127027.3214   22127034.1774   22127027.807
        48.0004         44.0004
 -11538800.09148  -8969321.16347  22053389.1504   22053395.3034   22053389.949
        49.0004         45.0004
 14  5 16  1 10 30.0000000  0 10G07G08G09G30G26G17G04G10G28G02
 -11376756.20047  -8836250.32647  22538846.7624   22538853.1464   22538846.204
        47.0004         43.0004
   1578923.68948   1228876.24647  20592726.4484   20592732.6634   20592726.601
        52.0004         47.0004
 -17697028.28849 -13776085.66748  20601184.8204   20601190.5354   20601184.612
        54.0004         49.0004
  -7010804.37849  -5446654.36448  20853497.7514   20853505.6994   20853497.741
        54.0004         49.0004
  -1201896.51147   -914454.17246  24224625.0184   24224636.0554   24224624.738
        42.0004         38.0004
  -7884918.61247  -6092723.61946  23644490.8384   23644500.8574   23644489.788
        46.0004         41.0004
 -28631514.55548 -22248056.72948  20291020.8644   20291027.4904   20291020.501
        53.0004         49.0004
 -17498280.52248 -13624633.33047  22257752.1694   22257758.2174   22257752.091
        48.0004         44.0004
 -11396699.36448  -8880831.80247  22116283.2884   22116291.6024   22116283.971
        49.0004         44.0004
 -11589638.95848  -9008935.81747  22043715.2724   22043720.2214   22043715.067
        49.0004         45.0004
 14  5 16  1 11  0.0000000  0 10G07G08G09G30G26G17G04G10G28G02
 -11276609.16347  -8758213.65547  22557904.5084   22557910.0724   22557904.414
        47.0004         43.0004
   1645659.17148   1280877.93547  20605425.7334   20605432.2214   20605426.222
        52.0004         47.0004
 -17638449.12749 -13730439.54048  20612331.8874   20612338.1194   20612331.941
        54.0004         49.0004
  -6951325.84849  -5400307.43448  20864816.2664   20864824.1414   20864816.124
        54.0004         49.0004
  -1186089.96247   -902137.24346  24227631.9984   24227641.6434   24227631.952
        43.0004         38.0004
  -7855514.29147  -6069811.10846  23650086.2424   23650096.4544   23650085.082
        46.0004         41.0004
 -28631352.07248 -22247930.10748  20291052.0444   20291058.9414   20291051.690
        53.0004         49.0004
 -17569629.91948 -13680230.18647  22244173.6684   22244181.0904   22244174.572
        48.0004         44.0004
 -11453033.46948  -8924728.40747  22105564.1104   22105571.7574   22105564.090
        49.0004         44.0004
 -11640054.26548  -9048220.42147  22034121.4544   22034127.4474   22034122.062
        49.0004         45.0004
 14  5 16  1 11 30.0000000  0 10G07G08G09G30G26G17G04G10G28G02
 -11176284.55847  -8680038.62047  22576995.2044   22577000.3204   22576994.792
        47.0004         43.0004
   1712899.56248   1333273.06447  20618221.4524   20618227.8064   20618221.695
        52.0004         47.0004
 -17579433.41049 -13684453.24248  20623562.1224   20623567.9144   20623562.036
        54.0004         49.0004
  -6891422.20249  -5353629.25148  20876215.6434   20876223.2424   20876215.392
        54.0004         49.0004
  -1170230.45947   -889779.03946  24230650.9604   24230660.8924   24230650.458
        43.0004         38.0004
  -7826310.22847  -6047054.65046  23655642.9204   23655654.0524   23655642.358
        46.0004         41.0004
 -28630641.23948 -22247376.20648  20291186.9744   20291193.6644   20291186.650
        53.0004         49.0004
 -17640936.08648 -13735793.36647  22230604.4464   22230612.3484   22230605.582
        49.0004         44.0004
 -11509239.79148  -8968525.44247  22094868.0114   22094875.4774   22094868.281
        49.0004         44.0004
 -11690046.03448  -9087175.00847  22024607.9504   22024613.8274   22024608.146
        49.0004         45.0004
 14  5 16  1 12  0.0000000  0 10G07G08G09G30G26G17G04G10G28G02
 -11075786.39347  -8601728.33947  22596119.8094   22596125.0984   22596119.010
        47.0004         42.0004
   1780640.75748   1386058.42747  20631111.3794   20631117.7994   20631111.981
        52.0004         47.0004
 -17519984.73649 -13638129.57748  20634874.8974   20634880.6734   20634874.728
        54.0004         49.0004
  -6831096.96249  -5306622.54648  20887694.8164   20887703.0174   20887695.042
        54.0004         49.0004
  -1154321.34747   -877382.19546  24233677.4834   24233687.5364   24233677.424
        43.0004         38.0004
  -7797308.63547  -6024455.95246  23661161.6154   23661172.9054   23661161.638
        46.0004         41.0004
 -28629383.82648 -22246396.39048  20291426.5904   20291433.1924   20291426.351
        53.0004         49.0004
 -17712197.27948 -13791321.50947  22217043.9414   22217051.0284   22217045.021
        49.0004         44.0004
 -11565316.42548  -9012221.42247  22084197.0824   22084204.0204   22084197.209
        49.0004         44.0004
 -11739614.28948  -9125799.56347  22015175.8704   22015181.7864   22015176.182
        50.0004         45.0004
 14  5 16  1 12 30.0000000  0 10G07G08G09G30G26G17G04G10G28G02
 -10975115.97147  -8523283.84247  22615276.2034   22615282.4744   22615276.088
        47.0004         42.0004
   1848881.79648   1439233.28347  20644097.8584   20644103.9964   20644097.898
        52.0004         47.0004
 -17460104.08449 -13591469.30448  20646269.7724   20646275.7004   20646269.784
        54.0004         49.0004
  -6770350.81449  -5259287.86548  20899254.2944   20899262.3244   20899254.401
        54.0004         49.0004
  -1138363.01347   -864946.96946  24236714.9364   24236723.7774   24236714.281
        43.0004         38.0004
  -7768508.84447  -6002014.51146  23666641.7114   23666654.3854   23666641.677
        45.0004         41.0004
 -28627578.74348 -22244989.82448  20291770.0744   20291776.6804   20291769.694
        53.0004         49.0004
 -17783409.10748 -13846811.17347  22203492.8384   22203500.1654   22203493.776
        49.0004         44.0004
 -11621259.04148  -9055812.96647  22073551.1544   22073558.1544   22073551.322
        49.0004         44.0004
 -11788756.12448  -9164091.85147  22005824.8094   22005829.7594   22005824.673
        50.0004         45.0004
 14  5 16  1 13  0.0000000  0 10G07G08G09G30G26G17G04G10G28G02
 -10874276.91447  -8444707.93747  22634464.6064   22634471.0364   22634464.998
        47.0004         42.0004
   1917619.07848   1492794.82147  20657178.1194   20657184.5584   20657178.180
        52.0004         47.0004
 -17399794.92649 -13544475.13248  20657745.9574   20657752.2944   20657746.066
        54.0004         49.0004
  -6709186.73049  -5211627.51948  20910893.9304   20910901.4174   20910893.626
        54.0004         49.0004
  -1122358.29347   -852475.61746  24239759.9174   24239769.7664   24239759.164
        43.0004         38.0004
  -7739912.31947  -5979731.45546  23672082.9144   23672094.6744   23672083.146
        45.0004         40.0004
 -28625227.20048 -22243157.44148  20292217.6734   20292223.9294   20292217.029
        53.0004         49.0004
 -17854569.51148 -13902260.76947  22189951.1964   22189958.7474   22189952.131
        49.0004         44.0004
 -11677064.88448  -9099297.94347  22062931.7554   22062939.2024   22062931.961
        49.0004         44.0004
 -11837471.48148  -9202051.81447  21996554.0574   21996559.9754   21996554.989
        50.0004         45.0004
 14  5 16  1 13 30.0000000  0 10G07G08G09G30G26G17G04G10G28G02
 -10773272.37647  -8366003.08347  22653686.1984   22653691.5904   22653686.069
        47.0004         42.0004
   1986849.80748   1546740.85847  20670351.7484   20670358.3964   20670352.115
        52.0004         47.0004
 -17339059.97049 -13497149.16648  20669303.3364   20669309.9864   20669303.292
        54.0004         49.0004
  -6647607.03748  -5163643.32748  20922612.3934   20922619.7744   20922611.914
        53.0004         49.0004
  -1106309.23547   -839969.71246  24242813.6244   24242823.0164   24242813.283
        43.0004         38.0004
  -7711519.74347  -5957607.31746  23677487.3404   23677497.3114   23677486.298
        45.0004         41.0004
 -28622329.88748 -22240899.78748  20292768.9174   20292775.2394   20292768.833
        53.0004         49.0004
 -17925675.76248 -13957668.17247  22176420.8874   22176426.9624   22176421.225
        49.0004         44.0004
 -11732731.04848  -9142674.09047  22052338.0604   22052346.6804   22052339.117
        49.0004         44.0004
 -11885758.95548  -9239678.37647  21987365.2294   21987371.3004   21987365.224
        50.0004         45.0004
 14  5 16  1 14  0.0000000  0 10G07G08G09G30G26G17G04G10G28G02
 -10672106.49447  -8287172.51347  22672938.2844   22672942.0144   22672936.978
        47.0004         42.0004
   2056569.68848   1601068.04747  20683619.2964   20683625.6084   20683619.330
        52.0004         47.0004
 -17277903.45849 -13449494.72048  20680941.2984   20680947.2614   20680941.330
        54.0004         49.0004
  -6585615.83448  -5115338.47448  20934408.2624   20934416.3194   20934408.270
        53.0004         49.0004
  -1090219.80147   -827432.35346  24245875.2324   24245884.6204   24245875.003
        43.0004         38.0004
  -7683333.86247  -5935644.24846  23682850.4144   23682861.6984   23682849.931
        45.0004         40.0004
 -28618889.09148 -22238218.63848  20293423.5974   20293430.0004   20293423.247
        53.0004         49.0004
 -17996726.76948 -14013032.52147  22162900.1084   22162906.8894   22162900.875
        49.0004         44.0004
 -11788256.26548  -9185940.39847  22041772.3294   22041779.6044   22041772.758
        49.0004         44.0004
 -11933619.49048  -9276972.25847  21978257.2904   21978263.4874   21978258.593
        50.0004         45.0004
 14  5 16  1 14 30.0000000  0 10G07G08G09G30G26G17G04G10G28G02
 -10570780.76947  -8208217.39247  22692219.4564   22692224.2264   22692219.317
        47.0004         42.0004
   2126777.48048   1655775.43647  20696978.9664   20696986.3754   20696979.473
        52.0004         47.0004
 -17216326.55349 -13401512.69148  20692659.0164   20692665.1284   20692658.975
        54.0004         49.0004
  -6523213.83548  -5066713.51948  20946282.9384   20946290.8884   20946283.049
        53.0004         49.0004
  -1074090.42947   -814863.86646  24248943.3544   24248954.5774   24248943.350
        43.0004         38.0004
  -7655353.73947  -5913841.51046  23688174.8104   23688186.2384   23688174.686
        45.0004         41.0004
 -28614903.93748 -22235113.31048  20294181.6094   20294188.3444   20294181.427
        53.0004         49.0004
 -18067718.08348 -14068350.36947  22149391.5474   22149397.1214   22149391.082
        49.0004         44.0004
 -11843635.45248  -9229092.91847  22031234.0054   22031241.3704   22031234.297
        49.0004         44.0004
 -11981050.72048  -9313931.61747  21969231.8534   21969237.4094   21969231.723
        50.0004         45.0004
 14  5 16  1 15  0.0000000  0 10G07G08G09G30G26G17G04G10G28G02
 -10469298.71347  -8129140.44547  22711531.8044   22711535.6444   22711530.254
        47.0004         42.0004
   2197469.64948   1710860.25347  20710431.6674   20710438.0634   20710432.056
        52.0004         47.0004
 -17154332.41649 -13353205.55448  20704455.7874   20704462.2034   20704455.983
        54.0004         49.0004
  -6460404.08148  -5017770.83248  20958235.2984   20958243.2364   20958235.214
        53.0004         49.0004
  -1057923.76547   -802266.32646  24252020.6234   24252030.5564   24252020.925
        43.0004         38.0004
  -7627580.88547  -5892200.28246  23693459.0214   23693470.3744   23693458.829
        45.0004         40.0004
 -28610375.70648 -22231584.81348  20295043.5924   20295049.8164   20295043.309
        53.0004         49.0004
 -18138647.62548 -14123620.08047  22135893.4534   22135899.4774   22135893.771
        49.0004         44.0004
 -11898866.47348  -9272129.98847  22020724.9794   22020731.8224   22020724.319
        49.0004         45.0004
 -12028051.52048  -9350555.56647  21960288.4094   21960293.2104   21960288.417
        50.0004         45.0004
 14  5 16  1 15 30.0000000  0 10G07G08G09G30G26G17G04G10G28G02
 -10367663.91347  -8049944.49647  22730870.6854   22730877.1504   22730870.330
        47.0004         42.0004
   2268642.36448   1766319.53047  20723975.2864   20723981.8164   20723975.385
        52.0004         47.0004
 -17091924.56948 -13304576.04348  20716331.7574   20716337.7434   20716331.861
        53.0004         49.0004
  -6397189.69648  -4968512.85148  20970265.0544   20970272.3854   20970264.697
        53.0004         49.0004
  -1041722.75247   -789642.01146  24255103.1804   24255114.5704   24255102.262
        43.0004         38.0004
  -7600016.76747  -5870721.69946  23698704.8954   23698715.2294   23698704.088
        45.0004         40.0004
 -28605305.76048 -22227634.19848  20296008.6384   20296014.8024   20296008.019
        53.0004         49.0004
 -18209513.12548 -14178839.89147  22122407.7824   22122414.4794   22122408.546
        49.0004         44.0004
 -11953947.00848  -9315049.79947  22010242.2244   22010249.6474   22010242.347
        49.0004         44.0004
 -12074622.49148  -9386844.59147  21951425.6394   21951430.9934   21951426.119
        50.0004         45.0004
 14  5 16  1 16  0.0000000  0 10G07G08G09G30G26G17G04G10G28G02
 -10265879.27547  -7970631.77247  22750239.7004   22750244.9234   22750239.241
        47.0004         42.0004
   2340293.11648   1822151.29947  20737609.6544   20737616.3484   20737610.174
        52.0004         47.0004
 -17029105.71248 -13255626.26448  20728286.0124   20728291.7724   20728286.056
        53.0004         49.0004
  -6333573.03748  -4918941.40848  20982370.6154   20982377.9204   20982370.543
        53.0004         49.0004
  -1025489.43747   -776992.54046  24258192.4394   24258202.1284   24258192.578
        43.0004         38.0004
  -7572662.16547  -5849406.36946  23703910.4124   23703921.0924   23703909.503
        45.0004         40.0004
 -28599694.89448 -22223262.09248  20297076.4724   20297082.7494   20297075.633
        53.0004         49.0004
 -18280311.98248 -14234007.78047  22108935.1024   22108941.9844   22108935.660
        49.0004         44.0004
 -12008873.78948  -9357849.80647  21999790.2364   21999796.6974   21999790.403
        49.0004         45.0004
 -12120762.21948  -9422797.57947  21942645.9984   21942651.0884   21942646.300
        50.0004         45.0004
 14  5 16  1 16 30.0000000  0 10G07G08G09G30G26G17G04G10G28G02
 -10163944.64347  -7891202.17847  22769637.4204   22769642.0244   22769637.516
        47.0004         42.0004
   2412421.76748   1878355.45547  20751335.5534   20751341.9884   20751335.814
        52.0004         47.0004
 -16965875.54748 -13206355.99548  20740318.4944   20740323.8874   20740317.960
        53.0004         49.0004
  -6269553.66248  -4869056.16748  20994553.1194   20994560.6844   20994552.947
        53.0004         49.0004
  -1009223.00047   -764317.27346  24261286.7624   24261297.3774   24261287.439
        43.0004         38.0004
  -7545514.98547  -5828252.67546  23709076.2124   23709086.7954   23709076.092
        45.0004         41.0004
 -28593541.07848 -22218466.90548  20298246.7324   20298253.5124   20298246.676
        53.0004         49.0004
 -18351038.27048 -14289119.11347  22095475.8684   22095482.8304   22095476.983
        49.0004         44.0004
 -12063640.83048  -9400525.33947  21989368.3434   21989375.6784   21989368.679
        49.0004         45.0004
 -12166466.95948  -9458411.61947  21933948.1664   21933952.8484   21933948.675
        50.0004         45.0004
 14  5 16  1 17  0.0000000  0 10G07G08G09G30G26G17G04G10G28G02
 -10061868.30447  -7811662.16647  22789062.7734   22789068.3644   22789061.910
        47.0004         42.0004
   2485019.91648   1934925.45847  20765150.1514   20765156.8754   20765150.930
        52.0004         47.0004
 -16902242.17548 -13156771.53048  20752427.4004   20752432.9834   20752427.081
        53.0004         49.0004
  -6205139.32848  -4818863.16348  21006810.8764   21006818.4564   21006810.504
        53.0004         49.0004
   -992930.99247   -751622.06646  24264387.7314   24264398.3464   24264387.943
        43.0004         38.0004
  -7518580.98647  -5807265.08146  23714201.6054   23714213.0094   23714201.087
        45.0004         41.0004
 -28586850.32248 -22213253.32448  20299520.5214   20299526.6884   20299520.160
        53.0004         49.0004
 -18421694.67848 -14344175.99947  22082030.6394   22082037.7114   22082031.133
        49.0004         44.0004
 -12118250.53148  -9443078.27347  21978976.0144   21978983.1114   21978976.417
        49.0004         45.0004
 -12211740.96148  -9493690.02047  21925333.4644   21925337.7834   21925333.094
        50.0004         45.0004
 14  5 16  1 17 30.0000000  0 10G07G08G09G30G26G17G04G10G28G02
  -9959649.69947  -7732011.27947  22808513.8594   22808518.5304   22808512.851
        46.0004         42.0004
   2558088.09548   1991861.71747  20779055.2884   20779061.0404   20779055.147
        52.0004         47.0004
 -16838204.93948 -13106872.36148  20764613.0824   20764618.8344   20764612.738
        53.0004         49.0004
  -6140329.01048  -4768361.60148  21019143.7274   21019151.3914   21019143.519
        53.0004         49.0004
   -976611.99347   -738905.83746  24267492.6264   24267504.2684   24267493.070
        43.0004         38.0004
  -7491857.61247  -5786441.62446  23719286.6504   23719297.1454   23719286.292
        46.0004         41.0004
 -28579619.92548 -22207619.24648  20300896.4474   20300902.6084   20300895.645
        53.0004         49.0004
 -18492274.68848 -14399173.35647  22068599.5614   22068607.1814   22068600.687
        49.0004         44.0004
 -12172696.32648  -9485503.48647  21968615.7194   21968622.0354   21968616.012
        49.0004         45.0004
 -12256580.08148  -9528629.55547  21916800.8494   21916804.8144   21916800.656
        50.0004         45.0004
 14  5 16  1 18  0.0000000  0 10G07G08G09G30G26G17G04G10G28G02
  -9857293.57047  -7652253.25547  22827991.1294   22827996.2734   22827990.731
        46.0004         42.0004
   2631621.51848   2049160.50047  20793047.9064   20793054.1854   20793048.002
        51.0004         47.0004
 -16773768.48148 -13056662.11648  20776874.2974   20776880.7834   20776874.706
        53.0004         48.0004
  -6075127.01548  -4717554.83848  21031551.4164   21031558.9054   21031551.124
        53.0004         49.0004
   -960269.90847   -726171.62946  24270603.0724   24270612.7724   24270602.889
        43.0004         38.0004
  -7465347.73847  -5765784.53446  23724331.6934   23724342.6634   23724330.954
        46.0004         41.0004
 -28571852.72249 -22201566.87448  20302374.3594   20302380.5744   20302373.985
        54.0004         49.0004
 -18562777.28448 -14454110.38247  22055183.7244   22055190.2064   22055184.455
        49.0004         44.0004
 -12226976.97748  -9527800.01647  21958286.8724   21958293.3994   21958286.808
        49.0004         45.0004
 -12300985.23148  -9563230.92647  21908350.0344   21908355.2584   21908350.575
        50.0004         45.0004
 14  5 16  1 18 30.0000000  0 10G07G08G09G30G26G17G04G10G28G02
  -9754801.67347  -7572389.42447  22847495.4844   22847499.3874   22847494.626
        46.0004         42.0004
   2705618.74948   2106820.69547  20807129.1934   20807135.6014   20807129.495
        51.0004         47.0004
 -16708934.44548 -13006142.06848  20789212.3374   20789218.3104   20789212.049
        53.0004         48.0004
  -6009534.63548  -4666443.87448  21044032.6014   21044040.6984   21044032.745
        53.0004         48.0004
   -943905.69347   -713420.16546  24273716.8944   24273726.4374   24273716.294
        43.0004         38.0004
  -7439050.67947  -5745293.26046  23729334.6544   23729346.6124   23729335.469
        46.0004         41.0004
 -28563548.29349 -22195095.88348  20303954.7984   20303961.1214   20303954.283
        54.0004         49.0004
 -18633198.43148 -14508983.94347  22041782.9394   22041790.5534   22041783.730
        49.0004         44.0004
 -12281088.14948  -9569964.48747  21947989.4304   21947995.9694   21947989.411
        49.0004         45.0004
 -12344954.60148  -9597492.73447  21899982.7354   21899988.6104   21899983.246
        50.0004         45.0004
 14  5 16  1 19  0.0000000  0 10G07G08G09G30G26G17G04G10G28G02
  -9652179.03747  -7492423.72647  22867022.8204   22867028.1764   22867023.005
        46.0004         42.0004
   2780074.28148   2164838.00747  20821297.5864   20821303.8594   20821297.639
        51.0004         47.0004
 -16643708.12848 -12955316.34748  20801623.8724   20801630.5344   20801624.335
        53.0004         48.0004
  -5943556.89848  -4615032.63848  21056587.9054   21056595.9134   21056588.178
        53.0004         48.0004
   -927523.98047   -700655.06846  24276835.1254   24276843.8674   24276834.090
        43.0004         38.0004
  -7412969.65347  -5724970.30946  23734298.9214   23734308.5354   23734297.843
        46.0004         41.0004
 -28554710.24349 -22188209.09048  20305636.2774   20305643.1834   20305635.987
        54.0004         49.0004
 -18703537.70348 -14563793.71047  22028398.0224   22028404.5144   22028398.206
        49.0004         44.0004
 -12335029.47848  -9611996.61347  21937724.1684   21937731.8384   21937724.542
        50.0004         45.0004
 -12388489.40548  -9631415.91647  21891699.1114   21891703.1744   21891699.004
        50.0004         45.0004
 14  5 16  1 19 30.0000000  0 10G07G08G09G30G26G17G04G10G28G02
  -9549425.24047  -7412355.82747  22886576.5554   22886583.6374   22886575.595
        46.0004         42.0004
   2854988.68348   2223212.87847  20835553.2554   20835559.3474   20835553.654
        51.0004         47.0004
 -16578088.48448 -12904184.13948  20814111.4644   20814117.4494   20814111.398
        53.0004         48.0004
  -5877192.65648  -4563320.21748  21069217.0414   21069224.4404   21069216.641
        53.0004         48.0004
   -911123.25047   -687875.15446  24279953.2314   24279964.0624   24279954.088
        43.0004         38.0004
  -7387101.72647  -5704813.40946  23739219.6774   23739231.0454   23739220.715
        46.0004         41.0004
 -28545335.64149 -22180904.20648  20307420.6114   20307426.8384   20307420.210
        54.0004         49.0004
 -18773788.67748 -14618534.68247  22015029.3844   22015036.0544   22015030.144
        49.0004         44.0004
 -12388793.91548  -9653890.90847  21927493.0614   21927500.3024   21927493.872
        50.0004         45.0004
 -12431585.36748  -9664997.14747  21883498.3064   21883502.4004   21883498.149
        50.0004         45.0004
 14  5 16  1 20  0.0000000  0 10G07G08G09G30G26G17G04G10G28G02
  -9446547.24147  -7332191.14647  22906153.3324   22906159.6434   22906152.723
        46.0004         42.0004
   2930355.03848   2281939.92147  20849894.8064   20849900.4284   20849895.380
        51.0004         47.0004
 -16512082.25548 -12852750.70148  20826672.1514   20826677.8004   20826671.887
        53.0004         48.0004
  -5810448.34348  -4511311.64748  21081917.3284   21081925.5684   21081917.584
        53.0004         48.0004
   -894709.49647   -675085.09846  24283078.6474   24283086.9734   24283078.554
        43.0004         38.0004
  -7361451.54047  -5684826.19446  23744102.2924   23744112.1994   23744101.555
        46.0004         41.0004
 -28535429.64749 -22173185.25148  20309305.4594   20309311.8434   20309305.000
        54.0004         49.0004
 -18843952.63748 -14673207.85047  22001677.1404   22001684.4254   22001678.383
        49.0004         44.0004
 -12442381.90148  -9695647.70447  21917295.5674   21917302.9194   21917296.020
        50.0004         45.0004
 -12474245.87448  -9698239.06147  21875379.7904   21875384.4034   21875380.544
        50.0004         45.0004
 14  5 16  1 20 30.0000000  0 10G07G08G09G30G26G17G04G10G28G02
  -9343544.47947  -7251929.24846  22925754.8844   22925759.4004   22925754.289
        46.0004         41.0004
   3006173.72048   2341019.42947  20864323.0434   20864328.8264   20864323.106
        51.0004         47.0004
 -16445689.08548 -12801015.74848  20839306.3164   20839311.7864   20839306.288
        53.0004         48.0004
  -5743323.17848  -4459006.30448  21094691.0534   21094699.0924   21094691.015
        53.0004         48.0004
   -878281.56847   -662283.99146  24286203.6094   24286213.3044   24286203.615
        43.0004         38.0004
  -7336016.66447  -5665006.73246  23748942.6724   23748953.2434   23748941.589
        46.0004         41.0004
 -28524989.63049 -22165050.17248  20311291.9384   20311298.4064   20311291.789
        54.0004         49.0004
 -18914023.22148 -14727808.24647  21988344.1274   21988350.0874   21988344.342
        49.0004         44.0004
 -12495788.14048  -9737262.88147  21907132.4874   21907139.8924   21907133.030
        50.0004         45.0004
 -12516466.67348  -9731138.34347  21867345.5274   21867350.1444   21867345.416
        50.0004         45.0004
 14  5 16  1 21  0.0000000  0 10G07G08G09G30G26G17G04G10G28G02
  -9240421.95147  -7171574.02647  22945377.5714   22945383.6854   22945377.126
        46.0004         42.0004
   3082439.15048   2400447.04447  20878835.3864   20878842.3604   20878835.695
        51.0004         46.0004
 -16378914.18848 -12748983.34048  20852013.0974   20852018.7514   20852012.753
        53.0004         48.0004
  -5675822.01548  -4406407.97848  21107536.1574   21107543.8764   21107536.035
        53.0004         48.0004
   -861843.80347   -649475.22546  24289331.0294   24289341.3884   24289331.497
        42.0004         38.0004
  -7310799.84747  -5645357.19546  23753740.3574   23753750.9394   23753740.856
        46.0004         41.0004
 -28514019.07249 -22156501.68948  20313379.8274   20313386.2844   20313379.478
        54.0004         49.0004
 -18984000.04448 -14782335.58947  21975027.6914   21975033.6234   21975027.729
        49.0004         45.0004
 -12549011.45148  -9778735.52547  21897004.7634   21897011.1664   21897005.167
        50.0004         45.0004
 -12558249.35848  -9763696.24547  21859394.3874   21859398.8964   21859394.978
        50.0004         45.0004
 14  5 16  1 21 30.0000000  0 10G07G08G09G30G26G17G04G10G28G02
  -9137180.76647  -7091126.34546  22965023.7564   22965029.6824   22965022.959
        46.0004         41.0004
   3159149.99648   2460221.73947  20893433.2834   20893439.5984   20893433.780
        51.0004         47.0004
 -16311758.53248 -12696654.23948  20864792.3154   20864798.3064   20864792.254
        53.0004         48.0004
  -5607945.59848  -4353517.24848  21120452.8954   21120460.1124   21120452.265
        53.0004         48.0004
   -845396.61447   -636659.11546  24292462.2104   24292471.6934   24292462.309
        42.0004         38.0004
  -7285799.92647  -5625876.66446  23758497.5434   23758508.1704   23758497.442
        46.0004         41.0004
 -28502517.29049 -22147539.26248  20315568.5184   20315574.7354   20315567.889
        54.0004         49.0004
 -19053878.52748 -14836786.29847  21961730.2334   21961736.7324   21961730.619
        49.0004         45.0004
 -12602046.30548  -9820061.31047  21886913.2864   21886918.8934   21886912.877
        50.0004         45.0004
 -12599591.56748  -9795910.90947  21851526.9954   21851531.8034   21851527.114
        50.0004         45.0004
 14  5 16  1 22  0.0000000  0 10G07G08G09G30G26G17G04G10G28G02
  -9033826.61347  -7010590.64146  22984691.5544   22984697.6444   22984690.875
        46.0004         41.0004
   3236300.40648   2520338.95647  20908114.1484   20908120.3044   20908114.561
        51.0004         46.0004
 -16244227.80648 -12644032.87948  20877642.5654   20877648.8404   20877642.934
        53.0004         48.0004
  -5539699.39248  -4300338.37248  21133439.7774   21133447.1734   21133439.516
        53.0004         48.0004
   -828944.89847   -623839.48446  24295591.8254   24295602.2124   24295591.403
        42.0004         38.0004
  -7261020.42247  -5606567.87746  23763213.0974   23763223.5654   23763212.798
        46.0004         41.0004
 -28490488.20249 -22138165.95148  20317857.5214   20317864.1074   20317857.243
        54.0004         49.0004
 -19123658.31648 -14891160.10947  21948450.8124   21948458.1744   21948451.901
        49.0004         45.0004
 -12654893.10948  -9861240.57047  21876857.1374   21876863.0304   21876856.537
        50.0004         45.0004
 -12640495.46048  -9827784.04047  21843742.9444   21843747.8774   21843743.403
        50.0004         45.0004
 14  5 16  1 22 30.0000000  0 10G07G08G09G30G26G17G04G10G28G02
  -8930361.11347  -6929968.18546  23004379.3684   23004385.0274   23004379.571
        46.0004         41.0004
   3313888.44048   2580797.17047  20922879.0964   20922884.9984   20922878.954
        51.0004         46.0004
 -16176323.54848 -12591120.45248  20890564.6324   20890570.6874   20890564.563
        53.0004         48.0004
  -5471084.58248  -4246872.27548  21146496.7564   21146504.2214   21146496.478
        53.0004         48.0004
   -812489.32447   -611016.82946  24298724.4174   24298732.4424   24298724.962
        42.0004         38.0004
  -7236460.60547  -5587430.26446  23767886.9764   23767895.7054   23767886.192
        46.0004         41.0004
 -28477931.44649 -22128381.46948  20320247.2404   20320253.3174   20320246.685
        54.0004         49.0004
 -19193335.27448 -14945453.80147  21935192.1744   21935198.1884   21935192.404
        49.0004         45.0004
 -12707547.37648  -9902269.80247  21866835.9524   21866842.0704   21866836.245
        50.0004         45.0004
 -12680958.94848  -9859313.99747  21836043.0614   21836048.1384   21836043.477
        50.0004         45.0004
 14  5 16  1 23  0.0000000  0 10G07G08G09G30G26G17G04G10G28G02
  -8826787.10047  -6849261.16146  23024089.7884   23024095.4944   23024089.683
        46.0004         41.0004
   3391911.25248   2641594.18347  20937725.6134   20937732.6394   20937726.180
        51.0004         46.0004
 -16108048.86948 -12537919.38448  20903556.9124   20903562.4234   20903556.706
        53.0004         48.0004
  -5402103.93248  -4193121.10448  21159623.2994   21159630.6264   21159623.233
        53.0004         48.0004
   -796032.31647   -598193.07746  24301855.1254   24301865.7654   24301853.948
        42.0004         38.0004
  -7212121.32247  -5568464.49346  23772518.5754   23772528.8514   23772518.050
        46.0004         41.0004
 -28464848.26649 -22118186.79148  20322736.7704   20322743.0634   20322736.344
        54.0004         49.0004
 -19262906.73048 -14999665.27647  21921952.7434   21921959.7874   21921953.653
        49.0004         45.0004
 -12760006.12248  -9943146.68447  21856853.3134   21856860.7864   21856854.236
        50.0004         45.0004
 -12720981.59248  -9890500.43647  21828426.5074   21828431.7944   21828427.663
        50.0004         45.0004
 14  5 16  1 23 30.0000000  0 10G07G08G09G30G26G17G04G10G28G02
  -8723107.22247  -6768471.64446  23043819.1064   23043825.6374   23043819.473
        46.0004         41.0004
   3470366.17148   2702727.89947  20952655.6814   20952662.1794   20952655.722
        51.0004         46.0004
 -16039406.39648 -12484431.72948  20916619.0904   20916624.9564   20916619.148
        53.0004         48.0004
  -5332759.66648  -4139086.59348  21172818.8124   21172826.3994   21172818.451
        53.0004         48.0004
   -779575.45447   -585369.42046  24304986.8224   24304996.7334   24304986.919
        42.0004         37.0004
  -7188003.07347  -5549670.95646  23777108.9074   23777118.2664   23777107.087
        45.0004         41.0004
 -28451239.58049 -22107582.62348  20325326.7504   20325332.5064   20325326.103
        54.0004         49.0004
 -19332369.24448 -15053791.85747  21908735.3584   21908741.8744   21908735.663
        49.0004         45.0004
 -12812265.93648  -9983868.55347  21846908.4614   21846915.4024   21846908.871
        49.0004         45.0004
 -12760562.24148  -9921342.46647  21820895.0764   21820900.0434   21820895.726
        50.0004         46.0004
 14  5 16  1 24  0.0000000  0 10G07G08G09G30G26G17G04G10G28G02
  -8619324.61147  -6687602.08146  23063569.2054   23063574.4254   23063567.312
        46.0004         41.0004
   3549249.44948   2764195.39747  20967666.5184   20967673.2714   20967666.432
        51.0004         46.0004
 -15970399.12148 -12430659.81448  20929750.8984   20929756.8254   20929750.732
        53.0004         48.0004
  -5263054.75648  -4084771.06548  21186082.9374   21186090.9674   21186083.237
        53.0004         48.0004
   -763121.27547   -572547.87746  24308117.8244   24308126.5204   24308117.815
        42.0004         37.0004
  -7164106.80947  -5531050.40346  23781655.2694   23781664.7064   23781654.740
        45.0004         41.0004
 -28437106.72249 -22096570.01548  20328015.5794   20328022.2384   20328015.304
        54.0004         49.0004
 -19401720.38148 -15107831.65247  21895537.6784   21895543.8484   21895538.192
        49.0004         45.0004
 -12864324.06048 -10024433.25947  21837002.9064   21837009.7824   21837002.371
        49.0004         45.0004
 -12799700.87148  -9951840.06447  21813447.4064   21813452.4424   21813447.912
        50.0004         46.0004
 14  5 16  1 24 30.0000000  0 10G07G08G09G30G26G17G04G10G28G02
  -8515441.83547  -6606654.47346  23083337.5524   23083342.5954   23083336.135
        46.0004         41.0004
   3628557.97148   2825994.25547  20982758.5314   20982764.9764   20982758.668
        51.0004         46.0004
 -15901029.72548 -12376605.72848  20942950.7344   20942957.3144   20942951.180
        53.0004         48.0004
  -5192991.61548  -4030176.39648  21199415.4404   21199423.5854   21199415.347
        53.0004         48.0004
   -746671.60947   -559729.85446  24311248.8844   24311257.8094   24311247.828
        42.0004         37.0004
  -7140432.72947  -5512602.97846  23786159.8134   23786171.1604   23786159.343
        45.0004         41.0004
 -28422450.81049 -22085149.82648  20330804.7854   20330810.8674   20330804.332
        54.0004         49.0004
 -19470957.01148 -15161782.23047  21882362.3354   21882368.9794   21882363.314
        49.0004         45.0004
 -12916177.38248 -10064838.38147  21827135.7664   21827141.8254   21827135.312
        49.0004         45.0004
 -12838396.56548  -9981992.52147  21806083.6304   21806088.5224   21806083.825
        50.0004         46.0004
 14  5 16  1 25  0.0000000  0 10G07G08G09G30G26G17G04G10G28G02
  -8411464.28747  -6525633.03046  23103122.8774   23103128.6734   23103122.775
        46.0004         41.0004
   3708286.53748   2888120.42147  20997930.3304   20997936.1024   20997930.310
        51.0004         46.0004
 -15831303.51748 -12322273.60648  20956219.7964   20956225.7224   20956219.661
        53.0004         48.0004
  -5122575.15648  -3975306.41248  21212815.7644   21212823.2884   21212815.482
        53.0004         48.0004
   -730230.84547   -546918.74146  24314374.8774   24314385.2004   24314376.237
        42.0004         38.0004
  -7116983.75847  -5494330.95546  23790622.1874   23790633.0584   23790621.743
        46.0004         41.0004
 -28407275.50449 -22073324.92148  20333692.3174   20333699.1344   20333692.129
        54.0004         49.0004
 -19540078.37848 -15215642.98447  21869208.3734   21869215.7034   21869209.722
        50.0004         45.0004
 -12967825.19148 -10105083.36547  21817306.6954   21817313.8474   21817306.944
        49.0004         45.0004
 -12876651.14748 -10011801.26347  21798804.3564   21798809.1544   21798804.534
        50.0004         46.0004
 14  5 16  1 25 30.0000000  0 10G07G08G09G30G26G17G04G10G28G02
  -8307390.50947  -6444536.58846  23122927.8154   23122933.5104   23122927.684
        46.0004         41.0004
   3788436.00248   2950574.55847  21013182.0424   21013188.4274   21013182.613
        51.0004         46.0004
 -15761219.52448 -12267662.68948  20969556.3084   20969562.4424   20969556.028
        53.0004         48.0004
  -5051804.12948  -3920160.14448  21226282.5104   21226290.4414   21226282.857
        53.0004         48.0004
   -713797.16547   -534113.17246  24317504.6064   24317513.4004   24317503.946
        42.0004         38.0004
  -7093756.60847  -5476231.77446  23795041.9844   23795052.7294   23795042.025
        46.0004         41.0004
 -28391578.06049 -22061093.15448  20336679.8384   20336685.7704   20336679.397
        54.0004         49.0004
 -19609077.76648 -15269408.69947  21856079.1734   21856084.6454   21856078.725
        50.0004         45.0004
 -13019260.05848 -10145162.42447  21807519.2054   21807525.1224   21807519.289
        50.0004         45.0004
 -12914460.10248 -10041262.75547  21791609.4404   21791614.3044   21791609.493
        50.0004         46.0004
 14  5 16  1 26  0.0000000  0 10G07G08G09G30G26G17G04G10G28G02
  -8203228.61347  -6363371.49546  23142749.6464   23142755.0224   23142748.899
        46.0004         41.0004
   3868998.09148   3013350.22047  21028512.4504   21028518.4624   21028512.807
        51.0004         46.0004
 -15690785.83248 -12212779.27848  20982959.0834   20982965.1344   20982959.338
        53.0004         48.0004
  -4980686.25848  -3864743.61048  21239815.9174   21239823.9034   21239815.772
        53.0004         48.0004
   -697377.72647   -521318.70946  24320628.3944   24320637.5264   24320628.784
        43.0004         38.0004
  -7070756.58447  -5458309.57746  23799418.3244   23799429.2004   23799418.660
        46.0004         41.0004
 -28375364.64649 -22048459.33248  20339764.6534   20339771.1804   20339764.463
        54.0004         49.0004
 -19677957.38348 -15323081.07947  21842971.3584   21842978.2974   21842972.251
        50.0004         45.0004
 -13070484.34348 -10185077.39347  21797771.1164   21797778.1584   21797771.390
        50.0004         45.0004
 -12951827.75048 -10070380.37247  21784498.7864   21784503.0154   21784499.143
        50.0004         46.0004
 14  5 16  1 26 30.0000000  0 10G07G08G09G30G26G17G04G10G28G02
  -8098976.77347  -6282136.30246  23162588.0024   23162593.3094   23162587.679
        45.0004         41.0004
   3949974.35648   3076448.62247  21043921.3104   21043928.1524   21043922.174
        51.0004         46.0004
 -15620000.56848 -12157621.92348  20996429.5234   20996435.2424   20996429.378
        53.0004         48.0004
  -4909219.32148  -3809055.08048  21253415.9344   21253423.8064   21253415.934
        52.0004         48.0004
   -680969.83447   -508533.20746  24323750.3294   24323759.2164   24323749.698
        43.0004         38.0004
  -7047979.88047  -5440561.39546  23803752.7514   23803762.4954   23803751.764
        45.0004         41.0004
 -28358631.99649 -22035420.91248  20342949.2224   20342955.5764   20342948.417
        54.0004         49.0004
 -19746709.48848 -15376654.10347  21829888.2114   21829895.0684   21829889.057
        50.0004         45.0004
 -13121490.15348 -10224822.11947  21788064.3144   21788071.7664   21788065.064
        50.0004         45.0004
 -12988749.28448 -10099150.36547  21777472.8784   21777477.3574   21777473.068
        51.0004         46.0004
 14  5 16  1 27  0.0000000  0 10G07G08G09G30G26G17G04G10G28G02
  -7994640.40747  -6200835.26046  23182442.3184   23182447.3274   23182442.143
        45.0004         40.0004
   4031358.75348   3139865.04447  21059409.1214   21059415.3584   21059408.932
        51.0004         46.0004
 -15548869.68648 -12102195.25348  21009964.6344   21009971.0264   21009964.939
        53.0004         48.0004
  -4837409.05248  -3753099.01248  21267081.1464   21267088.7174   21267080.856
        52.0004         48.0004
   -664578.41847   -495760.56546  24326869.1844   24326878.2734   24326870.028
        42.0004         38.0004
  -7025429.78747  -5422989.78846  23808043.7334   23808054.7704   23808043.177
        45.0004         40.0004
 -28341384.09849 -22021981.00248  20346230.9864   20346237.6224   20346230.719
        54.0004         49.0004
 -19815334.05748 -15430127.74847  21816829.0584   21816835.6804   21816830.054
        50.0004         45.0004
 -13172277.12048 -10264396.32647  21778400.9204   21778407.6784   21778401.308
        50.0004         45.0004
 -13025226.94648 -10127574.48247  21770531.5654   21770536.0494   21770531.672
        51.0004         46.0004
 14  5 16  1 27 30.0000000  0 10G07G08G09G30G26G17G04G10G28G02
  -7890221.39947  -6119469.81446  23202312.5794   23202318.6934   23202312.337
        45.0004         40.0004
   4113149.27248   3203597.92647  21074973.3554   21074979.4584   21074973.280
        51.0004         46.0004
 -15477394.72548 -12046500.47548  21023566.3644   21023572.6074   21023566.411
        53.0004         48.0004
  -4765256.86348  -3696876.51148  21280810.9244   21280818.7804   21280810.798
        52.0004         48.0004
   -648204.47447   -483001.53646  24329984.1944   24329995.5484   24329984.802
        43.0004         38.0004
  -7003105.78147  -5405594.36646  23812291.6984   23812302.5494   23812291.516
        45.0004         41.0004
 -28323621.62949 -22008140.12948  20349611.2344   20349617.3464   20349610.856
        54.0004         49.0004
 -19883827.09348 -15483498.89847  21803795.4324   21803801.9054   21803795.852
        50.0004         45.0004
 -13222841.29748 -10303796.91947  21768778.6604   21768785.0864   21768778.563
        50.0004         45.0004
 -13061259.02548 -10155651.40347  21763674.0614   21763679.0164   21763674.735
        51.0004         46.0004
 14  5 16  1 28  0.0000000  0 10G07G08G09G30G26G17G04G10G28G02
  -7785723.35647  -6038042.79346  23222198.2534   23222202.3394   23222197.139
        45.0004         40.0004
   4195341.58348   3267643.89947  21090613.5364   21090620.4514   21090614.001
        51.0004         46.0004
 -15405579.93848 -11990540.89148  21037232.0914   21037237.8224   21037231.964
        53.0004         48.0004
  -4692766.47748  -3640390.49348  21294605.2684   21294612.9224   21294605.440
        52.0004         48.0004
   -631851.12547   -470258.54846  24333097.0404   24333106.0094   24333096.453
        42.0004         38.0004
  -6981009.47047  -5388376.36446  23816495.5334   23816506.9454   23816495.731
        45.0004         41.0004
 -28305346.42549 -21993899.72048  20353089.0764   20353095.0264   20353088.474
        54.0004         49.0004
 -19952186.84048 -15536766.18747  21790787.1124   21790793.3924   21790787.623
        50.0004         45.0004
 -13273180.54448 -10343022.24747  21759198.7344   21759206.0224   21759199.751
        50.0004         45.0004
 -13096846.23948 -10183381.66747  21756902.3464   21756906.6614   21756902.625
        51.0004         46.0004
 14  5 16  1 28 30.0000000  0 10G07G08G09G30G26G17G04G10G28G02
  -7681149.09247  -5956556.37446  23242097.6274   23242103.0544   23242097.109
        45.0004         40.0004
   4277932.60448   3332000.54947  21106330.2274   21106336.9294   21106330.110
        51.0004         46.0004
 -15333428.03948 -11934318.62748  21050962.4024   21050967.4744   21050962.050
        53.0004         48.0004
  -4619940.53048  -3583642.99048  21308463.4534   21308471.3744   21308463.330
        52.0004         48.0004
   -615520.26147   -457533.08246  24336205.4934   24336212.4654   24336205.192
        42.0004         37.0004
  -6959141.19047  -5371336.04246  23820657.9954   23820668.0924   23820657.656
        46.0004         41.0004
 -28286560.01649 -21979260.97348  20356664.0234   20356670.2884   20356663.498
        54.0004         49.0004
 -20020410.07448 -15589927.10547  21777804.5644   21777811.0964   21777805.355
        50.0004         45.0004
 -13323291.61248 -10382069.76347  21749664.0184   21749669.5384   21749663.671
        50.0004         45.0004
 -13131988.15248 -10210764.94547  21750215.1224   21750220.1754   21750215.012
        51.0004         46.0004
 14  5 16  1 29  0.0000000  0 10G07G08G09G30G26G17G04G10G28G02
  -7576500.97947  -5875012.41146  23262011.3704   23262017.1884   23262011.261
        45.0004         41.0004
   4360919.64848   3396665.78247  21122121.7014   21122128.5174   21122122.320
        51.0004         46.0004
 -15260941.42248 -11877835.53948  21064756.2954   21064761.3914   21064756.027
        53.0004         48.0004
  -4546781.09248  -3526635.63247  21322385.4794   21322393.6664   21322385.232
        52.0004         47.0004
   -599213.39247   -444826.33246  24339307.5324   24339316.1244   24339306.765
        42.0004         37.0004
  -6937500.68047  -5354473.20046  23824775.7484   23824785.6074   23824775.638
        46.0004         41.0004
 -28267263.13448 -21964224.45448  20360335.8674   20360342.1284   20360335.585
        53.0004         49.0004
 -20088493.02848 -15642978.71047  21764848.9164   21764856.0554   21764849.344
        50.0004         45.0004
 -13373171.07148 -10420936.81447  21740171.6284   21740178.0984   21740171.730
        50.0004         45.0004
 -13166683.71748 -10237800.42547  21743613.2624   21743617.4654   21743613.597
        51.0004         46.0004
 14  5 16  1 29 30.0000000  0 10G07G08G09G30G26G17G04G10G28G02
  -7471782.23347  -5793413.40446  23281938.1974   23281944.6344   23281938.746
        45.0004         40.0004
   4444298.91348   3461636.65447  21137988.6044   21137995.1674   21137988.953
        51.0004         46.0004
 -15188123.68448 -11821094.43648  21078612.8504   21078618.7824   21078612.475
        52.0004         48.0004
  -4473291.50748  -3469371.00547  21336370.0604   21336377.8114   21336369.730
        52.0004         47.0004
   -582933.15347   -432140.30746  24342406.0624   24342414.0684   24342405.431
        42.0004         37.0004
  -6916088.80247  -5337788.53046  23828850.4374   23828860.4334   23828849.724
        46.0004         41.0004
 -28247457.86548 -21948791.79148  20364105.0374   20364111.3884   20364104.503
        53.0004         49.0004
 -20156433.61748 -15695919.38647  21751919.8374   21751926.9134   21751920.808
        50.0004         45.0004
 -13422816.54448 -10459621.52947  21730724.7394   21730731.8324   21730724.414
        50.0004         45.0004
 -13200933.03648 -10264488.17847  21737095.2624   21737099.9644   21737095.437
        51.0004         46.0004
 14  5 16  1 30  0.0000000  0 10G07G08G09G30G26G17G04G10G28G02
  -7366995.84547  -5711761.69246  23301879.7074   23301884.9294   23301878.516
        45.0004         40.0004
   4528066.96248   3526910.47247  21153929.1854   21153935.1934   21153929.537
        50.0004         46.0004
 -15114978.06148 -11764097.84148  21092531.6004   21092537.9094   21092531.832
        52.0004         48.0004
  -4399474.57048  -3411851.31047  21350416.8454   21350424.8324   21350416.432
        52.0004         47.0004
   -566681.71247   -419476.74746  24345498.4894   24345506.1444   24345498.262
        42.0004         38.0004
  -6894906.62547  -5321282.84346  23832881.3144   23832891.6244   23832880.828
        46.0004         41.0004
 -28227145.75148 -21932964.18248  20367969.9604   20367976.1634   20367969.592
        53.0004         49.0004
 -20224229.12548 -15748747.01747  21739019.0524   21739025.3454   21739019.672
        50.0004         45.0004
 -13472224.83348 -10498121.44247  21721323.4044   21721329.4644   21721322.638
        50.0004         45.0004
 -13234736.02648 -10290828.13647  21730662.7374   21730667.6364   21730663.251
        51.0004         46.0004
 14  5 16  1 30 30.0000000  0 10G07G08G09G30G26G17G04G10G28G02
  -7262143.58147  -5630058.64146  23321831.3864   23321836.2434   23321830.848
        45.0004         40.0004
   4612221.37448   3592485.34747  21169942.9524   21169949.7984   21169943.277
        50.0004         46.0004
 -15041506.48148 -11706847.25048  21106512.6154   21106519.0674   21106512.840
        52.0004         48.0004
  -4325332.07248  -3354077.93147  21364525.7694   21364533.3404   21364525.638
        52.0004         47.0004
   -550460.21247   -406836.49946  24348586.7244   24348594.9984   24348584.037
        42.0004         38.0004
  -6873953.78647  -5304955.86346  23836867.9334   23836878.3534   23836867.893
        45.0004         41.0004
 -28206327.42248 -21916742.12548  20371931.6744   20371937.9984   20371931.228
        53.0004         49.0004
 -20291875.47848 -15801458.42347  21726146.1814   21726152.8094   21726146.667
        50.0004         45.0004
 -13521392.04148 -10536433.48547  21711965.6994   21711972.3164   21711966.112
        50.0004         45.0004
 -13268091.51748 -10316819.40347  21724315.3674   21724320.1234   21724315.758
        51.0004         46.0004
 14  5 16  1 31  0.0000000  0 10G07G08G09G30G26G17G04G10G28G02
  -7157229.20847  -5548307.21346  23341795.9724   23341802.3324   23341795.870
        45.0004         40.0004
   4696758.26348   3658358.25747  21186030.6754   21186036.7374   21186030.662
        50.0004         46.0004
 -14967712.97148 -11649345.80348  21120555.3054   21120561.3174   21120555.154
        52.0004         48.0004
  -4250867.72448  -3296053.75947  21378696.2574   21378703.5924   21378695.925
        52.0004         47.0004
   -534271.63047   -394221.91346  24351665.5184   24351674.9774   24351665.412
        43.0004         38.0004
  -6853231.36247  -5288808.43446  23840811.6994   23840821.7534   23840811.002
        45.0004         41.0004
 -28185005.39948 -21900127.57848  20375989.0224   20375995.3424   20375988.649
        53.0004         49.0004
 -20359370.65948 -15854052.02347  21713302.2824   21713309.2464   21713303.177
        50.0004         45.0004
 -13570316.05348 -10574556.03447  21702656.6544   21702662.7734   21702656.804
        50.0004         45.0004
 -13301000.13748 -10342462.46547  21718053.1074   21718057.7774   21718053.339
        51.0004         46.0004
 14  5 16  1 31 30.0000000  0 10G07G08G09G30G26G17G04G10G28G02
  -7052256.91147  -5466510.65046  23361772.3074   23361777.8474   23361772.419
        45.0004         40.0004
   4781672.72548   3724525.38247  21202189.0134   21202194.9554   21202189.078
        50.0004         46.0004
 -14893602.03048 -11591597.01448  21134658.2374   21134664.1234   21134658.335
        52.0004         48.0004
  -4176085.79748  -3237782.12347  21392926.4274   21392933.9074   21392926.222
        52.0004         47.0004
   -518119.51747   -381635.72746  24354738.3794   24354748.3764   24354738.083
        42.0004         38.0004
  -6832741.54447  -5272842.25346  23844710.8444   23844721.1114   23844710.260
        46.0004         41.0004
 -28163182.73748 -21883122.92348  20380141.6144   20380148.0704   20380141.403
        53.0004         49.0004
 -20426713.17348 -15906526.67447  21700487.4414   21700493.8864   21700487.922
        50.0004         45.0004
 -13618995.46348 -10612487.98847  21693392.0574   21693399.6654   21693392.750
        50.0004         45.0004
 -13333462.87348 -10367758.08047  21711875.9444   21711879.9694   21711876.251
        51.0004         46.0004
 14  5 16  1 32  0.0000000  0 10G07G08G09G30G26G17G04G10G28G02
  -6947227.37447  -5384669.47746  23381759.0214   23381764.3264   23381757.801
        45.0004         40.0004
   4866963.65448   3790985.85447  21218419.7664   21218425.4444   21218419.398
        50.0004         46.0004
 -14819174.69148 -11533601.68348  21148821.2314   21148827.1354   21148821.312
        52.0004         48.0004
  -4100986.87448  -3179263.47247  21407217.5464   21407224.3654   21407217.136
        52.0004         47.0004
   -502003.78847   -369077.90646  24357805.3654   24357814.2104   24357805.284
        42.0004         38.0004
  -6812482.55447  -5257055.92846  23848565.3354   23848575.4324   23848565.381
        46.0004         41.0004
 -28140858.82748 -21865727.68748  20384389.7014   20384396.3084   20384389.556
        53.0004         49.0004
 -20493898.12048 -15958878.54647  21687702.3584   21687709.3704   21687703.484
        50.0004         45.0004
 -13667424.96348 -10650225.20047  21684177.1574   21684182.4774   21684177.403
        50.0004         46.0004
 -13365477.62848 -10392704.62247  21705783.8564   21705788.4304   21705783.206
        51.0004         46.0004
 14  5 16  1 32 30.0000000  0 10G07G08G09G30G26G17G04G10G28G02
  -6842144.13847  -5302786.47146  23401754.9814   23401761.2074   23401754.636
        45.0004         40.0004
   4952626.90648   3857736.44447  21234720.2714   21234726.6794   21234720.740
        50.0004         46.0004
 -14744434.66748 -11475362.69548  21163043.7484   21163049.5514   21163043.877
        52.0004         48.0004
  -4025574.48548  -3120500.56347  21421567.8624   21421574.9484   21421567.485
        52.0004         47.0004
   -485927.31047   -356550.67346  24360865.0644   24360873.9444   24360864.282
        43.0004         38.0004
  -6792455.56147  -5241450.39546  23852376.5934   23852385.8404   23852376.006
        46.0004         41.0004
 -28118036.00648 -21847943.68848  20388732.8014   20388739.1764   20388732.496
        53.0004         49.0004
 -20560923.05548 -16011105.72647  21674948.3234   21674954.2124   21674948.640
        50.0004         45.0004
 -13715602.51848 -10687766.09047  21675008.5604   21675015.0634   21675008.638
        50.0004         45.0004
 -13397044.82048 -10417302.42147  21699776.2924   21699780.8684   21699776.760
        51.0004         46.0004
 14  5 16  1 33  0.0000000  0 10G07G08G09G30G26G17G04G10G28G02
  -6737010.13347  -5220863.89646  23421762.0664   23421766.9924   23421761.588
        45.0004         40.0004
   5038659.02048   3924774.45647  21251091.5014   21251098.2344   21251091.651
        50.0004         46.0004
 -14669385.05948 -11416882.47648  21177325.1364   21177330.9964   21177325.291
        52.0004         48.0004
  -3949851.52348  -3061495.64847  21435977.2104   21435984.4854   21435977.417
        52.0004         47.0004
   -469892.14947   -344055.64546  24363915.3944   24363922.3304   24363916.038
        43.0004         38.0004
  -6772661.07947  -5226026.03246  23856143.4864   23856153.0874   23856142.877
        46.0004         41.0004
 -28094715.97248 -21829772.25148  20393170.8804   20393176.8864   20393170.252
        53.0004         49.0004
 -20627785.49848 -16063206.30847  21662224.3064   21662230.8394   21662225.210
        50.0004         45.0004
 -13763525.05548 -10725108.27647  21665889.6254   21665895.8664   21665889.659
        50.0004         45.0004
 -13428164.24648 -10441551.31047  21693854.5414   21693858.8604   21693854.983
        51.0004         46.0004
 14  5 16  1 33 30.0000000  0 10G07G08G09G30G26G17G04G10G28G02
  -6631826.93947  -5138902.99346  23441776.7384   23441782.9904   23441776.890
        45.0004         40.0004
   5125057.85748   3992098.22847  21267532.9514   21267538.9914   21267533.154
        50.0004         46.0004
 -14594027.68148 -11358162.43448  21191665.2244   21191670.7844   21191665.230
        52.0004         48.0004
  -3873819.68848  -3002250.06547  21450445.6034   21450453.1344   21450445.897
        52.0004         47.0004
   -453899.42947   -331593.66046  24366958.7244   24366967.8214   24366958.546
        43.0004         38.0004
  -6753098.39947  -5210782.30346  23859864.9514   23859874.7964   23859865.369
        46.0004         41.0004
 -28070899.22148 -21811213.76648  20397703.0004   20397709.3234   20397702.547
        53.0004         49.0004
 -20694481.32548 -16115177.04947  21649532.7944   21649538.9694   21649533.329
        50.0004         46.0004
 -13811188.43248 -10762248.51747  21656819.0494   21656825.7904   21656819.625
        50.0004         45.0004
 -13458835.18948 -10465450.72747  21688017.4994   21688022.4574   21688018.165
        51.0004         46.0004
 14  5 16  1 34  0.0000000  0 10G07G08G09G30G26G17G04G10G28G02
  -6526599.93747  -5056907.95946  23461802.0874   23461807.3534   23461801.153
        44.0004         40.0004
   5211817.86948   4059703.44047  21284043.1684   21284048.9254   21284043.146
        50.0004         46.0004
 -14518367.84548 -11299206.70948  21206063.3534   21206069.0524   21206063.291
        52.0004         48.0004
  -3797483.90048  -2942767.62647  21464971.6804   21464979.1154   21464971.428
        52.0004         47.0004
   -437953.07647   -319167.83746  24369994.2144   24370003.1624   24369994.477
        43.0004         38.0004
  -6733770.29347  -5195721.34946  23863543.1544   23863553.4384   23863543.573
        46.0004         41.0004
 -28046589.65148 -21792271.26148  20402328.8344   20402334.9544   20402328.549
        53.0004         49.0004
 -20761009.46948 -16167017.12047  21636872.9844   21636879.2774   21636873.620
        50.0004         46.0004
 -13858592.02748 -10799186.32747  21647798.0724   21647805.5644   21647799.044
        50.0004         45.0004
 -13489059.25948 -10489001.93447  21682266.3504   21682270.9944   21682266.831
        51.0004         46.0004
 14  5 16  1 34 30.0000000  0 10G07G08G09G30G26G17G04G10G28G02
  -6421329.34247  -4974878.96546  23481834.3274   23481839.7194   23481833.399
        44.0004         40.0004
   5298937.34248   4127588.74747  21300621.3324   21300627.3844   21300621.224
        50.0004         45.0004
 -14442406.95048 -11240016.39247  21220517.8134   21220523.2814   21220517.626
        52.0004         47.0004
  -3720845.21748  -2883049.17247  21479556.0184   21479562.9734   21479556.174
        52.0004         47.0004
   -422053.58447   -306778.52046  24373019.9234   24373028.1784   24373019.133
        43.0004         39.0004
  -6714674.92247  -5180841.76246  23867177.6284   23867186.4244   23867176.415
        45.0004         41.0004
 -28021787.18648 -21772944.68348  20407048.5854   20407054.9514   20407048.258
        53.0004         49.0004
 -20827365.35948 -16218722.97547  21624245.3084   21624252.7794   21624246.460
        50.0004         46.0004
 -13905730.95048 -10835917.90547  21638828.3414   21638834.9764   21638828.270
        50.0004         45.0004
 -13518834.27448 -10512203.23147  21676599.9894   21676605.0314   21676601.123
        51.0004         46.0004
 14  5 16  1 35  0.0000000  0 11G07G08G09G30G26G17G05G04G10G28G02
  -6316021.64047  -4892821.04246  23501873.4384   23501879.0914   23501872.257
        44.0004         40.0004
   5386409.93648   4195749.20547  21317266.6214   21317272.7604   21317266.786
        50.0004         45.0004
 -14366151.25248 -11180596.36148  21235029.3934   21235035.1764   21235028.773
        52.0004         48.0004
  -3643909.65048  -2823099.37047  21494196.0784   21494204.0034   21494195.971
        52.0004         47.0004
   -406206.09947   -294429.73346  24376036.0884   24376043.0154   24376035.082
        43.0004         38.0004
  -6695816.17747  -5166146.55146  23870767.0394   23870775.8404   23870765.713
        45.0004         41.0004
   -696030.21347   -500650.04946  24699672.3434   24699680.8644   24699672.723
        47.0004         37.0004
 -27996496.69948 -21753237.83548  20411861.2734   20411867.6104   20411861.063
        53.0004         49.0004
 -20893549.16048 -16270294.73347  21611651.7344   21611657.8484   21611651.825
        50.0004         46.0004
 -13952605.45548 -10872443.43647  21629908.2884   21629914.9544   21629908.701
        50.0004         45.0004
 -13548163.54748 -10535057.19447  21671019.5324   21671023.8214   21671019.679
        51.0004         46.0004
 14  5 16  1 35 30.0000000  0 11G07G08G09G30G26G17G05G04G10G28G02
  -6210675.37347  -4810733.08146  23521920.7024   23521925.8094   23521919.485
        44.0004         40.0004
   5474235.91648   4264185.03847  21333978.9454   21333985.0034   21333979.951
        50.0004         45.0004
 -14289599.74248 -11120945.82747  21249596.0244   21249602.4184   21249595.993
        52.0004         47.0004
  -3566676.03548  -2762917.33047  21508893.7744   21508900.5064   21508893.002
        52.0004         47.0004
   -390408.75847   -282120.00946  24379041.5824   24379050.3824   24379040.392
        43.0004         38.0004
  -6677190.15447  -5151632.68546  23874311.4104   23874320.0564   23874310.587
        45.0004         41.0004
   -785392.12347   -570282.51746  24682668.0134   24682674.3244   24682668.563
        43.0004         37.0004
 -27970716.01348 -21733149.01248  20416767.1334   20416773.4684   20416766.681
        53.0004         49.0004
 -20959554.35048 -16321727.31947  21599091.5114   21599097.5444   21599091.581
        50.0004         46.0004
 -13999208.52548 -10908757.46447  21621040.2434   21621046.6984   21621040.282
        50.0004         45.0004
 -13577043.26048 -10557560.85347  21665523.5514   21665528.3064   21665524.286
        51.0004         46.0004
 14  5 16  1 36  0.0000000  0 11G07G08G09G30G26G17G05G04G10G28G02
  -6105294.99247  -4728618.53046  23541973.5064   23541979.3074   23541972.643
        44.0004         40.0004
   5562410.33948   4332892.38347  21350758.2924   21350764.3724   21350758.548
        50.0004         45.0004
 -14212757.43848 -11061068.70147  21264218.3074   21264224.9644   21264218.518
        52.0004         47.0004
  -3489148.93648  -2702506.60147  21523645.4544   21523653.2964   21523645.933
        52.0004         47.0004
   -374665.32647   -269852.29646  24382035.5554   24382046.1294   24382036.962
        43.0004         38.0004
  -6658799.64347  -5137302.32746  23877809.5694   23877819.5074   23877809.229
        45.0004         40.0004
   -874902.80147   -640030.89846  24665634.3064   24665641.9774   24665634.901
        42.0004         37.0004
 -27944448.69948 -21712680.99448  20421765.7204   20421772.0384   20421765.441
        53.0004         49.0004
 -21025379.34548 -16373019.50447  21586565.8134   21586571.1154   21586565.620
        50.0004         46.0004
 -14045539.04848 -10944859.11147  21612223.3584   21612230.2304   21612223.786
        50.0004         46.0004
 -13605475.02148 -10579715.45847  21660113.5774   21660117.4734   21660113.342
        51.0004         46.0004
 14  5 16  1 36 30.0000000  0 11G07G08G09G30G26G17G05G04G10G28G02
  -5999883.46647  -4646479.72646  23562033.3374   23562037.6654   23562032.134
        44.0004         40.0004
   5650929.91348   4401868.68147  21367603.1304   21367609.0454   21367603.450
        50.0004         45.0004
 -14135627.43948 -11000967.39747  21278896.0534   21278901.9794   21278895.807
        52.0004         47.0004
  -3411331.44048  -2641869.58547  21538453.5874   21538462.0504   21538453.843
        51.0004         47.0004
   -358977.99947   -257628.29146  24385022.5994   24385030.1654   24385021.486
        43.0004         38.0004
  -6640644.84447  -5123155.64946  23881264.3134   23881273.3624   23881264.318
        45.0004         40.0004
   -964560.57047   -709893.90346  24648573.7104   24648582.0354   24648573.075
        42.0004         37.0004
 -27917696.79848 -21691835.38348  20426856.5284   20426862.6044   20426855.956
        53.0004         49.0004
 -21091021.28348 -16424169.03947  21574073.5014   21574080.0874   21574073.949
        50.0004         46.0004
 -14091594.18048 -10980746.17147  21603459.8344   21603465.8094   21603459.986
        50.0004         46.0004
 -13633458.99348 -10601521.13447  21654788.1904   21654793.0054   21654788.917
        51.0004         46.0004
 14  5 16  1 37  0.0000000  0 11G07G08G09G30G26G17G05G04G10G28G02
  -5894441.96547  -4564317.56446  23582096.7624   23582102.9504   23582097.114
        44.0004         40.0004
   5739792.81148   4471112.49947  21384512.1094   21384518.9794   21384513.292
        50.0004         45.0004
 -14058211.12448 -10940642.99447  21293628.2014   21293633.6554   21293627.355
        52.0004         47.0004
  -3333224.68148  -2581007.17847  21553317.9724   21553325.2864   21553317.825
        51.0004         47.0004
   -343347.16747   -245448.31746  24387996.2864   24388005.2464   24387996.340
        43.0004         38.0004
  -6622724.31347  -5109191.52446  23884674.7054   23884684.8264   23884674.757
        45.0004         40.0004
  -1054361.91947   -779868.79446  24631485.3394   24631492.5724   24631484.081
        42.0004         37.0004
 -27890460.13648 -21670612.03548  20432039.5294   20432045.8844   20432039.074
        53.0004         49.0004
 -21156475.86948 -16475172.58947  21561617.5614   21561624.4064   21561618.356
        50.0004         46.0004
 -14137369.56648 -11016415.24947  21594748.2724   21594755.0454   21594748.722
        50.0004         46.0004
 -13660993.34048 -10622976.45947  21649548.6714   21649553.2384   21649548.735
        51.0004         46.0004
 14  5 16  1 37 30.0000000  0 11G07G08G09G30G26G17G05G04G10G28G02
  -5788975.00147  -4482135.56646  23602167.6844   23602171.9004   23602166.709
        44.0004         40.0004
   5828993.73748   4540619.71447  21401486.5294   21401494.2484   21401487.000
        50.0004         45.0004
 -13980513.54248 -10880099.41447  21308413.8194   21308419.1964   21308413.463
        52.0004         47.0004
  -3254833.26748  -2519922.95347  21568234.8044   21568242.4924   21568234.510
        51.0004         47.0004
   -327776.54047   -233315.25546  24390958.7384   24390967.6534   24390959.049
        43.0004         38.0004
  -6605040.12047  -5095411.56446  23888039.6054   23888050.4574   23888039.384
        45.0004         40.0004
  -1144306.59447   -849955.38846  24614369.1544   24614376.6754   24614368.348
        42.0004         38.0004
 -27862742.59248 -21649013.97248  20437314.0214   20437320.0464   20437313.525
        53.0004         49.0004
 -21221741.85548 -16526029.17047  21549197.9444   21549204.9674   21549198.716
        50.0004         46.0004
 -14182863.65248 -11051865.13047  21586091.7414   21586097.6044   21586091.974
        50.0004         46.0004
 -13688080.12548 -10644083.03247  21644394.3744   21644398.9704   21644394.523
        51.0004         46.0004
 14  5 16  1 38  0.0000000  0 11G07G08G09G30G26G17G05G04G10G28G02
  -5683485.95247  -4399936.36046  23622240.4454   23622245.3504   23622241.176
        44.0004         39.0004
   5918528.38048   4610386.96747  21418525.4584   21418531.0154   21418525.419
        49.0004         45.0004
 -13902538.70048 -10819339.79247  21323251.3414   21323256.9734   21323251.514
        52.0004         47.0004
  -3176161.00048  -2458619.88247  21583206.3204   21583213.0874   21583205.907
        51.0004         47.0004
   -312269.14747   -221231.47746  24393910.4104   24393918.8024   24393909.958
        43.0004         39.0004
  -6587593.84747  -5081816.98046  23891359.9364   23891370.4544   23891359.804
        44.0004         40.0004
  -1234394.72747   -920153.75846  24597224.9704   24597232.9524   24597225.818
        42.0004         38.0004
 -27834546.74848 -21627043.20648  20442679.2434   20442685.6674   20442678.783
        53.0004         49.0004
 -21286817.09448 -16576737.12447  21536814.0754   21536820.9904   21536815.242
        50.0004         46.0004
 -14228074.48848 -11087094.29647  21577488.0834   21577494.7264   21577488.206
        50.0004         46.0004
 -13714720.13448 -10664841.46447  21639324.7254   21639328.9584   21639324.860
        51.0004         46.0004
 14  5 16  1 38 30.0000000  0 11G07G08G09G30G26G17G05G04G10G28G02
  -5577973.90047  -4317719.22346  23642319.0554   23642324.7254   23642319.124
        44.0004         40.0004
   6008397.44048   4680414.81347  21435627.0314   21435632.9714   21435626.255
        49.0004         45.0004
 -13824285.89348 -10758363.56447  21338142.3784   21338148.2414   21338142.284
        52.0004         47.0004
  -3097206.88148  -2397097.18947  21598230.3104   21598238.0074   21598230.194
        51.0004         47.0004
   -296823.19447   -209195.56046  24396849.0134   24396857.3394   24396849.335
        43.0004         38.0004
  -6570381.69047  -5068404.83446  23894634.8504   23894644.2304   23894634.846
        45.0004         40.0004
  -1324620.07747   -990459.06346  24580056.3724   24580064.2334   24580055.289
        42.0004         38.0004
 -27805870.80648 -21604698.34348  20448136.0964   20448142.9374   20448135.999
        53.0004         49.0004
 -21351694.78548 -16627291.14347  21524468.9674   21524474.9934   21524469.595
        50.0004         46.0004
 -14272995.49748 -11122097.63347  21568940.1024   21568946.5524   21568940.468
        50.0004         46.0004
 -13740909.76048 -10685248.95647  21634341.2464   21634345.3584   21634341.408
        51.0004         46.0004
 14  5 16  1 39  0.0000000  0 11G07G08G09G30G26G17G05G04G10G28G02
  -5472446.43047  -4235490.07746  23662400.9584   23662406.8014   23662400.517
        44.0004         40.0004
   6098592.49348   4750696.66647  21452790.3934   21452797.0194   21452790.779
        49.0004         45.0004
 -13745762.94548 -10697176.85247  21353084.8524   21353090.8694   21353084.773
        52.0004         47.0004
  -3017978.54548  -2335360.82647  21613306.7324   21613314.1724   21613307.000
        51.0004         47.0004
   -281445.44347   -197212.79046  24399775.6714   24399783.5634   24399775.701
        43.0004         38.0004
  -6553408.86147  -5055179.16646  23897865.7994   23897875.2684   23897864.328
        44.0004         40.0004
  -1414985.70047  -1060873.68446  24562859.6064   24562867.3294   24562859.749
        42.0004         38.0004
 -27776721.40648 -21581984.54648  20453682.8244   20453689.8344   20453682.595
        53.0004         49.0004
 -21416377.09248 -16677692.91547  21512160.0424   21512166.7004   21512160.866
        51.0004         46.0004
 -14317628.36048 -11156876.44147  21560446.5834   21560453.1234   21560446.847
        50.0004         46.0004
 -13766653.61348 -10705309.09147  21629441.9244   21629446.6634   21629442.369
        51.0004         46.0004
 14  5 16  1 39 30.0000000  0 11G07G08G09G30G26G17G05G04G10G28G02
  -5366903.54047  -4153248.94246  23682485.2274   23682489.7064   23682485.068
        44.0004         39.0004
   6189112.43148   4821231.67847  21470016.1784   21470021.5064   21470015.889
        49.0004         45.0004
 -13666970.26848 -10635779.95147  21368078.4854   21368084.6794   21368078.616
        52.0004         47.0004
  -2938476.25548  -2273410.98847  21628435.8354   21628442.9964   21628435.582
        51.0004         47.0004
   -266135.26847   -185282.67546  24402687.7394   24402696.4594   24402687.920
        43.0004         38.0004
  -6536673.09747  -5042138.23746  23901049.5704   23901059.3624   23901048.792
        44.0004         39.0004
  -1505487.04647  -1131394.08246  24545638.5934   24545645.5334   24545638.000
        42.0004         38.0004
 -27747097.81748 -21558901.25848  20459320.2444   20459327.0744   20459319.976
        53.0004         49.0004
 -21480858.14548 -16727937.86347  21499890.0524   21499896.4174   21499890.622
        51.0004         46.0004
 -14361967.69948 -11191426.51647  21552008.6814   21552015.5544   21552008.952
        50.0004         46.0004
 -13791949.44748 -10725020.12247  21624628.9834   21624633.1294   21624628.638
        51.0004         46.0004
 14  5 16  1 40  0.0000000  0 11G07G08G09G30G26G17G05G04G10G28G02
  -5261347.07047  -4070997.17746  23702571.0794   23702576.9804   23702570.887
        44.0004         39.0004
   6279954.78348   4892017.92647  21487302.3864   21487308.3944   21487302.279
        49.0004         45.0004
 -13587910.27548 -10574174.75747  21383122.9714   21383129.5714   21383123.124
        52.0004         47.0004
  -2858702.03048  -2211249.25447  21643616.0084   21643623.3864   21643615.780
        51.0004         46.0004
   -250893.78447   -173406.08046  24405589.7864   24405597.5544   24405588.548
        43.0004         38.0004
  -6520173.69647  -5029281.47146  23904189.8434   23904198.4064   23904188.791
        44.0004         40.0004
  -1596121.57547  -1202018.24246  24528389.9354   24528397.8434   24528389.921
        42.0004         38.0004
 -27717001.08748 -21535449.28548  20465047.4334   20465054.0084   20465047.171
        53.0004         49.0004
 -21545134.27548 -16778023.14247  21487658.3444   21487665.1324   21487659.014
        51.0004         46.0004
 -14406009.68548 -11225744.89647  21543629.1194   21543634.2344   21543628.191
        50.0004         46.0004
 -13816796.53448 -10744381.47247  21619900.0864   21619904.8514   21619900.788
        51.0004         46.0004
 14  5 16  1 40 30.0000000  0 11G07G08G09G30G26G17G05G04G10G28G02
  -5155782.69947  -3988739.27346  23722659.9674   23722665.0044   23722658.934
        44.0004         39.0004
   6371113.63148   4963050.79047  21504649.4394   21504655.2614   21504649.651
        49.0004         45.0004
 -13508589.02548 -10512365.98747  21398217.6454   21398223.6724   21398217.593
        52.0004         47.0004
  -2778661.69148  -2148880.15647  21658846.9264   21658855.3974   21658847.302
        51.0004         46.0004
   -235725.91947   -161586.85346  24408474.0554   24408483.4654   24408474.241
        42.0004         38.0004
  -6503913.89547  -5016611.41346  23907282.7884   23907293.5054   23907282.744
        44.0004         40.0004
  -1686890.19047  -1272746.88046  24511117.8444   24511124.9464   24511116.866
        42.0004         38.0004
 -27686436.12848 -21511632.45848  20470863.7534   20470871.0754   20470863.414
        53.0004         49.0004
 -21609205.41048 -16827948.68447  21475466.8474   21475472.9464   21475466.950
        51.0004         46.0004
 -14449754.28048 -11259831.53947  21535303.5464   21535309.7934   21535304.097
        50.0004         46.0004
 -13841197.75048 -10763395.40147  21615256.8814   21615261.5404   21615256.948
        51.0004         46.0004
 14  5 16  1 41  0.0000000  0 11G07G08G09G30G26G17G05G04G10G28G02
  -5050208.79747  -3906473.94746  23742750.9544   23742756.0854   23742749.137
        43.0004         39.0004
   6462589.40148   5034330.60747  21522056.3414   21522061.8854   21522057.247
        49.0004         45.0004
 -13429005.64948 -10450352.96547  21413361.5464   21413367.8584   21413361.617
        52.0004         47.0004
  -2698354.02348  -2086302.75447  21674129.2044   21674137.0294   21674129.203
        51.0004         46.0004
   -220629.68947   -149823.47046  24411346.6444   24411355.8954   24411347.332
        42.0004         38.0004
  -6487889.86247  -5004125.08646  23910332.6684   23910341.9464   23910332.200
        44.0004         39.0004
  -1777787.38647  -1343575.74646  24493821.4644   24493829.1634   24493820.086
        42.0004         37.0004
 -27655400.93348 -21487449.21548  20476769.6454   20476776.1744   20476769.511
        53.0004         49.0004
 -21673064.40248 -16877708.91247  21463314.8434   21463321.1514   21463315.015
        51.0004         46.0004
 -14493194.65748 -11293681.13847  21527037.1344   21527042.9634   21527037.688
        51.0004         46.0004
 -13865149.47048 -10782059.06747  21610698.7834   21610704.0494   21610698.621
        51.0004         46.0004
 14  5 16  1 41 30.0000000  0 11G07G08G09G30G26G17G05G04G10G28G02
  -4944633.83747  -3824207.79646  23762840.5644   23762845.3494   23762839.502
        43.0004         39.0004
   6554373.07748   5105850.35247  21539522.9274   21539528.7234   21539522.714
        49.0004         44.0004
 -13349168.81848 -10388142.43847  21428554.3264   21428560.0984   21428553.922
        52.0004         47.0004
  -2617787.48348  -2023523.62847  21689460.1964   21689468.9374   21689460.490
        51.0004         46.0004
   -205612.63147   -138121.76446  24414205.7644   24414214.6694   24414205.006
        42.0004         38.0004
  -6472107.25247  -4991826.88046  23913336.9294   23913345.9594   23913334.917
        44.0004         40.0004
  -1868816.95747  -1414507.73146  24476498.7634   24476505.4184   24476498.301
        42.0004         38.0004
 -27623902.97148 -21462905.37448  20482763.8214   20482770.2674   20482763.240
        53.0004         49.0004
 -21736713.94648 -16927305.93147  21451202.2894   21451208.3664   21451202.918
        51.0004         46.0004
 -14536333.51348 -11327295.77947  21518828.5484   21518834.9494   21518827.990
        51.0004         46.0004
 -13888657.28148 -10800376.83647  21606225.9394   21606230.1764   21606226.039
        51.0004         46.0004
 14  5 16  1 42  0.0000000  0 11G07G08G09G30G26G17G05G04G10G28G02
  -4839054.87047  -3741938.52046  23782930.6284   23782936.3084   23782930.773
        43.0004         38.0004
   6646466.42848   5177611.40347  21557046.6864   21557054.1234   21557047.758
        49.0004         44.0004
 -13269076.24748 -10325732.63647  21443795.2344   21443801.5874   21443795.139
        52.0004         47.0004
  -2536959.64648  -1960540.90147  21704841.7434   21704849.4584   21704841.660
        51.0004         46.0004
   -190671.39347   -126479.13746  24417048.7464   24417056.4844   24417048.613
        42.0004         37.0004
  -6456561.45247  -4979713.20346  23916294.4534   23916303.5224   23916293.645
        44.0004         40.0004
  -1959971.44347  -1485537.06146  24459152.7084   24459160.0204   24459151.772
        42.0004         38.0004
 -27591939.04348 -21437998.44448  20488846.2314   20488852.7984   20488845.782
        53.0004         49.0004
 -21800145.81448 -16976733.33947  21439131.5414   21439138.0194   21439132.046
        51.0004         46.0004
 -14579162.56448 -11360669.01947  21510678.4374   21510684.2794   21510678.267
        51.0004         46.0004
 -13911715.99848 -10818344.66047  21601837.5284   21601841.9854   21601837.881
        51.0004         46.0004
 14  5 16  1 42 30.0000000  0 11G07G08G09G30G26G17G05G04G10G28G02
  -4733476.24747  -3659669.51646  23803022.6444   23803027.0264   23803021.447
        43.0004         38.0004
   6738864.98148   5249610.26947  21574629.6954   21574636.1364   21574630.146
        49.0004         44.0004
 -13188732.30548 -10263126.95847  21459084.3774   21459089.9934   21459084.313
        52.0004         47.0004
  -2455874.72848  -1897357.85047  21720271.6484   21720279.5204   21720271.295
        51.0004         46.0004
   -175809.19747   -114898.11046  24419877.0144   24419884.6554   24419875.851
        42.0004         37.0004
  -6441253.62247  -4967784.96446  23919207.7034   23919216.0294   23919206.793
        44.0004         40.0004
  -2051250.01047  -1556663.07946  24441781.7214   24441789.3874   24441782.271
        43.0004         38.0004
 -27559512.30248 -21412730.88148  20495016.6514   20495023.0844   20495016.253
        53.0004         48.0004
 -21863358.46048 -17025989.92547  21427102.7914   21427109.2004   21427103.431
        51.0004         46.0004
 -14621680.09248 -11393799.50847  21502587.6404   21502593.0704   21502587.311
        51.0004         46.0004
 -13934327.32648 -10835963.86947  21597534.2904   21597538.9714   21597534.410
        51.0004         46.0004
 14  5 16  1 43  0.0000000  0 11G07G08G09G30G26G17G05G04G10G28G02
  -4627904.37447  -3577405.76146  23823112.3514   23823117.7994   23823111.453
        43.0004         38.0004
   6831561.15248   5321841.04347  21592269.7394   21592275.5644   21592269.613
        49.0004         44.0004
 -13108144.27948 -10200331.08447  21474419.3994   21474425.0414   21474419.499
        52.0004         47.0004
  -2374539.62648  -1833979.84447  21735748.6274   21735756.4644   21735749.020
        51.0004         46.0004
   -161032.14047   -103383.42846  24422689.3324   24422696.1024   24422688.918
        42.0004         38.0004
  -6426188.24447  -4956045.63746  23922073.0454   23922082.4694   23922073.673
        44.0004         40.0004
  -2142655.34047  -1627887.87446  24424388.7694   24424395.3144   24424388.110
        43.0004         38.0004
 -27526629.17048 -21387107.68448  20501274.2434   20501280.7144   20501273.952
        53.0004         48.0004
 -21926352.93548 -17075076.50547  21415114.9974   21415122.0104   21415115.636
        51.0004         46.0004
 -14663887.43948 -11426688.30247  21494555.8284   21494561.4614   21494555.825
        51.0004         46.0004
 -13956495.88748 -10853238.05447  21593315.9054   21593320.7454   21593317.008
        51.0004         46.0004
 14  5 16  1 43 30.0000000  0 11G07G08G09G30G26G17G05G04G10G28G02
  -4522336.16347  -3495144.86146  23843200.8904   23843205.6114   23843200.293
        43.0004         38.0004
   6924557.32048   5394305.58347  21609965.8584   21609971.6564   21609966.610
        49.0004         44.0004
 -13027309.49248 -10137342.92847  21489801.6904   21489808.0574   21489802.076
        52.0004         47.0004
  -2292951.39948  -1770404.60447  21751274.9534   21751281.8914   21751275.115
        51.0004         46.0004
   -146336.30547    -91932.02946  24425484.7834   24425493.7264   24425484.207
        42.0004         38.0004
  -6411359.64947  -4944490.81546  23924895.4604   23924905.6484   23924895.451
        44.0004         40.0004
  -2234179.58547  -1699205.31946  24406971.8474   24406978.9934   24406971.561
        43.0004         39.0004
 -27493285.65748 -21361125.75048  20507619.2974   20507625.9984   20507618.970
        53.0004         48.0004
 -21989120.20648 -17123986.03647  21403171.2414   21403176.9654   21403171.821
        51.0004         46.0004
 -14705775.88048 -11459328.59747  21486584.2664   21486590.2854   21486584.440
        51.0004         46.0004
 -13978215.65648 -10870162.55347  21589183.4054   21589187.4114   21589183.150
        51.0004         46.0004
 14  5 16  1 44  0.0000000  0 11G07G08G09G30G26G17G05G04G10G28G02
  -4416776.63447  -3412890.73546  23863288.8284   23863293.1084   23863287.506
        43.0004         38.0004
   7017847.40048   5466999.14947  21627717.8854   21627724.6544   21627719.238
        49.0004         44.0004
 -12946233.54248 -10074166.85647  21505230.4834   21505236.4984   21505230.337
        52.0004         47.0004
  -2211115.42248  -1706636.31047  21766847.8764   21766854.6744   21766847.521
        51.0004         46.0004
   -131726.15847    -80547.38646  24428264.3974   24428273.7124   24428264.001
        42.0004         38.0004
  -6396770.40247  -4933122.51046  23927671.6074   23927680.9784   23927671.226
        44.0004         40.0004
  -2325823.18547  -1770615.78346  24389533.1364   24389539.1854   24389532.047
        43.0004         39.0004
 -27459486.15048 -21334788.50348  20514051.1874   20514057.9564   20514050.715
        53.0004         48.0004
 -22051659.82648 -17172718.18047  21391270.1574   21391275.8654   21391270.385
        51.0004         46.0004
 -14747345.13148 -11491720.16947  21478674.4904   21478680.3454   21478674.339
        51.0004         46.0004
 -13999489.40948 -10886739.48747  21585134.6314   21585138.7524   21585134.908
        51.0004         46.0004
 14  5 16  1 44 30.0000000  0 11G07G08G09G30G26G17G05G04G10G28G02
  -4311230.24947  -3330646.84046  23883371.2874   23883378.4154   23883372.303
        43.0004         38.0004
   7111426.51248   5539917.93647  21645525.4804   21645533.0784   21645525.984
        49.0004         44.0004
 -12864921.19548 -10010806.57847  21520703.1734   21520709.0234   21520703.414
        52.0004         47.0004
  -2129036.23048  -1642678.49547  21782466.9404   21782474.7604   21782466.753
        51.0004         46.0004
   -117205.14547    -69232.19746  24431028.2454   24431036.3054   24431028.168
        42.0004         38.0004
  -6382422.16447  -4921941.99946  23930401.3674   23930411.5904   23930401.398
        44.0004         39.0004
  -2417585.85547  -1842119.03046  24372069.8464   24372077.0624   24372069.801
        43.0004         39.0004
 -27425234.56948 -21308098.98448  20520568.8684   20520575.2764   20520568.660
        53.0004         48.0004
 -22113970.79748 -17221272.15847  21379412.6354   21379419.1204   21379413.399
        51.0004         46.0004
 -14788593.85748 -11523861.98447  21470824.4604   21470831.2604   21470824.793
        51.0004         46.0004
 -14020319.29548 -10902970.55547  21581171.1604   21581174.9914   21581171.540
        51.0004         46.0004
 14  5 16  1 45  0.0000000  0 11G07G08G09G30G26G17G05G04G10G28G02
  -4205696.78447  -3248413.03446  23903454.6014   23903462.2044   23903454.219
        43.0004         38.0004
   7205293.79548   5613061.27247  21663389.0354   21663394.9164   21663388.888
        49.0004         44.0004
 -12783373.02348  -9947262.53847  21536221.5874   21536227.5344   21536221.558
        51.0004         47.0004
  -2046714.18148  -1578531.44947  21798132.4964   21798139.6804   21798132.405
        51.0004         46.0004
   -102772.86147    -57986.14746  24433775.0014   24433783.1894   24433774.399
        42.0004         38.0004
  -6368312.39347  -4910947.32046  23933087.1214   23933095.2494   23933087.220
        44.0004         39.0004
  -2509463.11847  -1913711.56746  24354586.5834   24354594.6494   24354586.852
        43.0004         39.0004
 -27390530.49048 -21281056.87048  20527172.7064   20527179.6494   20527172.574
        53.0004         48.0004
 -22176047.33848 -17269643.46447  21367599.7254   21367605.6734   21367600.314
        51.0004         46.0004
 -14829516.77648 -11555749.92647  21463037.5154   21463043.4664   21463037.541
        51.0004         46.0004
 -14040703.24048 -10918854.13947  21577291.6704   21577295.9764   21577291.940
        51.0004         46.0004
 14  5 16  1 45 30.0000000  0 11G07G08G09G30G26G17G05G04G10G28G02
  -4100180.84547  -3166192.86646  23923533.3534   23923540.2484   23923533.636
        43.0004         38.0004
   7299443.83348   5686424.92847  21681304.9604   21681310.8924   21681305.337
        49.0004         44.0004
 -12701594.08248  -9883538.67347  21551783.6124   21551789.7094   21551783.401
        51.0004         47.0004
  -1964154.07548  -1514198.90147  21813843.3844   21813851.0404   21813842.960
        51.0004         46.0004
    -88433.02247    -46812.14846  24436502.6714   24436510.5864   24436502.851
        42.0004         38.0004
  -6354443.68547  -4900140.48546  23935724.8934   23935734.6384   23935725.798
        44.0004         39.0004
  -2601454.74747  -1985393.21646  24337080.6124   24337088.5784   24337080.945
        43.0004         39.0004
 -27355378.07448 -21253665.40148  20533862.2214   20533869.2704   20533861.989
        53.0004         48.0004
 -22237888.47248 -17317831.33447  21355831.4454   21355838.1854   21355832.295
        51.0004         46.0004
 -14870112.81248 -11587383.15447  21455311.9204   21455317.7584   21455312.236
        51.0004         46.0004
 -14060643.32148 -10934391.85447  21573497.7394   21573501.6884   21573497.743
        51.0004         46.0004
 14  5 16  1 46  0.0000000  0 11G07G08G09G30G26G17G05G04G10G28G02
  -3994683.59247  -3083987.27146  23943610.3724   23943615.2844   23943608.757
        43.0004         38.0004
   7393874.73648   5760007.45147  21699275.0744   21699280.6554   21699274.931
        49.0004         44.0004
 -12619585.92648  -9819636.21047  21567389.3524   21567394.6494   21567389.443
        51.0004         47.0004
  -1881357.28048  -1449681.92147  21829598.6704   21829606.1684   21829598.809
        51.0004         46.0004
    -74186.06547    -35710.50446  24439213.1944   24439222.5564   24439213.496
        42.0004         37.0004
  -6340814.35247  -4889520.17946  23938319.8194   23938329.0204   23938319.178
        44.0004         39.0004
  -2693557.87847  -2057161.76346  24319554.4534   24319561.8174   24319553.792
        43.0004         39.0004
 -27319777.71848 -21225924.89048  20540636.9844   20540643.3034   20540636.523
        53.0004         48.0004
 -22299489.79648 -17365832.34447  21344109.6644   21344115.9924   21344110.175
        51.0004         46.0004
 -14910377.91048 -11618758.50847  21447649.5034   21447655.8804   21447649.818
        51.0004         46.0004
 -14080138.31648 -10949582.75247  21569787.5764   21569791.6784   21569787.924
        51.0004         47.0004
 14  5 16  1 46 30.0000000  0 11G07G08G09G30G26G17G05G04G10G28G02
  -3889208.71247  -3001799.10246  23963679.9844   23963685.9814   23963680.119
        43.0004         38.0004
   7488581.52448   5833804.95547  21717296.3874   21717303.1374   21717296.036
        49.0004         44.0004
 -12537352.82948  -9755558.46247  21583037.1274   21583043.3464   21583037.251
        51.0004         47.0004
  -1798328.00048  -1384983.78047  21845398.1064   21845406.4954   21845398.512
        50.0004         46.0004
    -60035.14047    -24683.72046  24441907.3754   24441916.1444   24441907.801
        42.0004         38.0004
  -6327425.85347  -4879087.51946  23940867.0024   23940876.7724   23940866.643
        44.0004         39.0004
  -2785771.72547  -2129016.57946  24302006.7684   24302014.5054   24302006.277
        43.0004         39.0004
 -27283733.14948 -21197838.23648  20547495.9614   20547502.4234   20547495.713
        53.0004         48.0004
 -22360849.74948 -17413645.27147  21332432.9414   21332439.1034   21332433.363
        51.0004         46.0004
 -14950310.30648 -11649874.61447  21440051.3324   21440056.9814   21440050.923
        51.0004         46.0004
 -14099190.06548 -10964428.25647  21566162.6174   21566166.7764   21566162.802
        51.0004         47.0004
 14  5 16  1 47  0.0000000  0 11G07G08G09G30G26G17G05G04G10G28G02
  -3783757.89247  -2919629.68046  23983748.2724   23983754.6774   23983747.237
        43.0004         38.0004
   7583562.03648   5907815.73547  21735371.1824   21735376.4584   21735371.375
        49.0004         44.0004
 -12454896.66748  -9691306.89847  21598728.4114   21598734.4214   21598728.437
        51.0004         47.0004
  -1715067.96248  -1320105.82847  21861241.4624   21861249.6444   21861242.341
        50.0004         46.0004
    -45981.11247    -13732.43946  24444582.6894   24444589.0154   24444581.356
        42.0004         38.0004
  -6314277.36247  -4868841.89046  23943369.1314   23943379.2164   23943369.035
        44.0004         39.0004
  -2878092.95147  -2200955.06146  24284438.7604   24284445.8134   24284438.258
        43.0004         39.0004
 -27247245.26148 -21169406.14048  20554439.3934   20554445.8734   20554438.987
        53.0004         48.0004
 -22421964.12548 -17461266.84447  21320803.1884   21320809.7844   21320803.789
        51.0004         46.0004
 -14989905.97748 -11680728.34747  21432515.7594   21432522.1454   21432515.809
        51.0004         46.0004
 -14117797.84148 -10978927.81947  21562620.8374   21562625.9254   21562621.366
        51.0004         47.0004
 14  5 16  1 47 30.0000000  0 11G07G08G09G30G26G17G05G04G10G28G02
  -3678333.20147  -2837480.61546  24003810.1804   24003814.5614   24003809.063
        43.0004         38.0004
   7678813.04448   5982037.29647  21753496.1854   21753502.5324   21753496.138
        48.0004         44.0004
 -12372220.45548  -9626883.87147  21614461.2884   21614466.6764   21614461.392
        51.0004         47.0004
  -1631579.71048  -1255050.05047  21877130.0634   21877136.9574   21877129.389
        50.0004         46.0004
    -32025.45947     -2857.79346  24447238.3634   24447245.6974   24447235.418
        42.0004         38.0004
  -6301368.41547  -4858782.92746  23945826.0764   23945834.6234   23945825.053
        44.0004         40.0004
  -2970519.13547  -2272975.33946  24266851.0154   24266856.8384   24266849.692
        43.0004         39.0004
 -27210315.78748 -21140629.94748  20561467.2914   20561473.3784   20561466.409
        53.0004         48.0004
 -22482829.68848 -17508694.53347  21309220.7854   21309227.0344   21309221.435
        51.0004         46.0004
 -15029161.96248 -11711317.37447  21425045.0994   21425051.5864   21425045.658
        51.0004         46.0004
 -14135961.78648 -10993081.53247  21559165.2424   21559169.2314   21559165.500
        51.0004         47.0004
 14  5 16  1 48  0.0000000  0 11G07G08G09G30G26G17G05G04G10G28G02
  -3572939.18047  -2755355.45246  24023864.5604   24023870.9734   24023864.698
        42.0004         38.0004
   7774329.22548   6056465.48747  21771671.9074   21771678.5144   21771673.020
        48.0004         44.0004
 -12289329.42248  -9562293.44847  21630234.8704   21630240.6294   21630234.718
        51.0004         47.0004
  -1547868.26048  -1189820.35647  21893059.4544   21893067.1344   21893059.326
        50.0004         46.0004
    -18172.16647      7937.08446  24449874.3064   24449881.2984   24449873.908
        43.0004         38.0004
  -6288700.82247  -4848912.03746  23948235.7374   23948245.0874   23948235.490
        44.0004         39.0004
  -3063050.61147  -2345077.66146  24249242.2794   24249249.1364   24249241.728
        43.0004         39.0004
 -27172949.14548 -21111513.10248  20568577.3774   20568584.3154   20568577.198
        53.0004         48.0004
 -22543445.37748 -17555927.51847  21297685.9104   21297692.0824   21297686.643
        51.0004         46.0004
 -15068077.53448 -11741641.15647  21417639.9774   21417646.1614   21417640.352
        51.0004         46.0004
 -14153684.61448 -11006891.52147  21555791.9404   21555796.5714   21555792.055
        51.0004         47.0004
 14  5 16  1 48 30.0000000  0 11G07G08G09G30G26G17G05G04G10G28G02
  -3467577.28247  -2673255.33446  24043916.5124   24043921.2844   24043914.729
        42.0004         38.0004
   7870108.38248   6131098.59347  21789898.1364   21789904.1914   21789898.565
        48.0004         44.0004
 -12206225.49948  -9497537.13347  21646048.8124   21646054.5544   21646048.874
        51.0004         46.0004
  -1463935.28548  -1124418.04047  21909031.6084   21909039.5564   21909031.140
        50.0004         45.0004
     -4421.95547     18651.62246  24452489.5014   24452496.8264   24452490.072
        43.0004         38.0004
  -6276274.02947  -4839228.78546  23950601.0464   23950610.4894   23950600.877
        44.0004         40.0004
  -3155684.13447  -2417259.49446  24231614.4494   24231620.4284   24231614.362
        44.0004         39.0004
 -27135146.45748 -21082056.48748  20575771.5324   20575778.0784   20575770.751
        53.0004         48.0004
 -22603807.04048 -17602962.56147  21286199.7964   21286205.9044   21286200.258
        51.0004         47.0004
 -15106648.72948 -11771696.58847  21410300.6674   21410306.1974   21410300.343
        51.0004         46.0004
 -14170965.23848 -11020356.93447  21552504.1514   21552507.9364   21552504.418
        51.0004         47.0004
 14  5 16  1 49  0.0000000  0 11G07G08G09G30G26G17G05G04G10G28G02
  -3362248.67947  -2591181.14546  24063959.3614   24063964.2444   24063958.906
        42.0004         38.0004
   7966148.32848   6205934.91447  21808174.5634   21808180.7574   21808174.305
        48.0004         44.0004
 -12122910.36248  -9432616.24347  21661903.0064   21661908.8714   21661903.548
        51.0004         46.0004
  -1379782.28548  -1058844.27647  21925045.5184   21925052.7164   21925045.458
        50.0004         45.0004
      9224.72047     29285.50446  24455086.6664   24455093.2424   24455085.996
        43.0004         38.0004
  -6264086.79847  -4829732.21346  23952920.7874   23952929.0844   23952919.382
        44.0004         40.0004
  -3248416.18347  -2489518.11946  24213969.3044   24213975.0854   24213968.067
        44.0004         39.0004
 -27096908.43448 -21052260.64348  20583047.4934   20583054.0174   20583047.219
        53.0004         48.0004
 -22663910.39348 -17649796.31947  21274762.4104   21274768.7414   21274763.083
        51.0004         47.0004
 -15144871.17548 -11801480.26647  21403026.9514   21403032.3544   21403026.915
        51.0004         46.0004
 -14187802.93348 -11033477.21247  21549299.6794   21549304.4824   21549300.086
        51.0004         47.0004
 14  5 16  1 49 30.0000000  0 11G07G08G09G30G26G17G05G04G10G28G02
  -3256958.82847  -2509137.15346  24083994.0684   24083999.8784   24083994.830
        42.0004         38.0004
   8062442.58648   6280969.39747  21826498.9254   21826504.9184   21826498.748
        48.0004         44.0004
 -12039390.31448  -9367535.67847  21677796.6794   21677802.5944   21677796.418
        51.0004         46.0004
  -1295415.24748   -993103.73047  21941099.8244   21941107.4634   21941099.466
        50.0004         45.0004
     22762.91447     39834.84646  24457663.4084   24457670.5144   24457663.184
        43.0004         38.0004
  -6252141.89047  -4820424.47146  23955192.8794   23955202.7484   23955192.034
        44.0004         40.0004
  -3341248.05147  -2561854.51246  24196302.7034   24196309.6614   24196302.322
        44.0004         39.0004
 -27058240.42448 -21022129.75048  20590406.5064   20590412.6264   20590405.681
        53.0004         48.0004
 -22723755.41848 -17696428.78747  21263374.0974   21263380.4284   21263374.754
        51.0004         47.0004
 -15182745.35848 -11830992.58247  21395819.5924   21395825.2024   21395819.466
        51.0004         46.0004
 -14204201.34648 -11046255.19547  21546179.1894   21546184.0724   21546179.655
        51.0004         47.0004
 14  5 16  1 50  0.0000000  0 11G07G08G09G30G26G17G05G04G10G28G02
  -3151707.21947  -2427122.96846  24104023.4424   24104030.3284   24104022.923
        42.0004         38.0004
   8158990.99748   6356201.91547  21844871.5534   21844876.7154   21844871.307
        48.0004         44.0004
 -11955665.26348  -9302295.37247  21693729.0844   21693734.6664   21693728.952
        51.0004         46.0004
  -1210833.89648   -927196.19047  21957194.8254   21957202.0314   21957195.171
        50.0004         46.0004
     36193.89047     50300.62646  24460219.0544   24460226.9584   24460218.570
        43.0004         38.0004
  -6240436.12147  -4811303.07046  23957420.5634   23957430.0844   23957420.164
        44.0004         40.0004
  -3434174.38047  -2634264.51546  24178618.7894   24178625.6054   24178618.987
        44.0004         39.0004
 -27019141.67548 -20991663.21548  20597846.2304   20597853.0714   20597845.669
        53.0004         48.0004
 -22783336.22048 -17742855.36447  21252035.9394   21252042.8924   21252036.429
        51.0004         47.0004
 -15220265.19348 -11860228.76747  21388679.6554   21388686.0684   21388679.929
        51.0004         46.0004
 -14220157.74948 -11058688.75047  21543143.2304   21543147.2504   21543143.143
        51.0004         47.0004
 14  5 16  1 50 30.0000000  0 11G07G08G09G30G26G17G05G04G10G28G02
  -3046497.82147  -2345141.67046  24124043.8904   24124050.4364   24124043.053
        42.0004         38.0004
   8255788.55348   6431628.59347  21863290.7294   21863297.5114   21863291.209
        48.0004         43.0004
 -11871739.77048  -9236898.87647  21709699.1464   21709705.5044   21709699.573
        51.0004         46.0004
  -1126042.67348   -861125.12147  21973330.7324   21973337.2754   21973330.462
        50.0004         45.0004
     49514.29747     60680.25946  24462753.3814   24462760.2114   24462753.142
        43.0004         38.0004
  -6228971.09647  -4802369.26746  23959602.4584   23959611.8844   23959601.612
        44.0004         40.0004
  -3527194.45047  -2706747.56246  24160917.8174   24160923.8534   24160917.688
        44.0004         39.0004
 -26979615.96648 -20960863.98548  20605367.5474   20605374.2384   20605367.399
        53.0004         48.0004
 -22842651.28248 -17789074.88147  21240749.3474   21240755.3254   21240749.777
        51.0004         47.0004
 -15257429.60948 -11889188.01547  21381607.6544   21381613.3594   21381607.561
        51.0004         46.0004
 -14235674.30448 -11070779.56647  21540189.9694   21540194.7024   21540190.555
        51.0004         47.0004
 14  5 16  1 51  0.0000000  0 11G07G08G09G30G26G17G05G04G10G28G02
  -2941332.47947  -2263194.70646  24144055.9914   24144062.6124   24144055.859
        42.0004         37.0004
   8352832.24748   6507247.04447  21881758.3944   21881764.6274   21881758.221
        48.0004         43.0004
 -11787616.52148  -9171348.28947  21725707.1264   21725713.4824   21725707.577
        51.0004         46.0004
  -1041043.91148   -794892.32547  21989505.7194   21989512.3334   21989504.897
        50.0004         45.0004
     62722.84647     70972.72946  24465267.4114   24465274.8734   24465266.939
        43.0004         38.0004
  -6217746.27747  -4793622.64646  23961737.9154   23961747.6474   23961737.982
        45.0004         40.0004
  -3620306.14247  -2779301.99846  24143199.8004   24143205.8744   24143199.160
        44.0004         39.0004
 -26939664.95448 -20929733.35048  20612969.9324   20612976.7004   20612969.676
        53.0004         48.0004
 -22901697.35848 -17835084.79247  21229512.5744   21229519.4734   21229513.232
        51.0004         47.0004
 -15294235.36448 -11917867.77847  21374603.4334   21374608.9214   21374603.871
        51.0004         46.0004
 -14250751.18348 -11082527.78047  21537321.0264   21537325.5464   21537321.584
        51.0004         47.0004
 14  5 16  1 51 30.0000000  0 11G07G08G09G30G26G17G05G04G10G28G02
  -2836215.41147  -2181285.37546  24164059.0944   24164065.8264   24164058.932
        42.0004         37.0004
   8450117.22048   6583053.51647  21900270.5614   21900276.4294   21900270.641
        48.0004         43.0004
 -11703299.89948  -9105647.02247  21741752.2704   21741758.3374   21741752.300
        51.0004         46.0004
   -955841.90548   -728501.14947  22005718.1274   22005725.5734   22005717.912
        50.0004         45.0004
     75816.24947     81175.47346  24467757.7204   24467765.2494   24467757.597
        43.0004         38.0004
  -6206762.98447  -4785064.21546  23963828.1214   23963838.0814   23963827.875
        45.0004         40.0004
  -3713508.60947  -2851927.19046  24125462.6324   24125470.8444   24125463.054
        44.0004         39.0004
 -26899292.39948 -20898274.23848  20620653.0404   20620659.6114   20620652.621
        53.0004         48.0004
 -22960472.73948 -17880883.77347  21218328.5284   21218334.7484   21218329.227
        51.0004         47.0004
 -15330680.88048 -11946266.84047  21367667.6754   21367674.3244   21367668.491
        51.0004         46.0004
 -14265390.22448 -11093934.81647  21534535.1394   21534540.3034   21534535.750
        51.0004         47.0004
 14  5 16  1 52  0.0000000  0 11G07G08G09G30G26G17G05G04G10G28G02
  -2731147.78547  -2099414.53546  24184053.1724   24184058.6634   24184052.278
        42.0004         37.0004
   8547640.92948   6659046.01647  21918829.4454   21918833.9554   21918828.735
        48.0004         43.0004
 -11618792.22648  -9039796.88147  21757833.7354   21757839.0694   21757834.040
        51.0004         46.0004
   -870438.69748   -661953.19747  22021969.8234   22021977.9184   22021969.820
        50.0004         45.0004
     88793.58447     91287.76946  24470227.2744   24470234.3924   24470228.405
        43.0004         38.0004
  -6196020.38747  -4776693.36146  23965873.0404   23965882.1604   23965872.408
        45.0004         40.0004
  -3806798.68047  -2924620.62646  24107710.1434   24107717.3034   24107709.805
        44.0004         39.0004
 -26858499.80448 -20866487.82648  20628415.2504   20628422.2714   20628414.986
        53.0004         48.0004
 -23018973.65948 -17926468.89847  21207196.2774   21207202.3894   21207196.581
        51.0004         47.0004
 -15366763.03848 -11974382.76347  21360801.5524   21360808.3264   21360802.131
        51.0004         46.0004
 -14279591.32248 -11105000.60447  21531833.5054   21531837.8164   21531833.446
        52.0004         47.0004
 14  5 16  1 52 30.0000000  0 11G07G08G09G30G26G17G05G04G10G28G02
  -2626131.81847  -2017583.96846  24204036.1764   24204042.7534   24204035.971
        42.0004         37.0004
   8645400.37148   6735222.19247  21937430.9264   21937437.1654   21937432.220
        48.0004         43.0004
 -11534096.17248  -8973799.95747  21773950.8144   21773957.0914   21773950.750
        51.0004         46.0004
   -784836.77448   -595250.41147  22038259.1234   22038267.7264   22038259.649
        50.0004         45.0004
    101653.40947    101308.50546  24472673.9304   24472683.0884   24472674.289
        43.0004         38.0004
  -6185517.88347  -4768509.58046  23967870.8504   23967880.1404   23967870.731
        45.0004         40.0004
  -3900174.11747  -2997380.59446  24089942.2234   24089947.6894   24089941.379
        44.0004         39.0004
 -26817289.27348 -20834375.75048  20636257.8764   20636263.6014   20636257.343
        53.0004         48.0004
 -23077196.66248 -17971837.45747  21196116.6844   21196123.0374   21196117.190
        52.0004         47.0004
 -15402478.06148 -12002212.61747  21354006.2774   21354011.3774   21354006.131
        51.0004         46.0004
 -14293354.55748 -11115725.20447  21529213.7574   21529218.3154   21529214.183
        51.0004         47.0004
 14  5 16  1 53  0.0000000  0 11G07G08G09G30G26G17G05G04G10G28G02
  -2521169.01447  -1935794.82846  24224009.4574   24224016.7934   24224009.216
        42.0004         37.0004
   8743393.01748   6811580.10247  21956079.1454   21956084.7264   21956079.549
        48.0004         43.0004
 -11449213.91648  -8907657.94047  21790103.5024   21790109.0994   21790103.314
        51.0004         46.0004
   -699038.11448   -528394.31047  22054586.5344   22054594.1264   22054586.398
        50.0004         45.0004
    114394.87047    111237.01246  24475099.3524   24475108.4814   24475097.748
        43.0004         38.0004
  -6175254.97447  -4760512.48746  23969823.8184   23969832.7174   23969823.628
        45.0004         40.0004
  -3993631.95447  -3070204.77546  24072157.4604   24072163.5204   24072156.198
        44.0004         39.0004
 -26775661.91148 -20801938.87948  20644178.7874   20644185.6384   20644178.678
        53.0004         48.0004
 -23135137.90448 -18016986.46547  21185090.6384   21185096.6654   21185091.242
        52.0004         47.0004
 -15437823.00048 -12029754.08447  21347278.9554   21347285.8714   21347279.592
        51.0004         46.0004
 -14306679.92048 -11126108.60347  21526678.2584   21526682.7304   21526678.497
        51.0004         47.0004
 14  5 16  1 53 30.0000000  0 11G07G08G09G30G26G17G05G04G10G28G02
  -2416264.80147  -1854051.33446  24243973.2464   24243980.2784   24243972.535
        42.0004         37.0004
   8841612.79448   6888114.98647  21974768.9204   21974775.7684   21974770.139
        48.0004         43.0004
 -11364151.30648  -8841375.38947  21806290.7174   21806296.2314   21806290.375
        51.0004         46.0004
   -613048.40048   -461389.33647  22070949.9564   22070957.3294   22070949.881
        50.0004         45.0004
    127013.32547    121069.66646  24477500.6234   24477508.6694   24477500.050
        43.0004         38.0004
  -6165234.11347  -4752704.02746  23971730.5234   23971740.7114   23971730.619
        45.0004         40.0004
  -4087172.47347  -3143093.40246  24054357.3654   24054363.2324   24054356.068
        44.0004         39.0004
 -26733622.98848 -20769181.30348  20652178.6494   20652185.3154   20652178.593
        53.0004         48.0004
 -23192797.51848 -18061916.02347  21174118.4204   21174124.6474   21174118.976
        52.0004         47.0004
 -15472797.83448 -12057007.16447  21340624.5714   21340630.0244   21340624.693
        51.0004         46.0004
 -14319570.19748 -11136152.97147  21524225.3244   21524230.0754   21524225.429
        51.0004         47.0004
 14  5 16  1 54  0.0000000  0 11G07G08G09G30G26G17G05G04G10G28G02
  -2311418.30647  -1772352.83646  24263925.6544   24263931.2134   24263924.509
        42.0004         37.0004
   8940059.43748   6964826.64147  21993503.9184   21993509.1854   21993503.766
        48.0004         43.0004
 -11278908.23148  -8774952.21647  21822511.1444   21822517.2504   21822511.477
        51.0004         46.0004
   -526867.30148   -394235.23747  22087349.4634   22087357.0044   22087349.573
        50.0004         45.0004
    139510.09047    130807.48946  24479877.2944   24479886.4564   24479878.047
        43.0004         38.0004
  -6155452.29847  -4745081.82146  23973591.6834   23973601.7784   23973591.592
        45.0004         40.0004
  -4180790.79347  -3216042.63546  24036541.7504   24036548.2634   24036540.999
        44.0004         39.0004
 -26691171.95548 -20736102.60748  20660257.4304   20660263.9014   20660256.576
        53.0004         48.0004
 -23250169.21948 -18106621.23847  21163201.0014   21163207.0544   21163201.710
        51.0004         47.0004
 -15507396.42348 -12083967.05847  21334039.4654   21334045.6784   21334040.047
        51.0004         46.0004
 -14332023.80048 -11145857.07647  21521855.3704   21521859.7744   21521855.778
        51.0004         47.0004
 14  5 16  1 54 30.0000000  0 11G07G08G09G30G26G17G05G04G10G28G02
  -2206635.20747  -1690703.72846  24283864.5564   24283871.0804   24283864.756
        42.0004         37.0004
   9038726.09648   7041709.74547  22012280.2374   22012284.4334   22012279.909
        48.0004         43.0004
 -11193491.07348  -8708393.39747  21838765.8664   21838771.1674   21838765.708
        50.0004         46.0004
   -440501.00848   -326936.83547  22103784.0684   22103791.9664   22103784.309
        50.0004         45.0004
    151880.19847    140446.61746  24482231.4334   24482240.1594   24482231.477
        43.0004         38.0004
  -6145912.50247  -4737648.19546  23975408.0114   23975417.6894   23975407.399
        45.0004         40.0004
  -4274487.95347  -3289053.30046  24018712.1954   24018717.9374   24018711.709
        44.0004         39.0004
 -26648314.05848 -20702706.87448  20668412.4054   20668419.2044   20668412.301
        53.0004         48.0004
 -23307253.15848 -18151102.21747  21152337.7554   21152344.4424   21152338.512
        51.0004         47.0004
 -15541619.55848 -12110634.39347  21327527.9654   21327533.5414   21327528.047
        51.0004         46.0004
 -14344044.41448 -11155223.78847  21519568.0574   21519572.3074   21519568.123
        51.0004         47.0004
 14  5 16  1 55  0.0000000  0 11G07G08G09G30G26G17G05G04G10G28G02
  -2101915.07247  -1609103.71446  24303792.0884   24303799.1104   24303792.556
        42.0004         37.0004
   9137612.11148   7118763.78247  22031097.0954   22031103.4844   22031096.894
        48.0004         43.0004
 -11107900.12848  -8641699.16147  21855052.9044   21855058.9504   21855052.814
        50.0004         46.0004
   -353949.64748   -259494.21447  22120254.1954   22120262.3064   22120254.514
        50.0004         45.0004
    164124.64247    149987.82846  24484562.2804   24484570.0514   24484562.037
        43.0004         38.0004
  -6136611.37147  -4730400.56546  23977178.4304   23977187.2494   23977177.816
        45.0004         40.0004
  -4368258.89147  -3362121.43346  24000867.5704   24000873.5104   24000866.978
        44.0004         40.0004
 -26605049.41648 -20668994.20048  20676645.3014   20676652.0134   20676645.244
        53.0004         48.0004
 -23364043.74348 -18195354.61647  21141531.5524   21141537.2074   21141531.953
        52.0004         47.0004
 -15575461.59248 -12137004.77747  21321087.8304   21321093.8564   21321087.936
        51.0004         46.0004
 -14355630.01848 -11164251.53247  21517363.2464   21517368.6904   21517363.690
        51.0004         47.0004
 14  5 16  1 55 30.0000000  0 11G07G08G09G30G26G17G05G04G10G28G02
  -1997261.22447  -1527555.33346  24323707.8794   24323713.0284   24323707.173
        42.0004         37.0004
   9236713.33748   7195985.50547  22049955.4444   22049961.2394   22049955.346
        48.0004         43.0004
 -11022139.58748  -8574872.77247  21871372.8684   21871379.0984   21871372.871
        50.0004         46.0004
   -267217.07748   -191910.40247  22136758.9294   22136766.3894   22136759.468
        49.0004         45.0004
    176240.68047    159428.96146  24486866.7374   24486876.3744   24486867.315
        43.0004         38.0004
  -6127550.35247  -4723340.02046  23978901.7854   23978911.2414   23978901.337
        44.0004         40.0004
  -4462102.84747  -3435246.49146  23983010.3964   23983016.6344   23983008.832
        44.0004         40.0004
 -26561381.22048 -20634967.06248  20684955.8194   20684962.0164   20684955.036
        53.0004         48.0004
 -23420539.26448 -18239377.09247  21130780.5744   21130787.3884   21130781.101
        52.0004         47.0004
 -15608921.12348 -12163077.10147  21314720.6464   21314726.6934   21314721.040
        51.0004         46.0004
 -14366782.37448 -11172941.68747  21515241.0804   21515245.6594   21515241.432
        51.0004         47.0004
 14  5 16  1 56  0.0000000  0 11G07G08G09G30G26G17G05G04G10G28G02
  -1892677.13247  -1446061.31746  24343609.9324   24343614.0474   24343609.032
        42.0004         37.0004
   9336025.17248   7273371.34147  22068853.3834   22068859.0404   22068853.707
        48.0004         43.0004
 -10936213.34148  -8507917.25747  21887723.7464   21887730.6364   21887724.167
        50.0004         46.0004
   -180306.97648   -124188.25247  22153297.9814   22153305.0104   22153297.766
        49.0004         45.0004
    188225.69247    168768.00746  24489148.7214   24489156.6034   24489148.631
        43.0004         38.0004
  -6118730.15147  -4716467.12846  23980579.9744   23980590.0184   23980579.944
        45.0004         40.0004
  -4556018.23147  -3508427.21046  23965139.3184   23965144.5064   23965137.945
        44.0004         40.0004
 -26517312.72248 -20600628.01348  20693341.3304   20693348.4424   20693340.938
        53.0004         48.0004
 -23476737.44748 -18283167.87947  21120086.1744   21120093.0774   21120087.036
        52.0004         47.0004
 -15641996.34148 -12188849.96347  21308426.6924   21308432.2394   21308426.942
        51.0004         46.0004
 -14377502.88048 -11181295.33047  21513201.1294   21513205.7314   21513201.499
        52.0004         47.0004
 14  5 16  1 56 30.0000000  0 11G07G08G09G30G26G17G05G04G10G28G02
  -1788163.18846  -1364621.95646  24363497.0864   24363503.2154   24363497.218
        41.0004         37.0004
   9435545.99548   7350920.02147  22087791.3914   22087798.1684   22087791.824
        48.0004         43.0004
 -10850122.74948  -8440833.68947  21904106.9804   21904112.4494   21904106.646
        50.0004         46.0004
    -93220.48148    -56328.64747  22169869.8594   22169877.0854   22169869.334
        49.0004         45.0004
    200079.63147    178004.93046  24491403.4834   24491412.7124   24491404.200
        43.0004         38.0004
  -6110148.79647  -4709780.34446  23982213.0034   23982222.4744   23982213.180
        45.0004         40.0004
  -4650001.18947  -3581660.57846  23947253.9134   23947260.5464   23947253.831
        45.0004         40.0004
 -26472844.52248 -20565977.49848  20701803.6254   20701809.8164   20701803.083
        53.0004         48.0004
 -23532633.44748 -18326723.19847  21109449.5204   21109456.1564   21109450.120
        52.0004         47.0004
 -15674682.78548 -12214319.89247  21302206.3034   21302212.5124   21302206.917
        51.0004         46.0004
 -14387790.68448 -11189311.80547  21511243.3214   21511247.7434   21511243.688
        52.0004         47.0004
