     2.11           OBSERVATION DATA    G (GPS)             RINEX VERSION / TYPE
teqc  2013Mar15     gpsops              20140601 00:23:07UTCPGM / RUN BY / DATE
Linux 2.4.21-27.ELsmp|Opteron|gcc -static|Linux x86_64|=+   COMMENT
BIT 2 OF LLI FLAGS DATA COLLECTED UNDER A/S CONDITION       COMMENT
GLPS                                                        MARKER NAME
42005M002                                                   MARKER NUMBER
GGN                 JPL                                     OBSERVER / AGENCY
ZR220013847         ASHTECH UZ-12       CQ00                REC # / TYPE / VERS
CR519992104         ASH701945B_M    SCIT                    ANT # / TYPE
   -33801.4662 -6377516.5323   -82154.3508                  APPROX POSITION XYZ
        0.0083        0.0000        0.0000                  ANTENNA: DELTA H/E/N
     1     1                                                WAVELENGTH FACT L1/2
     7    L1    L2    P1    P2    C1    S1    S2            # / TYPES OF OBSERV
    30.0000                                                 INTERVAL
                                                            COMMENT
This data is provided as a public service by NASA/JPL.      COMMENT
No warranty is expressed or implied regarding suitability   COMMENT
for use.  For further information, contact:                 COMMENT
Dave Stowers, NASA/JPL m/s 238-600                          COMMENT
4800 Oak Grove Drive, Pasadena CA 91109 USA                 COMMENT
                                                            COMMENT
Forced Modulo Decimation to 30 seconds                      COMMENT
 SNR is mapped to RINEX snr flag value [0-9]                COMMENT
  L1 & L2: min(max(int(snr_dBHz/6), 0), 9)                  COMMENT
pseudorange smoothing corrections not applied               COMMENT
  2014     5    31     0     0    0.0000000     GPS         TIME OF FIRST OBS
                                                            END OF HEADER
 14  5 31  0  0  0.0000000  0  9G06G08G10G28G04G07G26G02G17
  -6078096.01748  -4716500.28848  21085126.6674   21085134.4394   21085126.116
        53.0004         49.0004
 -15788031.02848 -12294086.21748  20481856.6654   20481862.3724   20481856.905
        52.0004         48.0004
 -15487811.09447 -12063507.85047  22524031.2004   22524037.4234   22524031.784
        47.0004         43.0004
 -10041852.78448  -7827035.12147  22317201.9134   22317208.3434   22317202.164
        48.0004         43.0004
 -28590149.33248 -22230895.53948  20318256.1804   20318261.5354   20318256.094
        53.0004         49.0004
 -12857632.94948  -9989552.74447  22216925.3014   22216930.3574   22216925.021
        48.0004         44.0004
   -304371.13547   -222652.17846  24180068.4334   24180077.9744   24180067.649
        43.0004         38.0004
  -9864232.43148  -7670674.69847  22192654.3574   22192658.5774   22192654.920
        49.0004         44.0004
  -9372267.36747  -7260280.91446  23546408.1824   23546417.2294   23546407.695
        46.0004         41.0004
 14  5 31  0  0 30.0000000  0  9G06G08G10G28G04G07G26G02G17
  -6016094.07748  -4668187.06848  21096925.5114   21096933.6884   21096924.374
        53.0004         49.0004
 -15726566.34148 -12246191.62148  20493553.1124   20493558.7664   20493553.540
        52.0004         48.0004
 -15559714.58547 -12119536.45147  22510347.9624   22510355.0894   22510349.483
        47.0004         43.0004
 -10100023.17448  -7872362.50647  22306132.0904   22306139.1974   22306132.542
        48.0004         44.0004
 -28600832.67148 -22239220.16848  20316222.9474   20316228.6634   20316222.794
        53.0004         49.0004
 -12760948.07548  -9914213.87947  22235323.8814   22235327.8894   22235323.568
        48.0004         44.0004
   -290053.43947   -211495.44446  24182793.2374   24182801.8714   24182791.914
        43.0004         38.0004
  -9921458.10748  -7715266.03947  22181764.6914   22181768.9224   22181765.299
        49.0004         44.0004
  -9339236.44047  -7234542.45446  23552693.0594   23552703.8164   23552693.049
        46.0004         41.0004
 14  5 31  0  1  0.0000000  0  9G06G08G10G28G04G07G26G02G17
  -5953696.80448  -4619565.79648  21108798.8314   21108806.8054   21108798.207
        53.0004         49.0004
 -15664568.01148 -12197881.19748  20505351.3984   20505356.3834   20505351.064
        52.0004         48.0004
 -15631626.67147 -12175571.74747  22496663.9884   22496669.4114   22496664.504
        47.0004         43.0004
 -10158122.11548  -7917634.21247  22295075.4124   22295083.9934   22295076.997
        48.0004         44.0004
 -28610963.56748 -22247114.31648  20314295.3254   20314300.6674   20314294.890
        53.0004         49.0004
 -12664035.36648  -9838697.43847  22253766.0584   22253770.5264   22253765.455
        48.0004         44.0004
   -275643.19447   -200266.60146  24185534.0934   24185544.2164   24185534.751
        43.0004         38.0004
  -9978280.76348  -7759543.32547  22170952.2044   22170956.2404   22170952.597
        49.0004         44.0004
  -9306390.10547  -7208947.85046  23558944.0454   23558954.4244   23558943.330
        46.0004         41.0004
 14  5 31  0  1 30.0000000  0  9G06G08G10G28G04G07G26G02G17
  -5890901.32948  -4570634.23748  21120749.1684   21120756.6954   21120747.805
        53.0004         49.0004
 -15602033.13148 -12149152.68648  20517250.6544   20517256.1424   20517251.354
        52.0004         48.0004
 -15703539.76847 -12231607.83747  22482980.1894   22482986.1364   22482980.027
        47.0004         43.0004
 -10216141.46048  -7962843.88647  22284036.1504   22284041.8314   22284036.032
        48.0004         44.0004
 -28620536.77648 -22254573.91148  20312473.8844   20312478.8474   20312473.244
        53.0004         49.0004
 -12566892.11248  -9763001.37647  22272251.6584   22272256.4944   22272251.425
        48.0004         43.0004
   -261137.29047   -188963.22646  24188293.9024   24188303.1404   24188294.002
        42.0004         38.0004
 -10034693.94948  -7803501.55947  22160216.5774   22160220.9254   22160216.698
        49.0004         44.0004
  -9273724.36947  -7183493.95246  23565159.3464   23565169.9994   23565159.263
        46.0004         41.0004
 14  5 31  0  2  0.0000000  0  9G06G08G10G28G04G07G26G02G17
  -5827712.47348  -4521396.15048  21132773.1874   21132780.8664   21132772.142
        53.0004         49.0004
 -15538966.73448 -12100010.00548  20529252.1024   20529257.4404   20529252.143
        52.0004         48.0004
 -15775453.71147 -12287644.57647  22469294.2324   22469301.3624   22469295.271
        47.0004         43.0004
 -10274080.58048  -8007991.03447  22273009.9704   22273016.8154   22273009.736
        48.0004         44.0004
 -28629554.89348 -22261600.96548  20310757.0904   20310762.4414   20310757.086
        53.0004         49.0004
 -12469524.30848  -9687130.34547  22290780.4914   22290785.4904   22290779.499
        48.0004         44.0004
   -246540.22547   -177588.81946  24191072.9294   24191082.8864   24191072.271
        43.0004         38.0004
 -10090698.68648  -7847141.51747  22149559.2864   22149563.4714   22149559.252
        49.0004         44.0004
  -9241242.49147  -7158183.31746  23571340.9834   23571350.4244   23571340.856
        46.0004         41.0004
 14  5 31  0  2 30.0000000  0  9G06G08G10G28G04G07G26G02G17
  -5764133.65948  -4471854.20148  21144871.7804   21144879.5954   21144870.996
        53.0004         49.0004
 -15475372.53348 -12050456.04948  20541353.6124   20541359.1804   20541354.068
        52.0004         48.0004
 -15847366.98748 -12343680.79647  22455609.2444   22455617.4174   22455610.516
        48.0004         43.0004
 -10331937.74848  -8053074.33347  22262000.7064   22262007.2854   22262000.396
        48.0004         44.0004
 -28638018.90948 -22268196.24948  20309146.9164   20309152.1444   20309146.420
        53.0004         49.0004
 -12371935.61048  -9611087.18747  22309350.1264   22309355.6044   22309350.370
        48.0004         43.0004
   -231855.14647   -166145.80946  24193866.1374   24193877.3434   24193866.118
        42.0004         38.0004
 -10146294.25148  -7890462.64647  22138978.9764   22138984.3484   22138979.566
        49.0004         44.0004
  -9208946.66947  -7133017.65746  23577486.2004   23577497.2374   23577486.067
        46.0004         41.0004
 14  5 31  0  3  0.0000000  0  9G06G08G10G28G04G07G26G02G17
  -5700164.64548  -4422008.19748  21157044.4074   21157052.5154   21157043.726
        53.0004         49.0004
 -15411250.54248 -12000490.82048  20553555.4694   20553560.8724   20553555.921
        52.0004         48.0004
 -15919274.08148 -12399712.21247  22441925.4464   22441933.0684   22441926.456
        48.0004         43.0004
 -10389707.14148  -8098089.23747  22251006.0134   22251013.8274   22251007.124
        48.0004         44.0004
 -28645926.24448 -22274357.75648  20307642.0434   20307647.1874   20307641.527
        53.0004         49.0004
 -12274126.05648  -9534871.93347  22327962.7924   22327967.4174   22327962.744
        48.0004         43.0004
   -217081.55947   -154633.83046  24196678.5204   24196688.3104   24196678.667
        42.0004         38.0004
 -10201477.22348  -7933462.27847  22128478.4434   22128483.6514   22128478.701
        49.0004         44.0004
  -9176835.66147  -7107996.02546  23583596.1434   23583606.4994   23583596.282
        46.0004         41.0004
 14  5 31  0  3 30.0000000  0  9G06G08G10G28G04G07G26G02G17
  -5635811.15948  -4371862.60648  21169290.5584   21169298.4124   21169289.791
        53.0004         49.0004
 -15346606.58948 -11950118.87747  20565856.6764   20565862.1514   20565857.277
        52.0004         47.0004
 -15991176.05248 -12455739.63247  22428243.6414   22428250.4684   22428244.521
        48.0004         43.0004
 -10447389.09548  -8143035.99947  22240029.7384   22240037.3314   22240030.140
        48.0004         44.0004
 -28653280.34248 -22280088.17348  20306242.5094   20306247.9144   20306242.269
        53.0004         49.0004
 -12176101.97648  -9458489.51147  22346617.2734   22346621.5614   22346616.087
        48.0004         43.0004
   -202224.92647   -143057.16246  24199506.1114   24199515.5164   24199503.760
        42.0004         38.0004
 -10256249.25648  -7976141.68847  22118055.1014   22118060.5734   22118055.755
        49.0004         44.0004
  -9144913.50447  -7083121.53346  23589670.1814   23589680.4664   23589671.101
        46.0004         41.0004
 14  5 31  0  4  0.0000000  0  9G06G08G10G28G04G07G26G02G17
  -5571075.30048  -4321419.06048  21181609.2804   21181617.4524   21181608.482
        53.0004         49.0004
 -15281442.77248 -11899341.84447  20578257.0284   20578262.7694   20578257.355
        52.0004         47.0004
 -16063069.59148 -12511760.47547  22414562.1734   22414569.8914   22414563.206
        48.0004         43.0004
 -10504980.34648  -8187912.08147  22229071.4044   22229077.4684   22229070.422
        48.0004         44.0004
 -28660081.05148 -22285387.37948  20304947.9974   20304953.8464   20304947.788
        53.0004         49.0004
 -12077865.91448  -9381941.90747  22365311.8844   22365314.5054   22365309.819
        48.0004         43.0004
   -187287.10447   -131417.22446  24202347.1704   24202357.6514   24202347.630
        42.0004         38.0004
 -10310608.70648  -8018499.61747  22107711.1244   22107715.6524   22107711.579
        49.0004         45.0004
  -9113180.79947  -7058394.68446  23595710.7814   23595720.3194   23595709.625
        46.0004         41.0004
 14  5 31  0  4 30.0000000  0  9G06G08G10G28G04G07G26G02G17
  -5505958.17648  -4270678.43048  21194001.0344   21194008.7164   21194000.149
        53.0004         49.0004
 -15215760.58748 -11848160.89347  20590756.0264   20590761.7924   20590756.027
        52.0004         47.0004
 -16134950.77548 -12567771.69747  22400883.4184   22400891.0184   22400884.530
        48.0004         43.0004
 -10562476.48548  -8232714.05847  22218129.6414   22218135.9174   22218129.632
        49.0004         44.0004
 -28666327.14248 -22290254.41248  20303759.7224   20303764.9814   20303759.519
        53.0004         49.0004
 -11979419.49248  -9305230.37847  22384044.1964   22384049.3514   22384043.479
        48.0004         43.0004
   -172268.76147   -119714.53846  24205205.7364   24205215.1404   24205204.627
        42.0004         38.0004
 -10364552.83348  -8060533.91447  22097446.0964   22097450.5174   22097446.474
        49.0004         45.0004
  -9081637.31847  -7033815.27746  23601711.0304   23601722.7844   23601711.681
        46.0004         41.0004
 14  5 31  0  5  0.0000000  0  9G06G08G10G28G04G07G26G02G17
  -5440462.99348  -4219643.20148  21206464.0914   21206472.1714   21206463.214
        53.0004         49.0004
 -15149563.54448 -11796578.75047  20603352.5174   20603358.1504   20603353.400
        52.0004         47.0004
 -16206817.66848 -12623771.77947  22387208.7714   22387214.9474   22387208.551
        48.0004         43.0004
 -10619875.17948  -8277440.10547  22207207.0284   22207212.0854   22207206.760
        49.0004         44.0004
 -28672019.77048 -22294690.17948  20302676.3264   20302681.7394   20302675.913
        53.0004         49.0004
 -11880766.68048  -9228358.02947  22402817.1894   22402821.1164   22402816.452
        48.0004         43.0004
   -157172.75247   -107951.31546  24208075.6134   24208089.3844   24208077.617
        43.0004         38.0004
 -10418081.11548  -8102244.18647  22087259.8024   22087264.0254   22087260.111
        49.0004         45.0004
  -9050284.69647  -7009384.58946  23607679.1714   23607688.5734   23607678.313
        46.0004         41.0004
 14  5 31  0  5 30.0000000  0  9G06G08G10G28G04G07G26G02G17
  -5374592.31248  -4168315.37648  21218998.7944   21219006.8174   21218998.210
        53.0004         49.0004
 -15082854.01448 -11744597.26747  20616046.7264   20616052.9394   20616047.176
        52.0004         47.0004
 -16278667.71248 -12679758.72847  22373534.2304   22373542.4654   22373536.252
        48.0004         43.0004
 -10677173.60448  -8322088.02447  22196303.3534   22196310.5614   22196302.984
        49.0004         44.0004
 -28677158.96048 -22298694.69248  20301698.4394   20301703.3114   20301698.011
        53.0004         49.0004
 -11781910.54148  -9151327.25447  22421628.5394   22421633.6114   22421628.323
        48.0004         43.0004
   -142001.39547    -96129.40046  24210964.6474   24210974.2974   24210964.634
        42.0004         38.0004
 -10471192.46948  -8143629.57447  22077152.7214   22077157.2384   22077153.302
        49.0004         45.0004
  -9019123.93847  -6985103.39846  23613608.1224   23613617.8024   23613607.746
        46.0004         41.0004
 14  5 31  0  6  0.0000000  0  9G06G08G10G28G04G07G26G02G17
  -5308349.08248  -4116697.25648  21231604.3634   21231612.6024   21231603.859
        53.0004         49.0004
 -15015635.22148 -11692218.95847  20628838.2284   20628843.7934   20628839.137
        52.0004         47.0004
 -16350498.64048 -12735730.77947  22359866.1064   22359872.6024   22359867.441
        48.0004         43.0004
 -10734369.08348  -8366655.71947  22185418.0514   22185425.5764   22185418.919
        49.0004         44.0004
 -28681745.54948 -22302268.61548  20300825.6614   20300830.7914   20300825.405
        53.0004         49.0004
 -11682854.03548  -9074140.34747  22440478.2124   22440482.9454   22440478.164
        48.0004         43.0004
   -126757.20547    -84250.72946  24213866.0964   24213875.7654   24213865.324
        43.0004         38.0004
 -10523886.16448  -8184689.50747  22067125.3414   22067129.4404   22067125.607
        49.0004         45.0004
  -8988156.67947  -6960972.99446  23619500.9484   23619510.9564   23619501.156
        46.0004         41.0004
 14  5 31  0  6 30.0000000  0  9G06G08G10G28G04G07G26G02G17
  -5241737.71548  -4064792.28448  21244280.1764   21244288.1244   21244279.364
        53.0004         48.0004
 -14947911.80948 -11639447.43947  20641725.6724   20641731.4874   20641725.729
        52.0004         47.0004
 -16422309.85948 -12791687.48647  22346201.0304   22346208.0074   22346201.915
        48.0004         43.0004
 -10791460.54648  -8411142.37647  22174554.2454   22174560.4934   22174554.587
        49.0004         44.0004
 -28685781.90048 -22305413.77648  20300057.5524   20300062.7384   20300057.040
        53.0004         49.0004
 -11583602.04648  -8996801.10247  22459365.6944   22459371.5144   22459364.746
        48.0004         43.0004
   -111444.40947    -72318.60246  24216779.1114   24216790.5164   24216779.210
        42.0004         38.0004
 -10576162.77948  -8225424.44847  22057177.7994   22057182.6434   22057178.240
        49.0004         45.0004
  -8957385.71347  -6936995.52346  23625356.3754   23625367.4344   23625356.430
        46.0004         41.0004
 14  5 31  0  7  0.0000000  0  9G06G08G10G28G04G07G26G02G17
  -5174755.65148  -4012598.45248  21257026.3054   21257034.4674   21257025.471
        53.0004         48.0004
 -14879681.29748 -11586280.78247  20654709.8274   20654715.2504   20654710.135
        52.0004         47.0004
 -16494093.64548 -12847622.80747  22332540.8424   22332548.0974   22332542.060
        48.0004         44.0004
 -10848439.88048  -8455541.67047  22163711.4744   22163717.7864   22163711.479
        49.0004         44.0004
 -28689263.03248 -22308126.30048  20299395.1544   20299399.9724   20299394.917
        53.0004         49.0004
 -11484152.54548  -8919307.95747  22478289.2564   22478295.4534   22478289.338
        48.0004         43.0004
    -96059.92647    -60330.63046  24219707.2894   24219716.7104   24219706.510
        42.0004         38.0004
 -10628016.14148  -8265829.58547  22047310.4184   22047313.6184   22047310.772
        49.0004         45.0004
  -8926807.13647  -6913167.99246  23631175.4664   23631184.9284   23631175.075
        46.0004         41.0004
 14  5 31  0  7 30.0000000  0  9G06G08G10G28G04G07G26G02G17
  -5107411.53648  -3960122.49548  21269841.7114   21269849.6914   21269840.804
        53.0004         48.0004
 -14810952.68648 -11532725.99047  20667787.9784   20667793.9134   20667788.393
        52.0004         47.0004
 -16565853.24248 -12903539.29147  22318885.8704   22318891.9594   22318886.236
        48.0004         43.0004
 -10905310.47848  -8499856.22647  22152889.7814   22152894.5434   22152889.346
        49.0004         44.0004
 -28692195.66148 -22310411.42648  20298837.0614   20298842.1904   20298836.519
        53.0004         49.0004
 -11384514.79948  -8841668.13647  22497249.3834   22497255.6184   22497250.046
        48.0004         43.0004
    -80612.05347    -48293.24346  24222647.4774   24222656.8784   24222646.477
        42.0004         38.0004
 -10679451.03248  -8305908.62247  22037522.5184   22037526.3704   22037523.084
        49.0004         45.0004
  -8896427.80047  -6889495.70546  23636955.8894   23636966.4464   23636955.776
        46.0004         41.0004
 14  5 31  0  8  0.0000000  0  9G06G08G10G28G04G07G26G02G17
  -5039702.93748  -3907362.53548  21282725.7364   21282734.3124   21282725.142
        53.0004         48.0004
 -14741724.08848 -11478781.59547  20680961.9314   20680967.7154   20680962.390
        52.0004         47.0004
 -16637581.02548 -12959430.97847  22305235.3424   22305242.9234   22305237.303
        48.0004         44.0004
 -10962064.23248  -8544079.75147  22142088.7104   22142095.8504   22142089.127
        49.0004         44.0004
 -28694575.16348 -22312265.53948  20298383.6494   20298389.1924   20298383.694
        53.0004         49.0004
 -11284686.42448  -8763879.75847  22516247.2514   22516251.8984   22516246.741
        48.0004         43.0004
    -65097.95047    -36204.25646  24225598.5974   24225607.3854   24225598.359
        42.0004         38.0004
 -10730461.32348  -8345656.82447  22027815.0904   22027819.6724   22027815.540
        50.0004         45.0004
  -8866243.68247  -6865975.51646  23642699.8274   23642710.8344   23642699.584
        46.0004         41.0004
 14  5 31  0  8 30.0000000  0  9G06G08G10G28G04G07G26G02G17
  -4971634.85648  -3854322.46248  21295679.2284   21295687.2324   21295678.270
        53.0004         49.0004
 -14672000.62348 -11424451.59847  20694229.7624   20694235.4894   20694229.965
        52.0004         47.0004
 -16709276.96948 -13015297.85947  22291593.4584   22291599.0644   22291593.381
        48.0004         43.0004
 -11018700.40248  -8588211.65747  22131311.1314   22131317.7414   22131311.633
        49.0004         44.0004
 -28696404.32749 -22313690.82348  20298036.0214   20298041.4574   20298035.700
        54.0004         49.0004
 -11184673.05048  -8685947.23047  22535278.8754   22535283.2714   22535278.289
        48.0004         43.0004
    -49522.27347    -24067.30646  24228563.2644   24228571.7404   24228562.928
        42.0004         38.0004
 -10781048.31748  -8385075.16147  22018188.9474   22018192.4174   22018189.623
        50.0004         45.0004
  -8836258.40047  -6842610.27046  23648405.9684   23648415.1824   23648405.415
        46.0004         41.0004
 14  5 31  0  9  0.0000000  0  9G06G08G10G28G04G07G26G02G17
  -4903212.14848  -3801006.05148  21308699.7724   21308707.5824   21308698.436
        53.0004         48.0004
 -14601787.08848 -11369739.72747  20707591.0714   20707596.6594   20707591.586
        52.0004         47.0004
 -16780940.43848 -13071139.42347  22277955.9074   22277962.5654   22277956.564
        48.0004         44.0004
 -11075218.23048  -8632251.34747  22120556.7244   22120562.6484   22120556.672
        49.0004         44.0004
 -28697685.95849 -22314689.46148  20297792.2374   20297797.3164   20297791.676
        54.0004         49.0004
 -11084479.78947  -8607874.53047  22554346.5654   22554350.2714   22554344.743
        47.0004         43.0004
    -33889.43847    -11885.79746  24231536.4674   24231547.3484   24231537.095
        42.0004         38.0004
 -10831213.61448  -8424164.90147  22008642.9424   22008647.1884   22008642.842
        49.0004         45.0004
  -8806474.89047  -6819402.24746  23654073.4394   23654083.2464   23654072.806
        45.0004         41.0004
 14  5 31  0  9 30.0000000  0  9G06G08G10G28G04G07G26G02G17
  -4834434.66448  -3747413.19448  21321787.1404   21321795.2524   21321786.345
        53.0004         48.0004
 -14531083.59548 -11314646.07047  20721045.5154   20721050.4284   20721045.575
        52.0004         47.0004
 -16852565.89448 -13126951.37647  22264325.3644   22264332.9794   22264326.686
        48.0004         44.0004
 -11131612.02248  -8676194.39047  22109824.5474   22109831.4964   22109825.002
        49.0004         44.0004
 -28698417.70549 -22315259.61748  20297653.0284   20297658.2404   20297652.553
        54.0004         49.0004
 -10984106.86047  -8529661.83647  22573444.0004   22573449.7494   22573444.992
        47.0004         43.0004
    -18198.78347       340.78046  24234522.4494   24234532.3234   24234523.142
        42.0004         38.0004
 -10880953.06048  -8462922.82747  21999177.9824   21999181.4154   21999178.175
        49.0004         45.0004
  -8776891.29247  -6796350.01246  23659702.4954   23659712.7224   23659702.822
        45.0004         41.0004
 14  5 31  0 10  0.0000000  0  9G06G08G10G28G04G07G26G02G17
  -4765306.54648  -3693547.11548  21334941.6874   21334949.4184   21334941.438
        53.0004         48.0004
 -14459894.81048 -11259174.26047  20734592.2294   20734597.2804   20734592.516
        52.0004         47.0004
 -16924152.20648 -13182732.83147  22250703.0184   22250709.8914   22250704.112
        48.0004         44.0004
 -11187880.39548  -8720039.69347  22099117.3064   22099123.1814   22099117.405
        49.0004         44.0004
 -28698601.60249 -22315402.87948  20297617.7574   20297623.1564   20297617.543
        54.0004         49.0004
 -10883558.64347  -8451312.56047  22592578.8204   22592583.8474   22592578.465
        47.0004         43.0004
     -2454.12847     12609.41346  24237518.5174   24237528.4754   24237518.908
        42.0004         38.0004
 -10930267.16548  -8501349.30447  21989793.4414   21989797.1774   21989792.753
        49.0004         45.0004
  -8747510.04947  -6773455.45446  23665294.0514   23665303.4634   23665293.383
        45.0004         41.0004
 14  5 31  0 10 30.0000000  0  9G06G08G10G28G04G07G26G02G17
  -4695828.09248  -3639408.04248  21348163.4254   21348171.0874   21348162.398
        53.0004         48.0004
 -14388221.17248 -11203324.63847  20748231.1324   20748236.8474   20748231.453
        52.0004         47.0004
 -16995694.48448 -13238479.97047  22237089.1404   22237096.5084   22237089.757
        48.0004         44.0004
 -11244018.11048  -8763783.20047  22088435.1114   22088439.8844   22088434.776
        49.0004         44.0004
 -28698235.79549 -22315117.79848  20297687.2004   20297692.7104   20297686.980
        54.0004         49.0004
 -10782836.12847  -8372827.47047  22611746.3184   22611749.8464   22611745.790
        47.0004         42.0004
     13344.58347     24920.18446  24240526.9624   24240535.8194   24240526.013
        42.0004         38.0004
 -10979152.60348  -8539441.75647  21980490.5294   21980494.1564   21980491.452
        50.0004         45.0004
  -8718329.98547  -6750717.64546  23670846.8834   23670855.6674   23670845.937
        45.0004         40.0004
 14  5 31  0 11  0.0000000  0  9G06G08G10G28G04G07G26G02G17
  -4626004.39348  -3584999.95848  21361450.6744   21361458.2284   21361449.769
        53.0004         48.0004
 -14316067.95148 -11147101.32447  20761961.3104   20761966.7134   20761961.732
        52.0004         47.0004
 -17067192.69348 -13294192.76747  22223483.6224   22223488.9464   22223484.263
        48.0004         44.0004
 -11300024.44448  -8807424.32247  22077776.5544   22077782.2334   22077776.865
        49.0004         44.0004
 -28697323.57649 -22314406.94948  20297860.8944   20297866.0764   20297860.539
        54.0004         49.0004
 -10681944.70947  -8294210.74847  22630945.6434   22630949.9924   22630944.353
        47.0004         42.0004
     29192.84747     37269.53946  24243541.2504   24243551.6334   24243540.267
        42.0004         37.0004
 -11027610.86748  -8577201.33947  21971269.1004   21971273.1974   21971269.017
        50.0004         45.0004
  -8689354.51847  -6728139.26646  23676360.7074   23676370.3814   23676359.960
        45.0004         40.0004
 14  5 31  0 11 30.0000000  0  9G06G08G10G28G04G07G26G02G17
  -4555838.52048  -3530325.23648  21374802.3974   21374810.5104   21374801.630
        53.0004         48.0004
 -14243438.66448 -11090507.04247  20775782.6404   20775788.0334   20775782.719
        52.0004         47.0004
 -17138644.46148 -13349869.38047  22209886.9314   22209891.4364   22209887.489
        48.0004         44.0004
 -11355896.80848  -8850961.04747  22067144.0954   22067151.1164   22067144.881
        49.0004         44.0004
 -28695865.98949 -22313271.13148  20298138.3094   20298143.4954   20298137.855
        54.0004         49.0004
 -10580887.50347  -8215464.82247  22650175.2254   22650180.7714   22650174.735
        47.0004         42.0004
     45088.04547     49655.48346  24246566.8234   24246576.0034   24246566.711
        42.0004         38.0004
 -11075641.20848  -8614627.48547  21962128.8244   21962133.6984   21962129.988
        50.0004         45.0004
  -8660584.96047  -6705721.34346  23681834.1874   23681844.5784   23681834.665
        45.0004         40.0004
 14  5 31  0 12  0.0000000  0  9G06G08G10G28G04G07G26G02G17
  -4485329.44648  -3475383.08848  21388219.8444   21388227.7664   21388218.967
        53.0004         48.0004
 -14170332.57348 -11033541.22447  20789694.0254   20789699.2164   20789694.271
        51.0004         47.0004
 -17210043.09848 -13405504.58547  22196300.0564   22196305.5594   22196300.491
        48.0004         44.0004
 -11411628.55548  -8894388.21547  22056538.6244   22056543.8964   22056539.127
        49.0004         44.0004
 -28693859.84949 -22311707.87248  20298519.9694   20298525.2214   20298519.688
        54.0004         49.0004
 -10479663.92547  -8136589.27747  22669437.4044   22669441.8754   22669437.161
        47.0004         42.0004
     61031.68547     62079.17346  24249599.9904   24249608.9324   24249599.676
        42.0004         38.0004
 -11123239.17248  -8651716.70847  21953071.9014   21953075.5134   21953072.203
        50.0004         45.0004
  -8632018.41447  -6683461.61746  23687271.8074   23687280.7104   23687270.304
        45.0004         40.0004
 14  5 31  0 12 30.0000000  0  9G06G08G10G28G04G07G26G02G17
  -4414485.09448  -3420179.68348  21401700.8474   21401709.0984   21401700.106
        53.0004         48.0004
 -14096757.96448 -10976210.33547  20803695.0614   20803700.0584   20803695.140
        51.0004         47.0004
 -17281391.32948 -13461100.52147  22182722.1294   22182728.9334   22182723.204
        49.0004         44.0004
 -11467222.23848  -8937707.78247  22045959.6474   22045965.3364   22045959.729
        49.0004         44.0004
 -28691311.27149 -22309721.93548  20299005.2094   20299010.4254   20299004.680
        54.0004         49.0004
 -10378282.24147  -8057590.53247  22688729.7764   22688734.3444   22688729.630
        47.0004         42.0004
     77016.23847     74534.74246  24252641.6234   24252650.7914   24252641.749
        42.0004         38.0004
 -11170409.41848  -8688472.64847  21944095.3644   21944098.3634   21944095.889
        50.0004         45.0004
  -8603661.05547  -6661364.89346  23692667.6524   23692677.4804   23692666.431
        45.0004         40.0004
 14  5 31  0 13  0.0000000  0  9G06G08G10G28G04G07G26G02G17
  -4343305.66048  -3364715.17848  21415246.4054   21415253.9024   21415245.408
        53.0004         48.0004
 -14022715.41448 -10918514.81147  20817784.7174   20817790.3734   20817784.763
        51.0004         47.0004
 -17352683.76748 -13516652.97747  22169157.1124   22169162.5644   22169157.072
        49.0004         44.0004
 -11522671.94248  -8980915.17047  22035407.6894   22035413.4574   22035407.844
        49.0004         44.0004
 -28688218.37348 -22307311.84748  20299593.1964   20299598.4274   20299593.035
        53.0004         49.0004
 -10276742.63347  -7978468.73047  22708051.3934   22708056.6214   22708051.560
        47.0004         42.0004
     93042.04347     87022.43746  24255691.1444   24255702.0194   24255691.093
        42.0004         38.0004
 -11217148.03848  -8724892.25247  21935202.0734   21935204.7944   21935201.451
        50.0004         45.0004
  -8575511.31247  -6639429.94746  23698024.0714   23698033.5124   23698023.554
        45.0004         41.0004
 14  5 31  0 13 30.0000000  0 10G06G08G10G28G04G07G05G26G02G17
  -4271792.90048  -3308990.94248  21428854.7374   21428862.2634   21428853.668
        53.0004         48.0004
 -13948206.57548 -10860455.94747  20831963.4794   20831968.6494   20831963.533
        51.0004         47.0004
 -17423917.09848 -13572159.38647  22155601.5274   22155608.0114   22155601.433
        49.0004         44.0004
 -11577974.14048  -9024007.61947  22024883.9164   22024889.7344   22024884.226
        49.0004         44.0004
 -28684580.87648 -22304477.40048  20300285.7194   20300290.5674   20300285.535
        53.0004         49.0004
 -10175047.39047  -7899225.65047  22727404.4914   22727408.7704   22727403.367
        47.0004         42.0004
   -791640.63447   -570408.33946  25308696.0824   25308705.3084   25308695.407
        47.0004         37.0004
    109107.87747     99541.33846  24258747.8284   24258759.8254   24258747.566
        42.0004         38.0004
 -11263453.22648  -8760974.12347  21926389.6124   21926393.0844   21926390.375
        50.0004         45.0004
  -8547568.92947  -6617656.57846  23703340.8604   23703351.2994   23703340.538
        45.0004         41.0004
 14  5 31  0 14  0.0000000  0 10G06G08G10G28G04G07G05G26G02G17
  -4199950.97048  -3253010.20748  21442525.2674   21442533.3804   21442524.439
        53.0004         48.0004
 -13873236.08548 -10802037.35147  20846229.2284   20846235.0244   20846229.772
        51.0004         47.0004
 -17495089.92848 -13627618.63647  22142057.1244   22142062.7074   22142057.612
        49.0004         44.0004
 -11633126.97748  -9066983.67947  22014388.4004   22014393.5194   22014388.571
        49.0004         45.0004
 -28680401.12548 -22301220.42148  20301080.7874   20301086.1454   20301080.579
        53.0004         49.0004
 -10073201.18247  -7819864.93047  22746784.9684   22746789.8054   22746783.920
        47.0004         42.0004
   -873873.69647   -634485.85146  25293049.2194   25293055.7844   25293046.840
        43.0004         37.0004
    125210.00247    112088.51246  24261811.9824   24261821.8174   24261812.679
        42.0004         38.0004
 -11309325.66748  -8796718.79047  21917660.0524   21917664.0064   21917660.253
        50.0004         45.0004
  -8519836.05847  -6596046.47846  23708618.2974   23708626.6224   23708618.188
        45.0004         41.0004
 14  5 31  0 14 30.0000000  0 10G06G08G10G28G04G07G05G26G02G17
  -4127782.62648  -3196775.12048  21456258.1574   21456266.7664   21456257.787
        52.0004         48.0004
 -13797807.41648 -10743261.73847  20860582.8774   20860588.5644   20860583.549
        51.0004         47.0004
 -17566199.66348 -13683028.73047  22128526.1474   22128531.1164   22128525.881
        49.0004         44.0004
 -11688127.53248  -9109841.09147  22003922.7714   22003927.7594   22003922.451
        49.0004         45.0004
 -28675679.86448 -22297541.48448  20301979.3914   20301984.5394   20301979.103
        53.0004         49.0004
  -9971206.88647  -7740388.81947  22766194.0584   22766198.5604   22766193.712
        47.0004         42.0004
   -956312.82347   -698723.94146  25277359.7934   25277367.7014   25277359.405
        42.0004         37.0004
    141346.20147    124662.26646  24264883.6584   24264892.2074   24264881.579
        42.0004         38.0004
 -11354764.75148  -8832125.78247  21909013.9724   21909017.5264   21909013.824
        50.0004         45.0004
  -8492313.87147  -6574600.53246  23713856.8174   23713865.6454   23713855.301
        45.0004         41.0004
 14  5 31  0 15  0.0000000  0 10G06G08G10G28G04G07G05G26G02G17
  -4055290.25948  -3140287.55748  21470053.2384   21470061.9044   21470052.444
        52.0004         48.0004
 -13721923.03048 -10684131.02047  20875023.1354   20875028.5554   20875023.464
        51.0004         47.0004
 -17637243.23748 -13738387.27147  22115005.8054   22115012.5534   22115006.879
        49.0004         44.0004
 -11742972.69348  -9152577.41447  21993485.2724   21993490.9284   21993485.621
        49.0004         44.0004
 -28670417.55548 -22293440.94748  20302980.6484   20302986.0164   20302980.379
        53.0004         49.0004
  -9869066.93547  -7660799.21947  22785629.7034   22785634.3124   22785630.057
        47.0004         42.0004
  -1038956.28646   -763121.25946  25261632.8464   25261642.4094   25261632.901
        41.0004         36.0004
    157514.67347    137261.15746  24267959.5194   24267968.0114   24267959.874
        42.0004         38.0004
 -11399769.10148  -8867194.02247  21900449.3944   21900452.4934   21900449.806
        50.0004         45.0004
  -8465003.08047  -6553319.32946  23719053.6274   23719062.0874   23719052.435
        46.0004         41.0004
 14  5 31  0 15 30.0000000  0 10G06G08G10G28G04G07G05G26G02G17
  -3982475.02948  -3083548.40348  21483909.5784   21483917.3474   21483908.895
        52.0004         48.0004
 -13645584.60748 -10624646.50747  20889549.9694   20889555.2804   20889550.516
        51.0004         47.0004
 -17708216.10948 -13793690.71747  22101499.9844   22101505.7904   22101500.735
        49.0004         44.0004
 -11797657.67048  -9195188.92547  21983079.2544   21983084.3544   21983079.286
        49.0004         45.0004
 -28664613.46148 -22288918.23948  20304085.4034   20304090.7084   20304084.818
        53.0004         49.0004
  -9766782.76947  -7581097.23747  22805093.6844   22805099.1734   22805093.585
        46.0004         42.0004
  -1121800.97146   -827675.34146  25245868.2384   25245876.7834   25245868.272
        41.0004         36.0004
    173714.76047    149884.67446  24271041.3194   24271051.4534   24271041.700
        42.0004         38.0004
 -11444336.61248  -8901921.86347  21891968.5604   21891972.7654   21891968.867
        50.0004         45.0004
  -8437902.78647  -6532202.11746  23724209.6884   23724219.0014   23724209.516
        46.0004         41.0004
 14  5 31  0 16  0.0000000  0 10G06G08G10G28G04G07G05G26G02G17
  -3909343.39448  -3026562.70048  21497826.0054   21497834.2794   21497825.185
        52.0004         48.0004
 -13568798.70648 -10564813.30347  20904161.5844   20904166.7854   20904162.090
        51.0004         47.0004
 -17779119.14848 -13848939.73947  22088007.7774   22088013.5994   22088008.385
        49.0004         44.0004
 -11852183.15548  -9237676.15847  21972703.0714   21972708.4394   21972703.186
        49.0004         45.0004
 -28658272.52548 -22283977.21448  20305291.8314   20305296.5864   20305291.328
        53.0004         49.0004
  -9664361.00147  -7501288.03447  22824583.8904   22824589.2644   22824583.309
        46.0004         42.0004
  -1204849.28846   -892388.10846  25230064.9314   25230072.7874   25230064.622
        41.0004         36.0004
    189940.50947    162528.20246  24274131.3964   24274140.3684   24274130.455
        42.0004         38.0004
 -11488469.99548  -8936311.42747  21883569.9324   21883574.4224   21883570.037
        50.0004         45.0004
  -8411017.29147  -6511252.30246  23729324.9144   23729336.0624   23729325.443
        46.0004         41.0004
 14  5 31  0 16 30.0000000  0 10G06G08G10G28G04G07G05G26G02G17
  -3835895.29948  -2969330.41148  21511802.7144   21511811.1524   21511802.024
        52.0004         48.0004
 -13491565.69848 -10504631.71447  20918858.8524   20918864.4674   20918859.267
        51.0004         46.0004
 -17849946.80748 -13904130.03047  22074529.5754   22074535.1544   22074530.509
        49.0004         44.0004
 -11906543.34948  -9280034.59047  21962358.0644   21962364.0614   21962358.591
        49.0004         44.0004
 -28651392.43048 -22278616.06248  20306600.9624   20306606.1474   20306600.819
        53.0004         49.0004
  -9561801.94447  -7421371.85347  22844100.2784   22844105.5094   22844100.303
        46.0004         42.0004
  -1288097.24246   -957256.43146  25214223.7364   25214230.8274   25214223.291
        40.0004         36.0004
    206192.68047    175192.29946  24277222.2704   24277231.7424   24277222.763
        43.0004         38.0004
 -11532165.55648  -8970359.83847  21875254.8994   21875259.4504   21875255.467
        50.0004         45.0004
  -8384345.07347  -6490468.67546  23734401.3774   23734410.8414   23734401.146
        46.0004         41.0004
 14  5 31  0 17  0.0000000  0 10G06G08G10G28G04G07G05G26G02G17
  -3762134.80848  -2911854.70048  21525839.0364   21525847.6124   21525838.250
        52.0004         48.0004
 -13413890.07348 -10444105.22547  20933640.1464   20933645.2474   20933640.015
        51.0004         46.0004
 -17920698.07848 -13959260.80147  22061065.0924   22061071.5134   22061067.000
        49.0004         44.0004
 -11960736.40348  -9322262.80347  21952045.9364   21952051.7284   21952045.844
        49.0004         45.0004
 -28643975.52048 -22272836.62148  20308012.4174   20308017.2984   20308012.026
        53.0004         49.0004
  -9459109.67547  -7341351.87447  22863641.6014   22863647.1654   22863642.003
        46.0004         42.0004
  -1371545.13446  -1022280.54546  25198344.7434   25198350.4544   25198342.676
        40.0004         36.0004
    222467.56547    187874.11546  24280319.3574   24280328.7234   24280319.600
        43.0004         38.0004
 -11575424.15348  -9004067.75447  21867023.1384   21867026.5544   21867023.041
        50.0004         46.0004
  -8357887.50547  -6469852.30946  23739435.8024   23739445.3364   23739435.482
        46.0004         41.0004
 14  5 31  0 17 30.0000000  0 10G06G08G10G28G04G07G05G26G02G17
  -3688064.71448  -2854137.73748  21539934.2574   21539941.5884   21539933.362
        52.0004         48.0004
 -13335774.90848 -10383236.24047  20948504.4894   20948509.6554   20948505.197
        51.0004         46.0004
 -17991370.17148 -14014329.86647  22047617.2034   22047623.5874   22047618.167
        49.0004         44.0004
 -12014760.28148  -9364359.19447  21941766.0114   21941770.9364   21941765.292
        49.0004         45.0004
 -28636023.05148 -22266639.85548  20309525.6894   20309530.9684   20309525.248
        53.0004         49.0004
  -9356287.52247  -7261230.67347  22883209.3554   22883213.3084   22883207.821
        46.0004         42.0004
  -1455191.09246  -1087459.00046  25182425.7954   25182432.8174   25182425.334
        40.0004         36.0004
    238762.97647    200571.91546  24283420.6584   24283430.2694   24283419.921
        43.0004         38.0004
 -11618245.05848  -9037434.60647  21858874.5154   21858878.5044   21858874.842
        50.0004         46.0004
  -8331646.08147  -6449404.35046  23744429.3574   23744439.1014   23744429.339
        46.0004         41.0004
 14  5 31  0 18  0.0000000  0 10G06G08G10G28G04G07G05G26G02G17
  -3613685.02748  -2796179.52648  21554087.7104   21554096.3024   21554087.153
        52.0004         48.0004
 -13257220.63048 -10322025.08747  20963453.0504   20963458.7834   20963453.321
        51.0004         46.0004
 -18061957.39348 -14069332.80147  22034185.6144   22034192.1144   22034185.862
        49.0004         44.0004
 -12068608.51048  -9406318.71247  21931518.4544   21931524.1124   21931518.576
        49.0004         45.0004
 -28627532.94948 -22260024.15548  20311141.3124   20311146.3324   20311140.929
        53.0004         49.0004
  -9253335.60947  -7181008.37246  22902799.5494   22902804.0634   22902799.188
        46.0004         41.0004
  -1539031.44146  -1152788.90446  25166470.6034   25166481.3274   25166470.281
        40.0004         36.0004
    255079.51047    213286.18946  24286525.0544   24286534.0584   24286525.498
        43.0004         38.0004
 -11660624.79148  -9070457.69747  21850809.9084   21850814.0304   21850809.851
        50.0004         46.0004
  -8305618.62747  -6429123.13546  23749382.5904   23749391.1744   23749381.206
        46.0004         41.0004
 14  5 31  0 18 30.0000000  0 10G06G08G10G28G04G07G05G26G02G17
  -3539003.68648  -2737986.26847  21568299.3124   21568307.3664   21568298.881
        52.0004         47.0004
 -13178235.65848 -10260478.32747  20978484.0114   20978488.5364   20978483.781
        51.0004         46.0004
 -18132462.03548 -14124271.39047  22020769.2994   22020774.1834   22020768.980
        49.0004         44.0004
 -12122283.30748  -9448143.09847  21921304.1154   21921309.5614   21921304.550
        49.0004         45.0004
 -28618511.47348 -22252994.39948  20312857.6084   20312862.9994   20312857.387
        53.0004         49.0004
  -9150261.94447  -7100691.20246  22922414.4314   22922418.2984   22922413.590
        46.0004         41.0004
  -1623069.82246  -1218273.12546  25150479.7314   25150486.2094   25150478.350
        40.0004         36.0004
    271409.85947    226011.20246  24289631.7634   24289642.7324   24289631.970
        42.0004         38.0004
 -11702568.06048  -9103140.68347  21842828.3414   21842832.2424   21842828.514
        50.0004         46.0004
  -8279810.97347  -6409013.18746  23754294.0034   23754302.4674   23754292.605
        46.0004         41.0004
 14  5 31  0 19  0.0000000  0 10G06G08G10G28G04G07G05G26G02G17
  -3464018.58348  -2679556.30647  21582568.5084   21582576.5944   21582567.726
        52.0004         47.0004
 -13098817.96548 -10198594.39447  20993596.0684   20993601.3454   20993596.445
        51.0004         46.0004
 -18202876.48448 -14179139.69947  22007368.7654   22007375.5614   22007369.715
        49.0004         44.0004
 -12175776.91548  -9489826.28647  21911124.7224   21911130.1184   21911124.575
        49.0004         45.0004
 -28608954.72848 -22245547.54348  20314676.3844   20314681.3744   20314676.063
        53.0004         49.0004
  -9047064.57247  -7020277.63346  22942052.3724   22942057.3254   22942051.426
        46.0004         41.0004
  -1707299.60046  -1283906.47746  25134450.1274   25134459.5244   25134449.936
        41.0004         36.0004
    287756.66247    238749.04246  24292743.5044   24292752.8674   24292743.835
        43.0004         38.0004
 -11744069.13548  -9135479.09747  21834931.1074   21834934.3664   21834930.948
        50.0004         46.0004
  -8254219.26247  -6389071.49846  23759162.7504   23759173.1154   23759161.745
        45.0004         41.0004
 14  5 31  0 19 30.0000000  0 10G06G08G10G28G04G07G05G26G02G17
  -3388734.58848  -2620893.45147  21596894.7544   21596902.6414   21596894.096
        52.0004         47.0004
 -13018973.07848 -10136377.57747  21008789.8124   21008795.2124   21008790.601
        51.0004         46.0004
 -18273200.18448 -14233937.29147  21993986.8914   21993992.6694   21993987.453
        49.0004         44.0004
 -12229088.31448  -9531367.49847  21900979.7364   21900984.2344   21900979.987
        49.0004         45.0004
 -28598866.05848 -22237686.20148  20316596.5224   20316601.2514   20316596.031
        53.0004         49.0004
  -8943748.50147  -6939771.56547  22961712.3274   22961716.7444   22961711.790
        46.0004         42.0004
  -1791721.89146  -1349689.81346  25118383.8524   25118394.3934   25118384.129
        41.0004         36.0004
    304115.60447    251496.35146  24295856.4174   24295866.3014   24295856.186
        43.0004         38.0004
 -11785129.43548  -9167474.04947  21827117.7804   21827121.4174   21827117.650
        50.0004         46.0004
  -8228846.35647  -6369300.31246  23763991.5784   23764000.3434   23763990.885
        45.0004         41.0004
 14  5 31  0 20  0.0000000  0 10G06G08G10G28G04G07G05G26G02G17
  -3313156.39548  -2562001.34948  21611276.4974   21611284.6274   21611276.165
        52.0004         48.0004
 -12938705.93648 -10073831.73147  21024064.1554   21024069.7024   21024064.593
        51.0004         46.0004
 -18343432.24548 -14288663.47447  21980620.6844   21980628.6374   21980622.622
        49.0004         44.0004
 -12282216.28448  -9572765.78647  21890869.0874   21890874.4884   21890869.463
        49.0004         45.0004
 -28588248.26048 -22229412.55548  20318616.8524   20318621.6084   20318616.340
        53.0004         49.0004
  -8840318.63647  -6859176.83046  22981394.3394   22981399.3364   22981393.790
        46.0004         41.0004
  -1876337.41546  -1415623.75246  25102281.4394   25102291.1154   25102282.317
        41.0004         36.0004
    320482.67147    264249.99846  24298970.4824   24298980.3884   24298971.101
        43.0004         38.0004
 -11825750.10148  -9199126.43047  21819387.1144   21819390.5844   21819387.540
        50.0004         46.0004
  -8203694.61147  -6349701.45946  23768777.3194   23768787.2534   23768777.105
        45.0004         41.0004
 14  5 31  0 20 30.0000000  0 10G06G08G10G28G04G07G05G26G02G17
  -3237282.90548  -2502879.14047  21625714.6104   21625723.0094   21625714.149
        52.0004         47.0004
 -12858015.98548 -10010956.42747  21039419.1954   21039424.4294   21039419.512
        51.0004         46.0004
 -18413565.89348 -14343312.98247  21967276.9004   21967281.0004   21967276.262
        49.0004         45.0004
 -12335153.96648  -9614015.79847  21880796.1444   21880800.7664   21880796.026
        49.0004         45.0004
 -28577098.50748 -22220724.39248  20320738.4174   20320743.0334   20320738.157
        53.0004         49.0004
  -8736773.86147  -6778492.55046  23001098.4024   23001103.7694   23001097.588
        46.0004         41.0004
  -1961140.39646  -1481703.76846  25086145.3894   25086152.4404   25086144.638
        41.0004         36.0004
    336859.63947    277011.35646  24302087.0824   24302095.9154   24302087.432
        43.0004         38.0004
 -11865926.85948  -9230432.90147  21811741.8354   21811745.3454   21811742.350
        50.0004         46.0004
  -8178760.54147  -6330272.21346  23773521.7984   23773531.5084   23773521.320
        45.0004         41.0004
 14  5 31  0 21  0.0000000  0 10G06G08G10G28G04G07G05G26G02G17
  -3161121.07348  -2443532.25347  21640207.4094   21640215.6174   21640206.985
        52.0004         47.0004
 -12776910.80048  -9947757.55947  21054852.8704   21054859.1474   21054853.157
        51.0004         46.0004
 -18483602.52048 -14397886.88947  21953948.1314   21953954.4564   21953949.430
        49.0004         45.0004
 -12387902.79248  -9655118.65447  21870758.0924   21870763.0784   21870758.089
        49.0004         45.0004
 -28565422.31448 -22211626.01948  20322960.4414   20322964.9514   20322960.016
        53.0004         49.0004
  -8633121.57747  -6697724.49846  23020821.4774   23020826.1894   23020821.747
        46.0004         41.0004
  -2046133.73146  -1547932.12146  25069971.1904   25069981.2704   25069970.544
        41.0004         36.0004
    353240.12547    289775.46246  24305203.8414   24305213.8404   24305203.439
        43.0004         38.0004
 -11905663.18548  -9261396.18347  21804180.1634   21804183.4404   21804180.600
        50.0004         46.0004
  -8154049.03047  -6311016.39446  23778224.8044   23778233.5274   23778224.190
        45.0004         41.0004
 14  5 31  0 21 30.0000000  0 10G06G08G10G28G04G07G05G26G02G17
  -3084670.12548  -2383960.07347  21654755.6924   21654764.4024   21654755.654
        52.0004         47.0004
 -12695389.82348  -9884234.70747  21070366.0214   21070371.3874   21070366.068
        51.0004         46.0004
 -18553535.88048 -14452380.32947  21940640.3954   21940646.0224   21940641.370
        49.0004         45.0004
 -12440456.05148  -9696069.12847  21860756.8074   21860762.9704   21860757.530
        49.0004         45.0004
 -28553217.09348 -22202115.41748  20325282.7624   20325287.8784   20325282.536
        53.0004         49.0004
  -8529360.89147  -6616871.98146  23040566.3934   23040572.4634   23040566.778
        46.0004         41.0004
  -2131312.29546  -1614304.77346  25053760.8364   25053770.7794   25053761.474
        41.0004         37.0004
    369625.51347    302543.40246  24308322.5454   24308331.4004   24308323.062
        43.0004         38.0004
 -11944955.05748  -9292013.13547  21796703.0544   21796706.4844   21796703.473
        50.0004         46.0004
  -8129557.95647  -6291932.33746  23782885.1484   23782894.3794   23782884.606
        45.0004         41.0004
 14  5 31  0 22  0.0000000  0 10G06G08G10G28G04G07G05G26G02G17
  -3007934.08148  -2324165.74947  21669358.4394   21669366.7224   21669357.830
        52.0004         47.0004
 -12613457.38148  -9820391.22147  21085957.3244   21085962.8794   21085957.522
        51.0004         46.0004
 -18623364.11148 -14506791.85247  21927351.6814   21927358.7214   21927352.906
        49.0004         45.0004
 -12492811.84648  -9736865.73147  21850794.1854   21850798.8404   21850794.534
        50.0004         45.0004
 -28540485.21948 -22192194.43548  20327705.7154   20327710.7794   20327705.269
        53.0004         49.0004
  -8425495.34647  -6535937.74346  23060332.5544   23060337.8464   23060331.595
        46.0004         41.0004
  -2216675.60246  -1680821.39646  25037517.8444   25037526.5714   25037517.406
        41.0004         37.0004
    386012.33447    315312.44146  24311439.7664   24311450.0774   24311439.613
        42.0004         38.0004
 -11983803.18448  -9322284.31547  21789310.4024   21789313.8584   21789310.942
        50.0004         46.0004
  -8105289.04247  -6273021.38346  23787503.0224   23787512.2004   23787502.439
        45.0004         41.0004
 14  5 31  0 22 30.0000000  0 10G06G08G10G28G04G07G05G26G02G17
  -2930917.61248  -2264152.90847  21684014.4694   21684022.1444   21684013.450
        52.0004         47.0004
 -12531118.79548  -9756231.27147  21101625.3824   21101630.6484   21101625.928
        51.0004         46.0004
 -18693086.29048 -14561120.73247  21914085.0004   21914091.0854   21914085.425
        49.0004         45.0004
 -12544969.09548  -9777507.62947  21840869.3484   21840874.2624   21840869.376
        50.0004         45.0004
 -28527229.86948 -22181865.54648  20330227.6134   20330232.7004   20330227.647
        53.0004         49.0004
  -8321530.78747  -6454926.36346  23080115.5394   23080121.3914   23080115.349
        46.0004         41.0004
  -2302224.43147  -1747482.57046  25021238.9464   25021246.5204   25021238.506
        42.0004         37.0004
    402396.76247    328079.62746  24314558.6234   24314567.6674   24314558.918
        42.0004         38.0004
 -12022208.92648  -9352210.78547  21782001.8094   21782005.9584   21782002.523
        50.0004         46.0004
  -8081244.55847  -6254285.31846  23792078.2764   23792087.3654   23792078.303
        46.0004         41.0004
 14  5 31  0 23  0.0000000  0 10G06G08G10G28G04G07G05G26G02G17
  -2853621.53248  -2203922.19347  21698723.0074   21698731.1124   21698722.471
        52.0004         47.0004
 -12448375.15948  -9691755.69547  21117371.1254   21117376.3034   21117371.488
        51.0004         46.0004
 -18762697.54748 -14615363.18747  21900838.3324   21900843.8404   21900838.684
        49.0004         45.0004
 -12596922.69548  -9817990.83447  21830982.0784   21830988.3834   21830982.521
        50.0004         45.0004
 -28513450.41249 -22171128.26248  20332850.1914   20332854.9304   20332849.820
        54.0004         49.0004
  -8217467.79647  -6373838.29046  23099917.6834   23099923.5464   23099917.790
        45.0004         41.0004
  -2387955.46547  -1814285.73346  25004925.1354   25004931.4214   25004923.806
        42.0004         37.0004
    418778.51147    340844.71246  24317675.1244   24317684.8204   24317675.088
        42.0004         38.0004
 -12060169.82148  -9381790.61547  21774778.2384   21774781.5934   21774778.198
        50.0004         46.0004
  -8057423.26947  -6235723.15846  23796610.9614   23796619.6714   23796610.902
        45.0004         41.0004
 14  5 31  0 23 30.0000000  0 10G06G08G10G28G04G07G05G26G02G17
  -2776049.09848  -2143476.13347  21713484.8944   21713493.0984   21713483.959
        52.0004         47.0004
 -12365230.07048  -9626967.29847  21133192.8244   21133198.0324   21133193.160
        51.0004         46.0004
 -18832195.48548 -14669517.35447  21887612.9134   21887618.2544   21887613.478
        49.0004         45.0004
 -12648670.22048  -9858313.47647  21821135.0934   21821140.0254   21821135.489
        50.0004         45.0004
 -28499148.21749 -22159983.65648  20335571.4394   20335576.6214   20335571.375
        54.0004         49.0004
  -8113309.71547  -6292676.12446  23119738.7474   23119743.4464   23119738.342
        45.0004         41.0004
  -2473867.36646  -1881229.81646  24988574.6484   24988584.7874   24988574.664
        41.0004         37.0004
    435155.14847    353605.82846  24320792.0734   24320801.8924   24320791.699
        42.0004         38.0004
 -12097685.68948  -9411023.67047  21767638.8464   21767641.9734   21767639.407
        50.0004         46.0004
  -8033825.99247  -6217335.56846  23801101.2164   23801111.0994   23801101.203
        45.0004         41.0004
 14  5 31  0 24  0.0000000  0 10G06G08G10G28G04G07G05G26G02G17
  -2698203.40448  -2082817.14447  21728298.4674   21728306.4764   21728297.620
        51.0004         47.0004
 -12281687.41948  -9561869.11947  21149091.2114   21149095.9504   21149091.353
        51.0004         46.0004
 -18901577.58148 -14723581.24947  21874409.9964   21874415.5864   21874410.781
        49.0004         45.0004
 -12700208.50748  -9898473.06947  21811327.0184   21811332.4514   21811327.680
        50.0004         45.0004
 -28484325.07549 -22148433.11048  20338392.8214   20338397.4924   20338392.153
        54.0004         49.0004
  -8009059.46547  -6211442.12546  23139576.5494   23139582.1444   23139576.913
        46.0004         41.0004
  -2559959.08646  -1948314.03546  24972192.1844   24972201.5314   24972191.109
        41.0004         37.0004
    451524.01347    366360.87846  24323906.5244   24323915.9944   24323907.287
        42.0004         38.0004
 -12134756.15748  -9439909.66747  21760585.6184   21760587.8044   21760585.059
        50.0004         46.0004
  -8010453.87047  -6199123.40446  23805549.8874   23805557.5104   23805548.710
        45.0004         41.0004
 14  5 31  0 24 30.0000000  0 10G06G08G10G28G04G07G05G26G02G17
  -2620085.94848  -2021946.39447  21743163.7174   21743172.1294   21743163.224
        52.0004         47.0004
 -12197748.89048  -9496462.45947  21165063.1854   21165068.8404   21165063.971
        50.0004         46.0004
 -18970839.89948 -14777551.81447  21861229.5354   21861236.3394   21861230.381
        50.0004         45.0004
 -12751533.98848  -9938466.84947  21801560.4184   21801565.9834   21801561.106
        50.0004         45.0004
 -28468980.92149 -22136476.59048  20341312.1154   20341317.4374   20341311.951
        54.0004         49.0004
  -7904718.76847  -6130137.65546  23159432.9674   23159436.9114   23159432.202
        45.0004         41.0004
  -2646227.39046  -2015535.83246  24955774.9244   24955784.0234   24955774.859
        41.0004         36.0004
    467884.33947    379109.26946  24327019.5614   24327028.9794   24327019.279
        43.0004         38.0004
 -12171380.11048  -9468447.73747  21753615.0424   21753618.4584   21753616.025
        50.0004         46.0004
  -7987305.79547  -6181085.82646  23809954.4574   23809963.0304   23809953.894
        45.0004         41.0004
 14  5 31  0 25  0.0000000  0 10G06G08G10G28G04G07G05G26G02G17
  -2541702.58248  -1960868.43547  21758079.6164   21758087.3424   21758079.020
        52.0004         47.0004
 -12113420.82648  -9430752.26647  21181110.1014   21181116.0084   21181111.241
        50.0004         46.0004
 -19039982.30448 -14831428.94547  21848072.5904   21848078.7824   21848072.800
        50.0004         45.0004
 -12802646.36148  -9978294.56247  21791834.6304   21791839.6524   21791834.333
        50.0004         45.0004
 -28453119.87949 -22124117.29748  20344330.7214   20344335.4874   20344330.386
        54.0004         49.0004
  -7800293.31947  -6048767.12446  23179303.9614   23179309.0674   23179303.473
        45.0004         41.0004
  -2732673.93346  -2082896.53046  24939324.5764   24939333.9134   24939323.594
        41.0004         37.0004
    484231.04747    391847.05346  24330130.8764   24330139.0034   24330130.936
        43.0004         38.0004
 -12207559.76148  -9496639.59847  21746730.5584   21746733.9304   21746730.883
        50.0004         46.0004
  -7964386.05747  -6163226.16846  23814315.5354   23814324.4464   23814315.169
        45.0004         41.0004
 14  5 31  0 25 30.0000000  0 10G06G08G10G28G04G07G05G26G02G17
  -2463053.70848  -1899583.59847  21773045.9094   21773053.6614   21773045.161
        51.0004         47.0004
 -12028704.05348  -9364739.19147  21197231.4744   21197237.5574   21197231.921
        50.0004         46.0004
 -19108999.42748 -14885208.46047  21834938.5244   21834944.5564   21834939.297
        50.0004         45.0004
 -12853540.10148 -10017951.91547  21782148.8744   21782154.3784   21782150.089
        50.0004         45.0004
 -28436741.29949 -22111354.73048  20347447.1114   20347452.2704   20347446.880
        54.0004         49.0004
  -7695783.74647  -5967331.06146  23199191.4644   23199196.5634   23199190.807
        45.0004         41.0004
  -2819294.93946  -2150393.16046  24922840.3944   24922850.9004   24922841.276
        41.0004         37.0004
    500564.33247    404574.39146  24333239.1744   24333247.3174   24333238.181
        43.0004         38.0004
 -12243292.35148  -9524483.10147  21739931.1444   21739934.2284   21739931.402
        50.0004         46.0004
  -7941692.62147  -6145542.84246  23818634.4354   23818642.3964   23818633.226
        46.0004         41.0004
 14  5 31  0 26  0.0000000  0 10G06G08G10G28G04G07G05G26G02G17
  -2384143.22748  -1838094.90747  21788062.4794   21788069.8344   21788061.339
        51.0004         47.0004
 -11943603.04748  -9298426.70947  21213425.9434   21213430.4154   21213426.173
        50.0004         46.0004
 -19177889.59048 -14938889.04247  21821829.5314   21821834.7864   21821829.856
        50.0004         45.0004
 -12904213.45548 -10057437.54647  21772506.7074   21772511.6424   21772507.013
        50.0004         45.0004
 -28419847.30749 -22098190.54348  20350661.8074   20350666.8724   20350661.611
        54.0004         49.0004
  -7591194.14047  -5885832.63246  23219094.3404   23219098.8434   23219093.744
        45.0004         41.0004
  -2906090.01846  -2218025.45746  24906325.6724   24906331.7324   24906324.126
        41.0004         37.0004
    516881.08547    417288.80846  24336344.0604   24336354.0854   24336344.182
        43.0004         38.0004
 -12278578.58748  -9551978.79847  21733215.6954   21733219.3624   21733216.100
        50.0004         46.0004
  -7919226.84847  -6128036.92146  23822908.2134   23822918.1964   23822908.672
        45.0004         41.0004
 14  5 31  0 26 30.0000000  0 10G06G08G10G28G04G07G05G26G02G17
  -2304973.33548  -1776404.08347  21803127.8274   21803135.2214   21803126.609
        51.0004         47.0004
 -11858120.43448  -9231816.87347  21229692.6724   21229697.6854   21229693.290
        50.0004         46.0004
 -19246649.23748 -14992467.92547  21808744.4964   21808750.5014   21808745.539
        50.0004         45.0004
 -12954662.66048 -10096748.51347  21762906.1184   21762910.4264   21762906.340
        50.0004         45.0004
 -28402438.66849 -22084625.33848  20353974.7974   20353979.6434   20353974.546
        54.0004         49.0004
  -7486526.28447  -5804273.22746  23239012.1944   23239015.6854   23239011.472
        45.0004         41.0004
  -2993056.35346  -2285791.16946  24889776.4284   24889786.9094   24889775.659
        41.0004         37.0004
    533179.75447    429989.17046  24339445.3374   24339454.5924   24339444.193
        43.0004         38.0004
 -12313417.41048  -9579125.86847  21726587.1334   21726589.9574   21726587.294
        50.0004         46.0004
  -7896988.50647  -6110708.22346  23827140.6504   23827149.8754   23827139.810
        45.0004         41.0004
 14  5 31  0 27  0.0000000  0 10G06G08G10G28G04G07G05G26G02G17
  -2225547.27948  -1714513.64847  21818242.1864   21818249.9534   21818241.186
        51.0004         47.0004
 -11772259.86348  -9164912.52647  21246031.4484   21246036.3694   21246031.541
        50.0004         46.0004
 -19315275.98448 -15045943.26047  21795685.2904   21795691.1814   21795686.048
        50.0004         45.0004
 -13004884.97648 -10135882.68447  21753348.4414   21753354.4974   21753349.401
        50.0004         45.0004
 -28384517.51449 -22070660.77348  20357385.2364   20357389.7314   20357384.669
        54.0004         49.0004
  -7381783.80347  -5722655.68446  23258943.8294   23258947.9204   23258943.417
        45.0004         41.0004
  -3080193.37246  -2353689.89946  24873195.0294   24873201.5444   24873194.731
        41.0004         37.0004
    549457.92747    442673.57846  24342542.1024   24342552.8074   24342543.110
        43.0004         38.0004
 -12347808.85848  -9605924.33647  21720042.2284   21720045.1374   21720041.801
        50.0004         46.0004
  -7874978.80947  -6093557.69146  23831328.8234   23831337.6294   23831328.105
        45.0004         41.0004
 14  5 31  0 27 30.0000000  0 10G06G08G10G28G04G07G05G26G02G17
  -2145868.11648  -1652425.98147  21833404.0964   21833412.4934   21833403.353
        51.0004         47.0004
 -11686024.94648  -9097716.47747  21262441.8564   21262446.4554   21262441.691
        50.0004         45.0004
 -19383767.27348 -15099313.03847  21782651.7844   21782656.9024   21782652.637
        50.0004         45.0004
 -13054877.43448 -10174837.75147  21743836.0354   21743840.5274   21743835.953
        50.0004         45.0004
 -28366085.13449 -22056297.85148  20360892.9804   20360898.0134   20360892.293
        54.0004         49.0004
  -7276969.42247  -5640982.10346  23278889.0654   23278894.5324   23278889.143
        45.0004         41.0004
  -3167499.78447  -2421720.62246  24856579.4704   24856587.1604   24856580.572
        42.0004         37.0004
    565713.15547    455340.08246  24345635.7964   24345644.6294   24345636.074
        43.0004         38.0004
 -12381753.12248  -9632374.34547  21713582.4814   21713585.7514   21713583.006
        51.0004         46.0004
  -7853198.49547  -6076585.89146  23835473.6694   23835482.3234   23835472.856
        45.0004         41.0004
 14  5 31  0 28  0.0000000  0 10G06G08G10G28G04G07G05G26G02G17
  -2065938.95948  -1590143.52447  21848614.5794   21848621.9734   21848613.503
        51.0004         47.0004
 -11599419.39048  -9030231.62647  21278921.8434   21278927.5214   21278922.552
        50.0004         46.0004
 -19452120.51648 -15152575.25947  21769644.1964   21769650.4424   21769645.281
        50.0004         45.0004
 -13104637.75648 -10213611.92547  21734367.2444   21734371.6844   21734366.766
        50.0004         45.0004
 -28347143.30749 -22041537.95848  20364496.9194   20364501.8854   20364496.566
        54.0004         49.0004
  -7172086.57747  -5559255.18146  23298848.8164   23298851.8034   23298847.494
        45.0004         40.0004
  -3254973.89247  -2489882.04746  24839933.4634   24839942.0684   24839934.367
        42.0004         37.0004
    581943.05447    467986.86246  24348723.4624   24348731.7744   24348723.099
        42.0004         38.0004
 -12415250.08048  -9658475.81147  21707208.2314   21707211.7344   21707208.428
        51.0004         46.0004
  -7831648.50047  -6059793.55746  23839574.4974   23839583.3664   23839573.761
        46.0004         41.0004
 14  5 31  0 28 30.0000000  0 10G06G08G10G28G04G07G05G26G02G17
  -1985766.07248  -1527671.15447  21863871.1004   21863878.8784   21863869.761
        51.0004         47.0004
 -11512449.81248  -8962463.10947  21295471.5624   21295477.1104   21295472.062
        50.0004         45.0004
 -19520336.16248 -15205730.25147  21756663.3914   21756669.0774   21756664.136
        50.0004         45.0004
 -13154166.57348 -10252205.71247  21724941.3214   21724945.9284   21724942.035
        50.0004         45.0004
 -28327697.15648 -22026385.08448  20368197.5494   20368202.3394   20368196.878
        53.0004         49.0004
  -7067141.49047  -5477479.75346  23318818.3534   23318822.1474   23318817.798
        45.0004         40.0004
  -3342617.56247  -2558175.58246  24823255.1114   24823262.2204   24823256.324
        42.0004         37.0004
    598142.12147    480609.60046  24351807.1174   24351814.9094   24351807.137
        43.0004         38.0004
 -12448302.77548  -9684231.10047  21700918.3714   21700921.3784   21700918.552
        51.0004         46.0004
  -7810333.09247  -6043184.01646  23843631.0634   23843640.0454   23843629.976
        46.0004         41.0004
 14  5 31  0 29  0.0000000  0 10G06G08G10G28G04G07G05G26G02G17
  -1905343.47648  -1465004.20847  21879174.7164   21879182.8534   21879173.828
        51.0004         47.0004
 -11425110.64648  -8894406.61747  21312091.7034   21312096.8754   21312092.386
        50.0004         45.0004
 -19588402.28748 -15258768.74947  21743711.3434   21743717.4604   21743711.879
        50.0004         45.0004
 -13203451.61848 -10290609.55247  21715561.9024   21715567.2764   21715562.922
        50.0004         45.0004
 -28307739.08048 -22010833.31048  20371995.5114   20372000.3244   20371995.231
        53.0004         49.0004
  -6962127.79547  -5395650.86646  23338800.9074   23338806.0664   23338801.475
        45.0004         40.0004
  -3430420.37946  -2626593.14646  24806547.5294   24806554.5804   24806547.788
        41.0004         37.0004
    614317.05647    493213.53346  24354883.9004   24354892.7284   24354884.246
        43.0004         38.0004
 -12480902.23148  -9709633.22247  21694714.3934   21694718.4364   21694715.252
        51.0004         46.0004
  -7789243.48747  -6026750.42646  23847643.3524   23847652.3134   23847642.947
        46.0004         41.0004
 14  5 31  0 29 30.0000000  0 10G06G08G10G28G04G07G05G26G02G17
  -1824678.93348  -1402148.72047  21894524.4154   21894532.4484   21894523.671
        51.0004         47.0004
 -11337410.52448  -8826068.85247  21328780.8664   21328785.5884   21328780.710
        50.0004         45.0004
 -19656321.03348 -15311692.39547  21730786.6004   21730792.2914   21730787.188
        50.0004         45.0004
 -13252495.10948 -10328825.14847  21706230.4754   21706235.4744   21706230.553
        50.0004         45.0004
 -28287275.79048 -21994887.86748  20375889.4364   20375893.9554   20375888.857
        53.0004         49.0004
  -6857053.65647  -5313774.87546  23358796.9894   23358801.0334   23358796.245
        45.0004         40.0004
  -3518385.78546  -2695137.41446  24789809.6924   24789815.7614   24789808.271
        41.0004         37.0004
    630460.79347    505793.19646  24357956.0474   24357965.3914   24357955.604
        43.0004         38.0004
 -12513053.22348  -9734685.88747  21688596.9184   21688599.9904   21688597.116
        51.0004         46.0004
  -7768385.02347  -6010496.95246  23851611.9684   23851620.8894   23851611.719
        46.0004         41.0004
 14  5 31  0 30  0.0000000  0 10G06G08G10G28G04G07G05G26G02G17
  -1743776.74548  -1339108.06147  21909919.7654   21909927.6444   21909918.815
        51.0004         46.0004
 -11249353.76748  -8757453.18947  21345537.4164   21345542.5364   21345537.679
        50.0004         45.0004
 -19724090.97948 -15364500.09647  21717890.5044   21717895.5904   21717890.977
        50.0004         45.0004
 -13301295.14648 -10366851.05547  21696943.5124   21696949.0524   21696943.698
        50.0004         45.0004
 -28266310.01548 -21978550.87148  20379878.9344   20379884.0754   20379878.755
        53.0004         49.0004
  -6751923.34947  -5231855.13046  23378802.1724   23378806.6064   23378801.455
        45.0004         40.0004
  -3606513.36246  -2763808.05246  24773038.5984   24773045.3094   24773037.831
        41.0004         37.0004
    646570.02047    518345.95546  24361022.1284   24361029.7794   24361022.379
        43.0004         38.0004
 -12544756.71348  -9759389.85147  21682563.6624   21682566.6914   21682564.404
        51.0004         46.0004
  -7747759.69947  -5994425.14246  23855537.5034   23855546.8454   23855536.644
        46.0004         41.0004
 14  5 31  0 30 30.0000000  0 10G06G08G10G28G04G07G05G26G02G17
  -1662636.44448  -1275881.86347  21925359.8844   21925368.3494   21925359.531
        51.0004         46.0004
 -11160940.63548  -8688559.83347  21362361.8324   21362366.8554   21362362.235
        50.0004         45.0004
 -19791705.99548 -15417187.07047  21705023.4494   21705029.6594   21705024.085
        50.0004         45.0004
 -13349845.85648 -10404682.67047  21687704.1614   21687709.3954   21687704.869
        50.0004         45.0004
 -28244840.19548 -21961821.11448  20383964.3504   20383969.1544   20383964.101
        53.0004         49.0004
  -6646736.14547  -5149891.03946  23398818.0174   23398822.3104   23398818.077
        45.0004         40.0004
  -3694798.09946  -2832601.16946  24756238.0094   24756245.1074   24756237.045
        41.0004         37.0004
    662645.71247    530872.58946  24364081.1054   24364090.4224   24364080.825
        43.0004         38.0004
 -12576009.24848  -9783742.41747  21676616.7684   21676620.3334   21676616.850
        51.0004         46.0004
  -7727364.76447  -5978532.85646  23859417.9154   23859427.3984   23859417.688
        46.0004         41.0004
 14  5 31  0 31  0.0000000  0 10G06G08G10G28G04G07G05G26G02G17
  -1581264.45848  -1212475.13147  21940844.7254   21940852.4494   21940844.168
        51.0004         47.0004
 -11072178.15048  -8619394.25147  21379252.1834   21379258.3244   21379252.757
        50.0004         45.0004
 -19859166.55448 -15469753.69447  21692186.1974   21692191.9074   21692186.744
        50.0004         45.0004
 -13398147.58348 -10442320.28447  21678513.8114   21678517.8334   21678513.934
        50.0004         45.0004
 -28222871.61748 -21944702.71848  20388145.0184   20388149.6964   20388144.613
        53.0004         49.0004
  -6541498.55847  -5067887.69646  23418845.6074   23418848.1844   23418844.521
        45.0004         40.0004
  -3783242.15646  -2901518.42946  24739407.0554   24739414.1244   24739406.247
        41.0004         37.0004
    678682.30647    543368.75946  24367131.2644   24367141.8084   24367131.831
        43.0004         38.0004
 -12606814.59248  -9807746.52847  21670754.5814   21670757.6714   21670755.190
        51.0004         46.0004
  -7707204.31647  -5962823.28946  23863254.0304   23863262.8364   23863253.908
        46.0004         41.0004
 14  5 31  0 31 30.0000000  0 10G06G08G10G28G04G07G05G26G02G17
  -1499659.20348  -1148886.61847  21956373.9144   21956381.5724   21956373.119
        51.0004         47.0004
 -10983065.13548  -8549955.53347  21396210.2474   21396215.3284   21396210.427
        50.0004         45.0004
 -19926465.43248 -15522194.31647  21679380.1004   21679385.7284   21679380.458
        50.0004         45.0004
 -13446193.06748 -10479758.22647  21669370.4554   21669375.0214   21669370.399
        50.0004         45.0004
 -28200401.16348 -21927193.24648  20392421.2274   20392425.3864   20392420.635
        53.0004         49.0004
  -6436208.61047  -4985843.54546  23438880.7854   23438885.8564   23438880.267
        45.0004         40.0004
  -3871839.60046  -2970555.20746  24722547.0094   24722553.8584   24722546.768
        41.0004         37.0004
    694682.19247    555836.31846  24370177.4264   24370186.1674   24370176.961
        43.0004         38.0004
 -12637167.88148  -9831398.38947  21664978.0584   21664981.7894   21664978.414
        51.0004         46.0004
  -7687274.26347  -5947293.24746  23867048.2454   23867054.5394   23867046.300
        45.0004         41.0004
 14  5 31  0 32  0.0000000  0 10G06G08G10G28G04G07G05G26G02G17
  -1417827.54648  -1085121.70047  21971946.1564   21971953.9774   21971945.166
        51.0004         47.0004
 -10893609.07048  -8480249.50347  21413233.2004   21413238.6514   21413233.498
        50.0004         45.0004
 -19993603.53448 -15574509.66847  21666604.0234   21666609.1314   21666604.299
        50.0004         45.0004
 -13493983.00648 -10516997.04147  21660276.6454   21660280.5474   21660276.509
        50.0004         45.0004
 -28177434.69548 -21909297.27348  20396791.2764   20396795.8684   20396790.930
        53.0004         49.0004
  -6330873.52547  -4903764.22146  23458925.3164   23458929.5194   23458924.321
        44.0004         40.0004
  -3960592.44447  -3039713.09146  24705658.1574   24705665.0214   24705656.906
        42.0004         37.0004
    710639.12947    568270.39346  24373213.6214   24373221.8254   24373213.015
        43.0004         38.0004
 -12667073.23848  -9854701.20447  21659287.6354   21659290.8464   21659288.093
        51.0004         46.0004
  -7667579.02247  -5931946.14946  23870794.7174   23870802.4474   23870794.194
        45.0004         41.0004
 14  5 31  0 32 30.0000000  0 10G06G08G10G28G04G07G05G26G02G17
  -1335773.34248  -1021183.36347  21987559.8594   21987568.5354   21987559.511
        51.0004         46.0004
 -10803814.19748  -8410279.46347  21430319.4354   21430325.8464   21430320.991
        50.0004         45.0004
 -20060579.08248 -15626698.34747  21653858.3014   21653864.3344   21653859.423
        50.0004         45.0004
 -13541515.33148 -10554035.12247  21651230.2084   21651235.8464   21651231.228
        50.0004         45.0004
 -28153974.84048 -21891016.83848  20401255.6874   20401260.3514   20401255.250
        53.0004         49.0004
  -6225496.92747  -4821652.55246  23478977.4424   23478981.3814   23478977.105
        44.0004         40.0004
  -4049499.93246  -3108991.47146  24688738.7204   24688747.1724   24688738.533
        41.0004         37.0004
    726550.19547    580668.73746  24376241.9754   24376250.5134   24376240.399
        43.0004         38.0004
 -12696531.22048  -9877655.42147  21653681.4934   21653685.0554   21653682.000
        51.0004         46.0004
  -7648119.53647  -5916782.76646  23874497.5354   23874505.9854   23874497.072
        45.0004         41.0004
 14  5 31  0 33  0.0000000  0 10G06G08G10G28G04G07G05G26G02G17
  -1253495.82148   -957071.01547  22003217.2684   22003225.2904   22003216.361
        51.0004         46.0004
 -10713680.51948  -8340045.42347  21447472.3604   21447477.4254   21447472.774
        50.0004         45.0004
 -20127385.63148 -15678755.33947  21641145.3384   21641151.5154   21641146.010
        50.0004         46.0004
 -13588784.01348 -10590867.76647  21642235.6784   21642240.7144   21642236.360
        50.0004         45.0004
 -28130019.52048 -21872350.32948  20405814.1514   20405818.7094   20405813.866
        53.0004         49.0004
  -6120077.90447  -4739507.82246  23499038.1664   23499042.2324   23499037.615
        44.0004         40.0004
  -4138556.46847  -3178385.99246  24671792.8624   24671800.4464   24671791.720
        42.0004         37.0004
    742416.93447    593032.57146  24379261.4534   24379269.7264   24379260.677
        43.0004         38.0004
 -12725538.21148  -9900258.21047  21648162.0504   21648165.0514   21648162.526
        51.0004         46.0004
  -7628892.92647  -5901800.85146  23878155.4864   23878163.9764   23878156.002
        45.0004         41.0004
 14  5 31  0 33 30.0000000  0 10G06G08G10G28G04G07G05G26G02G17
  -1170998.94248   -892787.74047  22018915.8864   22018923.1504   22018914.987
        51.0004         46.0004
 -10623212.63448  -8269550.96547  21464687.4534   21464693.3304   21464688.142
        50.0004         45.0004
 -20194021.29748 -15730679.17747  21628465.3514   21628470.8274   21628465.833
        50.0004         46.0004
 -13635786.87748 -10627493.27047  21633291.2134   21633296.6964   21633291.476
        50.0004         45.0004
 -28105571.95748 -21853300.25448  20410466.4254   20410470.8644   20410466.002
        53.0004         49.0004
  -6014620.37747  -4657333.09246  23519106.5414   23519111.1124   23519105.530
        44.0004         40.0004
  -4227762.06447  -3247896.66346  24654816.4484   24654823.5454   24654816.296
        42.0004         37.0004
    758236.06147    605359.25746  24382269.7764   24382279.9564   24382270.258
        43.0004         38.0004
 -12754095.40448  -9922510.51747  21642727.0564   21642730.6084   21642727.832
        51.0004         46.0004
  -7609901.44547  -5887002.15346  23881770.9994   23881778.0004   23881769.173
        45.0004         40.0004
 14  5 31  0 34  0.0000000  0 10G06G08G10G28G04G07G05G26G02G17
  -1088287.68948   -828337.41747  22034655.4114   22034663.2204   22034654.131
        51.0004         46.0004
 -10532415.65648  -8198800.06347  21481966.1234   21481971.3894   21481966.717
        50.0004         45.0004
 -20260485.22848 -15782469.18547  21615817.3664   21615823.6314   21615818.128
        50.0004         46.0004
 -13682523.11448 -10663911.02547  21624398.1144   21624402.8364   21624398.430
        50.0004         46.0004
 -28080635.60248 -21833869.30148  20415211.6544   20415216.4624   20415211.281
        53.0004         49.0004
  -5909129.25447  -4575132.18646  23539181.1834   23539185.6344   23539179.641
        44.0004         40.0004
  -4317116.84447  -3317523.58446  24637812.8974   24637819.2274   24637812.700
        42.0004         38.0004
    774003.46747    617645.64346  24385271.4864   24385280.2854   24385270.990
        43.0004         38.0004
 -12782204.83148  -9944413.90647  21637378.8274   21637381.8284   21637379.148
        51.0004         46.0004
  -7591146.92647  -5872388.10146  23885338.2454   23885347.2584   23885338.004
        45.0004         40.0004
 14  5 31  0 34 30.0000000  0 10G06G08G10G28G04G07G05G26G02G17
  -1005360.94848   -763719.18347  22050435.9664   22050443.7654   22050434.732
        51.0004         46.0004
 -10441289.33448  -8127792.52947  21499306.7194   21499311.9154   21499307.030
        49.0004         45.0004
 -20326770.47548 -15834119.96447  21603203.7904   21603209.1244   21603204.592
        50.0004         46.0004
 -13728985.92548 -10700115.71747  21615555.9964   21615561.2304   21615556.414
        50.0004         46.0004
 -28055208.13448 -21814055.66248  20420050.2094   20420055.0964   20420049.936
        53.0004         49.0004
  -5803603.19047  -4492904.04646  23559261.7374   23559264.5384   23559260.656
        44.0004         40.0004
  -4406615.17547  -3387262.37546  24620783.0084   24620789.8774   24620781.976
        43.0004         38.0004
    789721.03647    629893.20046  24388262.7974   24388270.9404   24388261.986
        43.0004         38.0004
 -12809862.47148  -9965965.25947  21632115.6204   21632118.1174   21632115.676
        51.0004         46.0004
  -7572625.80347  -5857955.90646  23888862.9604   23888871.6304   23888862.176
        45.0004         40.0004
 14  5 31  0 35  0.0000000  0 10G06G08G10G28G04G07G05G26G02G17
   -922225.37448   -698938.22147  22066255.6364   22066263.2374   22066255.119
        51.0004         46.0004
 -10349840.68548  -8056533.83847  21516708.6394   21516713.8104   21516709.423
        49.0004         45.0004
 -20392877.90948 -15885632.18647  21590624.0914   21590629.3504   21590624.653
        50.0004         46.0004
 -13775176.07848 -10736107.94547  21606766.8824   21606771.6994   21606766.943
        50.0004         46.0004
 -28029295.45648 -21793863.94248  20424981.5184   20424985.8334   20424980.896
        53.0004         49.0004
  -5698048.88647  -4410653.90746  23579346.5994   23579351.0134   23579346.640
        44.0004         39.0004
  -4496259.02647  -3457114.55146  24603723.6044   24603731.2204   24603723.318
        43.0004         38.0004
    805383.07847    642097.48646  24391242.7044   24391249.5184   24391242.440
        43.0004         38.0004
 -12837072.18348  -9987167.57647  21626937.5114   21626940.9474   21626938.035
        51.0004         46.0004
  -7554342.28647  -5843708.85746  23892341.6844   23892351.1664   23892341.560
        45.0004         40.0004
 14  5 31  0 35 30.0000000  0 10G06G08G10G28G04G07G05G26G02G17
   -838882.57748   -633995.78647  22082114.9934   22082122.9144   22082114.729
        51.0004         46.0004
 -10258071.93748  -7985025.71447  21534171.4504   21534177.0164   21534171.969
        49.0004         45.0004
 -20458803.47548 -15937002.69047  21578079.5504   21578084.2324   21578079.460
        50.0004         46.0004
 -13821089.30948 -10771884.40447  21598028.7364   21598034.3524   21598029.666
        50.0004         46.0004
 -28002897.87248 -21773294.36548  20430004.6644   20430009.1004   20430004.195
        53.0004         49.0004
  -5592467.56247  -4328382.71946  23599439.0974   23599442.7444   23599438.488
        44.0004         39.0004
  -4586044.99147  -3527077.48346  24586638.3124   24586644.7614   24586637.007
        43.0004         38.0004
    820988.70247    654257.81146  24394211.8694   24394221.7204   24394210.845
        43.0004         38.0004
 -12863832.90748 -10008020.02547  21621845.3774   21621847.5244   21621845.423
        51.0004         46.0004
  -7536295.18347  -5829646.03346  23895777.0084   23895784.0124   23895775.802
        45.0004         40.0004
 14  5 31  0 36  0.0000000  0 10G06G08G10G28G04G07G05G26G02G17
   -755333.78348   -568892.84047  22098014.1424   22098022.3374   22098013.252
        50.0004         46.0004
 -10165984.70248  -7913269.41347  21551695.2634   21551700.3414   21551695.558
        49.0004         45.0004
 -20524542.45848 -15988227.80547  21565568.4784   21565574.1834   21565569.271
        50.0004         46.0004
 -13866721.12548 -10807441.56847  21589346.0624   21589350.0004   21589346.100
        50.0004         46.0004
 -27976015.70848 -21752347.19548  20435120.0574   20435124.7284   20435119.497
        53.0004         49.0004
  -5486860.51947  -4246091.49346  23619535.6694   23619538.0294   23619535.187
        44.0004         39.0004
  -4675970.22347  -3597148.93946  24569526.2144   24569531.6614   24569525.397
        43.0004         38.0004
    836537.49647    666373.88046  24397171.3544   24397177.6654   24397170.941
        43.0004         39.0004
 -12890142.89448 -10028521.26547  21616838.6204   21616842.1774   21616838.942
        51.0004         46.0004
  -7518483.43347  -5815766.59546  23899164.2584   23899173.1864   23899165.216
        45.0004         40.0004
 14  5 31  0 36 30.0000000  0 10G06G08G10G28G04G07G05G26G02G17
   -671584.60448   -503633.75347  22113950.8544   22113958.9274   22113950.101
        50.0004         46.0004
 -10073585.48348  -7841270.01447  21569278.1264   21569283.7174   21569278.703
        49.0004         45.0004
 -20590094.74648 -16039307.45247  21553094.6634   21553099.5114   21553095.714
        50.0004         46.0004
 -13912071.45948 -10842779.40447  21580715.7274   21580720.4384   21580716.111
        50.0004         46.0004
 -27948653.43548 -21731025.91348  20440326.7194   20440331.4644   20440326.392
        53.0004         49.0004
  -5381233.09447  -4163784.39046  23639636.0904   23639639.1304   23639635.344
        44.0004         39.0004
  -4766035.68347  -3667329.65646  24552386.7304   24552392.7724   24552386.041
        43.0004         38.0004
    852024.63047    678441.87546  24400117.6534   24400125.9944   24400116.908
        43.0004         38.0004
 -12916005.01248 -10048673.50947  21611917.2974   21611919.9994   21611916.991
        51.0004         46.0004
  -7500910.14047  -5802072.96946  23902509.7394   23902517.7374   23902509.399
        45.0004         40.0004
 14  5 31  0 37  0.0000000  0 10G06G08G10G28G04G07G05G26G02G17
   -587636.30848   -438219.49847  22129925.4494   22129933.3424   22129925.203
        50.0004         46.0004
  -9980875.79648  -7769028.69547  21586920.4544   21586925.8794   21586920.802
        49.0004         45.0004
 -20655455.63148 -16090237.94547  21540657.6714   21540662.1274   21540657.543
        51.0004         46.0004
 -13957135.36748 -10877894.04647  21572140.6924   21572144.1714   21572140.541
        50.0004         46.0004
 -27920811.38448 -21709330.77648  20445624.8304   20445629.8994   20445624.620
        53.0004         49.0004
  -5275586.67047  -4081462.47846  23659739.9804   23659743.3264   23659739.115
        44.0004         39.0004
  -4856237.56147  -3737616.67746  24535221.9194   24535227.5264   24535221.099
        43.0004         38.0004
    867449.85147    690461.67146  24403052.7814   24403061.1294   24403051.936
        43.0004         38.0004
 -12941417.91348 -10068475.70947  21607080.4494   21607083.8084   21607081.141
        51.0004         46.0004
  -7483573.89347  -5788564.05646  23905808.7334   23905817.0204   23905808.208
        45.0004         40.0004
 14  5 31  0 37 30.0000000  0 10G06G08G10G28G04G07G05G26G02G17
   -503492.32548   -372652.75647  22145938.3304   22145945.7984   22145937.424
        50.0004         46.0004
  -9887859.71648  -7696548.62147  21604620.8244   21604626.7984   21604621.027
        49.0004         44.0004
 -20720623.04948 -16141017.69047  21528255.4144   21528261.1544   21528256.717
        51.0004         46.0004
 -14001911.09348 -10912784.14347  21563619.9734   21563623.9454   21563620.481
        50.0004         46.0004
 -27892492.09548 -21687263.77348  20451013.7724   20451018.7504   20451013.545
        53.0004         49.0004
  -5169924.25747  -3999128.11146  23679846.2784   23679850.4994   23679846.161
        44.0004         39.0004
  -4946574.88247  -3808009.23846  24518031.5924   24518036.7224   24518030.167
        43.0004         38.0004
    882810.44147    702431.10546  24405975.4514   24405983.9884   24405975.038
        43.0004         38.0004
 -12966382.32748 -10087928.44347  21602330.3854   21602333.7424   21602331.203
        51.0004         46.0004
  -7466475.63147  -5775240.58246  23909061.9074   23909070.7874   23909061.854
        44.0004         40.0004
 14  5 31  0 38  0.0000000  0 10G06G08G10G28G04G07G05G26G02G17
   -419153.86148   -306934.48547  22161987.5264   22161995.0074   22161986.399
        50.0004         46.0004
  -9794538.80248  -7623831.02047  21622378.9034   21622384.1854   21622379.314
        49.0004         44.0004
 -20785592.04948 -16191642.82747  21515892.8304   21515898.1474   21515893.548
        51.0004         46.0004
 -14046393.79248 -10947445.89247  21555155.4434   21555159.1824   21555155.129
        50.0004         46.0004
 -27863695.61748 -21664824.93048  20456493.5804   20456498.3154   20456493.574
        53.0004         49.0004
  -5064247.02847  -3916782.20246  23699956.3434   23699959.9014   23699955.793
        44.0004         39.0004
  -5037044.21547  -3878504.64846  24500814.3274   24500820.9014   24500813.912
        43.0004         38.0004
    898106.07247    714349.89846  24408886.5484   24408894.7474   24408886.314
        43.0004         38.0004
 -12990896.36148 -10107030.23547  21597665.8234   21597668.6084   21597665.545
        51.0004         46.0004
  -7449613.98247  -5762101.48746  23912270.7474   23912277.9134   23912270.126
        44.0004         39.0004
 14  5 31  0 38 30.0000000  0 11G06G08G10G28G04G07G05G30G26G02G17
   -334625.60748   -241068.32547  22178072.2704   22178081.2244   22178071.695
        50.0004         46.0004
  -9700918.58048  -7550880.18447  21640195.0504   21640199.2704   21640194.566
        49.0004         44.0004
 -20850361.70648 -16242112.63247  21503567.8694   21503572.6434   21503568.166
        51.0004         46.0004
 -14090582.14248 -10981878.28447  21546746.4304   21546750.6474   21546746.436
        50.0004         46.0004
 -27834425.65348 -21642017.14048  20462063.7764   20462068.0004   20462063.279
        53.0004         49.0004
  -4958559.52147  -3834428.27446  23720067.7944   23720072.5674   23720067.233
        44.0004         39.0004
  -5127645.56847  -3949102.93846  24483574.3374   24483580.0684   24483573.362
        42.0004         38.0004
     22011.06948      7233.83347  21628764.5084   21628771.3684   21628764.592
        52.0004         47.0004
    913332.88847    726215.09346  24411784.6944   24411792.0114   24411783.104
        43.0004         38.0004
 -13014962.16348 -10125782.74447  21593086.1224   21593089.1014   21593085.860
        51.0004         46.0004
  -7432991.13647  -5749148.48046  23915434.6204   23915442.6644   23915433.487
        44.0004         39.0004
 14  5 31  0 39  0.0000000  0 11G06G08G10G28G04G07G05G30G26G02G17
   -249911.93948   -175057.68647  22194193.4984   22194201.2874   22194192.107
        50.0004         46.0004
  -9607003.98348  -7477699.98147  21658066.0194   21658071.8414   21658066.498
        49.0004         44.0004
 -20914930.67548 -16292426.05947  21491280.7434   21491285.7234   21491280.896
        51.0004         46.0004
 -14134475.11448 -11016080.51247  21538393.5274   21538397.1654   21538393.646
        51.0004         46.0004
 -27804685.77748 -21618843.18548  20467722.9104   20467727.5364   20467722.597
        53.0004         49.0004
  -4852865.78547  -3752069.50746  23740180.7154   23740183.9314   23740180.017
        44.0004         39.0004
  -5218378.76147  -4019803.96146  24466306.8154   24466315.5324   24466307.199
        42.0004         38.0004
    101805.70748     69411.48647  21643948.7304   21643955.8414   21643948.713
        51.0004         47.0004
    928487.32547    738023.87746  24414666.4434   24414676.3554   24414667.665
        43.0004         38.0004
 -13038581.54548 -10144187.40647  21588591.4044   21588593.5124   21588592.054
        51.0004         47.0004
  -7416608.90947  -5736382.96846  23918552.4474   23918559.7334   23918550.643
        44.0004         40.0004
 14  5 31  0 39 30.0000000  0 11G06G08G10G28G04G07G05G30G26G02G17
   -165011.22648   -108901.29347  22210348.9114   22210357.2774   22210347.960
        50.0004         46.0004
  -9512793.83148  -7404289.46447  21675992.7064   21675998.1884   21675993.850
        49.0004         44.0004
 -20979291.19748 -16342577.05847  21479032.4634   21479038.1234   21479033.560
        51.0004         46.0004
 -14178065.39248 -11050046.87747  21530098.7784   21530103.0914   21530098.746
        51.0004         46.0004
 -27774473.60548 -21595301.20648  20473471.8594   20473476.8664   20473471.564
        53.0004         49.0004
  -4747164.13347  -3669704.57246  23760294.9874   23760298.9194   23760294.420
        44.0004         39.0004
  -5309237.12347  -4090602.50746  24449017.9234   24449023.7194   24449017.309
        43.0004         38.0004
    181870.14148    131799.36847  21659184.7634   21659191.6344   21659185.020
        51.0004         47.0004
    943571.96647    749778.28546  24417538.2234   24417547.0954   24417537.862
        43.0004         38.0004
 -13061750.17748 -10162240.83647  21584182.5744   21584185.5674   21584182.652
        51.0004         46.0004
  -7400462.98747  -5723801.58946  23921623.3554   23921632.1474   23921623.065
        44.0004         40.0004
 14  5 31  0 40  0.0000000  0 11G06G08G10G28G04G07G05G30G26G02G17
    -79929.89248    -42604.15947  22226539.3914   22226547.5114   22226538.601
        50.0004         46.0004
  -9418295.17748  -7330654.14747  21693975.6354   21693981.9624   21693976.437
        49.0004         44.0004
 -21043444.28048 -16392566.42147  21466825.0094   21466829.9914   21466825.609
        51.0004         46.0004
 -14221353.18448 -11083777.54447  21521861.4644   21521865.2594   21521861.153
        51.0004         46.0004
 -27743794.34848 -21571395.26448  20479310.1934   20479314.6724   20479309.712
        53.0004         49.0004
  -4641460.73847  -3587338.28046  23780409.8374   23780413.5054   23780408.862
        43.0004         39.0004
  -5400222.49547  -4161500.03346  24431702.7654   24431708.7974   24431703.448
        43.0004         38.0004
    262197.88248    194392.42447  21674470.6844   21674477.2184   21674470.424
        51.0004         47.0004
    958581.13147    761473.84246  24420394.1324   24420402.0624   24420393.150
        43.0004         39.0004
 -13084471.60248 -10179945.79147  21579858.6084   21579861.5024   21579858.396
        51.0004         46.0004
  -7384556.99047  -5711407.17846  23924650.1914   23924657.8704   23924649.974
        44.0004         40.0004
 14  5 31  0 40 30.0000000  0 11G06G08G10G28G04G07G05G30G26G02G17
      5328.49248     23830.93747  22242763.4594   22242771.4674   22242762.740
        50.0004         45.0004
  -9323512.25748  -7256797.31347  21712012.6944   21712017.2314   21712012.914
        49.0004         44.0004
 -21107387.65548 -16442392.37647  21454656.9994   21454661.8044   21454657.575
        51.0004         46.0004
 -14264336.76448 -11117271.15447  21513681.4534   21513685.9544   21513681.577
        51.0004         46.0004
 -27712650.84048 -21547127.56648  20485236.2334   20485241.1684   20485235.908
        53.0004         49.0004
  -4535758.88147  -3504973.18046  23800524.3704   23800527.5454   23800523.444
        43.0004         39.0004
  -5491333.67947  -4232495.59546  24414366.0274   24414371.8644   24414365.551
        43.0004         38.0004
    342785.40748    257187.91047  21689806.0604   21689812.0854   21689806.095
        51.0004         47.0004
    973512.24147    773108.58646  24423235.2584   24423242.6144   24423234.626
        43.0004         38.0004
 -13106747.21048 -10197303.35647  21575619.5764   21575622.4914   21575620.593
        51.0004         46.0004
  -7368891.91747  -5699200.48646  23927631.0164   23927639.4874   23927630.743
        44.0004         40.0004
 14  5 31  0 41  0.0000000  0 11G06G08G10G28G04G07G05G30G26G02G17
     90767.28448     90406.61447  22259022.0624   22259030.0454   22259021.321
        50.0004         45.0004
  -9228442.23548  -7182716.76747  21730104.0164   21730107.7464   21730104.228
        49.0004         44.0004
 -21171111.80648 -16492047.51247  21442530.5294   21442535.1484   21442531.115
        51.0004         46.0004
 -14307006.81448 -11150520.46847  21505562.0214   21505566.1244   21505561.712
        51.0004         46.0004
 -27681038.90648 -21522494.87048  20491252.2064   20491256.5554   20491251.791
        53.0004         49.0004
  -4430055.11347  -3422606.59246  23820638.6804   23820642.3854   23820638.129
        43.0004         39.0004
  -5582562.29547  -4303582.65946  24397004.4554   24397010.8004   24397004.639
        43.0004         39.0004
    423636.07948    320188.43947  21705190.8854   21705197.6904   21705191.511
        51.0004         46.0004
    988369.49947    784685.78446  24426061.5254   24426070.2934   24426062.492
        43.0004         38.0004
 -13128570.67548 -10214308.61447  21571466.2714   21571469.1644   21571466.765
        51.0004         46.0004
  -7353461.93647  -5687176.97946  23930566.7684   23930574.7314   23930566.741
        44.0004         40.0004
 14  5 31  0 41 30.0000000  0 11G06G08G10G28G04G07G05G30G26G02G17
    176375.36648    157114.19847  22275313.1764   22275320.3904   22275311.857
        50.0004         45.0004
  -9133097.07248  -7108421.82947  21748247.7614   21748253.2474   21748247.768
        49.0004         44.0004
 -21234622.33348 -16541536.18447  21430444.6024   21430450.4654   21430445.386
        51.0004         46.0004
 -14349368.45648 -11183529.45747  21497501.0184   21497504.9824   21497500.875
        51.0004         46.0004
 -27648968.88248 -21497505.21648  20497354.7974   20497359.5834   20497354.266
        53.0004         49.0004
  -4324360.26547  -3340246.96246  23840751.2754   23840755.7104   23840751.349
        43.0004         39.0004
  -5673915.23447  -4374766.60046  24379620.7434   24379627.3564   24379620.383
        43.0004         39.0004
    504738.60948    383385.22647  21720624.9834   21720631.4334   21720624.471
        51.0004         46.0004
   1003142.64547    796197.43246  24428873.6464   24428880.8344   24428872.718
        43.0004         38.0004
 -13149950.95048 -10230968.51347  21567397.4674   21567400.7614   21567398.472
        51.0004         46.0004
  -7338275.33447  -5675343.13546  23933457.0304   23933465.1244   23933456.562
        44.0004         40.0004
 14  5 31  0 42  0.0000000  0 11G06G08G10G28G04G07G05G30G26G02G17
    262154.73448    223955.25647  22291636.2794   22291643.9084   22291635.098
        50.0004         45.0004
  -9037475.10848  -7033911.19547  21766443.6264   21766448.6604   21766444.242
        48.0004         44.0004
 -21297911.61148 -16590852.45547  21418400.6784   21418407.2164   21418401.857
        51.0004         46.0004
 -14391414.27748 -11216292.35147  21489499.3854   21489503.3984   21489499.729
        51.0004         46.0004
 -27616437.85348 -21472156.34348  20503545.4554   20503549.5824   20503544.745
        53.0004         49.0004
  -4218672.27547  -3257892.65946  23860863.4964   23860867.8444   23860862.991
        43.0004         39.0004
  -5765385.99547  -4446042.34646  24362214.9834   24362221.1594   24362213.929
        43.0004         39.0004
    586094.99048    446779.82247  21736105.9684   21736112.5334   21736106.335
        51.0004         46.0004
   1017834.49947    807645.74146  24431669.9044   24431676.3434   24431669.677
        43.0004         38.0004
 -13170883.22248 -10247279.33247  21563414.8384   21563417.7794   21563415.837
        51.0004         47.0004
  -7323327.64847  -5663695.46646  23936301.7464   23936311.2444   23936301.175
        44.0004         40.0004
 14  5 31  0 42 30.0000000  0 11G06G08G10G28G04G07G05G30G26G02G17
    348101.91548    290927.07347  22307991.0854   22307999.2084   22307990.379
        50.0004         45.0004
  -8941580.41248  -6959188.05747  21784692.1614   21784697.2164   21784691.784
        49.0004         44.0004
 -21360976.86648 -16639994.16747  21406400.3674   21406405.2464   21406400.723
        51.0004         46.0004
 -14433141.97748 -11248807.35247  21481558.8104   21481563.6554   21481559.128
        51.0004         46.0004
 -27583448.76848 -21446450.54248  20509822.4724   20509827.3554   20509822.399
        53.0004         49.0004
  -4112994.31147  -3175546.17346  23880973.4854   23880977.0414   23880972.481
        43.0004         39.0004
  -5856972.54547  -4517408.32246  24344786.1474   24344792.7474   24344785.452
        43.0004         39.0004
    667701.76648    510369.52447  21751635.6114   21751641.6384   21751635.176
        51.0004         46.0004
   1032442.58747    819028.77246  24434448.3324   24434456.2134   24434448.574
        43.0004         38.0004
 -13191368.39048 -10263241.76047  21559516.7724   21559519.7634   21559516.742
        51.0004         47.0004
  -7308619.38247  -5652234.35046  23939099.9724   23939108.2994   23939099.948
        44.0004         40.0004
 14  5 31  0 43  0.0000000  0 11G06G08G10G28G04G07G05G30G26G02G17
    434214.17748    358027.52747  22324377.4104   22324385.8854   22324376.930
        50.0004         45.0004
  -8845416.37748  -6884255.03947  21802991.3864   21802997.0294   21802991.683
        49.0004         44.0004
 -21423815.18648 -16688959.03947  21394442.3694   21394447.5724   21394443.071
        51.0004         46.0004
 -14474548.87648 -11281072.39047  21473679.1074   21473682.9524   21473679.572
        51.0004         46.0004
 -27550003.28648 -21420389.10948  20516186.9354   20516191.6624   20516186.739
        53.0004         49.0004
  -4007328.94247  -3093209.51346  23901080.5584   23901085.0834   23901079.761
        43.0004         39.0004
  -5948673.22647  -4588863.22346  24327337.4374   24327341.8494   24327335.400
        43.0004         39.0004
    749556.05848    574152.10947  21767211.2784   21767218.2994   21767211.724
        51.0004         46.0004
   1046964.96947    830345.04946  24437211.8124   24437220.7464   24437211.548
        43.0004         38.0004
 -13211406.98548 -10278856.20047  21555703.3784   21555705.7294   21555704.108
        51.0004         46.0004
  -7294150.83547  -5640960.03946  23941852.6854   23941860.0594   23941852.460
        44.0004         40.0004
 14  5 31  0 43 30.0000000  0 11G06G08G10G28G04G07G05G30G26G02G17
    520486.53048    425252.71947  22340794.7954   22340802.8234   22340794.150
        50.0004         45.0004
  -8748988.56248  -6809116.46847  21821340.1054   21821346.2914   21821341.006
        48.0004         44.0004
 -21486425.77448 -16737746.46447  21382528.2414   21382533.4824   21382528.464
        51.0004         46.0004
 -14515634.10148 -11313086.77547  21465860.5514   21465865.1794   21465860.845
        51.0004         46.0004
 -27516105.79448 -21393975.45748  20522637.7554   20522642.0914   20522637.322
        53.0004         49.0004
  -3901680.79747  -3010886.26946  23921183.3784   23921189.1304   23921184.024
        43.0004         39.0004
  -6040488.19347  -4660407.18646  24309864.3334   24309870.4664   24309863.604
        43.0004         38.0004
    831652.89148    638123.67047  21782834.0004   21782840.3314   21782833.846
        51.0004         46.0004
   1061397.63747    841591.40646  24439959.0124   24439965.9434   24439958.592
        43.0004         38.0004
 -13231001.27348 -10294124.44247  21551974.6034   21551977.6834   21551975.168
        51.0004         47.0004
  -7279924.24247  -5629874.24846  23944560.1954   23944568.0804   23944559.687
        44.0004         40.0004
 14  5 31  0 44  0.0000000  0 11G06G08G10G28G04G07G05G30G26G02G17
    606918.74948    492602.48847  22357243.1134   22357250.1564   22357241.420
        50.0004         45.0004
  -8652297.86948  -6733773.06247  21839740.8824   21839746.3464   21839740.488
        48.0004         44.0004
 -21548803.11848 -16786352.13847  21370658.3884   21370663.7304   21370658.611
        51.0004         46.0004
 -14556392.34848 -11344846.37147  21458104.8974   21458108.4364   21458105.058
        51.0004         46.0004
 -27481755.68948 -21367209.12048  20529174.5364   20529178.9834   20529173.690
        53.0004         49.0004
  -3796049.77247  -2928576.37546  23941286.0014   23941289.6234   23941284.848
        43.0004         39.0004
  -6132412.88847  -4732036.65046  24292371.8714   24292378.4174   24292370.657
        43.0004         38.0004
    913991.97348    702283.99947  21798502.8084   21798509.3164   21798502.885
        51.0004         46.0004
   1075741.28447    852768.39246  24442688.7714   24442696.0714   24442688.401
        43.0004         38.0004
 -13250149.16648 -10309044.83247  21548331.0904   21548333.5504   21548330.978
        51.0004         47.0004
  -7265937.09847  -5618975.03846  23947221.5364   23947229.3644   23947221.391
        44.0004         40.0004
 14  5 31  0 44 30.0000000  0 11G06G08G10G28G04G07G05G30G26G02G17
    693509.09248    560075.46447  22373719.6694   22373727.7124   22373719.003
        50.0004         45.0004
  -8555346.60748  -6658226.61947  21858189.4284   21858193.5824   21858189.737
        48.0004         44.0004
 -21610943.15448 -16834772.89547  21358833.6554   21358838.3194   21358833.663
        51.0004         47.0004
 -14596819.46248 -11376347.94147  21450411.3304   21450415.5834   21450411.828
        51.0004         46.0004
 -27446953.99048 -21340090.89648  20535796.8544   20535801.3574   20535796.422
        53.0004         49.0004
  -3690437.43547  -2846281.04246  23961383.7104   23961387.7124   23961382.402
        43.0004         39.0004
  -6224444.19947  -4803749.19646  24274857.8774   24274864.3254   24274857.303
        43.0004         38.0004
    996571.50148    766631.69747  21814216.8864   21814224.1684   21814216.862
        51.0004         46.0004
   1089994.96747    863875.26346  24445400.5524   24445408.1984   24445400.234
        43.0004         38.0004
 -13268849.81348 -10323616.72447  21544772.8704   21544775.2494   21544772.594
        51.0004         47.0004
  -7252188.49447  -5608261.70646  23949837.1844   23949846.0104   23949837.884
        45.0004         40.0004
 14  5 31  0 45  0.0000000  0 11G06G08G10G28G04G07G05G30G26G02G17
    780248.68548    627664.74147  22390226.0644   22390234.0524   22390224.698
        49.0004         45.0004
  -8458144.25148  -6582484.51647  21876686.5744   21876690.6514   21876686.901
        48.0004         44.0004
 -21672848.71048 -16883010.93947  21347053.3404   21347057.7954   21347053.598
        51.0004         47.0004
 -14636918.54948 -11407593.90447  21442780.6344   21442785.3284   21442781.201
        51.0004         46.0004
 -27411708.98248 -21312627.22948  20542503.2014   20542507.9354   20542502.997
        53.0004         48.0004
  -3584852.65347  -2764007.17546  23981474.8274   23981479.4004   23981474.640
        43.0004         39.0004
  -6316586.40947  -4875548.16746  24257324.6554   24257330.2394   24257323.511
        43.0004         39.0004
   1079382.53948    831159.78847  21829975.2784   21829982.6944   21829975.329
        51.0004         46.0004
   1104150.87847    874905.97246  24448094.6164   24448102.0304   24448093.850
        43.0004         38.0004
 -13287109.65448 -10337845.12947  21541297.8134   21541300.5644   21541297.922
        51.0004         47.0004
  -7238684.31047  -5597738.83946  23952407.4114   23952415.0364   23952407.421
        45.0004         40.0004
 14  5 31  0 45 30.0000000  0 11G06G08G10G28G04G07G05G30G26G02G17
    867141.39648    695373.34347  22406759.8484   22406769.0924   22406760.233
        49.0004         44.0004
  -8360687.41748  -6506544.12347  21895232.6964   21895237.0444   21895232.296
        48.0004         43.0004
 -21734510.47348 -16931059.01747  21335319.1744   21335323.5934   21335319.592
        51.0004         47.0004
 -14676680.29948 -11438577.02147  21435214.6444   21435218.6714   21435214.867
        51.0004         46.0004
 -27376016.07248 -21284814.55048  20549296.2714   20549300.1904   20549295.656
        53.0004         49.0004
  -3479290.99447  -2681751.33146  24001562.9114   24001567.8174   24001562.287
        43.0004         38.0004
  -6408830.70747  -4947426.69246  24239770.3554   24239776.5684   24239770.146
        44.0004         39.0004
   1162428.87748    895871.22947  21845778.8854   21845785.3714   21845778.436
        50.0004         46.0004
   1118213.69947    885864.11846  24450770.6614   24450777.9914   24450771.045
        43.0004         38.0004
 -13304922.88548 -10351725.52047  21537907.7224   21537910.0724   21537907.526
        51.0004         46.0004
  -7225418.10747  -5587401.41046  23954931.8204   23954940.4074   23954931.720
        44.0004         40.0004
 14  5 31  0 46  0.0000000  0 11G06G08G10G28G04G07G05G30G26G02G17
    954182.45848    763197.54147  22423324.7794   22423332.6814   22423323.788
        49.0004         45.0004
  -8262981.69248  -6430409.77147  21913824.0074   21913829.9944   21913824.799
        48.0004         43.0004
 -21795927.48348 -16978916.37447  21323631.8724   21323636.4624   21323632.230
        51.0004         47.0004
 -14716103.88548 -11469296.61847  21427712.4624   21427716.1174   21427712.689
        51.0004         46.0004
 -27339879.51548 -21256656.17548  20556172.2094   20556177.2114   20556171.852
        53.0004         49.0004
  -3373757.16747  -2599517.17346  24021645.2054   24021649.5744   24021644.818
        43.0004         38.0004
  -6501177.07047  -5019384.73146  24222197.1014   24222203.3074   24222196.960
        44.0004         39.0004
   1245705.68348    960762.25747  21861625.5144   21861632.1444   21861625.328
        50.0004         46.0004
   1132179.59347    896746.75246  24453427.2594   24453435.6184   24453427.082
        43.0004         38.0004
 -13322291.73448 -10365259.64447  21534601.8194   21534605.1324   21534602.987
        51.0004         47.0004
  -7212392.01247  -5577251.08246  23957410.6804   23957419.3814   23957410.436
        44.0004         40.0004
 14  5 31  0 46 30.0000000  0 11G06G08G10G28G04G07G05G30G26G02G17
   1041365.48948    831132.35447  22439915.2484   22439923.1654   22439914.342
        49.0004         45.0004
  -8165033.89048  -6354086.80647  21932464.0304   21932469.2964   21932463.950
        48.0004         43.0004
 -21857100.35648 -17026583.50347  21311990.7944   21311995.6104   21311991.455
        51.0004         47.0004
 -14755189.78248 -11499753.09347  21420274.5444   21420278.4614   21420274.708
        51.0004         46.0004
 -27303304.79148 -21228156.37348  20563132.5454   20563137.0764   20563132.030
        53.0004         49.0004
  -3268256.93347  -2517309.18946  24041721.1704   24041725.7024   24041720.873
        43.0004         38.0004
  -6593626.99347  -5091423.46546  24204604.7374   24204610.3844   24204604.339
        44.0004         39.0004
   1329206.47148   1025827.81747  21877515.4314   21877521.6084   21877515.384
        50.0004         46.0004
   1146043.09247    907549.60646  24456065.2394   24456073.7274   24456064.625
        43.0004         38.0004
 -13339220.28748 -10378450.67347  21531380.5924   21531384.3744   21531381.361
        51.0004         47.0004
  -7199609.46447  -5567290.54546  23959842.9754   23959850.7844   23959842.686
        44.0004         40.0004
 14  5 31  0 47  0.0000000  0 11G06G08G10G28G04G07G05G30G26G02G17
   1128692.64748    899179.46547  22456532.9594   22456540.9414   22456532.110
        49.0004         45.0004
  -8066842.34448  -6277573.90547  21951148.6134   21951153.1094   21951148.935
        48.0004         43.0004
 -21918020.73948 -17074053.88447  21300397.8564   21300402.9804   21300398.460
        51.0004         47.0004
 -14793930.52848 -11529940.61447  21412902.6654   21412906.7104   21412902.502
        51.0004         46.0004
 -27266289.37448 -21199313.17048  20570175.9614   20570180.6034   20570175.456
        53.0004         48.0004
  -3162788.16247  -2435125.72446  24061790.9374   24061795.8524   24061791.263
        43.0004         38.0004
  -6686173.72347  -5163537.62646  24186993.6824   24186999.7774   24186992.943
        44.0004         39.0004
   1412933.35948   1091069.55747  21893448.3994   21893454.2064   21893448.288
        50.0004         46.0004
   1159807.39147    918275.13146  24458684.0364   24458692.8094   24458685.519
        43.0004         39.0004
 -13355703.82648 -10391294.94847  21528243.8764   21528247.3364   21528244.560
        51.0004         47.0004
  -7187065.77247  -5557516.11746  23962229.7274   23962237.3864   23962229.777
        44.0004         40.0004
 14  5 31  0 47 30.0000000  0 11G06G08G10G28G04G07G05G30G26G02G17
   1216158.00848    967334.28047  22473177.3404   22473185.2394   22473176.312
        49.0004         45.0004
  -7968413.81948  -6200876.34447  21969879.3504   21969884.6844   21969879.005
        48.0004         43.0004
 -21978688.90048 -17121327.72747  21288853.1824   21288857.8204   21288853.876
        51.0004         47.0004
 -14832326.50348 -11559859.48747  21405595.8314   21405599.6024   21405596.099
        51.0004         46.0004
 -27228838.50948 -21170130.65248  20577302.9074   20577307.4134   20577302.274
        53.0004         48.0004
  -3057356.24347  -2352970.97246  24081854.5894   24081859.2014   24081854.677
        43.0004         38.0004
  -6778817.89947  -5235727.72046  24169363.6234   24169369.6474   24169363.148
        44.0004         39.0004
   1496880.34748   1156482.80347  21909422.2894   21909429.4434   21909422.868
        50.0004         46.0004
   1173467.33947    928919.33646  24461284.3394   24461291.3424   24461283.659
        43.0004         38.0004
 -13371745.99248 -10403795.29147  21525192.0634   21525194.5844   21525192.067
        51.0004         47.0004
  -7174763.64547  -5547929.92846  23964570.4024   23964579.1804   23964570.366
        44.0004         40.0004
 14  5 31  0 48  0.0000000  0 11G06G08G10G28G04G07G05G30G26G02G17
   1303759.58748   1035595.22647  22489847.3344   22489855.0834   22489846.050
        49.0004         45.0004
  -7869750.84048  -6123996.09047  21988652.5594   21988658.8994   21988654.340
        48.0004         43.0004
 -22039101.13348 -17168402.14847  21277357.1504   21277362.0704   21277357.543
        51.0004         47.0004
 -14870373.81448 -11589506.67547  21398355.3864   21398360.0624   21398355.855
        51.0004         46.0004
 -27190953.58148 -21140609.91848  20584511.7694   20584516.4684   20584511.504
        53.0004         48.0004
  -2951962.92447  -2270846.31446  24101910.5734   24101913.7264   24101910.036
        43.0004         38.0004
  -6871556.88847  -5307991.69546  24151716.3724   24151721.1094   24151715.269
        44.0004         39.0004
   1581045.35348   1222065.92947  21925439.1254   21925444.7474   21925439.036
        50.0004         46.0004
   1187021.96847    939481.50546  24463862.6024   24463870.8044   24463862.801
        43.0004         38.0004
 -13387346.50748 -10415951.48847  21522222.6034   21522225.7664   21522223.095
        51.0004         47.0004
  -7162702.99047  -5538531.90546  23966865.5594   23966873.5384   23966865.303
        45.0004         40.0004
 14  5 31  0 48 30.0000000  0 11G06G08G10G28G04G07G05G30G26G02G17
   1391495.00248   1103960.47847  22506542.6564   22506550.7364   22506541.663
        49.0004         44.0004
  -7770856.36148  -6046935.45347  22007473.4544   22007478.6554   22007473.333
        48.0004         43.0004
 -22099254.21748 -17215274.63247  21265910.2814   21265915.2964   21265911.018
        51.0004         47.0004
 -14908069.28548 -11618879.70247  21391182.5584   21391186.1894   21391182.642
        51.0004         46.0004
 -27152636.50748 -21110752.43248  20591803.1284   20591807.8514   20591802.978
        53.0004         48.0004
  -2846610.35747  -2188753.39746  24121957.4564   24121961.5234   24121957.447
        43.0004         38.0004
  -6964388.37247  -5380327.74346  24134050.7484   24134056.7274   24134050.512
        44.0004         39.0004
   1665425.87548   1287816.99147  21941496.5494   21941502.1804   21941495.906
        50.0004         46.0004
   1200469.88647    949960.51646  24466422.0784   24466430.7214   24466422.806
        43.0004         38.0004
 -13402505.63648 -10427763.75347  21519337.7194   21519340.9094   21519338.342
        51.0004         47.0004
  -7150882.83747  -5529321.28846  23969114.8274   23969123.2174   23969114.638
        45.0004         40.0004
 14  5 31  0 49  0.0000000  0 11G06G08G10G28G04G07G05G30G26G02G17
   1479361.48348   1172427.84747  22523263.3694   22523270.9264   22523261.992
        49.0004         44.0004
  -7671733.84448  -5969697.11247  22026334.7624   22026340.7044   22026335.242
        48.0004         43.0004
 -22159145.30248 -17261942.96847  21254512.9914   21254518.5994   21254513.632
        51.0004         47.0004
 -14945410.41248 -11647976.61247  21384076.5874   21384080.1244   21384076.813
        51.0004         46.0004
 -27113889.37148 -21080559.84348  20599176.7144   20599180.9944   20599176.509
        53.0004         48.0004
  -2741301.14247  -2106694.28346  24141997.2734   24142001.2894   24141996.904
        43.0004         38.0004
  -7057310.25247  -5452734.25146  24116367.3564   24116373.0444   24116367.777
        44.0004         39.0004
   1750019.05048   1353733.75947  21957593.8664   21957599.7604   21957593.699
        50.0004         46.0004
   1213809.21447    960354.92546  24468960.4474   24468969.1894   24468960.337
        43.0004         39.0004
 -13417224.22848 -10439232.73547  21516537.4224   21516539.6464   21516537.566
        51.0004         47.0004
  -7139303.08447  -5520297.99246  23971318.2134   23971325.8334   23971317.700
        45.0004         40.0004
 14  5 31  0 49 30.0000000  0 11G06G08G10G28G04G07G05G30G26G02G17
   1567354.87248   1240994.10447  22540007.9374   22540015.0284   22540006.673
        49.0004         44.0004
  -7572388.09848  -5892284.84047  22045240.9984   22045245.5284   22045240.608
        48.0004         43.0004
 -22218772.46348 -17308405.64947  21243167.0434   21243172.0624   21243167.255
        51.0004         47.0004
 -14982395.97548 -11676796.46747  21377039.2054   21377042.7564   21377038.719
        51.0004         46.0004
 -27074715.91648 -21050035.05648  20606631.0074   20606635.7054   20606630.554
        53.0004         48.0004
  -2636038.80347  -2024671.68746  24162027.7384   24162033.9684   24162028.054
        43.0004         38.0004
  -7150321.40347  -5525210.30346  24098669.2394   24098673.5734   24098667.907
        44.0004         39.0004
   1834820.62848   1419812.91947  21973730.4384   21973737.2454   21973730.856
        50.0004         46.0004
   1227036.70447    970662.18546  24471476.6604   24471485.4824   24471476.945
        43.0004         39.0004
 -13431504.07348 -10450359.84447  21513820.1484   21513822.2824   21513820.239
        51.0004         47.0004
  -7127965.58047  -5511463.46446  23973475.8804   23973482.9094   23973475.433
        45.0004         40.0004
 14  5 31  0 50  0.0000000  0 11G06G08G10G28G04G07G05G30G26G02G17
   1655475.60748   1309659.60047  22556776.1664   22556784.5404   22556775.396
        49.0004         44.0004
  -7472819.27448  -5814698.72447  22064187.2924   22064192.0904   22064187.957
        48.0004         43.0004
 -22278129.71948 -17354658.01047  21231871.6064   21231876.7394   21231872.030
        51.0004         47.0004
 -15019019.70848 -11705334.37247  21370069.8294   21370072.7934   21370069.282
        51.0004         46.0004
 -27035115.14448 -21019177.29148  20614167.3674   20614171.5694   20614166.793
        53.0004         48.0004
  -2530822.84947  -1942685.24246  24182050.6194   24182054.4464   24182049.725
        43.0004         38.0004
  -7243417.08047  -5597752.22546  24080953.2954   24080958.5544   24080952.118
        44.0004         39.0004
   1919830.97248   1486054.75647  21989907.6034   21989913.9584   21989907.353
        50.0004         46.0004
   1240153.78047    980883.38746  24473973.1184   24473981.2294   24473973.448
        43.0004         39.0004
 -13445342.26948 -10461142.80347  21511186.7314   21511188.8304   21511186.643
        51.0004         47.0004
  -7116866.87547  -5502815.01046  23975588.0134   23975595.3924   23975587.216
        45.0004         40.0004
 14  5 31  0 50 30.0000000  0 11G06G08G10G28G04G07G05G30G26G02G17
   1743715.93248   1378418.28247  22573567.3594   22573575.7714   22573566.946
        49.0004         44.0004
  -7373035.84648  -5736945.39547  22083175.8174   22083181.5104   22083176.211
        48.0004         43.0004
 -22337218.98548 -17400701.55647  21220627.1254   21220631.9204   21220627.402
        51.0004         47.0004
 -15055283.62048 -11733591.90247  21363167.8184   21363171.8144   21363168.339
        51.0004         46.0004
 -26995094.38448 -20987992.26748  20621782.5524   20621787.2294   20621782.163
        53.0004         48.0004
  -2425660.56647  -1860740.60846  24202061.2194   24202065.2804   24202061.360
        43.0004         38.0004
  -7336599.65547  -5670361.87846  24063220.3804   24063225.7834   24063219.761
        44.0004         39.0004
   2005042.17048   1552453.09547  22006122.3654   22006128.8054   22006122.412
        50.0004         45.0004
   1253153.57347    991013.21346  24476446.7104   24476455.2414   24476447.394
        43.0004         39.0004
 -13458744.86048 -10471586.33947  21508635.4784   21508638.9014   21508636.537
        51.0004         47.0004
  -7106011.71447  -5494356.34046  23977652.8214   23977660.8624   23977652.909
        45.0004         40.0004
 14  5 31  0 51  0.0000000  0 11G06G08G10G28G04G07G05G30G26G02G17
   1832076.87348   1447270.94647  22590382.4264   22590390.2774   22590381.625
        49.0004         44.0004
  -7273036.98348  -5659024.19247  22102204.1874   22102210.0094   22102205.408
        48.0004         43.0004
 -22396033.40848 -17446530.92647  21209434.7264   21209439.4584   21209435.725
        51.0004         47.0004
 -15091181.59248 -11761564.28447  21356336.7074   21356340.8384   21356337.356
        51.0004         46.0004
 -26954652.29548 -20956478.93048  20629478.3274   20629482.9744   20629477.970
        53.0004         48.0004
  -2320550.55147  -1778836.71646  24222063.5804   24222068.4534   24222062.715
        42.0004         38.0004
  -7429863.59047  -5743034.91646  24045472.9174   24045478.1234   24045471.624
        44.0004         39.0004
   2090455.23048   1619008.73347  22022376.1604   22022382.6764   22022376.338
        50.0004         45.0004
   1266038.19847   1001053.26546  24478899.6664   24478906.3174   24478899.727
        43.0004         39.0004
 -13471708.15448 -10481687.56447  21506169.3004   21506171.7214   21506169.629
        51.0004         47.0004
  -7095396.31847  -5486084.50446  23979673.9324   23979680.9664   23979673.501
        44.0004         40.0004
 14  5 31  0 51 30.0000000  0 11G06G08G10G28G04G07G05G30G26G02G17
   1920555.68848   1516215.45847  22607219.4164   22607228.3494   22607218.618
        49.0004         44.0004
  -7172826.39448  -5580938.00947  22121274.7844   22121280.1824   22121274.894
        48.0004         43.0004
 -22454570.35548 -17492144.09247  21198295.3414   21198300.5934   21198296.367
        51.0004         47.0004
 -15126710.75148 -11789249.28547  21349575.7984   21349579.7504   21349576.098
        51.0004         46.0004
 -26913791.01848 -20924638.95648  20637253.8854   20637258.6424   20637253.543
        53.0004         48.0004
  -2215495.36847  -1696975.54446  24242055.1854   24242058.8694   24242054.650
        42.0004         38.0004
  -7523206.73447  -5815769.67846  24027709.6534   24027715.3514   24027709.160
        44.0004         39.0004
   2176067.22448   1685719.38747  22038667.9064   22038674.4824   22038667.486
        50.0004         45.0004
   1278805.81347   1011002.18146  24481327.8404   24481336.4204   24481327.903
        43.0004         39.0004
 -13484233.13148 -10491447.24047  21503785.6054   21503788.4534   21503786.222
        51.0004         47.0004
  -7085020.60247  -5477999.42646  23981648.7584   23981654.9284   23981647.725
        44.0004         40.0004
 14  5 31  0 52  0.0000000  0 11G06G08G10G28G04G07G05G30G26G02G17
   2009147.43248   1585247.96247  22624077.7914   22624085.5824   22624077.132
        49.0004         44.0004
  -7072409.57848  -5502691.13647  22140382.7624   22140388.2644   22140383.759
        48.0004         43.0004
 -22512828.92848 -17537540.33847  21187209.1784   21187214.0614   21187210.185
        52.0004         47.0004
 -15161870.20548 -11816646.19747  21342885.0274   21342888.9354   21342885.811
        51.0004         46.0004
 -26872515.11448 -20892475.89948  20645108.5944   20645113.2744   20645108.263
        53.0004         48.0004
  -2110499.45547  -1615160.54746  24262034.5104   24262039.8104   24262034.709
        42.0004         38.0004
  -7616628.65647  -5888565.81846  24009931.9314   24009937.8394   24009932.066
        44.0004         39.0004
   2261873.10848   1752581.11547  22054996.2324   22055001.7944   22054995.862
        50.0004         45.0004
   1291452.50047   1020856.84646  24483735.2724   24483742.1954   24483734.324
        43.0004         38.0004
 -13496322.88948 -10500867.79047  21501484.4754   21501488.0874   21501485.344
        51.0004         47.0004
  -7074886.57047  -5470102.66946  23983576.4534   23983583.6734   23983576.107
        44.0004         40.0004
 14  5 31  0 52 30.0000000  0 11G06G08G10G28G04G07G05G30G26G02G17
   2097850.60448   1654367.28947  22640957.4704   22640965.5114   22640956.696
        49.0004         44.0004
  -6971788.65948  -5424285.21047  22159529.9714   22159536.1644   22159530.756
        48.0004         43.0004
 -22570804.83848 -17582716.32647  21176177.0234   21176182.0624   21176177.695
        52.0004         47.0004
 -15196656.54048 -11843752.38147  21336265.7464   21336269.2184   21336265.940
        51.0004         46.0004
 -26830825.83748 -20859990.73348  20653041.9994   20653046.2124   20653041.429
        53.0004         48.0004
  -2005564.12147  -1533392.78246  24282004.3324   24282008.5114   24282003.602
        42.0004         38.0004
  -7710126.35247  -5961421.00146  23992140.7764   23992145.8124   23992139.773
        44.0004         40.0004
   2347871.26648   1819592.67247  22071361.6674   22071366.9854   22071361.174
        50.0004         45.0004
   1303977.65247   1030616.79046  24486117.9734   24486126.2884   24486118.984
        43.0004         39.0004
 -13507976.74948 -10509948.68547  21499267.2254   21499270.1184   21499267.723
        51.0004         47.0004
  -7064992.93947  -5462393.25146  23985458.5894   23985466.0874   23985458.056
        44.0004         40.0004
 14  5 31  0 53  0.0000000  0 11G06G08G10G28G04G07G05G30G26G02G17
   2186662.32948   1723571.21047  22657857.2154   22657866.1864   22657857.029
        49.0004         44.0004
  -6870967.11747  -5345722.96247  22178716.9464   22178720.9854   22178716.746
        47.0004         43.0004
 -22628495.00548 -17627669.66147  21165198.7134   21165203.8494   21165199.323
        52.0004         47.0004
 -15231067.04748 -11870565.70147  21329718.0214   21329721.6074   21329717.772
        51.0004         46.0004
 -26788725.27348 -20827185.07948  20661053.5714   20661057.9004   20661052.805
        53.0004         48.0004
  -1900691.87747  -1451674.16746  24301960.9704   24301965.0754   24301959.845
        42.0004         37.0004
  -7803698.05347  -6034333.86746  23974334.3724   23974339.3944   23974333.251
        44.0004         40.0004
   2434058.70848   1886751.71547  22087761.9794   22087768.4504   22087762.013
        50.0004         45.0004
   1316379.42947   1040280.60246  24488478.1004   24488486.1314   24488479.179
        43.0004         39.0004
 -13519195.47348 -10518690.50747  21497132.6194   21497134.9914   21497132.691
        51.0004         47.0004
  -7055339.97747  -5454871.36746  23987295.0434   23987303.0384   23987295.416
        44.0004         40.0004
 14  5 31  0 53 30.0000000  0 11G06G08G10G28G04G07G05G30G26G02G17
   2275579.61648   1792857.38347  22674778.2544   22674787.3164   22674777.569
        49.0004         44.0004
  -6769948.71847  -5267007.33147  22197940.6054   22197945.8924   22197940.322
        47.0004         43.0004
 -22685896.84148 -17672398.31847  21154276.0074   21154280.6434   21154276.306
        52.0004         47.0004
 -15265099.06448 -11897084.10047  21323241.7854   21323245.4544   21323241.641
        51.0004         46.0004
 -26746216.22848 -20794061.13748  20669142.6284   20669146.9244   20669142.273
        53.0004         48.0004
  -1795885.24347  -1370006.68946  24321903.7904   24321909.9064   24321904.107
        42.0004         37.0004
  -7897341.24547  -6107302.45046  23956514.5524   23956519.8304   23956513.783
        44.0004         40.0004
   2520432.32048   1954055.84047  22104198.1664   22104204.5004   22104198.107
        50.0004         45.0004
   1328655.75947   1049846.67946  24490813.6024   24490820.9524   24490813.861
        43.0004         38.0004
 -13529980.01548 -10527094.01447  21495080.3834   21495082.4974   21495080.738
        51.0004         47.0004
  -7045927.54847  -5447536.90546  23989086.6274   23989094.8774   23989086.421
        44.0004         40.0004
 14  5 31  0 54  0.0000000  0 11G06G08G10G28G04G07G05G30G26G02G17
   2364600.08048   1862223.95747  22691718.4264   22691726.5454   22691717.684
        49.0004         44.0004
  -6668736.46247  -5188140.63147  22217200.9794   22217205.2324   22217200.335
        47.0004         43.0004
 -22743007.09648 -17716899.77147  21143407.8034   21143412.8234   21143408.470
        52.0004         47.0004
 -15298749.49048 -11923305.15947  21316837.5964   21316841.4774   21316837.974
        51.0004         46.0004
 -26703300.84748 -20760620.56448  20677308.9064   20677313.5904   20677308.532
        53.0004         48.0004
  -1691146.24147  -1288391.90846  24341834.7464   24341840.2884   24341835.569
        42.0004         37.0004
  -7991053.77747  -6180325.06946  23938681.3584   23938686.7264   23938680.660
        44.0004         40.0004
   2606989.61448   2021503.08747  22120669.6314   22120675.0744   22120669.552
        50.0004         45.0004
   1340805.24347   1059313.89546  24493126.6344   24493134.5864   24493126.515
        43.0004         38.0004
 -13540330.67348 -10535159.42647  21493110.4034   21493112.8544   21493110.653
        51.0004         47.0004
  -7036754.81547  -5440389.22046  23990832.9704   23990839.0044   23990831.805
        45.0004         40.0004
 14  5 31  0 54 30.0000000  0 11G06G08G10G28G04G07G05G30G26G02G17
   2453719.79648   1931667.86847  22708677.0294   22708685.4844   22708676.506
        49.0004         44.0004
  -6567335.05447  -5109126.53347  22236495.4194   22236500.3844   22236496.050
        47.0004         43.0004
 -22799824.30248 -17761172.87247  21132595.6864   21132601.0414   21132596.762
        52.0004         47.0004
 -15332017.40948 -11949228.15947  21310507.2974   21310511.0604   21310507.334
        51.0004         46.0004
 -26659982.68148 -20726866.13848  20685552.3204   20685556.3614   20685551.804
        53.0004         48.0004
  -1586478.50647  -1206832.64546  24361753.8004   24361757.6594   24361752.789
        42.0004         37.0004
  -8084834.70747  -6253400.99846  23920835.5934   23920839.8784   23920835.277
        44.0004         39.0004
   2693726.44448   2089090.23047  22137175.7944   22137181.4724   22137175.213
        50.0004         45.0004
   1352825.04147   1068680.08446  24495414.7974   24495421.8744   24495413.783
        43.0004         38.0004
 -13550249.66648 -10542888.47447  21491223.4754   21491225.8204   21491223.521
        52.0004         47.0004
  -7027823.15047  -5433429.39146  23992531.7594   23992539.5264   23992531.791
        45.0004         40.0004
 14  5 31  0 55  0.0000000  0 11G06G08G10G28G04G07G05G30G26G02G17
   2542938.00648   2001188.53547  22725654.7944   22725662.9764   22725653.972
        49.0004         44.0004
  -6465745.54147  -5029965.86547  22255826.4184   22255833.2764   22255827.403
        47.0004         42.0004
 -22856343.25248 -17805213.57147  21121840.7964   21121845.4894   21121840.989
        52.0004         47.0004
 -15364897.98548 -11974849.33747  21304250.4634   21304254.0564   21304250.638
        51.0004         46.0004
 -26616262.12348 -20692798.15148  20693871.7114   20693876.9064   20693871.424
        53.0004         48.0004
  -1481882.24047  -1125329.08946  24381656.4344   24381661.6164   24381656.401
        42.0004         37.0004
  -8178679.72047  -6326526.85946  23902977.8924   23902983.1134   23902976.773
        44.0004         40.0004
   2780642.04048   2156816.67447  22153714.5104   22153720.9794   22153714.259
        50.0004         45.0004
   1364715.19847   1077945.23946  24497677.3404   24497684.0414   24497676.729
        43.0004         39.0004
 -13559735.80448 -10550280.23647  21489417.7344   21489420.1074   21489418.167
        52.0004         47.0004
  -7019130.49347  -5426655.80746  23994186.2704   23994192.6624   23994185.309
        45.0004         41.0004
 14  5 31  0 55 30.0000000  0 11G06G08G10G28G04G07G05G30G26G02G17
   2632252.22048   2070784.01247  22742650.5764   22742659.5034   22742649.971
        48.0004         44.0004
  -6363971.29647  -4950661.26147  22275194.7324   22275199.3514   22275194.710
        47.0004         42.0004
 -22912560.54748 -17849019.20647  21111142.8144   21111147.3414   21111143.543
        52.0004         47.0004
 -15397388.11848 -12000166.27447  21298067.3494   21298071.9734   21298067.823
        51.0004         46.0004
 -26572141.41748 -20658418.37348  20702267.7724   20702272.3394   20702267.471
        53.0004         48.0004
  -1377359.70847  -1043882.96846  24401547.8084   24401551.6754   24401546.530
        42.0004         37.0004
  -8272586.20447  -6399700.62946  23885107.1714   23885111.9014   23885107.160
        44.0004         40.0004
   2867733.77448   2224680.36747  22170287.2014   22170293.9454   22170287.319
        50.0004         45.0004
   1376474.35747   1087108.32946  24499913.4014   24499921.8084   24499913.528
        43.0004         39.0004
 -13568789.81848 -10557335.27447  21487695.2924   21487697.4064   21487695.442
        52.0004         47.0004
  -7010676.31747  -5420068.04046  23995794.4744   23995801.8794   23995793.937
        45.0004         41.0004
 14  5 31  0 56  0.0000000  0 11G06G08G10G28G04G07G05G30G26G02G17
   2721657.32748   2140450.31147  22759663.8094   22759671.6174   22759663.250
        48.0004         44.0004
  -6262017.89247  -4871217.04147  22294595.6444   22294600.2564   22294596.096
        47.0004         42.0004
 -22968476.12348 -17892589.73647  21100502.3214   21100507.0554   21100502.913
        52.0004         47.0004
 -15429487.90148 -12025179.04347  21291958.8934   21291962.5064   21291959.529
        51.0004         47.0004
 -26527625.35148 -20623730.50648  20710738.5864   20710743.3064   20710738.612
        53.0004         48.0004
  -1272915.57747   -962497.96046  24421421.4784   24421425.6204   24421421.754
        42.0004         37.0004
  -8366554.54147  -6472922.59946  23867225.8304   23867231.3144   23867225.628
        44.0004         40.0004
   2954996.27048   2292677.12447  22186893.0514   22186899.6514   22186893.082
        50.0004         45.0004
   1388098.26247   1096166.03346  24502126.2564   24502134.1784   24502125.887
        43.0004         39.0004
 -13577414.87148 -10564056.06347  21486053.4644   21486056.0594   21486053.950
        52.0004         47.0004
  -7002462.93247  -5413667.90146  23997357.9464   23997364.9544   23997357.321
        45.0004         41.0004
 14  5 31  0 56 30.0000000  0 11G06G08G10G28G04G07G05G30G26G02G17
   2811150.75048   2210185.42047  22776693.9914   22776701.5014   22776693.393
        48.0004         44.0004
  -6159888.59147  -4791635.76947  22314029.7984   22314036.3594   22314029.814
        47.0004         42.0004
 -23024087.02648 -17935922.86147  21089919.9654   21089925.2644   21089920.701
        52.0004         47.0004
 -15461194.49348 -12049885.42847  21285925.0444   21285929.0274   21285925.597
        51.0004         46.0004
 -26482716.29748 -20588736.42048  20719284.6744   20719289.6974   20719284.262
        53.0004         48.0004
  -1168552.26047   -881175.92246  24441282.2254   24441286.2394   24441281.418
        42.0004         37.0004
  -8460582.25847  -6546190.83446  23849333.0844   23849338.3904   23849332.478
        45.0004         40.0004
   3042426.86348   2360804.86647  22203530.4234   22203536.8054   22203530.532
        50.0004         45.0004
   1399585.49547   1105117.22046  24504312.8704   24504318.4194   24504311.467
        43.0004         39.0004
 -13585611.50148 -10570443.01447  21484493.9284   21484496.1244   21484494.237
        52.0004         47.0004
  -6994489.59147  -5407454.81346  23998874.8564   23998882.0504   23998874.269
        45.0004         41.0004
 14  5 31  0 57  0.0000000  0 11G06G08G10G28G04G07G05G30G26G02G17
   2900732.03848   2279988.99647  22793740.7304   22793749.5614   22793740.059
        48.0004         44.0004
  -6057584.54547  -4711918.32647  22333499.2744   22333503.5154   22333498.044
        47.0004         42.0004
 -23079387.58648 -17979014.16047  21079396.5744   21079401.7784   21079397.228
        52.0004         47.0004
 -15492503.02248 -12074281.63647  21279967.7714   21279970.9754   21279967.669
        51.0004         46.0004
 -26437414.49748 -20553436.30348  20727905.4034   20727909.7344   20727904.898
        53.0004         48.0004
  -1064269.52747   -799916.67946  24461126.7434   24461129.7084   24461125.317
        42.0004         37.0004
  -8554664.91047  -6619501.87946  23831429.5224   23831434.1454   23831429.026
        45.0004         40.0004
   3130024.97448   2429063.13847  22220199.9594   22220205.8144   22220199.903
        50.0004         45.0004
   1410936.52247   1113962.28546  24506472.7854   24506478.2264   24506471.923
        43.0004         38.0004
 -13593378.62348 -10576495.28247  21483015.4294   21483018.2724   21483015.979
        52.0004         47.0004
  -6986754.35647  -5401427.26046  24000346.5224   24000353.1724   24000346.105
        45.0004         41.0004
 14  5 31  0 57 30.0000000  0 11G06G08G10G28G04G07G05G30G26G02G17
   2990397.27348   2349857.97047  22810803.6854   22810811.4604   22810803.430
        48.0004         44.0004
  -5955110.08847  -4632068.09847  22352998.3114   22353003.4654   22352998.468
        47.0004         42.0004
 -23134376.21848 -18021862.40247  21068932.9844   21068937.7694   21068933.180
        52.0004         47.0004
 -15523411.86848 -12098366.40747  21274085.8624   21274089.7784   21274085.891
        51.0004         46.0004
 -26391723.65848 -20517833.03648  20736600.1324   20736604.5054   20736599.634
        53.0004         48.0004
   -960070.97747   -718723.01846  24480954.4164   24480959.1634   24480954.572
        42.0004         37.0004
  -8648801.69547  -6692855.11446  23813516.3174   23813520.3994   23813515.076
        45.0004         40.0004
   3217786.53848   2497448.76947  22236899.4574   22236906.7524   22236900.347
        49.0004         45.0004
   1422148.42347   1122698.92346  24508604.6844   24508611.9204   24508604.757
        43.0004         38.0004
 -13600718.30648 -10582214.47847  21481619.2964   21481621.5994   21481619.648
        52.0004         47.0004
  -6979258.10847  -5395585.92746  24001773.7794   24001780.2104   24001772.571
        45.0004         41.0004
 14  5 31  0 58  0.0000000  0 11G06G08G10G28G04G07G05G30G26G02G17
   3080143.63848   2419790.17047  22827882.6574   22827889.4874   22827881.462
        49.0004         44.0004
  -5852468.77847  -4552087.86547  22372530.6904   22372534.8564   22372530.083
        47.0004         42.0004
 -23189050.27548 -18064465.52347  21058528.2714   21058533.4694   21058529.000
        52.0004         47.0004
 -15553919.00948 -12122138.16347  21268280.7604   21268283.9014   21268280.626
        51.0004         46.0004
 -26345646.39448 -20481928.65748  20745368.0014   20745372.6234   20745367.539
        53.0004         48.0004
   -855958.96647   -637596.81946  24500767.2494   24500770.6914   24500766.840
        42.0004         37.0004
  -8742990.04247  -6766248.54146  23795591.4824   23795597.4724   23795591.517
        45.0004         40.0004
   3305708.58148   2565959.45847  22253631.9764   22253637.8094   22253631.625
        49.0004         45.0004
   1433219.27647   1131325.67646  24510711.3874   24510718.1104   24510710.906
        43.0004         39.0004
 -13607631.38348 -10587601.25947  21480304.0864   21480305.8674   21480304.007
        52.0004         47.0004
  -6972000.56647  -5389930.61446  24003154.5024   24003160.8414   24003154.049
        45.0004         41.0004
 14  5 31  0 58 30.0000000  0 11G06G08G10G28G04G07G05G30G26G02G17
   3169971.70648   2489786.03647  22844976.1004   22844984.0324   22844975.188
        48.0004         44.0004
  -5749660.73047  -4471977.68047  22392094.1304   22392099.7964   22392094.177
        47.0004         42.0004
 -23243403.76548 -18106818.84747  21048185.5654   21048190.1534   21048185.823
        52.0004         47.0004
 -15584018.54148 -12145592.30047  21262552.3224   21262555.7034   21262552.938
        51.0004         46.0004
 -26299181.70048 -20445722.38748  20754210.2264   20754214.4334   20754209.866
        53.0004         48.0004
   -751932.71047   -556537.44946  24520561.4704   24520566.6744   24520561.522
        42.0004         37.0004
  -8837224.63447  -6839677.99946  23777660.0864   23777664.8054   23777659.464
        45.0004         40.0004
   3393791.50148   2634595.50547  22270392.7604   22270398.8104   22270392.978
        49.0004         45.0004
   1444150.86947   1139843.90446  24512793.4814   24512798.7604   24512792.623
        43.0004         38.0004
 -13614115.82648 -10592654.03547  21479069.3134   21479071.8804   21479069.720
        52.0004         47.0004
  -6964977.70147  -5384458.16846  24004490.5454   24004497.6184   24004489.916
        45.0004         41.0004
 14  5 31  0 59  0.0000000  0 11G06G08G10G28G04G07G05G30G26G02G17
   3259872.99948   2559838.96647  22862083.6914   22862091.7464   22862082.545
        48.0004         44.0004
  -5646695.05847  -4391744.69047  22411688.0604   22411693.2984   22411687.813
        47.0004         42.0004
 -23297439.38448 -18148924.48147  21037902.5744   21037907.2404   21037903.152
        52.0004         47.0004
 -15613713.32448 -12168731.05147  21256901.6084   21256905.5374   21256902.038
        51.0004         46.0004
 -26252338.07648 -20409220.84348  20763123.8494   20763128.7694   20763123.497
        53.0004         48.0004
   -648000.02847   -475550.97346  24540340.7374   24540344.8654   24540339.455
        42.0004         37.0004
  -8931509.10547  -6913146.33246  23759717.7894   23759722.7654   23759717.145
        45.0004         40.0004
   3482026.68848   2703350.20447  22287183.5804   22287189.9864   22287183.556
        49.0004         45.0004
   1454935.61647   1148247.70746  24514844.3404   24514850.9874   24514844.555
        43.0004         38.0004
 -13620177.99748 -10597377.76447  21477915.6234   21477918.3474   21477916.293
        52.0004         47.0004
  -6958195.67147  -5379173.38546  24005780.8524   24005788.3464   24005780.567
        46.0004         41.0004
 14  5 31  0 59 30.0000000  0 11G06G08G10G28G04G07G05G30G26G02G17
   3349846.47848   2629948.15947  22879204.2664   22879213.1264   22879203.792
        48.0004         43.0004
  -5543573.50547  -4311390.22947  22431310.9444   22431316.2774   22431311.291
        46.0004         42.0004
 -23351152.56248 -18190778.86247  21027681.4364   21027686.2174   21027682.026
        52.0004         47.0004
 -15642999.69848 -12191551.56147  21251328.4584   21251332.3274   21251328.950
        51.0004         47.0004
 -26205116.35648 -20372424.68948  20772110.0044   20772114.8854   20772109.916
        52.0004         48.0004
   -544161.67547   -394638.02546  24560100.3544   24560102.9394   24560099.203
        42.0004         37.0004
  -9025839.37247  -6986650.34946  23741767.1354   23741771.3874   23741766.709
        45.0004         40.0004
   3570412.92548   2772222.60447  22304002.9394   22304009.3634   22304003.041
        49.0004         45.0004
   1465573.47747   1156537.07346  24516866.9894   24516876.0204   24516867.549
        43.0004         38.0004
 -13625817.41248 -10601772.07947  21476842.7684   21476845.1884   21476842.904
        52.0004         47.0004
  -6951652.57247  -5374074.78546  24007024.9044   24007032.2394   24007024.707
        46.0004         41.0004
 14  5 31  1  0  0.0000000  0 11G06G08G10G28G04G07G05G30G26G02G17
   3439890.61448   2700112.40647  22896339.1664   22896346.8904   22896338.729
        48.0004         43.0004
  -5440298.35447  -4230916.09447  22450963.3064   22450969.2804   22450964.130
        46.0004         42.0004
 -23404539.22048 -18232378.81447  21017521.7184   21017526.7994   21017522.868
        52.0004         47.0004
 -15671874.04848 -12214051.01947  21245834.5584   21245837.8554   21245834.519
        51.0004         47.0004
 -26157517.92548 -20335334.98748  20781167.8994   20781172.3044   20781167.441
        52.0004         48.0004
   -440418.61547   -313799.30146  24579840.4104   24579845.1414   24579840.309
        42.0004         37.0004
  -9120211.89647  -7060187.29346  23723809.6714   23723814.9194   23723808.307
        45.0004         40.0004
   3658948.52948   2841211.38447  22320850.0584   22320857.0354   22320850.534
        49.0004         44.0004
   1476064.07747   1164711.67646  24518864.1334   24518871.5444   24518864.375
        43.0004         38.0004
 -13631034.02248 -10605836.92547  21475850.2484   21475852.6884   21475850.763
        52.0004         47.0004
  -6945347.06247  -5369161.31346  24008226.0644   24008232.6634   24008225.291
        46.0004         41.0004
 14  5 31  1  0 30.0000000  0 11G06G08G10G28G04G07G05G30G26G02G17
   3530003.10248   2770329.91647  22913486.9704   22913494.9764   22913486.429
        48.0004         43.0004
  -5336872.36047  -4150324.40747  22470644.7304   22470649.7134   22470644.726
        46.0004         42.0004
 -23457595.92248 -18273721.65547  21007425.5634   21007430.2514   21007426.384
        52.0004         47.0004
 -15700333.22548 -12236226.95747  21240418.5344   21240422.0874   21240418.739
        51.0004         47.0004
 -26109545.00048 -20297953.47348  20790296.6794   20790301.5384   20790296.380
        52.0004         48.0004
   -336772.81747   -233036.38746  24599565.6884   24599568.9004   24599563.622
        42.0004         37.0004
  -9214624.36947  -7133755.36546  23705843.2414   23705848.0324   23705842.369
        45.0004         41.0004
   3747631.03148   2910314.63847  22337727.0424   22337733.0844   22337726.213
        49.0004         44.0004
   1486405.97447   1172770.38646  24520833.1374   24520839.4504   24520832.605
        43.0004         38.0004
 -13635828.45748 -10609572.80947  21474937.5264   21474940.1014   21474937.664
        52.0004         47.0004
  -6939277.95947  -5364432.05646  24009380.9594   24009387.3624   24009380.252
        46.0004         41.0004
 14  5 31  1  1  0.0000000  0 11G06G08G10G28G04G07G05G30G26G02G17
   3620180.04347   2840597.63147  22930647.1374   22930654.8464   22930646.919
        47.0004         43.0004
  -5233300.19047  -4069618.82547  22490354.2134   22490358.9554   22490353.733
        46.0004         42.0004
 -23510321.44448 -18314806.43747  20997392.5964   20997396.6574   20997392.831
        52.0004         47.0004
 -15728376.18048 -12258078.57447  21235082.1164   21235085.8604   21235082.714
        51.0004         47.0004
 -26061201.40748 -20260283.12648  20799495.7964   20799500.6734   20799495.824
        52.0004         48.0004
   -233227.80347   -152351.98046  24619268.4774   24619273.0594   24619267.599
        42.0004         37.0004
  -9309074.94147  -7207353.12346  23687870.2164   23687874.6564   23687869.155
        46.0004         41.0004
   3836456.34448   2979529.17347  22354629.5364   22354635.3004   22354629.250
        49.0004         44.0004
   1496596.31547   1180711.01946  24522771.9184   24522779.2714   24522770.544
        43.0004         38.0004
 -13640203.06548 -10612981.55347  21474105.4554   21474107.6464   21474105.708
        52.0004         47.0004
  -6933446.61347  -5359888.07446  24010490.6304   24010497.4874   24010489.553
        46.0004         41.0004
 14  5 31  1  1 30.0000000  0 11G06G08G10G28G04G07G05G30G26G02G17
   3710419.02747   2910913.69447  22947820.2484   22947827.4764   22947818.687
        47.0004         43.0004
  -5129584.73547  -3988801.58246  22510089.2474   22510094.1444   22510090.257
        46.0004         41.0004
 -23562712.63148 -18355630.69747  20987422.5224   20987427.6194   20987423.099
        52.0004         47.0004
 -15755999.97048 -12279603.57247  21229825.6564   21229828.9904   21229825.626
        51.0004         47.0004
 -26012489.44648 -20222325.74148  20808765.6754   20808770.1344   20808765.320
        52.0004         48.0004
   -129785.61747    -71747.71146  24638952.9064   24638958.2484   24638952.121
        42.0004         37.0004
  -9403561.85347  -7280979.19746  23669889.8034   23669893.9854   23669888.569
        46.0004         41.0004
   3925421.91148   3048852.99047  22371558.8104   22371565.1934   22371558.792
        49.0004         44.0004
   1506633.72547   1188532.49046  24524681.6844   24524688.9844   24524681.125
        43.0004         38.0004
 -13644158.72948 -10616063.84947  21473352.7384   21473354.9274   21473352.884
        52.0004         47.0004
  -6927851.70947  -5355528.32346  24011554.6124   24011562.2784   24011554.664
        46.0004         41.0004
 14  5 31  1  2  0.0000000  0 11G06G08G10G28G04G07G05G30G26G02G17
   3800718.74148   2981277.07347  22965002.9024   22965011.0664   22965002.472
        48.0004         43.0004
  -5025728.03547  -3907874.28646  22529853.6264   22529857.5074   22529854.008
        46.0004         41.0004
 -23614765.20548 -18396191.10947  20977517.1224   20977522.4194   20977517.986
        52.0004         47.0004
 -15783200.98848 -12300799.12847  21224649.2234   21224652.4904   21224649.672
        51.0004         47.0004
 -25963410.39448 -20184082.31248  20818105.1394   20818109.7304   20818104.881
        52.0004         48.0004
    -26446.82947      8775.99546  24658617.7354   24658621.5754   24658617.477
        42.0004         37.0004
  -9498081.39547  -7354630.70046  23651902.1844   23651907.2324   23651902.023
        46.0004         41.0004
   4014526.24448   3118284.94247  22388514.5344   22388521.0014   22388514.553
        49.0004         44.0004
   1516517.98347   1196234.61846  24526561.0184   24526567.5814   24526562.179
        43.0004         38.0004
 -13647694.97448 -10618819.32447  21472679.1774   21472682.4044   21472679.636
        52.0004         47.0004
  -6922492.37247  -5351352.13946  24012574.7194   24012581.5924   24012574.229
        46.0004         41.0004
 14  5 31  1  2 30.0000000  0 11G06G08G10G28G04G07G05G30G26G02G17
   3891075.08248   3051684.58947  22982197.1094   22982205.3344   22982196.480
        48.0004         43.0004
  -4921734.81247  -3826840.60346  22549641.5674   22549646.8274   22549643.179
        46.0004         41.0004
 -23666477.75648 -18436486.56147  20967676.6374   20967681.4964   20967677.342
        52.0004         47.0004
 -15809978.14648 -12321664.41047  21219553.5734   21219557.3194   21219554.026
        51.0004         47.0004
 -25913968.29548 -20145555.98248  20827514.1784   20827518.1984   20827513.485
        52.0004         48.0004
     76784.85747     89216.24746  24678261.7234   24678267.3084   24678261.898
        42.0004         37.0004
  -9592632.35147  -7428306.69146  23633910.1724   23633914.6224   23633910.045
        46.0004         41.0004
   4103765.07448   3187821.70047  22405495.9584   22405503.6184   22405496.249
        49.0004         44.0004
   1526245.94447   1203814.96446  24528412.9154   24528420.3724   24528412.516
        43.0004         38.0004
 -13650814.37648 -10621249.98847  21472085.4074   21472087.7904   21472086.225
        52.0004         47.0004
  -6917369.43947  -5347360.15746  24013548.9294   24013555.6424   24013549.253
        46.0004         41.0004
 14  5 31  1  3  0.0000000  0 11G06G08G10G28G04G07G05G30G26G02G17
   3981486.30048   3122134.86347  22999401.5384   22999410.0834   22999401.008
        48.0004         43.0004
  -4817607.49947  -3745702.43046  22569457.7264   22569462.1984   22569457.776
        46.0004         41.0004
 -23717846.56348 -18476514.16947  20957901.6624   20957906.1184   20957902.375
        52.0004         47.0004
 -15836328.40548 -12342197.03747  21214539.9534   21214543.2034   21214539.803
        51.0004         47.0004
 -25864164.66948 -20106747.95148  20836990.6434   20836995.3054   20836990.610
        52.0004         48.0004
    179908.05446    169571.95246  24697885.4494   24697891.3284   24697885.656
        41.0004         36.0004
  -9687211.58347  -7502004.70646  23615912.5544   23615916.8174   23615911.996
        46.0004         41.0004
   4193136.46748   3257461.75047  22422503.6194   22422509.8834   22422503.148
        49.0004         44.0004
   1535816.87947   1211272.95346  24530233.0114   24530241.2124   24530232.684
        43.0004         38.0004
 -13653517.45748 -10623356.24547  21471571.1444   21471573.9784   21471571.824
        52.0004         47.0004
  -6912481.66147  -5343551.42446  24014479.2474   24014486.4304   24014479.029
        46.0004         41.0004
 14  5 31  1  3 30.0000000  0 11G06G08G10G28G04G07G05G30G26G02G17
   4071947.87148   3192624.37547  23016617.0834   23016624.3424   23016615.365
        48.0004         43.0004
  -4713351.41847  -3664463.91646  22589296.8984   22589301.4974   22589296.931
        46.0004         41.0004
 -23768870.74348 -18516273.23147  20948191.6544   20948196.4934   20948192.182
        52.0004         47.0004
 -15862250.93248 -12362396.36547  21209606.7534   21209610.7964   21209606.760
        51.0004         47.0004
 -25814004.23848 -20067661.89348  20846536.5594   20846540.2664   20846536.056
        52.0004         48.0004
    282918.27846    249839.64146  24717489.6924   24717491.2234   24717487.585
        41.0004         36.0004
  -9781818.58747  -7575724.36646  23597907.7174   23597913.8274   23597908.643
        46.0004         41.0004
   4282635.68748   3327201.41347  22439534.0944   22439541.3214   22439534.545
        49.0004         44.0004
   1545227.38247   1218605.90946  24532023.7144   24532033.3494   24532023.783
        43.0004         38.0004
 -13655806.86148 -10625140.15647  21471135.9584   21471137.8754   21471136.064
        52.0004         47.0004
  -6907830.58647  -5339927.12646  24015364.4844   24015370.9794   24015364.157
        46.0004         41.0004
 14  5 31  1  4  0.0000000  0 11G06G08G10G28G04G07G05G30G26G02G17
   4162460.14748   3263153.39447  23033839.7654   23033847.9764   23033839.625
        48.0004         43.0004
  -4608966.73247  -3583125.19646  22609160.5044   22609163.2694   22609160.893
        46.0004         41.0004
 -23819544.26248 -18555759.05348  20938548.8624   20938553.4904   20938549.944
        52.0004         48.0004
 -15887740.55748 -12382258.37347  21204756.3374   21204759.4484   21204756.325
        51.0004         47.0004
 -25763486.65748 -20028297.52548  20856149.3614   20856153.4364   20856149.017
        52.0004         48.0004
    385817.10346    330020.53346  24737066.8914   24737073.1604   24737068.672
        41.0004         36.0004
  -9876447.94747  -7649461.44046  23579901.4664   23579907.1444   23579901.147
        46.0004         41.0004
   4372262.93648   3397040.82847  22456591.0134   22456596.4304   22456590.181
        49.0004         44.0004
   1554478.72547   1225814.84246  24533786.0164   24533792.1644   24533786.312
        43.0004         38.0004
 -13657680.96148 -10626600.45247  21470778.3774   21470781.5174   21470778.901
        52.0004         47.0004
  -6903412.80847  -5336484.62346  24016205.2384   24016211.7774   24016204.526
        46.0004         41.0004
 14  5 31  1  4 30.0000000  0 11G06G08G10G28G04G07G05G30G26G02G17
   4253019.22648   3333718.88747  23051073.4554   23051082.4604   23051072.230
        48.0004         43.0004
  -4504457.97447  -3501689.79446  22629047.3944   22629053.1334   22629048.786
        46.0004         41.0004
 -23869865.66048 -18594970.49847  20928972.7464   20928977.4064   20928973.679
        52.0004         47.0004
 -15912796.07448 -12401782.11747  21199987.8454   21199991.3974   21199988.179
        51.0004         47.0004
 -25712615.81348 -19988657.89948  20865829.3044   20865834.4174   20865829.167
        52.0004         48.0004
    488600.67546    410111.61845  24756627.5314   24756631.9774   24756627.187
        40.0004         35.0004
  -9971098.73247  -7723215.21146  23561890.2604   23561895.8144   23561889.548
        46.0004         41.0004
   4462014.08548   3466976.80147  22473669.6874   22473675.6274   22473668.978
        49.0004         44.0004
   1563568.08747   1232897.55246  24535514.8514   24535521.7264   24535514.372
        42.0004         38.0004
 -13659142.22448 -10627739.06547  21470501.1074   21470503.3924   21470501.182
        52.0004         47.0004
  -6899229.22547  -5333224.60846  24017001.1034   24017008.1294   24017001.118
        46.0004         41.0004
 14  5 31  1  5  0.0000000  0 11G06G08G10G28G04G07G05G30G26G02G17
   4343622.35747   3404318.70047  23068314.5474   23068322.2434   23068313.522
        47.0004         42.0004
  -4399828.46447  -3420160.30346  22648958.0304   22648963.0354   22648959.018
        46.0004         41.0004
 -23919832.31548 -18633905.52248  20919464.9794   20919469.8084   20919465.300
        52.0004         48.0004
 -15937415.41348 -12420965.97147  21195303.2294   21195306.8464   21195303.322
        51.0004         47.0004
 -25661394.47348 -19948745.15048  20875576.8874   20875581.5794   20875576.812
        52.0004         48.0004
    591266.69446    490111.09245  24776162.8164   24776167.6144   24776163.857
        40.0004         35.0004
 -10065768.46047  -7796983.74547  23543876.3364   23543879.8874   23543874.796
        46.0004         42.0004
   4551886.22748   3537007.05047  22490770.1044   22490777.6694   22490770.465
        49.0004         44.0004
   1572493.77347   1239852.74146  24537212.9174   24537220.8854   24537212.398
        42.0004         38.0004
 -13660191.83448 -10628556.90647  21470301.4774   21470303.4914   21470301.473
        52.0004         47.0004
  -6895279.37147  -5330146.70946  24017752.7024   24017759.3654   24017752.327
        46.0004         41.0004
 14  5 31  1  5 30.0000000  0 11G06G08G10G28G04G07G05G30G26G02G17
   4434267.01847   3474950.87747  23085563.0904   23085570.8474   23085562.596
        47.0004         42.0004
  -4295081.52647  -3338539.31046  22668891.0304   22668895.3874   22668891.190
        46.0004         41.0004
 -23969441.44648 -18672561.94748  20910024.7404   20910028.9014   20910025.100
        52.0004         48.0004
 -15961596.32648 -12439808.20147  21190701.3034   21190704.6934   21190701.825
        51.0004         47.0004
 -25609825.11048 -19908561.22047  20885390.2164   20885394.5704   20885389.786
        52.0004         47.0004
    693813.33446    570017.54845  24795679.9404   24795681.5404   24795678.340
        40.0004         35.0004
 -10160454.83747  -7870765.24147  23525857.0824   23525861.7524   23525856.043
        46.0004         42.0004
   4641876.61048   3607129.42647  22507895.1284   22507902.1484   22507895.595
        49.0004         44.0004
   1581254.27347   1246679.22946  24538880.1344   24538888.1624   24538880.387
        42.0004         38.0004
 -13660831.19848 -10629055.07047  21470179.7084   21470181.4594   21470179.999
        52.0004         47.0004
  -6891562.80047  -5327250.59846  24018459.4214   24018466.8634   24018459.328
        46.0004         41.0004
 14  5 31  1  6  0.0000000  0 11G06G08G10G28G04G07G05G30G26G02G17
   4524950.87947   3545613.59747  23102819.6734   23102827.7844   23102819.142
        47.0004         42.0004
  -4190220.06247  -3256829.07446  22688843.9534   22688851.0214   22688845.678
        46.0004         41.0004
 -24018689.80448 -18710937.26448  20900652.7134   20900657.2544   20900653.321
        52.0004         48.0004
 -15985335.89648 -12458306.52447  21186183.9454   21186187.8324   21186184.361
        51.0004         47.0004
 -25557910.10148 -19868107.95348  20895269.4204   20895273.6974   20895269.017
        52.0004         48.0004
    796238.51746    649829.33945  24815169.8944   24815176.5694   24815169.063
        40.0004         35.0004
 -10255155.38347  -7944557.78147  23507835.1934   23507840.7034   23507834.662
        46.0004         42.0004
   4731982.73148   3677341.98747  22525042.3534   22525047.8604   22525042.114
        48.0004         44.0004
   1589848.30747   1253375.97646  24540516.2904   24540523.1744   24540516.117
        42.0004         38.0004
 -13661060.94448 -10629234.05647  21470135.6144   21470138.1984   21470136.305
        52.0004         47.0004
  -6888079.18747  -5324536.00446  24019122.9434   24019129.2454   24019122.651
        46.0004         41.0004
 14  5 31  1  6 30.0000000  0 11G06G08G10G28G04G07G05G30G26G02G17
   4615669.05047   3616303.05747  23120082.7664   23120091.2224   23120082.730
        47.0004         42.0004
  -4085249.56547  -3175033.87946  22708820.9034   22708826.1834   22708820.930
        45.0004         41.0004
 -24067576.97648 -18749031.13348  20891349.6094   20891354.3974   20891350.480
        52.0004         48.0004
 -16008634.21648 -12476461.02547  21181750.8684   21181754.3074   21181751.040
        51.0004         47.0004
 -25505654.40248 -19827389.22048  20905213.3544   20905217.9054   20905212.870
        52.0004         48.0004
    898537.89546    729543.12045  24834636.2574   24834640.5584   24834636.661
        39.0004         35.0004
 -10349869.76247  -8018361.10547  23489812.0554   23489816.6164   23489811.393
        46.0004         42.0004
   4822199.51348   3747640.78947  22542209.8744   22542215.5174   22542209.821
        48.0004         44.0004
   1598272.03947   1259940.02146  24542117.8694   24542126.9344   24542118.346
        42.0004         38.0004
 -13660884.73548 -10629096.71147  21470169.2924   21470171.5644   21470169.415
        52.0004         47.0004
  -6884830.05547  -5322004.12846  24019740.6764   24019747.5424   24019740.349
        46.0004         41.0004
 14  5 31  1  7  0.0000000  0 11G06G08G10G28G04G07G05G30G26G02G17
   4706422.91847   3687020.32747  23137352.6164   23137361.1094   23137352.421
        47.0004         42.0004
  -3980169.07847  -3093152.98446  22728816.4484   22728822.0284   22728816.801
        45.0004         41.0004
 -24116096.17648 -18786838.27148  20882116.5474   20882121.4004   20882117.406
        52.0004         48.0004
 -16031484.99048 -12494266.77847  21177402.7234   21177404.8894   21177402.576
        51.0004         47.0004
 -25453056.83248 -19786404.08948  20915222.5224   20915226.4264   20915222.066
        52.0004         48.0004
   1000713.30646    809160.29645  24854078.7344   24854087.1414   24854080.037
        39.0004         35.0004
 -10444591.48747  -8092170.15547  23471786.3344   23471790.7524   23471785.937
        46.0004         42.0004
   4912528.22448   3818026.80047  22559399.3214   22559405.0104   22559398.550
        48.0004         44.0004
   1606527.87647   1266373.24846  24543688.3104   24543696.2334   24543688.762
        43.0004         38.0004
 -13660299.95848 -10628641.00247  21470281.1554   21470283.0094   21470280.782
        52.0004         47.0004
  -6881810.97947  -5319651.50146  24020315.9354   24020322.1054   24020314.693
        46.0004         41.0004
 14  5 31  1  7 30.0000000  0 11G06G08G10G28G04G07G05G30G26G02G17
   4797208.07247   3757761.97947  23154628.0994   23154636.9244   23154627.904
        47.0004         43.0004
  -3874983.82547  -3011190.43946  22748832.1994   22748838.1004   22748832.927
        45.0004         41.0004
 -24164246.43648 -18824357.91848  20872953.8944   20872958.9374   20872954.787
        52.0004         48.0004
 -16053887.88348 -12511723.54047  21173138.8704   21173142.3024   21173139.177
        51.0004         47.0004
 -25400121.81748 -19745156.02248  20925295.4464   20925300.0394   20925295.045
        52.0004         48.0004
   1102761.00446    888677.95245  24873499.1314   24873501.1124   24873498.780
        39.0004         34.0004
 -10539320.07147  -8165984.56547  23453760.2724   23453764.7584   23453759.890
        46.0004         42.0004
   5002964.06648   3888496.29747  22576607.8854   22576615.0094   22576607.905
        48.0004         43.0004
   1614612.47947   1272673.04846  24545227.6454   24545234.9294   24545228.038
        43.0004         38.0004
 -13659309.62148 -10627869.27647  21470468.4944   21470471.4114   21470469.361
        52.0004         47.0004
  -6879023.35947  -5317479.24246  24020845.3464   24020852.5984   24020845.261
        46.0004         41.0004
 14  5 31  1  8  0.0000000  0 11G06G08G10G28G04G07G05G30G26G02G17
   4888019.42147   3828524.04647  23171909.3644   23171918.0364   23171908.486
        47.0004         42.0004
  -3769699.50047  -2929150.69546  22768867.1244   22768872.5814   22768868.141
        45.0004         41.0004
 -24212027.71048 -18861590.05148  20863861.4254   20863866.6324   20863862.222
        52.0004         48.0004
 -16075843.22148 -12528831.55547  21168960.9784   21168963.9084   21168961.428
        51.0004         47.0004
 -25346854.47948 -19703649.00048  20935432.2724   20935436.5164   20935431.512
        52.0004         48.0004
  -5097003.73146  -3942307.60545  24892895.5354   24892894.7544   24892892.589
        39.0004         34.0004
 -10634055.57547  -8239804.35947  23435732.9864   23435737.7484   23435732.608
        46.0004         42.0004
   5093501.92648   3959045.28747  22593835.6584   22593842.8464   22593836.693
        48.0004         43.0004
   1622521.86047   1278836.29746  24546732.3404   24546739.7054   24546733.554
        43.0004         38.0004
 -13657917.48748 -10626784.46347  21470734.4074   21470735.9194   21470734.168
        52.0004         47.0004
  -6876468.93247  -5315488.69246  24021332.0374   24021337.9254   24021331.237
        46.0004         41.0004
 14  5 31  1  8 30.0000000  0 11G06G08G10G28G04G07G05G30G26G02G17
   4978858.48047   3899307.69647  23189195.3414   23189204.3744   23189194.858
        47.0004         43.0004
  -3664315.37847  -2847033.19246  22788921.6574   22788926.9694   22788922.017
        45.0004         41.0004
 -24259433.14348 -18898529.31848  20854840.1634   20854845.2474   20854841.248
        52.0004         48.0004
 -16097344.72848 -12545585.93147  21164869.0134   21164873.3114   21164869.566
        51.0004         47.0004
 -25293253.56048 -19661882.04147  20945631.6724   20945636.3734   20945631.371
        52.0004         47.0004
  -4995219.17846  -3862994.97645  24912259.8544   24912267.0484   24912260.905
        39.0004         35.0004
 -10728791.72647  -8313624.65347  23417705.1784   23417710.2604   23417704.863
        46.0004         42.0004
   5184143.03348   4029674.72447  22611086.0074   22611091.4744   22611085.525
        48.0004         43.0004
   1630258.55947   1284865.00446  24548205.6314   24548213.9034   24548205.446
        43.0004         38.0004
 -13656121.02248 -10625384.58547  21471075.8794   21471077.8144   21471076.178
        52.0004         47.0004
  -6874143.49847  -5313676.58846  24021775.0894   24021780.0104   24021774.067
        46.0004         41.0004
 14  5 31  1  9  0.0000000  0 11G06G08G10G28G04G07G05G30G26G02G17
   5069720.77847   3970109.46847  23206486.2824   23206495.1774   23206485.090
        47.0004         43.0004
  -3558836.46347  -2764841.83146  22808994.1694   22808998.6014   22808994.092
        45.0004         41.0004
 -24306461.72648 -18935174.93548  20845891.3504   20845895.9154   20845892.208
        52.0004         48.0004
 -16118392.09848 -12561986.44447  21160864.2534   21160867.5454   21160864.437
        51.0004         47.0004
 -25239323.79548 -19619858.84747  20955894.0584   20955898.5384   20955893.970
        52.0004         47.0004
  -4893568.79446  -3783786.93845  24931602.8334   24931609.7894   24931604.441
        39.0004         35.0004
 -10823527.53847  -8387444.68247  23399678.6974   23399683.1984   23399677.150
        46.0004         42.0004
   5274882.67648   4100380.94547  22628353.1904   22628358.8514   22628352.902
        48.0004         43.0004
   1637819.11347   1290756.44446  24549644.0494   24549651.4734   24549643.123
        43.0004         38.0004
 -13653923.31648 -10623672.04847  21471493.7194   21471496.2124   21471493.972
        52.0004         47.0004
  -6872048.43047  -5312043.99546  24022173.0454   24022179.9084   24022172.562
        46.0004         41.0004
 14  5 31  1  9 30.0000000  0 11G06G08G10G28G04G07G05G30G26G02G17
   5160602.91147   4040926.67247  23223780.0644   23223789.1884   23223779.292
        47.0004         42.0004
  -3453266.77847  -2682579.73646  22829082.2154   22829088.6394   22829082.796
        45.0004         41.0004
 -24353111.81548 -18971525.62348  20837014.5164   20837018.5784   20837014.701
        52.0004         48.0004
 -16138983.57948 -12578031.71347  21156945.3604   21156948.9794   21156945.873
        51.0004         47.0004
 -25185068.65948 -19577582.11248  20966219.0054   20966222.8164   20966218.308
        52.0004         48.0004
  -4792055.66946  -3704685.89245  24950922.2994   24950926.9774   24950921.432
        39.0004         34.0004
 -10918261.46247  -8461263.25547  23381649.4484   23381654.8414   23381650.139
        46.0004         42.0004
   5365717.27948   4171161.16947  22645638.3094   22645644.1034   22645637.352
        48.0004         43.0004
   1645201.25947   1296508.89346  24551048.7994   24551056.7944   24551047.911
        43.0004         38.0004
 -13651326.51748 -10621648.53347  21471988.1564   21471990.6184   21471988.406
        52.0004         47.0004
  -6870183.77747  -5310590.93946  24022527.8264   24022534.4304   24022527.424
        46.0004         41.0004
 14  5 31  1 10  0.0000000  0 11G06G08G10G28G04G07G05G30G26G02G17
   5251505.37747   4111759.73547  23241079.0664   23241086.9334   23241077.857
        47.0004         42.0004
  -3347606.76947  -2600247.25246  22849188.8484   22849194.8244   22849189.612
        45.0004         41.0004
 -24399377.49748 -19007576.77848  20828210.0464   20828214.8504   20828210.752
        52.0004         48.0004
 -16159114.47648 -12593718.08847  21153114.2354   21153118.3714   21153115.144
        51.0004         47.0004
 -25130487.61848 -19535051.42947  20976605.2534   20976609.3814   20976604.881
        52.0004         47.0004
  -4690678.69746  -3625690.91245  24970211.8614   24970220.4404   24970213.184
        39.0004         34.0004
 -11012988.06847  -8535076.12247  23363624.8614   23363628.6394   23363623.638
        46.0004         42.0004
   5456647.11448   4242015.58747  22662941.2794   22662947.4674   22662940.676
        48.0004         43.0004
   1652406.46847   1302123.41946  24552420.0214   24552426.9334   24552419.854
        43.0004         38.0004
 -13648329.26248 -10619312.97547  21472558.0194   21472560.3664   21472558.630
        52.0004         47.0004
  -6868545.98147  -5309314.65846  24022838.9954   24022846.3494   24022838.860
        46.0004         41.0004
 14  5 31  1 10 30.0000000  0 11G06G08G10G28G04G07G05G30G26G02G17
   5342423.43947   4182604.94347  23258380.0034   23258388.0844   23258378.995
        47.0004         42.0004
  -3241861.48647  -2517848.33646  22869312.2954   22869317.6674   22869312.429
        45.0004         41.0004
 -24445258.24248 -19043327.98148  20819479.2374   20819483.3324   20819479.892
        52.0004         48.0004
 -16178784.64248 -12609045.45047  21149371.9354   21149375.3484   21149371.763
        51.0004         47.0004
 -25075585.87948 -19492270.84747  20987052.7194   20987056.4654   20987052.226
        52.0004         47.0004
  -4589442.29546  -3546805.43445  24989475.9994   24989484.6974   24989478.802
        39.0004         34.0004
 -11107707.12447  -8608883.11247  23345599.9524   23345604.2884   23345599.404
        46.0004         42.0004
   5547667.25848   4312940.38347  22680261.7594   22680267.6094   22680261.536
        48.0004         43.0004
   1659431.12147   1307597.28646  24553756.7834   24553763.0194   24553755.910
        43.0004         38.0004
 -13644934.91048 -10616667.98747  21473204.3204   21473206.2674   21473204.735
        52.0004         47.0004
  -6867136.94347  -5308216.61946  24023107.9514   24023114.3704   24023106.949
        46.0004         41.0004
 14  5 31  1 11  0.0000000  0 11G06G08G10G28G04G07G05G30G26G02G17
   5433353.79447   4253459.73347  23275683.2164   23275691.9844   23275682.224
        47.0004         42.0004
  -3136034.93747  -2435386.08246  22889450.2844   22889454.9744   22889450.432
        45.0004         41.0004
 -24490752.05648 -19078777.67648  20810822.1414   20810826.7964   20810822.773
        52.0004         48.0004
 -16197992.82848 -12624012.83247  21145716.8454   21145719.9314   21145716.816
        51.0004         47.0004
 -25020366.78448 -19449242.97647  20997560.2314   20997565.1304   20997560.160
        52.0004         47.0004
  -4488349.36546  -3468031.78645  25008717.0444   25008721.4224   25008716.710
        39.0004         34.0004
 -11202417.09247  -8682683.02247  23327577.1784   23327580.2354   23327576.485
        46.0004         42.0004
   5638774.08748   4383932.72447  22697598.0404   22697605.7654   22697598.729
        48.0004         43.0004
   1666272.91147   1312928.65546  24555058.5564   24555064.9084   24555057.222
        43.0004         38.0004
 -13641145.58348 -10613715.23447  21473925.4714   21473927.0534   21473925.646
        52.0004         47.0004
  -6865957.05847  -5307297.14846  24023331.4694   24023337.8754   24023331.278
        45.0004         41.0004
 14  5 31  1 11 30.0000000  0 11G06G08G10G28G04G07G05G30G26G02G17
   5524295.93747   4324323.70447  23292989.2454   23292997.6494   23292988.108
        47.0004         42.0004
  -3030128.45747  -2352861.55046  22909603.8834   22909609.3694   22909603.601
        45.0004         40.0004
 -24535854.32648 -19113922.27748  20802239.4344   20802243.4834   20802239.909
        52.0004         48.0004
 -16216734.67648 -12638616.83247  21142150.2164   21142153.3624   21142150.361
        51.0004         47.0004
 -24964831.06848 -19405968.38747  21008128.6194   21008133.1824   21008128.212
        52.0004         47.0004
  -4387399.74846  -3389369.83345  25027929.4524   25027930.6594   25027925.572
        39.0004         35.0004
 -11297113.41347  -8756472.30147  23309557.4444   23309561.0094   23309556.036
        46.0004         42.0004
   5729967.04548   4454992.18047  22714951.8734   22714958.9244   22714951.893
        48.0004         43.0004
   1672932.41847   1318117.98446  24556325.8254   24556330.9884   24556325.323
        43.0004         38.0004
 -13636961.06748 -10610454.53647  21474721.2344   21474723.8614   21474721.711
        52.0004         47.0004
  -6865003.31047  -5306553.89346  24023513.5554   24023520.7244   24023512.652
        46.0004         41.0004
 14  5 31  1 12  0.0000000  0 11G06G08G10G28G04G07G05G30G26G02G17
   5615246.04347   4395193.87747  23310296.6934   23310304.6444   23310295.503
        47.0004         42.0004
  -2924146.36547  -2270278.09746  22929771.8424   22929776.5064   22929771.110
        45.0004         40.0004
 -24580563.58448 -19148760.63048  20793731.0394   20793736.3454   20793732.134
        52.0004         48.0004
 -16235009.54048 -12652856.95347  21138672.9484   21138675.9454   21138672.541
        51.0004         47.0004
 -24908983.01548 -19362450.42847  21018756.3374   21018760.4754   21018755.488
        52.0004         47.0004
  -4286596.38346  -3310821.84545  25047109.1904   25047109.6574   25047108.363
        40.0004         35.0004
 -11391794.92947  -8830250.04547  23291539.7294   23291544.1284   23291538.676
        46.0004         42.0004
   5821241.97847   4526115.50947  22732320.8614   22732328.0524   22732321.082
        47.0004         43.0004
   1679406.93347   1323163.15146  24557556.4374   24557563.8814   24557558.316
        43.0004         38.0004
 -13632383.52248 -10606887.58547  21475592.5714   21475594.9184   21475593.060
        52.0004         47.0004
  -6864276.53147  -5305987.49846  24023650.5094   24023657.9224   24023650.829
        45.0004         41.0004
 14  5 31  1 12 30.0000000  0 11G06G08G10G28G04G07G05G30G26G02G17
   5706200.86947   4466067.73447  23327604.4214   23327613.2074   23327603.460
        47.0004         42.0004
  -2818092.63447  -2187638.81846  22949951.6784   22949958.3934   22949952.520
        45.0004         40.0004
 -24624878.20348 -19183291.47348  20785298.7384   20785303.2784   20785299.208
        52.0004         48.0004
 -16252816.25348 -12666732.27747  21135284.3444   21135287.2204   21135284.303
        51.0004         47.0004
 -24852825.86048 -19318691.59847  21029442.0324   21029447.1004   21029441.876
        52.0004         47.0004
  -4185942.24446  -3232390.13446  25066261.6294   25066266.8734   25066261.921
        40.0004         36.0004
 -11486459.55547  -8904014.62247  23273524.9284   23273530.3324   23273524.953
        46.0004         42.0004
   5912595.48247   4597300.06047  22749705.4924   22749712.2374   22749705.307
        47.0004         43.0004
   1685694.33247   1328062.51546  24558754.4374   24558759.8564   24558754.589
        43.0004         38.0004
 -13627415.30448 -10603016.21547  21476537.7904   21476539.9734   21476538.007
        52.0004         47.0004
  -6863776.70447  -5305597.93346  24023745.8194   24023752.6484   24023746.023
        45.0004         41.0004
 14  5 31  1 13  0.0000000  0 11G06G08G10G28G04G07G05G30G26G02G17
   5797160.77847   4536945.54247  23344913.2364   23344921.8044   23344912.376
        47.0004         42.0004
  -2711967.54447  -2104943.93846  22970147.4064   22970152.7764   22970147.663
        45.0004         40.0004
 -24668792.50548 -19217510.38148  20776941.8854   20776946.5944   20776942.610
        52.0004         48.0004
 -16270149.90248 -12680238.98447  21131985.4574   21131989.0414   21131985.526
        51.0004         47.0004
 -24796359.76448 -19274692.04247  21040187.7714   21040191.6774   21040187.060
        52.0004         47.0004
  -4085436.43246  -3154074.02245  25085385.7514   25085391.7524   25085388.115
        40.0004         35.0004
 -11581101.94747  -8977761.86847  23255514.6894   23255519.1634   23255515.412
        46.0004         42.0004
   6004027.62447   4668545.89147  22767103.7454   22767110.8974   22767104.199
        47.0004         43.0004
   1691795.86147   1332817.05246  24559915.2904   24559921.6164   24559914.850
        43.0004         38.0004
 -13622055.27248 -10598839.54547  21477558.7044   21477560.5074   21477558.610
        52.0004         47.0004
  -6863499.93347  -5305382.19546  24023799.0764   24023805.8224   24023798.824
        45.0004         41.0004
 14  5 31  1 13 30.0000000  0 11G06G08G10G28G04G07G05G30G26G02G17
   5888120.80247   4607823.43947  23362222.8464   23362231.5554   23362221.936
        47.0004         42.0004
  -2605776.60447  -2022197.74346  22990354.8444   22990360.7014   22990355.117
        45.0004         40.0004
 -24712306.43448 -19251417.31048  20768661.5134   20768665.9654   20768661.980
        52.0004         48.0004
 -16287010.61548 -12693377.16547  21128776.5604   21128780.0034   21128777.153
        51.0004         47.0004
 -24739589.58548 -19230455.54347  21050990.3284   21050994.8404   21050990.320
        52.0004         47.0004
  -3985083.66346  -3075877.13946  25104484.2724   25104489.2664   25104484.638
        40.0004         36.0004
 -11675722.28147  -9051491.93547  23237509.9214   23237514.4774   23237508.732
        47.0004         42.0004
   6095533.25447   4739848.98947  22784517.1854   22784523.8614   22784517.230
        47.0004         43.0004
   1697707.75347   1337423.80746  24561039.2294   24561046.6514   24561039.091
        43.0004         38.0004
 -13616307.26348 -10594360.53947  21478651.9274   21478653.9294   21478651.957
        52.0004         47.0004
  -6863449.08247  -5305342.49046  24023807.7854   24023815.2814   24023808.525
        45.0004         41.0004
 14  5 31  1 14  0.0000000  0 11G06G08G10G28G04G07G05G30G26G02G17
   5979078.21847   4678699.31447  23379531.5934   23379539.9654   23379530.622
        46.0004         42.0004
  -2499522.84547  -1939402.59346  23010573.9044   23010578.5994   23010574.549
        44.0004         40.0004
 -24755417.50848 -19285010.32648  20760457.7824   20760462.0204   20760458.330
        52.0004         48.0004
 -16303396.79648 -12706145.58647  21125658.3214   21125661.9204   21125658.557
        51.0004         47.0004
 -24682518.65948 -19185984.69747  21061850.5744   21061855.2444   21061850.450
        52.0004         47.0004
  -3884885.77846  -2997800.96746  25123551.1444   25123555.0934   25123550.935
        40.0004         36.0004
 -11770318.24047  -9125203.00647  23219509.2604   23219512.2174   23219508.286
        47.0004         42.0004
   6187109.35447   4811207.00047  22801942.5144   22801949.7464   22801943.590
        47.0004         43.0004
   1703428.36347   1341881.51146  24562128.2374   24562134.3774   24562127.309
        43.0004         38.0004
 -13610173.09048 -10589580.62947  21479818.8034   21479821.0454   21479819.293
        52.0004         47.0004
  -6863623.65547  -5305478.44046  24023775.5844   24023781.8144   24023774.743
        45.0004         41.0004
 14  5 31  1 14 30.0000000  0 11G06G08G10G28G04G07G05G30G26G02G17
   6070033.71747   4749573.69347  23396839.9344   23396847.5624   23396839.104
        46.0004         42.0004
  -2393206.66747  -1856558.80246  23030804.9324   23030812.2504   23030805.822
        44.0004         40.0004
 -24798119.72148 -19318284.75448  20752331.7744   20752336.1954   20752332.457
        52.0004         48.0004
 -16319303.38548 -12718540.30147  21122631.9324   21122634.8594   21122631.749
        51.0004         47.0004
 -24625146.36148 -19141279.00547  21072768.1934   21072772.6044   21072768.071
        52.0004         47.0004
  -3784841.58246  -2919844.55846  25142590.5304   25142595.7904   25142589.599
        40.0004         36.0004
 -11864883.91147  -9198890.46447  23201513.3354   23201517.4864   23201513.179
        46.0004         42.0004
   6278756.49847   4882620.37147  22819382.8724   22819389.9654   22819383.100
        47.0004         43.0004
   1708959.40747   1346191.50846  24563180.6574   24563187.6584   24563180.238
        43.0004         38.0004
 -13603650.80548 -10584498.30647  21481059.9444   21481061.9294   21481060.586
        52.0004         47.0004
  -6864019.66347  -5305786.93246  24023699.5824   24023706.4554   24023699.658
        45.0004         41.0004
 14  5 31  1 15  0.0000000  0 11G06G08G10G28G04G07G05G30G26G02G17
   6160982.35147   4820442.71947  23414146.8874   23414155.2904   23414145.711
        46.0004         42.0004
  -2286833.47047  -1773670.60246  23051046.8034   23051054.1574   23051048.209
        44.0004         40.0004
 -24840413.16148 -19351240.65348  20744283.5924   20744288.1344   20744284.149
        52.0004         48.0004
 -16334730.81348 -12730561.64047  21119696.1234   21119699.4374   21119696.036
        51.0004         47.0004
 -24567478.10148 -19096342.69747  21083742.3854   21083746.5504   21083741.890
        52.0004         47.0004
  -3684955.33346  -2842011.20246  25161596.4104   25161601.5734   25161597.531
        41.0004         36.0004
 -11959419.26847  -9272554.30947  23183523.8134   23183528.1834   23183523.227
        47.0004         42.0004
   6370469.43847   4954085.00047  22836836.0194   22836842.5124   22836835.615
        47.0004         42.0004
   1714297.06847   1350350.82246  24564196.1614   24564203.1034   24564195.951
        43.0004         38.0004
 -13596744.79248 -10579116.96647  21482373.6804   21482376.6674   21482374.454
        52.0004         47.0004
  -6864638.58547  -5306269.13346  24023581.8904   24023588.8414   24023581.328
        45.0004         41.0004
 14  5 31  1 15 30.0000000  0 10G06G08G10G28G04G05G30G26G02G17
   6251920.92447   4891303.90647  23431450.7044   23431459.4314   23431450.902
        46.0004         42.0004
  -2180407.21547  -1690741.05046  23071299.2994   23071305.3054   23071301.146
        44.0004         40.0004
 -24882296.00748 -19383876.60748  20736313.4734   20736317.8404   20736314.253
        53.0004         48.0004
 -16349677.89448 -12742208.68147  21116851.5754   21116854.8314   21116851.682
        51.0004         47.0004
 -24509517.40048 -19051178.51947  21094771.5654   21094776.4634   21094771.354
        52.0004         47.0004
 -12053922.70047  -9346193.28047  23165539.6004   23165545.1114   23165539.594
        47.0004         42.0004
   6462244.74547   5025598.23947  22854300.1034   22854305.1024   22854299.654
        47.0004         42.0004
   1719439.20447   1354357.76946  24565174.6424   24565181.6534   24565174.523
        43.0004         38.0004
 -13589457.23548 -10573438.32147  21483760.9714   21483763.3254   21483761.367
        52.0004         47.0004
  -6865480.75147  -5306925.30246  24023422.8634   24023428.3864   24023421.740
        45.0004         41.0004
 14  5 31  1 16  0.0000000  0 10G06G08G10G28G04G05G30G26G02G17
   6342849.80347   4962157.54347  23448755.1134   23448763.4114   23448754.158
        46.0004         42.0004
  -2073927.95547  -1607770.18446  23091561.7304   23091567.3634   23091562.696
        44.0004         40.0004
 -24923762.90948 -19416188.45248  20728423.1814   20728426.9534   20728423.216
        53.0004         48.0004
 -16364139.75248 -12753477.62847  21114098.9384   21114103.1674   21114099.497
        51.0004         47.0004
 -24451264.22448 -19005786.43747  21105857.2004   21105861.4404   21105856.767
        52.0004         47.0004
 -12148388.71347  -9419803.09047  23147563.5724   23147568.7304   23147563.478
        47.0004         42.0004
   6554082.55547   5097160.18147  22871775.2594   22871782.8734   22871776.179
        47.0004         42.0004
   1724387.22647   1358213.46746  24566116.1024   24566122.4084   24566116.310
        43.0004         38.0004
 -13581786.63548 -10567461.20647  21485220.8114   21485223.3364   21485220.900
        52.0004         47.0004
  -6866542.58247  -5307752.63946  24023219.9004   24023226.5544   24023219.849
        45.0004         41.0004
 14  5 31  1 16 30.0000000  0 10G06G08G10G28G04G05G30G26G02G17
   6433763.71047   5032999.51547  23466055.9364   23466063.8304   23466054.694
        46.0004         42.0004
  -1967401.75847  -1524762.74546  23111834.0214   23111838.5884   23111833.803
        44.0004         40.0004
 -24964814.22948 -19448176.46648  20720610.8954   20720615.1654   20720611.470
        53.0004         48.0004
 -16378117.51848 -12764369.36047  21111439.6164   21111443.4274   21111439.853
        51.0004         47.0004
 -24392724.27648 -18960170.89847  21116996.5214   21117001.0064   21116996.316
        52.0004         47.0004
 -12242817.69347  -9493384.04147  23129595.0484   23129599.5064   23129594.285
        47.0004         42.0004
   6645977.32247   5168766.50147  22889263.2794   22889269.9464   22889263.210
        47.0004         42.0004
   1729136.96147   1361914.63946  24567021.1294   24567027.1604   24567019.689
        43.0004         38.0004
 -13573737.92148 -10561189.45547  21486752.3324   21486753.9014   21486752.591
        52.0004         47.0004
  -6867826.10847  -5308752.73046  24022974.9474   24022981.9644   24022975.394
        45.0004         41.0004
 14  5 31  1 17  0.0000000  0 10G06G08G10G28G04G05G30G26G02G17
   6524660.72247   5103828.33147  23483352.9904   23483360.9354   23483352.022
        46.0004         42.0004
  -1860831.14447  -1441720.69446  23132113.8204   23132118.9304   23132114.093
        44.0004         40.0004
 -25005446.56848 -19479837.99848  20712878.6984   20712883.1224   20712879.399
        53.0004         48.0004
 -16391608.56848 -12774881.83147  21108872.4354   21108876.2474   21108872.383
        51.0004         47.0004
 -24333899.66548 -18914333.54247  21128190.6244   21128195.3954   21128190.144
        52.0004         47.0004
 -12337206.40547  -9566933.61547  23111633.4614   23111636.7344   23111632.228
        47.0004         42.0004
   6737926.88647   5240415.52347  22906760.8214   22906766.8474   22906760.123
        47.0004         42.0004
   1733687.48047   1365460.58846  24567886.3254   24567893.3684   24567884.768
        43.0004         38.0004
 -13565312.09148 -10554623.84047  21488355.5954   21488357.7144   21488355.670
        52.0004         47.0004
  -6869330.18047  -5309924.66646  24022689.2564   24022695.2634   24022689.007
        45.0004         41.0004
 14  5 31  1 17 30.0000000  0 10G06G08G10G28G04G05G30G26G02G17
   6615540.90347   5174644.02547  23500646.9354   23500654.5624   23500645.620
        46.0004         42.0004
  -1754216.53447  -1358644.37646  23152400.8454   23152406.4574   23152401.587
        44.0004         39.0004
 -25045655.34448 -19511169.47648  20705227.1964   20705232.1124   20705227.917
        53.0004         48.0004
 -16404608.60348 -12785011.69847  21106398.4264   21106402.1674   21106398.858
        51.0004         47.0004
 -24274790.86348 -18868274.73947  21139439.1874   21139443.2734   21139438.476
        52.0004         47.0004
 -12431549.75247  -9640447.83747  23093680.9614   23093684.7174   23093679.951
        47.0004         42.0004
   6829931.13047   5312107.16047  22924268.1914   22924274.4834   22924267.926
        47.0004         42.0004
   1738040.03247   1368852.29446  24568714.2264   24568721.2974   24568712.850
        43.0004         38.0004
 -13556508.05648 -10547763.52947  21490030.9284   21490033.0514   21490031.143
        52.0004         47.0004
  -6871051.81847  -5311266.13746  24022361.9784   24022368.4984   24022361.395
        45.0004         40.0004
 14  5 31  1 18  0.0000000  0 10G06G08G10G28G04G05G30G26G02G17
   6706398.94947   5245442.46846  23517935.6644   23517945.4444   23517935.747
        46.0004         41.0004
  -1647563.88247  -1275538.39746  23172696.3104   23172701.0394   23172696.325
        44.0004         39.0004
 -25085440.61548 -19542170.95848  20697656.5904   20697661.1254   20697657.251
        53.0004         48.0004
 -16417118.96448 -12794759.99547  21104017.1984   21104021.3544   21104017.790
        51.0004         47.0004
 -24215403.42748 -18821998.82447  21150739.5884   21150744.6394   21150739.330
        52.0004         47.0004
 -12525848.08047  -9713926.98047  23075736.1954   23075739.6314   23075735.558
        47.0004         43.0004
   6921984.44747   5383837.02547  22941785.7584   22941791.5494   22941785.711
        47.0004         42.0004
   1742190.44147   1372086.47646  24569504.4674   24569510.7134   24569503.651
        43.0004         38.0004
 -13547330.23248 -10540611.95647  21491777.2004   21491779.5214   21491777.583
        52.0004         47.0004
  -6872993.17447  -5312778.81446  24021992.9954   24021997.7224   24021991.760
        45.0004         40.0004
 14  5 31  1 18 30.0000000  0 10G06G08G10G28G04G05G30G26G02G17
   6797234.35347   5316223.26546  23535222.2154   23535230.4534   23535221.177
        46.0004         41.0004
  -1540874.35747  -1192403.69946  23192998.4584   23193004.1024   23192998.528
        44.0004         39.0004
 -25124798.01648 -19572839.03448  20690167.1544   20690170.9054   20690167.200
        53.0004         48.0004
 -16429135.67648 -12804123.64147  21101730.8164   21101734.4944   21101731.192
        51.0004         47.0004
 -24155738.46648 -18775506.65447  21162094.1234   21162098.1354   21162093.431
        52.0004         47.0004
 -12620096.79547  -9787367.47347  23057800.6194   23057805.1764   23057799.807
        47.0004         43.0004
   7014086.15147   5455604.59347  22959312.0774   22959318.4404   22959311.978
        47.0004         42.0004
   1746139.28747   1375163.58346  24570254.2624   24570261.8634   24570255.169
        43.0004         38.0004
 -13537778.26648 -10533168.84247  21493595.2974   21493597.4554   21493595.386
        52.0004         47.0004
  -6875151.27447  -5314460.38146  24021581.7054   24021587.6634   24021581.596
        45.0004         40.0004
 14  5 31  1 19  0.0000000  0 10G06G08G10G28G04G05G30G26G02G17
   6888044.66047   5386984.49746  23552501.9994   23552511.5414   23552501.603
        46.0004         41.0004
  -1434151.30247  -1109242.87946  23213307.3044   23213312.8354   23213308.099
        44.0004         39.0004
 -25163725.25748 -19603171.91748  20682759.3954   20682763.7724   20682759.825
        53.0004         48.0004
 -16440657.06548 -12813101.31147  21099538.4654   21099541.7214   21099538.869
        51.0004         47.0004
 -24095798.72548 -18728800.36547  21173499.9894   21173504.4554   21173499.730
        52.0004         47.0004
 -12714293.51047  -9860767.43547  23039876.2254   23039879.5114   23039874.915
        47.0004         43.0004
   7106233.44547   5527407.69247  22976847.0914   22976853.3514   22976846.857
        47.0004         42.0004
   1749885.04447   1378082.43746  24570967.9054   24570974.0474   24570968.756
        43.0004         38.0004
 -13527854.11048 -10525435.70847  21495483.0734   21495486.0364   21495483.810
        52.0004         47.0004
  -6877525.58047  -5316310.43846  24021129.9964   24021135.6554   24021129.310
        45.0004         40.0004
 14  5 31  1 19 30.0000000  0 10G06G08G10G28G04G05G30G26G02G17
   6978825.71847   5457722.94046  23569777.2604   23569786.6434   23569776.037
        46.0004         41.0004
  -1327399.56447  -1026059.69246  23233622.1914   23233627.2444   23233622.622
        44.0004         39.0004
 -25202221.44148 -19633168.91148  20675433.5854   20675438.1724   20675434.124
        53.0004         48.0004
 -16451682.91548 -12821692.85047  21097440.0754   21097443.7884   21097440.675
        51.0004         47.0004
 -24035588.74548 -18681883.50547  21184957.5644   21184962.0294   21184957.217
        51.0004         47.0004
 -12808437.50347  -9934126.30547  23021959.7554   23021964.6644   23021960.474
        47.0004         43.0004
   7198421.93447   5599242.88847  22994388.9214   22994396.6544   22994389.591
        47.0004         42.0004
   1753424.71147   1380840.70846  24571642.0934   24571647.2854   24571641.675
        43.0004         38.0004
 -13517561.34948 -10517415.35447  21497441.8854   21497444.5914   21497442.476
        52.0004         47.0004
  -6880117.10147  -5318329.73046  24020636.2614   24020642.5504   24020636.172
        45.0004         40.0004
 14  5 31  1 20  0.0000000  0 10G06G08G10G28G04G05G30G26G02G17
   7069576.43747   5528437.74046  23587046.1124   23587055.3664   23587045.347
        45.0004         41.0004
  -1220620.82147   -942855.47346  23253941.7714   23253946.5944   23253941.788
        44.0004         40.0004
 -25240282.96748 -19662827.20848  20668190.8164   20668195.2124   20668191.385
        53.0004         48.0004
 -16462210.56948 -12829896.18747  21095437.0674   21095440.4844   21095437.297
        51.0004         47.0004
 -23975110.27148 -18634757.43547  21196466.1134   21196470.3964   21196465.933
        51.0004         47.0004
 -12902524.62448 -10007440.86547  23004055.5644   23004060.7004   23004055.306
        48.0004         43.0004
   7290650.32847   5671109.18247  23011940.6894   23011946.8754   23011940.321
        47.0004         42.0004
   1756758.35247   1383438.44846  24572275.4784   24572282.5214   24572275.371
        43.0004         38.0004
 -13506900.25848 -10509107.98847  21499471.2994   21499473.2654   21499471.331
        52.0004         47.0004
  -6882923.57147  -5320516.51646  24020102.5204   24020108.1304   24020101.953
        45.0004         40.0004
 14  5 31  1 20 30.0000000  0 10G06G08G10G28G04G05G30G26G02G17
   7160294.92647   5599127.42646  23604309.2024   23604318.6064   23604308.675
        45.0004         41.0004
  -1113817.53047   -859632.11246  23274264.4364   23274270.6374   23274265.907
        44.0004         39.0004
 -25277906.88448 -19692144.51448  20661031.1634   20661035.8734   20661031.595
        53.0004         48.0004
 -16472237.65648 -12837709.46947  21093528.6474   21093532.3264   21093528.878
        51.0004         47.0004
 -23914365.55648 -18587423.89447  21208025.7504   21208030.1214   21208025.049
        51.0004         47.0004
 -12996551.68848 -10080708.63547  22986163.7204   22986168.0734   22986163.098
        48.0004         43.0004
   7382916.49047   5743004.90747  23029498.0764   23029504.2254   23029497.643
        47.0004         42.0004
   1759885.11847   1385874.99846  24572870.4974   24572876.3184   24572870.141
        43.0004         38.0004
 -13495871.97048 -10500514.49647  21501569.9294   21501571.7164   21501570.242
        52.0004         47.0004
  -6885943.88547  -5322869.94446  24019527.6794   24019533.1154   24019527.262
        45.0004         40.0004
 14  5 31  1 21  0.0000000  0 10G06G08G10G28G04G05G30G26G02G17
   7250978.70747   5669790.06946  23621566.2984   23621575.1924   23621565.584
        45.0004         41.0004
  -1006992.63247   -776391.93246  23294593.0564   23294599.1714   23294593.622
        44.0004         39.0004
 -25315090.82348 -19721118.98048  20653955.0974   20653959.9604   20653955.808
        53.0004         48.0004
 -16481762.18948 -12845131.15647  21091716.4244   21091719.4264   21091716.644
        51.0004         47.0004
 -23853357.39148 -18539885.06847  21219634.8434   21219638.8474   21219634.548
        51.0004         47.0004
 -13090516.27748 -10153927.71347  22968282.6084   22968286.1784   22968282.343
        48.0004         43.0004
   7475217.69647   5814927.93247  23047062.7194   23047068.2914   23047062.390
        46.0004         42.0004
   1762803.64647   1388149.25846  24573425.6284   24573432.2034   24573425.741
        43.0004         38.0004
 -13484478.31048 -10491636.29747  21503737.4224   21503739.5114   21503737.941
        52.0004         47.0004
  -6889177.49547  -5325389.57346  24018912.2384   24018919.3394   24018911.201
        45.0004         40.0004
 14  5 31  1 21 30.0000000  0 10G06G08G10G28G04G05G30G26G02G17
   7341624.53247   5740423.13246  23638815.3054   23638824.2814   23638814.842
        45.0004         41.0004
   -900150.20347   -693138.08746  23314924.8034   23314929.7294   23314925.595
        44.0004         39.0004
 -25351833.18048 -19749749.35448  20646963.2094   20646968.0104   20646963.903
        53.0004         48.0004
 -16490783.82648 -12852160.97447  21089999.6424   21090003.1184   21089999.917
        51.0004         47.0004
 -23792089.65648 -18492143.99147  21231293.4934   21231298.2284   21231293.729
        51.0004         47.0004
 -13184416.75948 -10227096.85247  22950415.0204   22950417.7694   22950413.515
        48.0004         43.0004
   7567550.41947   5886875.53847  23064632.4234   23064638.0444   23064632.457
        46.0004         42.0004
   1765511.79147   1390259.59546  24573942.0084   24573947.6884   24573940.654
        43.0004         38.0004
 -13472722.13248 -10482475.62347  21505974.8404   21505976.4424   21505975.348
        52.0004         47.0004
  -6892624.53547  -5328075.51546  24018255.8824   24018261.9054   24018255.174
        45.0004         40.0004
 14  5 31  1 22  0.0000000  0 10G06G08G10G28G04G05G30G26G02G17
   7432230.91047   5811025.46246  23656056.9414   23656066.0664   23656056.354
        45.0004         41.0004
   -793292.14847   -609872.05646  23335259.8394   23335263.5194   23335260.496
        44.0004         39.0004
 -25388130.71848 -19778033.11848  20640056.1964   20640060.6184   20640056.871
        53.0004         48.0004
 -16499300.02748 -12858796.94647  21088379.2254   21088382.5044   21088379.417
        51.0004         47.0004
 -23730564.23348 -18444202.10947  21243002.1794   21243006.1634   21243001.402
        51.0004         46.0004
 -13278249.54848 -10300213.23047  22932557.3474   22932561.4334   22932557.819
        48.0004         43.0004
   7659912.87247   5958846.29047  23082208.3874   23082214.3784   23082208.493
        46.0004         42.0004
   1768009.11147   1392205.65046  24574416.8874   24574422.9384   24574416.497
        43.0004         39.0004
 -13460604.29048 -10473033.11947  21508280.7014   21508283.0524   21508280.886
        52.0004         47.0004
  -6896283.13847  -5330926.29746  24017559.9634   24017565.9044   24017559.215
        44.0004         40.0004
 14  5 31  1 22 30.0000000  0 10G06G08G10G28G04G05G30G26G02G17
   7522794.55247   5881594.49746  23673291.4404   23673299.9494   23673290.268
        45.0004         41.0004
   -686422.24447   -526596.81046  23355596.1624   23355600.9984   23355596.748
        44.0004         39.0004
 -25423981.85448 -19805969.03548  20633233.8434   20633238.4894   20633234.226
        53.0004         48.0004
 -16507310.19148 -12865038.60447  21086854.8234   21086858.6534   21086855.005
        52.0004         47.0004
 -23668784.91648 -18396062.38947  21254757.5774   21254762.2924   21254757.466
        51.0004         46.0004
 -13372012.54448 -10373275.22547  22914715.8324   22914719.2484   22914715.060
        48.0004         43.0004
   7752301.57047   6030837.49847  23099789.3304   23099795.3174   23099789.232
        46.0004         42.0004
   1770293.50847   1393985.78646  24574851.6314   24574856.8744   24574851.322
        43.0004         38.0004
 -13448127.29148 -10463310.75847  21510655.2854   21510657.0974   21510655.431
        52.0004         47.0004
  -6900153.35447  -5333941.97746  24016823.0794   24016830.0374   24016822.171
        44.0004         40.0004
 14  5 31  1 23  0.0000000  0 10G06G08G10G28G04G05G30G26G02G17
   7613315.59647   5952130.33746  23690516.9864   23690525.1524   23690515.720
        45.0004         41.0004
   -579541.09147   -443312.79946  23375935.5684   23375939.3134   23375934.916
        44.0004         39.0004
 -25459381.94648 -19833553.49348  20626497.2424   20626501.4854   20626498.118
        53.0004         48.0004
 -16514809.80248 -12870882.42947  21085427.9664   21085431.4984   21085427.884
        52.0004         47.0004
 -23606752.07848 -18347725.11847  21266563.0434   21266566.8124   21266562.163
        51.0004         46.0004
 -13465701.26748 -10446279.35647  22896887.2814   22896890.7544   22896886.448
        48.0004         43.0004
   7844716.37847   6102849.04047  23117375.0164   23117381.3474   23117375.118
        46.0004         42.0004
   1772366.14247   1395600.90146  24575246.1664   24575251.7734   24575245.221
        43.0004         38.0004
 -13435290.49448 -10453308.03547  21513097.5104   21513100.0394   21513097.843
        52.0004         47.0004
  -6904232.13647  -5337120.18346  24016046.8534   24016052.5014   24016046.763
        44.0004         40.0004
 14  5 31  1 23 30.0000000  0 10G06G08G10G28G04G05G30G26G02G17
   7703788.02947   6022628.30446  23707733.0374   23707741.2894   23707732.188
        45.0004         41.0004
   -472655.45847   -360025.29946  23396273.5934   23396279.2634   23396274.739
        44.0004         39.0004
 -25494332.19348 -19860787.42048  20619846.5934   20619850.7484   20619847.138
        53.0004         48.0004
 -16521801.07648 -12876330.15647  21084097.3244   21084100.4584   21084097.592
        52.0004         47.0004
 -23544472.25648 -18299195.40047  21278413.5214   21278418.3724   21278413.444
        51.0004         46.0004
 -13559316.65848 -10519226.33747  22879073.3194   22879076.2034   22879071.874
        48.0004         43.0004
   7937151.03247   6174876.04747  23134965.2664   23134971.2834   23134965.074
        46.0004         42.0004
   1774222.16247   1397047.23546  24575599.2244   24575604.3664   24575598.176
        43.0004         38.0004
 -13422099.18048 -10443029.07547  21515608.2314   21515610.3094   21515608.218
        52.0004         47.0004
  -6908522.11247  -5340462.96246  24015230.2104   24015236.9614   24015230.086
        44.0004         40.0004
 14  5 31  1 24  0.0000000  0 11G24G06G08G10G28G04G05G30G26G02G17
  -1266379.65447   -957040.77246  24514114.5894   24514124.9084   24514112.679
        47.0004         36.0004
   7794210.11647   6093087.04646  23724940.3744   23724948.6524   23724939.117
        45.0004         40.0004
   -365767.66347   -276736.10446  23416614.3554   23416619.3814   23416614.568
        44.0004         39.0004
 -25528829.86048 -19887668.68848  20613282.0544   20613286.5984   20613282.232
        53.0004         48.0004
 -16528282.21648 -12881380.36747  21082864.3274   21082867.5024   21082864.355
        52.0004         47.0004
 -23481947.92848 -18250475.15447  21290312.0784   21290316.3824   21290311.456
        51.0004         46.0004
 -13652855.22548 -10592113.45247  22861272.5164   22861277.2834   22861272.668
        48.0004         43.0004
   8029603.49147   6246916.92547  23152558.5444   23152565.0034   23152558.355
        46.0004         42.0004
   1775860.78647   1398324.16246  24575910.7584   24575915.9234   24575910.199
        43.0004         38.0004
 -13408555.12748 -10432475.24547  21518185.3004   21518187.1754   21518185.686
        52.0004         47.0004
  -6913021.63647  -5343969.01646  24014374.1734   24014380.4554   24014374.081
        44.0004         39.0004
 14  5 31  1 24 30.0000000  0 11G24G06G08G10G28G04G05G30G26G02G17
  -1329188.93947  -1005982.98046  24502161.1724   24502171.6894   24502160.890
        43.0004         37.0004
   7884581.34347   6163506.16446  23742137.3814   23742146.1944   23742135.931
        45.0004         40.0004
   -258878.84147   -193446.10746  23436954.6004   23436958.9074   23436955.029
        43.0004         39.0004
 -25562870.52848 -19914193.85448  20606803.9274   20606809.2134   20606804.642
        53.0004         48.0004
 -16534249.76548 -12886030.37847  21081728.3114   21081732.0454   21081728.503
        52.0004         47.0004
 -23419179.87048 -18201564.98847  21302255.8634   21302261.4054   21302255.889
        51.0004         46.0004
 -13746312.48648 -10664937.22347  22843488.0294   22843492.5524   22843488.014
        48.0004         43.0004
   8122072.99847   6318971.09747  23170154.7304   23170161.2834   23170154.762
        46.0004         42.0004
   1777282.70447   1399432.23446  24576180.7894   24576187.1404   24576180.668
        43.0004         39.0004
 -13394657.83148 -10421646.16547  21520830.0594   21520831.8174   21520830.137
        52.0004         47.0004
  -6917728.27447  -5347636.46246  24013478.4674   24013483.8554   24013478.160
        44.0004         40.0004
 14  5 31  1 25  0.0000000  0 11G24G06G08G10G28G04G05G30G26G02G17
  -1391663.88247  -1054664.64246  24490273.0204   24490281.3814   24490272.663
        42.0004         37.0004
   7974900.19647   6233884.46446  23759324.3234   23759333.4084   23759323.125
        44.0004         40.0004
   -151990.96347   -110156.85346  23457294.6204   23457299.6814   23457295.164
        43.0004         39.0004
 -25596451.44648 -19940360.77748  20600414.2064   20600418.3204   20600414.410
        53.0004         48.0004
 -16539701.21848 -12890278.24747  21080690.5614   21080693.9724   21080691.068
        52.0004         47.0004
 -23356170.37148 -18152466.69547  21314246.3004   21314251.1674   21314245.991
        51.0004         46.0004
 -13839684.98348 -10737694.92347  22825720.1844   22825724.2144   22825720.109
        48.0004         43.0004
   8214557.74147   6391037.13446  23187753.9574   23187760.6914   23187753.381
        46.0004         41.0004
   1778487.50647   1400371.13146  24576409.8814   24576417.0694   24576409.672
        43.0004         38.0004
 -13380408.48048 -10410542.75447  21523540.8004   21523543.0174   21523541.479
        52.0004         47.0004
  -6922640.50747  -5351464.11546  24012544.5894   24012549.8564   24012543.656
        44.0004         40.0004
 14  5 31  1 25 30.0000000  0 11G24G06G08G10G28G04G05G30G26G02G17
  -1453803.72546  -1103085.22146  24478448.8684   24478456.4874   24478447.517
        41.0004         37.0004
   8065164.18647   6304220.00346  23776501.2124   23776509.0424   23776499.880
        44.0004         40.0004
    -45107.44847    -26870.99646  23477634.1784   23477638.2994   23477634.290
        43.0004         38.0004
 -25629570.46048 -19966167.77648  20594111.6234   20594115.9264   20594112.133
        53.0004         48.0004
 -16544635.22548 -12894122.89847  21079752.2064   21079755.3064   21079752.203
        52.0004         47.0004
 -23292922.27748 -18103182.47047  21326282.1634   21326286.3434   21326281.926
        51.0004         46.0004
 -13932970.28448 -10810384.69547  22807967.9694   22807972.5014   22807967.953
        48.0004         43.0004
   8307055.01447   6463112.94246  23205355.8634   23205362.7154   23205355.032
        46.0004         41.0004
   1779473.79347   1401139.74846  24576597.0844   24576602.4044   24576597.412
        43.0004         38.0004
 -13365809.19448 -10399166.67447  21526319.8784   21526321.9564   21526319.948
        52.0004         47.0004
  -6927757.51247  -5355451.33646  24011570.3844   24011575.8784   24011569.596
        44.0004         40.0004
 14  5 31  1 26  0.0000000  0 11G24G06G08G10G28G04G05G30G26G02G17
  -1515607.69946  -1151244.07246  24466687.2274   24466696.4174   24466686.868
        41.0004         37.0004
   8155370.82647   6374510.86246  23793666.5544   23793675.1614   23793665.984
        44.0004         39.0004
     61768.56247     56409.01146  23497970.9734   23497975.5224   23497972.010
        43.0004         38.0004
 -25662225.47448 -19991613.21748  20587897.1804   20587901.9304   20587897.965
        53.0004         48.0004
 -16549050.94248 -12897563.69247  21078911.2034   21078914.7224   21078911.712
        52.0004         47.0004
 -23229438.99748 -18053714.99147  21338362.8464   21338367.0994   21338362.098
        51.0004         46.0004
 -14026166.15248 -10883004.78047  22790234.3984   22790237.5204   22790233.329
        48.0004         43.0004
   8399562.04447   6535196.34746  23222958.9604   23222965.5914   23222958.547
        46.0004         41.0004
   1780240.13647   1401736.95846  24576743.3694   24576750.0914   24576743.776
        43.0004         38.0004
 -13350862.23948 -10387519.67447  21529164.1294   21529165.2144   21529163.826
        52.0004         47.0004
  -6933078.50747  -5359597.51446  24010557.3664   24010562.6144   24010556.901
        44.0004         40.0004
 14  5 31  1 26 30.0000000  0 11G24G06G08G10G28G04G05G30G26G02G17
  -1577075.05946  -1199140.60846  24454990.7664   24454998.7624   24454989.377
        41.0004         37.0004
   8245518.19947   6444755.52946  23810820.7064   23810829.4124   23810820.243
        44.0004         39.0004
    168634.87147    139681.44946  23518307.3034   23518311.5004   23518307.992
        43.0004         38.0004
 -25694414.10748 -20016695.24448  20581772.2564   20581776.2294   20581772.807
        53.0004         48.0004
 -16552946.37048 -12900599.06447  21078170.5224   21078173.4374   21078170.645
        52.0004         47.0004
 -23165722.73748 -18004065.97747  21350487.1494   21350492.5594   21350486.968
        51.0004         46.0004
 -14119269.36448 -10955552.67047  22772516.5394   22772519.5464   22772516.058
        48.0004         43.0004
   8492076.58047   6607285.60346  23240563.9504   23240570.9534   23240564.009
        46.0004         41.0004
   1780785.75547   1402162.20046  24576847.5604   24576853.2084   24576847.754
        43.0004         39.0004
 -13335568.92948 -10375602.79847  21532073.9874   21532076.1964   21532074.623
        52.0004         47.0004
  -6938602.28847  -5363901.70846  24009506.3004   24009511.9464   24009505.830
        44.0004         40.0004
 14  5 31  1 27  0.0000000  0 11G24G06G08G10G28G04G05G30G26G02G17
  -1638205.53847  -1246774.67546  24443356.3004   24443367.8054   24443357.224
        42.0004         37.0004
   8335602.70247   6514951.20546  23827963.6664   23827972.1954   23827962.734
        43.0004         39.0004
    275487.24147    222943.03446  23538641.0144   23538646.1074   23538641.528
        43.0004         39.0004
 -25726135.14748 -20041412.91848  20575735.9064   20575740.3354   20575736.408
        53.0004         48.0004
 -16556321.48848 -12903229.00247  21077528.2214   21077531.0004   21077528.116
        51.0004         47.0004
 -23101777.72048 -17954238.69347  21362656.0784   21362660.8074   21362655.372
        51.0004         46.0004
 -14212278.35548 -11028027.12847  22754816.3104   22754821.9484   22754816.658
        48.0004         43.0004
   8584594.91047   6679377.81146  23258169.6644   23258176.1604   23258169.626
        46.0004         41.0004
   1781108.23747   1402413.56846  24576909.2474   24576914.2264   24576908.349
        43.0004         38.0004
 -13319932.74148 -10363418.74347  21535049.3974   21535051.7394   21535049.720
        52.0004         47.0004
  -6944328.62047  -5368363.74446  24008416.1754   24008422.6924   24008416.396
        44.0004         40.0004
 14  5 31  1 27 30.0000000  0 11G24G06G08G10G28G04G05G30G26G02G17
  -1698998.67347  -1294145.86746  24431788.6354   24431798.4394   24431787.832
        42.0004         37.0004
   8425622.64747   6585096.56446  23845093.1064   23845102.8614   23845093.275
        43.0004         39.0004
    382323.16947    306191.80546  23558972.3894   23558977.8064   23558971.842
        43.0004         39.0004
 -25757386.02048 -20065764.21748  20569788.5784   20569793.5534   20569789.469
        53.0004         48.0004
 -16559174.28448 -12905451.93647  21076985.1984   21076988.7664   21076985.313
        51.0004         47.0004
 -23037606.39048 -17904235.07147  21374866.9734   21374871.2954   21374866.811
        51.0004         46.0004
 -14305190.14048 -11100425.84847  22737137.3664   22737141.0274   22737136.730
        48.0004         44.0004
   8677114.91847   6751471.32846  23275775.7214   23275781.5484   23275775.552
        46.0004         41.0004
   1781206.86147   1402490.48946  24576927.7074   24576932.8314   24576927.107
        43.0004         38.0004
 -13303954.69148 -10350968.29947  21538090.0664   21538092.0344   21538090.329
        52.0004         47.0004
  -6950257.24747  -5372983.41346  24007287.9524   24007294.3504   24007287.706
        44.0004         40.0004
 14  5 31  1 28  0.0000000  0 11G24G06G08G10G28G04G05G30G26G02G17
  -1759452.66647  -1341252.78046  24420284.4214   24420294.3804   24420284.283
        42.0004         37.0004
   8515576.45547   6655190.39946  23862210.6184   23862220.5104   23862210.567
        43.0004         38.0004
    489140.75647    389426.28146  23579298.2914   23579301.8484   23579297.759
        43.0004         38.0004
 -25788163.93048 -20089746.98448  20563932.1304   20563936.6914   20563932.901
        53.0004         48.0004
 -16561502.29648 -12907265.95247  21076541.8334   21076545.5024   21076542.266
        51.0004         47.0004
 -22973210.75748 -17854056.66147  21387120.9834   21387125.6984   21387120.991
        51.0004         46.0004
 -14398001.18248 -11172746.06247  22719475.8444   22719479.2664   22719475.177
        48.0004         44.0004
   8769634.81947   6823564.77446  23293381.8324   23293388.7484   23293381.074
        46.0004         41.0004
   1781081.25947   1402392.67946  24576903.9044   24576909.3504   24576903.948
        43.0004         39.0004
 -13287635.81648 -10338252.28147  21541195.0044   21541197.0644   21541195.445
        52.0004         47.0004
  -6956385.85547  -5377758.91046  24006122.0194   24006128.3144   24006121.923
        44.0004         40.0004
 14  5 31  1 28 30.0000000  0 11G24G06G08G10G28G04G05G30G26G02G17
  -1819568.99847  -1388096.61946  24408844.8914   24408854.6994   24408844.839
        42.0004         37.0004
   8605459.77747   6725229.29646  23879316.8594   23879324.8174   23879315.466
        43.0004         39.0004
    595934.91747    472642.49946  23599620.3874   23599625.9284   23599620.439
        43.0004         38.0004
 -25818468.64248 -20113361.02448  20558165.2504   20558169.7264   20558165.780
        53.0004         48.0004
 -16563306.75348 -12908671.99647  21076199.1754   21076201.6894   21076199.075
        51.0004         47.0004
 -22908596.04748 -17803707.54647  21399417.0254   21399421.1004   21399416.594
        51.0004         46.0004
 -14490710.36648 -11244986.91047  22701834.3994   22701836.6894   22701833.306
        48.0004         44.0004
   8862149.94847   6895654.49646  23310986.2174   23310993.1104   23310986.329
        46.0004         41.0004
   1780728.11147   1402117.57946  24576836.0644   24576841.8374   24576836.307
        43.0004         38.0004
 -13270980.68748 -10325274.24947  21544364.7814   21544366.8244   21544365.270
        52.0004         47.0004
  -6962715.25347  -5382690.85046  24004918.0134   24004923.0904   24004917.271
        44.0004         40.0004
 14  5 31  1 29  0.0000000  0 11G24G06G08G10G28G04G05G30G26G02G17
  -1879343.49547  -1434674.08146  24397469.6764   24397479.3364   24397469.452
        42.0004         37.0004
   8695274.08247   6795214.41346  23896407.2704   23896417.3334   23896406.207
        43.0004         39.0004
    702706.18247    555840.87446  23619937.9764   23619943.8624   23619938.452
        43.0004         38.0004
 -25848294.21748 -20136601.71248  20552489.5584   20552494.1174   20552490.252
        53.0004         48.0004
 -16564582.85548 -12909666.33647  21075955.9144   21075959.2504   21075956.066
        51.0004         47.0004
 -22843761.23048 -17753186.92447  21411754.6464   21411759.0894   21411754.171
        51.0004         46.0004
 -14583312.28748 -11317144.17347  22684210.8444   22684216.0254   22684211.814
        48.0004         44.0004
   8954661.46647   6967741.38246  23328590.8694   23328596.8844   23328590.743
        45.0004         41.0004
   1780149.92647   1401667.09446  24576726.1524   24576731.8304   24576725.900
        43.0004         38.0004
 -13253987.65248 -10312032.91547  21547597.8294   21547600.4814   21547598.741
        52.0004         47.0004
  -6969241.41447  -5387776.12746  24003675.6814   24003682.1994   24003675.001
        45.0004         40.0004
 14  5 31  1 29 30.0000000  0 11G24G06G08G10G28G04G05G30G26G02G17
  -1938778.98047  -1480987.38246  24386159.8114   24386170.3734   24386159.550
        42.0004         37.0004
   8785013.11047   6865140.86546  23913483.4724   23913492.6074   23913482.865
        43.0004         39.0004
    809447.91047    639016.23646  23640251.3294   23640255.6114   23640250.632
        43.0004         39.0004
 -25877642.75548 -20159470.68448  20546905.0664   20546909.3894   20546905.509
        53.0004         48.0004
 -16565333.10748 -12910250.92547  21075813.2014   21075816.4644   21075813.484
        51.0004         47.0004
 -22778713.45948 -17702500.36147  21424132.5544   21424137.6164   21424132.570
        50.0004         46.0004
 -14675807.87548 -11389218.58547  22666611.5154   22666613.9304   22666609.601
        48.0004         44.0004
   9047162.98847   7039820.49346  23346193.3344   23346200.0564   23346193.720
        45.0004         41.0004
   1779341.83247   1401037.48746  24576572.7114   24576577.1324   24576572.087
        43.0004         38.0004
 -13236662.21348 -10298532.56347  21550895.3154   21550897.5784   21550895.481
        52.0004         47.0004
  -6975967.14147  -5393016.91046  24002395.6314   24002402.1304   24002395.368
        45.0004         40.0004
 14  5 31  1 30  0.0000000  0 11G24G06G08G10G28G04G05G30G26G02G17
  -1997870.93047  -1527032.98046  24374914.7124   24374924.1034   24374914.421
        42.0004         37.0004
   8874678.80847   6935010.18146  23930546.6954   23930555.3974   23930546.286
        44.0004         39.0004
    916161.72947    722169.84746  23660557.9274   23660563.2794   23660557.539
        43.0004         38.0004
 -25906507.86248 -20181962.95348  20541411.9044   20541416.4304   20541412.473
        53.0004         48.0004
 -16565552.14348 -12910421.58147  21075771.9964   21075775.2134   21075771.950
        51.0004         47.0004
 -22713451.13848 -17651646.61347  21436552.0964   21436556.6694   21436551.795
        50.0004         46.0004
 -14768190.41048 -11461204.89247  22649030.8444   22649034.8304   22649030.617
        49.0004         44.0004
   9139656.10347   7111893.05246  23363794.0484   23363800.7884   23363794.493
        45.0004         41.0004
   1778306.68847   1400230.94746  24576374.9384   24576380.6504   24576374.718
        43.0004         38.0004
 -13219002.18148 -10284771.49647  21554256.0544   21554258.1704   21554256.419
        52.0004         47.0004
  -6982887.09447  -5398409.03046  24001078.9224   24001084.6504   24001078.886
        45.0004         40.0004
 14  5 31  1 30 30.0000000  0 11G24G06G08G10G28G04G05G30G26G02G17
  -2056620.61247  -1572811.89646  24363736.1354   24363744.7094   24363734.246
        42.0004         37.0004
   8964266.98047   7004819.08746  23947594.2104   23947603.2454   23947593.853
        44.0004         39.0004
   1022842.52947    805297.73046  23680857.2814   23680863.1664   23680858.128
        43.0004         38.0004
 -25934889.40848 -20204078.42448  20536011.2864   20536015.7224   20536011.752
        53.0004         48.0004
 -16565240.49248 -12910178.71147  21075830.8014   21075833.7564   21075830.858
        51.0004         47.0004
 -22647979.24548 -17600629.57147  21449010.4754   21449015.1784   21449010.215
        50.0004         46.0004
 -14860458.85248 -11533102.30047  22631471.7084   22631475.8384   22631472.213
        49.0004         44.0004
   9232136.30047   7183955.55246  23381391.5904   23381399.0334   23381392.612
        45.0004         41.0004
   1777041.42347   1399245.09046  24576134.8124   24576140.9454   24576134.515
        43.0004         38.0004
 -13201011.97748 -10270753.14647  21557679.3104   21557681.1504   21557679.394
        52.0004         47.0004
  -6990002.21047  -5403953.22746  23999724.7074   23999731.1574   23999724.399
        45.0004         40.0004
 14  5 31  1 31  0.0000000  0 11G24G06G08G10G28G04G05G30G26G02G17
  -2115028.70947  -1618324.64446  24352622.5864   24352631.6404   24352620.599
        42.0004         37.0004
   9053773.97547   7074564.74146  23964627.7044   23964637.0904   23964626.803
        44.0004         40.0004
   1129486.11847    888396.60946  23701151.5204   23701157.3994   23701151.696
        43.0004         38.0004
 -25962787.08548 -20225816.85748  20530702.0954   20530706.2474   20530702.946
        53.0004         48.0004
 -16564398.56848 -12909522.64247  21075990.7294   21075993.8694   21075991.085
        51.0004         47.0004
 -22582302.15548 -17549452.62747  21461508.2004   21461513.4514   21461508.544
        50.0004         46.0004
 -14952611.89048 -11604909.79147  22613935.9664   22613940.3374   22613935.511
        49.0004         44.0004
   9324599.68247   7256004.94646  23398987.2594   23398993.5474   23398987.507
        45.0004         41.0004
   1775543.50247   1398077.93946  24575849.1034   24575854.0734   24575849.293
        43.0004         38.0004
 -13182694.70548 -10256479.94447  21561164.7694   21561167.4304   21561165.145
        52.0004         47.0004
  -6997313.52047  -5409650.29746  23998333.8264   23998340.0184   23998333.197
        45.0004         40.0004
 14  5 31  1 31 30.0000000  0 11G24G06G08G10G28G04G05G30G26G02G17
  -2173091.81847  -1663568.59546  24341571.4464   24341580.5894   24341570.584
        42.0004         37.0004
   9143200.64747   7144247.80746  23981645.2744   23981653.8064   23981644.559
        44.0004         40.0004
   1236092.75647    971466.70046  23721436.9074   23721443.2224   23721438.154
        43.0004         38.0004
 -25990195.58948 -20247174.11848  20525486.6434   20525490.8824   20525487.123
        53.0004         48.0004
 -16563022.19448 -12908450.11547  21076252.5974   21076255.8314   21076252.965
        51.0004         47.0004
 -22516419.59348 -17498115.58147  21474044.8714   21474050.5554   21474045.679
        50.0004         46.0004
 -15044643.84948 -11676622.91647  22596423.3944   22596426.4214   22596422.753
        49.0004         44.0004
   9417046.78847   7328041.65146  23416579.9344   23416586.2604   23416579.701
        45.0004         41.0004
   1773814.92347   1396731.05246  24575521.1744   24575524.6724   24575520.262
        43.0004         38.0004
 -13164049.40048 -10241951.13147  21564712.7954   21564714.5424   21564713.242
        51.0004         47.0004
  -7004816.58647  -5415496.80346  23996905.4354   23996911.4644   23996905.585
        45.0004         40.0004
 14  5 31  1 32  0.0000000  0 11G24G06G08G10G28G04G05G30G26G02G17
  -2230810.83047  -1708544.38246  24330587.2604   24330596.7124   24330587.433
        42.0004         37.0004
   9232543.09347   7213865.24046  23998646.4934   23998655.1704   23998645.747
        45.0004         40.0004
   1342657.99747   1054504.52946  23741716.3704   23741723.3574   23741717.143
        43.0004         38.0004
 -26017114.50748 -20268149.87848  20520364.0794   20520368.6174   20520364.858
        53.0004         48.0004
 -16561111.80148 -12906961.47247  21076617.0274   21076619.3554   21076616.585
        51.0004         47.0004
 -22450336.29648 -17446622.12447  21486621.2874   21486626.0424   21486620.579
        50.0004         46.0004
 -15136553.87048 -11748241.03347  22578932.8534   22578936.9434   22578932.620
        49.0004         44.0004
   9509473.44947   7400062.42146  23434167.3424   23434174.0854   23434168.144
        45.0004         40.0004
   1771852.88147   1395202.24546  24575145.5454   24575151.6864   24575145.893
        42.0004         38.0004
 -13145079.82548 -10227169.63547  21568322.8934   21568325.1074   21568323.020
        51.0004         47.0004
  -7012512.08647  -5421493.25546  23995441.6564   23995447.1774   23995440.988
        45.0004         40.0004
 14  5 31  1 32 30.0000000  0 11G24G06G08G10G28G04G05G30G26G02G17
  -2288184.95247  -1753251.44146  24319670.7564   24319679.9904   24319669.683
        42.0004         37.0004
   9321799.41147   7283415.56946  24015631.4974   24015639.2464   24015630.229
        45.0004         40.0004
   1449179.25947   1137508.09046  23761987.2794   23761993.3974   23761987.933
        43.0004         38.0004
 -26043541.66948 -20288742.45748  20515335.3734   20515339.1814   20515335.736
        53.0004         48.0004
 -16558665.81648 -12905055.47847  21077081.5624   21077084.9464   21077081.872
        51.0004         47.0004
 -22384054.83048 -17394974.24147  21499233.5464   21499237.8004   21499233.476
        50.0004         46.0004
 -15228338.91548 -11819761.77247  22561466.9724   22561470.9864   22561466.551
        49.0004         44.0004
   9601877.45647   7472065.53646  23451752.2594   23451757.8904   23451752.153
        45.0004         40.0004
   1769656.48547   1393490.82846  24574727.9764   24574734.1154   24574728.144
        42.0004         38.0004
 -13125787.84848 -10212136.92747  21571994.1604   21571996.4034   21571994.152
        51.0004         47.0004
  -7020398.41547  -5427638.40646  23993940.8944   23993946.1014   23993940.321
        45.0004         40.0004
 14  5 31  1 33  0.0000000  0 11G24G06G08G10G28G04G05G30G26G02G17
  -2345213.73047  -1797689.40146  24308817.7454   24308828.4694   24308817.023
        42.0004         37.0004
   9410967.32847   7352897.00846  24032599.1904   24032607.7754   24032598.488
        45.0004         41.0004
   1555653.69747   1220475.16946  23782247.9624   23782253.9084   23782248.457
        42.0004         38.0004
 -26069475.38748 -20308950.52748  20510400.1904   20510404.2764   20510400.960
        53.0004         48.0004
 -16555683.73848 -12902731.75647  21077649.6134   21077652.5724   21077649.514
        51.0004         47.0004
 -22317578.10948 -17343174.20747  21511884.2154   21511888.2704   21511883.468
        50.0004         45.0004
 -15319996.18748 -11891182.94047  22544025.7324   22544029.0914   22544024.898
        49.0004         44.0004
   9694256.29547   7544049.05846  23469331.2564   23469336.9674   23469331.195
        45.0004         40.0004
   1767224.79247   1391596.07046  24574266.2324   24574270.9994   24574265.758
        42.0004         38.0004
 -13106175.55748 -10196854.61747  21575726.1174   21575727.8234   21575726.082
        51.0004         47.0004
  -7028474.72847  -5433931.60146  23992403.7154   23992409.5714   23992403.468
        45.0004         40.0004
 14  5 31  1 33 30.0000000  0 11G24G06G08G10G28G04G05G30G26G02G17
  -2401896.31147  -1841857.59646  24298032.3444   24298040.9714   24298031.516
        42.0004         38.0004
   9500045.12447   7422308.22346  24049550.2784   24049559.3244   24049549.556
        45.0004         41.0004
   1662079.14047   1303404.07346  23802500.7224   23802506.3724   23802500.900
        42.0004         38.0004
 -26094913.09648 -20328772.10748  20505559.4874   20505563.8724   20505560.081
        53.0004         48.0004
 -16552163.81348 -12899988.93247  21078318.8094   21078322.0774   21078319.306
        51.0004         47.0004
 -22250908.52748 -17291223.90847  21524571.2824   21524575.4174   21524570.610
        50.0004         45.0004
 -15411522.61948 -11962502.15647  22526607.5244   22526612.4524   22526607.598
        49.0004         45.0004
   9786607.95447   7616011.37946  23486905.0274   23486911.6184   23486904.961
        45.0004         40.0004
   1764557.12747   1389517.40746  24573758.5824   24573764.1174   24573757.894
        42.0004         38.0004
 -13086244.63048 -10181324.01947  21579518.5234   21579520.8684   21579519.176
        51.0004         47.0004
  -7036740.11047  -5440372.11746  23990830.7114   23990836.0294   23990830.465
        45.0004         40.0004
 14  5 31  1 34  0.0000000  0 11G24G06G08G10G28G04G05G30G26G02G17
  -2458233.29847  -1885756.50946  24287309.2384   24287319.8304   24287310.332
        42.0004         38.0004
   9589029.87347   7491646.94246  24066483.3734   24066492.4324   24066482.505
        45.0004         41.0004
   1768452.06547   1386292.04446  23822742.4684   23822748.7844   23822742.863
        42.0004         37.0004
 -26119853.64148 -20348206.27848  20500813.4784   20500817.5734   20500813.964
        53.0004         48.0004
 -16548105.88748 -12896826.87747  21079091.4834   21079094.4814   21079091.463
        52.0004         47.0004
 -22184050.00348 -17239126.37447  21537293.6324   21537298.7894   21537293.525
        50.0004         46.0004
 -15502916.17548 -12033717.83247  22509216.4224   22509220.6894   22509215.793
        49.0004         45.0004
   9878929.16547   7687949.98346  23504473.5754   23504478.8804   23504473.046
        45.0004         40.0004
   1761651.55847   1387253.39846  24573204.6294   24573211.2934   24573204.918
        43.0004         38.0004
 -13065997.84348 -10165547.29747  21583371.2944   21583373.4654   21583371.817
        51.0004         47.0004
  -7045193.83347  -5446959.38346  23989222.0894   23989228.2754   23989221.432
        45.0004         40.0004
 14  5 31  1 34 30.0000000  0 11G24G06G08G10G28G04G05G30G26G02G17
  -2514220.06447  -1929382.50646  24276656.8634   24276666.2704   24276655.762
        42.0004         38.0004
   9677922.89647   7560914.17746  24083399.0884   24083408.6994   24083398.597
        45.0004         41.0004
   1874773.04547   1469139.53346  23842974.6234   23842979.5174   23842975.240
        42.0004         37.0004
 -26144291.50648 -20367248.75748  20496163.3084   20496167.4434   20496163.869
        53.0004         48.0004
 -16543505.42948 -12893242.07847  21079966.7314   21079969.9964   21079966.691
        51.0004         47.0004
 -22117001.77648 -17186881.02847  21550052.2734   21550057.3334   21550052.298
        50.0004         46.0004
 -15594170.74448 -12104825.21147  22491851.8984   22491855.1464   22491851.088
        49.0004         45.0004
   9971221.04647   7759865.72946  23522035.4424   23522041.7944   23522035.849
        45.0004         40.0004
   1758510.65847   1384806.00746  24572606.9354   24572613.9984   24572606.996
        42.0004         38.0004
 -13045433.87148 -10149523.41847  21587284.9394   21587286.8024   21587285.183
        51.0004         47.0004
  -7053831.33947  -5453689.86846  23987578.3764   23987583.8284   23987578.006
        45.0004         40.0004
 14  5 31  1 35  0.0000000  0 11G24G06G08G10G28G04G05G30G26G02G17
  -2569860.25647  -1972738.45646  24266069.7924   24266078.9014   24266068.683
        42.0004         38.0004
   9766718.21047   7630105.27446  24100296.4424   24100305.3354   24100295.434
        45.0004         41.0004
   1981035.40147   1551941.34846  23863195.1114   23863202.4074   23863196.107
        42.0004         37.0004
 -26168228.62848 -20385901.04348  20491607.7294   20491612.5724   20491608.570
        53.0004         48.0004
 -16538365.27548 -12889236.73747  21080945.1254   21080948.6064   21080945.035
        51.0004         47.0004
 -22049770.66448 -17134493.16947  21562845.3664   21562850.8934   21562845.850
        50.0004         45.0004
 -15685287.23148 -12175824.99447  22474512.8424   22474516.5784   22474512.106
        49.0004         45.0004
  10063477.27247   7831753.71046  23539590.8234   23539597.7984   23539591.497
        45.0004         40.0004
   1755129.47847   1382171.38146  24571963.7504   24571969.3324   24571963.228
        42.0004         38.0004
 -13024558.55648 -10133256.93847  21591256.9914   21591258.9454   21591257.379
        51.0004         47.0004
  -7062655.49547  -5460565.80046  23985899.2224   23985905.2654   23985898.756
        45.0004         40.0004
 14  5 31  1 35 30.0000000  0 11G24G06G08G10G28G04G05G30G26G02G17
  -2625151.73447  -2015822.68446  24255546.4334   24255554.6004   24255546.051
        42.0004         38.0004
   9855414.96847   7699219.56846  24117174.9934   24117184.6074   24117173.875
        45.0004         41.0004
   2087237.83647   1634696.46646  23883407.0924   23883410.8364   23883405.899
        42.0004         37.0004
 -26191662.03748 -20404160.82848  20487148.7004   20487152.7924   20487149.278
        53.0004         49.0004
 -16532683.29348 -12884809.19347  21082026.1354   21082029.1674   21082026.117
        51.0004         47.0004
 -21982358.25448 -17081964.03847  21575674.3984   21575679.1904   21575673.846
        50.0004         45.0004
 -15776261.59748 -12246714.03147  22457200.9584   22457204.3964   22457199.723
        49.0004         45.0004
  10155696.69247   7903612.98246  23557140.1084   23557145.9544   23557140.148
        45.0004         40.0004
   1751508.29547   1379349.72946  24571274.2984   24571281.4074   24571274.501
        42.0004         38.0004
 -13003372.91148 -10116748.64047  21595288.8554   21595290.5004   21595289.281
        51.0004         47.0004
  -7071663.68947  -5467585.13046  23984184.8254   23984190.6394   23984184.451
        45.0004         40.0004
 14  5 31  1 36  0.0000000  0 11G24G06G08G10G28G04G05G30G26G02G17
  -2680093.48047  -2058634.37146  24245093.1404   24245100.7704   24245091.775
        42.0004         38.0004
   9944012.16847   7768256.28346  24134035.2894   24134043.6184   24134034.000
        45.0004         41.0004
   2193378.84247   1717403.73046  23903603.6804   23903608.1444   23903603.581
        42.0004         37.0004
 -26214588.98148 -20422025.96348  20482785.9584   20482790.2404   20482786.825
        53.0004         48.0004
 -16526457.39748 -12879957.81647  21083210.7404   21083213.3294   21083211.078
        51.0004         47.0004
 -21914766.18548 -17029294.90247  21588537.1194   21588540.9784   21588536.451
        50.0004         45.0004
 -15867090.14248 -12317489.45047  22439916.2274   22439920.5684   22439915.520
        49.0004         45.0004
  10247878.05247   7975442.61546  23574682.2614   23574689.3024   23574681.872
        45.0004         40.0004
   1747647.26347   1376341.19846  24570539.9654   24570545.4864   24570540.394
        42.0004         38.0004
 -12981877.78448 -10099999.19247  21599379.4974   21599381.3144   21599379.477
        51.0004         47.0004
  -7080853.90347  -5474746.28646  23982435.6124   23982442.1244   23982435.694
        45.0004         40.0004
 14  5 31  1 36 30.0000000  0 11G24G06G08G10G28G04G05G30G26G02G17
  -2734685.87047  -2101173.85246  24234704.1614   24234712.9434   24234702.852
        42.0004         38.0004
  10032506.88147   7837213.14146  24150874.7914   24150883.7804   24150874.183
        45.0004         41.0004
   2299454.90547   1800060.37446  23923790.3784   23923795.0154   23923789.758
        42.0004         37.0004
 -26237008.13148 -20439495.41648  20478519.7524   20478523.5974   20478520.367
        53.0004         49.0004
 -16519687.59248 -12874682.61647  21084498.3644   21084501.7794   21084498.611
        51.0004         47.0004
 -21846998.31548 -16976488.78847  21601432.4964   21601437.0654   21601432.242
        50.0004         45.0004
 -15957771.26648 -12388149.98347  22422660.3564   22422663.4034   22422659.706
        49.0004         45.0004
  10340018.13847   8047240.07946  23592215.4184   23592222.3214   23592215.561
        45.0004         40.0004
   1743544.63247   1373144.40146  24569759.1434   24569764.8524   24569759.445
        42.0004         38.0004
 -12960076.28748 -10083011.00347  21603527.3404   21603529.7604   21603528.041
        51.0004         47.0004
  -7090225.85147  -5482049.08346  23980652.6864   23980657.5434   23980652.470
        45.0004         41.0004
 14  5 31  1 37  0.0000000  0 11G24G06G08G10G28G04G05G30G26G02G17
  -2788929.04147  -2143441.19646  24224379.5504   24224390.6524   24224379.314
        43.0004         38.0004
  10120896.40447   7906088.02746  24167694.9164   24167703.4444   24167694.158
        45.0004         41.0004
   2405462.55547   1882663.70046  23943962.2714   23943969.3374   23943962.405
        42.0004         37.0004
 -26258918.24048 -20456568.20948  20474350.0984   20474354.6014   20474350.980
        53.0004         49.0004
 -16512373.63048 -12868983.40147  21085890.3884   21085893.9094   21085890.915
        51.0004         47.0004
 -21779057.99048 -16923548.30147  21614361.0154   21614366.2074   21614360.468
        50.0004         45.0004
 -16048302.19248 -12458693.49047  22405432.8984   22405436.1994   22405431.943
        49.0004         45.0004
  10432113.90247   8119002.99246  23609741.1734   23609746.6914   23609740.834
        45.0004         40.0004
   1739198.71247   1369758.00346  24568931.6564   24568936.3954   24568932.462
        42.0004         38.0004
 -12937971.17348 -10065786.23547  21607733.9614   21607736.1124   21607734.435
        51.0004         47.0004
  -7099779.15247  -5489493.18346  23978835.2174   23978840.9074   23978835.057
        45.0004         41.0004
 14  5 31  1 37 30.0000000  0 11G24G06G08G10G28G04G05G30G26G02G17
  -2842820.09947  -2185434.18846  24214127.1514   24214135.0194   24214125.922
        43.0004         38.0004
  10209181.09547   7974881.23046  24184495.1784   24184503.6234   24184494.326
        45.0004         41.0004
   2511401.51647   1965213.50746  23964122.5284   23964126.8474   23964122.046
        42.0004         37.0004
 -26280315.25948 -20473241.19748  20470278.5074   20470283.0544   20470279.419
        53.0004         49.0004
 -16504511.92548 -12862857.36547  21087386.7764   21087389.7004   21087386.708
        51.0004         47.0004
 -21710945.92648 -16870473.98947  21627322.8914   21627326.3304   21627322.364
        50.0004         45.0004
 -16138678.15948 -12529116.25647  22388234.9214   22388237.6134   22388234.011
        50.0004         45.0004
  10524165.40547   8190731.42646  23627259.0914   23627263.7704   23627257.867
        45.0004         40.0004
   1734610.96047   1366183.19146  24568058.6504   24568065.3544   24568058.477
        42.0004         38.0004
 -12915561.98848 -10048324.52247  21611998.6934   21612000.9294   21611998.733
        51.0004         47.0004
  -7109510.04847  -5497075.66246  23976982.8004   23976989.5294   23976982.826
        45.0004         41.0004
 14  5 31  1 38  0.0000000  0 11G24G06G08G10G28G04G05G30G26G02G17
  -2896361.78547  -2227154.94446  24203937.1924   24203946.2114   24203935.603
        43.0004         38.0004
  10297355.24047   8043588.29046  24201274.2784   24201282.6434   24201272.962
        45.0004         41.0004
   2617265.75347   2047705.08546  23984265.1074   23984272.4774   23984267.291
        42.0004         37.0004
 -26301201.12648 -20489515.88448  20466304.0464   20466308.3394   20466304.648
        53.0004         49.0004
 -16496105.52248 -12856306.89347  21088986.6584   21088989.4524   21088986.848
        51.0004         47.0004
 -21642668.50748 -16817270.82847  21640316.0494   21640320.0874   21640315.215
        50.0004         46.0004
 -16228899.96548 -12599418.88847  22371066.0134   22371069.2034   22371065.581
        50.0004         45.0004
  10616166.69347   8262420.72846  23644764.5964   23644769.8434   23644765.110
        45.0004         40.0004
   1729776.88047   1362416.43246  24567140.0604   24567145.6314   24567138.751
        42.0004         38.0004
 -12892854.71848 -10030630.53947  21616318.8434   21616321.7964   21616319.836
        51.0004         47.0004
  -7119420.84647  -5504798.33046  23975097.3674   23975103.0544   23975097.059
        45.0004         41.0004
 14  5 31  1 38 30.0000000  0 11G24G06G08G10G28G04G05G30G26G02G17
  -2949549.80947  -2268600.10046  24193817.0674   24193824.4964   24193816.054
        43.0004         38.0004
  10385421.11847   8112210.98346  24218032.7684   24218041.3844   24218031.561
        45.0004         40.0004
   2723056.85947   2130139.67446  24004398.8864   24004402.8524   24004398.190
        42.0004         37.0004
 -26321569.63748 -20505387.43648  20462428.1424   20462432.0814   20462428.912
        53.0004         49.0004
 -16487149.21648 -12849327.92647  21090690.4264   21090693.8484   21090690.637
        51.0004         47.0004
 -21574224.13648 -16763937.56647  21653339.5954   21653344.3814   21653339.421
        50.0004         45.0004
 -16318960.31748 -12669595.71547  22353928.2824   22353931.7994   22353927.804
        50.0004         45.0004
  10708119.69547   8334072.41846  23662262.8704   23662268.4954   23662262.946
        45.0004         40.0004
   1724699.86047   1358460.35846  24566174.2864   24566179.8304   24566173.103
        42.0004         38.0004
 -12869847.27748 -10012702.65547  21620697.5504   21620699.9144   21620698.052
        51.0004         46.0004
  -7129506.25347  -5512657.06146  23973177.4844   23973183.4324   23973177.333
        45.0004         41.0004
 14  5 31  1 39  0.0000000  0 11G24G06G08G10G28G04G05G30G26G02G17
  -3002387.13247  -2309772.00746  24183762.0574   24183771.2614   24183761.505
        43.0004         38.0004
  10473373.32547   8180745.09746  24234770.0124   24234778.7584   24234768.517
        45.0004         40.0004
   2828768.74247   2212512.53846  24024515.5254   24024519.5534   24024514.939
        42.0004         37.0004
 -26341422.43648 -20520857.13148  20458650.3254   20458654.3434   20458650.799
        53.0004         49.0004
 -16477645.61748 -12841922.49447  21092499.1574   21092502.3714   21092499.406
        51.0004         47.0004
 -21505619.16448 -16710479.17047  21666395.2164   21666399.5394   21666394.740
        50.0004         45.0004
 -16408859.73648 -12739647.15047  22336820.8794   22336823.3834   22336819.943
        50.0004         45.0004
  10800018.77447   8405682.09546  23679750.9484   23679757.3914   23679750.212
        44.0004         40.0004
   1719375.62347   1354311.65146  24565160.6064   24565165.5044   24565160.056
        42.0004         38.0004
 -12846545.09648  -9994545.10747  21625132.1024   21625134.1134   21625132.078
        51.0004         47.0004
  -7139768.55947  -5520653.63346  23971224.7064   23971230.2534   23971224.364
        45.0004         41.0004
 14  5 31  1 39 30.0000000  0 11G24G06G08G10G28G04G05G30G26G02G17
  -3054870.69647  -2350668.23946  24173773.8254   24173782.5914   24173772.870
        43.0004         38.0004
  10561212.74647   8249191.32846  24251484.2694   24251493.6154   24251483.954
        45.0004         40.0004
   2934401.84447   2294824.01146  24044616.5574   24044622.4784   24044616.298
        42.0004         37.0004
 -26360755.06648 -20535921.50448  20454971.0134   20454975.2114   20454971.981
        53.0004         49.0004
 -16467591.37248 -12834087.98547  21094412.6394   21094415.9444   21094412.818
        51.0004         47.0004
 -21436853.59548 -16656895.63147  21679480.2444   21679485.1824   21679480.238
        50.0004         45.0004
 -16498592.88548 -12809569.01947  22319744.9524   22319748.9034   22319744.463
        50.0004         45.0004
  10891864.42947   8477250.12846  23697227.7924   23697235.1504   23697227.548
        44.0004         40.0004
   1713806.11347   1349971.81246  24564100.9304   24564106.0844   24564100.372
        42.0004         38.0004
 -12822947.36148  -9976157.25947  21629622.7724   21629624.2364   21629623.076
        51.0004         47.0004
  -7150203.57847  -5528784.80046  23969238.7584   23969244.0404   23969238.371
        45.0004         41.0004
 14  5 31  1 40  0.0000000  0 11G24G06G08G10G28G04G05G30G26G02G17
  -3107001.29447  -2391289.46146  24163854.6434   24163863.5174   24163853.491
        43.0004         38.0004
  10648936.10447   8317547.12446  24268178.2204   24268187.0634   24268177.150
        44.0004         39.0004
   3039952.27746   2377071.05546  24064701.6554   24064707.3744   24064702.270
        41.0004         37.0004
 -26379567.11248 -20550580.22348  20451391.4494   20451395.7844   20451391.929
        53.0004         49.0004
 -16456986.66848 -12825824.54847  21096430.5444   21096432.8844   21096430.483
        51.0004         47.0004
 -21367931.26848 -16603189.94547  21692596.1054   21692600.5864   21692595.885
        50.0004         45.0004
 -16588158.06648 -12879360.00347  22302700.7154   22302705.0104   22302701.005
        50.0004         45.0004
  10983653.13847   8548773.78746  23714695.0384   23714700.8704   23714694.757
        44.0004         40.0004
   1707989.19847   1345439.20746  24562993.3764   24562999.1574   24562993.041
        42.0004         38.0004
 -12799057.51648  -9957541.79047  21634168.4384   21634170.8144   21634168.745
        51.0004         47.0004
  -7160811.24447  -5537050.48946  23967221.1064   23967227.0574   23967220.154
        45.0004         41.0004
 14  5 31  1 40 30.0000000  0 11G24G06G08G10G28G04G05G30G26G02G17
  -3158779.68347  -2431636.21946  24154000.4744   24154008.7154   24153999.664
        42.0004         38.0004
  10736540.28347   8385810.05546  24284848.7104   24284857.3414   24284847.968
        44.0004         39.0004
   3145416.41147   2459250.85046  24084770.7084   24084776.2674   24084771.007
        42.0004         37.0004
 -26397857.80548 -20564832.69748  20447910.7354   20447915.2854   20447911.388
        53.0004         49.0004
 -16445832.00848 -12817132.57347  21098552.9574   21098555.5344   21098553.255
        51.0004         47.0004
 -21298856.22048 -16549365.26047  21705740.6534   21705745.8924   21705740.359
        50.0004         45.0004
 -16677553.39048 -12949018.63247  22285690.3454   22285693.6394   22285689.846
        50.0004         45.0004
  11075381.52347   8620250.42846  23732150.2584   23732157.7074   23732150.243
        44.0004         39.0004
   1701922.97347   1340712.31446  24561839.1924   24561844.7044   24561838.809
        42.0004         38.0004
 -12774878.84748  -9938701.26147  21638769.9884   21638771.8124   21638770.228
        51.0004         47.0004
  -7171591.44047  -5545450.62446  23965169.4634   23965174.7494   23965168.759
        45.0004         41.0004
 14  5 31  1 41  0.0000000  0 11G24G06G08G10G28G04G05G30G26G02G17
  -3210203.76847  -2471706.88646  24144215.0524   24144223.3594   24144214.179
        42.0004         38.0004
  10824025.38947   8453980.20146  24301496.8604   24301504.3814   24301495.360
        44.0004         39.0004
   3250793.51747   2541362.83246  24104824.0614   24104829.3084   24104824.273
        42.0004         37.0004
 -26415623.46948 -20578676.05348  20444530.2114   20444534.3434   20444530.788
        53.0004         49.0004
 -16434124.66248 -12808009.93747  21100781.0564   21100783.6374   21100781.209
        51.0004         47.0004
 -21229629.29648 -16495422.22147  21718914.5564   21718918.7774   21718914.127
        50.0004         45.0004
 -16766774.11148 -13018541.21247  22268711.4994   22268715.5184   22268711.099
        50.0004         45.0004
  11167049.32047   8691679.88746  23749593.7594   23749600.5374   23749594.222
        44.0004         39.0004
   1695608.63047   1335792.09346  24560636.8624   24560643.2334   24560637.200
        43.0004         38.0004
 -12750411.43148  -9919635.73547  21643425.6464   21643427.5324   21643425.964
        51.0004         47.0004
  -7182540.53147  -5553982.35746  23963085.4284   23963090.9624   23963084.602
        45.0004         41.0004
 14  5 31  1 41 30.0000000  0 11G24G06G08G10G28G04G05G30G26G02G17
  -3261274.55047  -2511502.28246  24134496.3414   24134505.8454   24134496.031
        42.0004         38.0004
  10911387.51247   8522054.51046  24318120.8824   24318128.6134   24318120.414
        44.0004         39.0004
   3356079.44547   2623403.75846  24124858.2194   24124864.3324   24124859.089
        42.0004         37.0004
 -26432864.46848 -20592110.58448  20441249.4234   20441253.5964   20441249.965
        53.0004         49.0004
 -16421865.52848 -12798457.33747  21103113.5464   21103116.4254   21103113.666
        51.0004         47.0004
 -21160255.43348 -16441364.69147  21732114.7494   21732120.0324   21732115.386
        50.0004         45.0004
 -16855819.41148 -13087927.10747  22251767.1614   22251770.5724   22251766.562
        50.0004         45.0004
  11258652.32847   8763058.84146  23767025.5754   23767031.1614   23767025.614
        44.0004         39.0004
   1689043.33847   1330676.32246  24559387.5514   24559393.5024   24559387.246
        43.0004         38.0004
 -12725659.68048  -9900348.65747  21648135.7684   21648137.6524   21648136.066
        51.0004         47.0004
  -7193659.88347  -5562646.76346  23960969.7974   23960975.6024   23960969.491
        45.0004         41.0004
 14  5 31  1 42  0.0000000  0 11G24G06G08G10G28G04G05G30G26G02G17
  -3311990.85647  -2551021.42946  24124845.1054   24124853.9234   24124843.671
        42.0004         38.0004
  10998626.21747   8590032.64946  24334722.5814   24334731.5774   24334721.189
        43.0004         39.0004
   3461273.19947   2705372.86646  24144875.4424   24144882.1124   24144877.076
        42.0004         37.0004
 -26449577.49048 -20605133.70048  20438068.9334   20438073.5654   20438069.251
        53.0004         48.0004
 -16409052.77048 -12788473.33847  21105551.5804   21105554.7314   21105551.884
        51.0004         47.0004
 -21090735.52248 -16387193.36447  21745344.5394   21745349.2994   21745344.539
        49.0004         45.0004
 -16944684.93048 -13157172.90547  22234856.4394   22234859.4634   22234855.993
        50.0004         46.0004
  11350189.86247   8834386.77946  23784445.0554   23784450.5604   23784444.992
        44.0004         39.0004
   1682227.80447   1325365.56546  24558090.4914   24558096.9434   24558090.705
        43.0004         38.0004
 -12700624.28748  -9880840.54647  21652899.4994   21652901.1604   21652900.003
        51.0004         46.0004
  -7204946.39147  -5571441.42046  23958821.2984   23958828.1024   23958821.020
        45.0004         41.0004
 14  5 31  1 42 30.0000000  0 11G24G06G08G10G28G04G05G30G26G02G17
  -3362351.86547  -2590263.74746  24115261.6174   24115269.8094   24115261.797
        42.0004         38.0004
  11085739.88647   8657913.35746  24351297.9664   24351308.2274   24351298.826
        43.0004         39.0004
   3566372.43747   2787268.32146  24164877.0834   24164882.2384   24164875.789
        42.0004         37.0004
 -26465760.86848 -20617744.10848  20434989.3794   20434993.5874   20434989.990
        53.0004         49.0004
 -16395685.85348 -12778057.53147  21108095.0574   21108098.3404   21108095.452
        51.0004         47.0004
 -21021072.26048 -16332910.32947  21758601.0874   21758605.7564   21758601.092
        49.0004         45.0004
 -17033367.64748 -13226276.26447  22217980.4204   22217984.1784   22217979.404
        50.0004         46.0004
  11441659.99447   8905662.20546  23801851.6734   23801857.5844   23801850.967
        44.0004         39.0004
   1675161.59247   1319859.47646  24556745.3214   24556750.6894   24556745.678
        43.0004         38.0004
 -12675306.76548  -9861112.60347  21657717.7514   21657719.3544   21657718.346
        51.0004         47.0004
  -7216398.34847  -5580364.99946  23956642.4224   23956648.0814   23956642.317
        45.0004         41.0004
 14  5 31  1 43  0.0000000  0 11G24G06G08G10G28G04G05G30G26G02G17
  -3412359.55847  -2629230.76546  24105746.1724   24105755.9184   24105745.736
        42.0004         38.0004
  11172724.14147   8725693.22146  24367852.5924   24367860.7444   24367851.294
        43.0004         38.0004
   3671372.45146   2869086.45846  24184856.6754   24184861.4594   24184857.145
        41.0004         37.0004
 -26481415.31548 -20629942.36848  20432010.4144   20432014.8044   20432010.807
        53.0004         48.0004
 -16381766.08348 -12767210.93747  21110744.5214   21110747.3044   21110744.584
        51.0004         47.0004
 -20951270.67248 -16278519.50447  21771883.9754   21771888.9094   21771883.967
        49.0004         45.0004
 -17121867.13548 -13295236.84747  22201139.5524   22201143.6974   22201139.323
        50.0004         46.0004
  11533058.00047   8976881.41346  23819243.8204   23819249.5704   23819243.784
        44.0004         39.0004
   1667841.47647   1314155.53246  24555352.3474   24555359.7614   24555352.532
        43.0004         38.0004
 -12649712.21148  -9841168.79147  21662587.7014   21662590.0854   21662588.031
        51.0004         46.0004
  -7228016.44747  -5589418.04846  23954431.6924   23954437.7424   23954431.282
        45.0004         41.0004
 14  5 31  1 43 30.0000000  0 11G24G06G08G10G28G04G05G30G26G02G17
  -3462009.99347  -2667919.35646  24096297.6244   24096305.9054   24096296.655
        43.0004         38.0004
  11259581.38847   8793374.11546  24384379.7484   24384390.4144   24384379.271
        43.0004         38.0004
   3776274.78846   2950828.48246  24204819.4924   24204824.5064   24204820.244
        41.0004         37.0004
 -26496535.10548 -20641724.00648  20429133.1384   20429137.2704   20429133.547
        53.0004         49.0004
 -16367288.78048 -12755929.89047  21113499.1674   21113501.9924   21113499.272
        51.0004         47.0004
 -20881329.47348 -16224019.88747  21785193.6284   21785198.1634   21785193.120
        49.0004         45.0004
 -17210175.76648 -13364048.71247  22184335.3074   22184338.0914   22184334.310
        50.0004         46.0004
  11624386.00947   9048046.08046  23836622.7214   23836627.7834   23836622.601
        44.0004         39.0004
   1660270.90347   1308256.43946  24553912.5964   24553917.3814   24553912.325
        43.0004         38.0004
 -12623837.98348  -9821007.04847  21667511.8464   21667513.5004   21667512.213
        51.0004         46.0004
  -7239795.84447  -5598596.78346  23952189.6414   23952195.5984   23952190.037
        46.0004         41.0004
 14  5 31  1 44  0.0000000  0 11G24G06G08G10G28G04G05G30G26G02G17
  -3511305.22147  -2706331.19846  24086918.0514   24086926.4084   24086916.963
        43.0004         38.0004
  11346306.96747   8860952.40846  24400883.5264   24400892.3374   24400882.921
        42.0004         38.0004
   3881074.24346   3032490.33146  24224762.8704   24224769.5384   24224763.089
        41.0004         37.0004
 -26511121.33948 -20653089.88748  20426357.5224   20426361.5734   20426358.160
        53.0004         48.0004
 -16352256.20548 -12744216.17147  21116359.7094   21116363.1124   21116359.808
        51.0004         47.0004
 -20811254.34048 -16169415.91547  21798528.1384   21798532.9914   21798528.165
        49.0004         45.0004
 -17298293.84848 -13432712.10947  22167566.7374   22167570.1394   22167565.912
        50.0004         46.0004
  11715638.97647   9119152.27846  23853987.9554   23853993.1604   23853987.400
        44.0004         39.0004
   1652446.30747   1302159.40246  24552422.9654   24552429.3704   24552423.315
        43.0004         38.0004
 -12597689.38348  -9800631.50647  21672487.2494   21672489.7584   21672487.793
        51.0004         46.0004
  -7251738.00847  -5607902.36046  23949917.9404   23949921.9894   23949917.232
        46.0004         41.0004
 14  5 31  1 44 30.0000000  0 11G24G06G08G10G28G04G05G30G26G02G17
  -3560244.30647  -2744465.52346  24077604.3564   24077613.7204   24077603.141
        42.0004         38.0004
  11432899.66947   8928427.16146  24417361.9484   24417369.6524   24417360.877
        42.0004         37.0004
   3985769.09846   3114070.67446  24244684.7114   24244689.6374   24244685.751
        41.0004         37.0004
 -26525171.80848 -20664038.29248  20423683.9654   20423687.8194   20423684.458
        53.0004         49.0004
 -16336667.10848 -12732068.79247  21119326.1904   21119329.2824   21119326.349
        51.0004         46.0004
 -20741047.17448 -16114709.05647  21811888.6324   21811893.7724   21811888.197
        49.0004         45.0004
 -17386217.81648 -13501224.23647  22150835.5384   22150838.9534   22150834.928
        50.0004         46.0004
  11806815.47247   9190198.88546  23871337.1404   23871344.2974   23871337.726
        44.0004         39.0004
   1644367.69547   1295864.43146  24550886.1504   24550892.7314   24550885.147
        43.0004         38.0004
 -12571268.06548  -9780043.46147  21677516.0514   21677517.2534   21677516.012
        51.0004         47.0004
  -7263840.81247  -5617333.11746  23947614.7844   23947620.7614   23947614.209
        46.0004         41.0004
 14  5 31  1 45  0.0000000  0 11G24G06G08G10G28G04G05G30G26G02G17
  -3608826.87647  -2782322.04346  24068359.4604   24068369.2354   24068358.962
        43.0004         38.0004
  11519357.99947   8995797.22046  24433813.2084   24433824.1044   24433813.250
        42.0004         37.0004
   4090357.50846   3195568.07246  24264587.1784   24264591.5014   24264587.902
        41.0004         37.0004
 -26538684.60848 -20674567.73548  20421112.0464   20421116.7254   20421112.738
        53.0004         48.0004
 -16320520.87148 -12719487.28647  21122398.5084   21122401.3194   21122398.898
        51.0004         47.0004
 -20670710.35248 -16059901.17147  21825273.4134   21825278.1174   21825273.103
        49.0004         45.0004
 -17473944.54848 -13569582.68147  22134141.5484   22134144.9284   22134141.051
        50.0004         46.0004
  11897913.70647   9261184.50146  23888673.2234   23888679.4434   23888673.216
        44.0004         39.0004
   1636034.71347   1289371.24246  24549300.3754   24549305.6864   24549299.879
        43.0004         38.0004
 -12544575.78848  -9759244.27447  21682595.0464   21682596.5464   21682595.270
        51.0004         47.0004
  -7276102.37447  -5626887.56746  23945281.6814   23945286.2934   23945280.716
        45.0004         41.0004
 14  5 31  1 45 30.0000000  0 11G24G06G08G10G28G04G05G30G26G02G17
  -3657054.25747  -2819901.80346  24059182.4444   24059190.5594   24059181.318
        43.0004         38.0004
  11605678.48147   9063059.86646  24450241.0804   24450249.8064   24450240.404
        42.0004         37.0004
   4194835.20946   3276979.19746  24284468.3104   24284474.3834   24284469.112
        41.0004         36.0004
 -26551660.12348 -20684678.51348  20418643.2464   20418647.2574   20418643.924
        53.0004         48.0004
 -16303818.55048 -12706472.46847  21125576.7474   21125580.6924   21125577.265
        51.0004         46.0004
 -20600248.30448 -16004995.71247  21838681.6944   21838686.5734   21838681.227
        49.0004         45.0004
 -17561472.98248 -13637786.60747  22117485.4344   22117488.1894   22117484.572
        51.0004         46.0004
  11988929.85747   9332106.14846  23905992.2494   23906000.2934   23905993.065
        44.0004         39.0004
   1627444.97147   1282677.97546  24547665.9344   24547672.7744   24547665.602
        43.0004         38.0004
 -12517616.56048  -9738237.07047  21687725.1064   21687726.8274   21687725.085
        51.0004         46.0004
  -7288522.75147  -5636565.77246  23942918.1964   23942923.9384   23942917.353
        45.0004         41.0004
 14  5 31  1 46  0.0000000  0 11G24G06G08G10G28G04G05G30G26G02G17
  -3704925.15547  -2857203.79146  24050071.8074   24050082.9794   24050071.487
        43.0004         38.0004
  11691860.30846   9130214.45946  24466642.0014   24466649.4084   24466640.053
        41.0004         36.0004
   4299201.12846   3358303.22646  24304329.5204   24304335.6234   24304329.878
        41.0004         36.0004
 -26564095.83648 -20694368.66948  20416276.5424   20416280.7644   20416277.199
        53.0004         49.0004
 -16286558.43048 -12693023.00447  21128862.1274   21128864.1474   21128861.774
        51.0004         46.0004
 -20529662.68948 -15949993.95747  21852115.1394   21852117.6204   21852113.220
        49.0004         45.0004
 -17648798.82548 -13705832.66847  22100866.9784   22100870.9204   22100867.321
        51.0004         46.0004
  12079862.80547   9402962.96346  23923296.8414   23923302.9024   23923296.638
        44.0004         39.0004
   1618598.86247   1275784.94646  24545982.4074   24545989.1964   24545982.307
        43.0004         38.0004
 -12490391.38148  -9717022.64047  21692905.7124   21692907.9784   21692906.254
        51.0004         47.0004
  -7301099.48247  -5646365.80646  23940524.6664   23940529.5884   23940523.840
        45.0004         41.0004
 14  5 31  1 46 30.0000000  0 11G24G06G08G10G28G04G05G30G26G02G17
  -3752439.25147  -2894227.73546  24041031.1464   24041039.8514   24041030.899
        43.0004         38.0004
  11777902.11846   9197259.94646  24483014.2674   24483021.2864   24483012.970
        41.0004         36.0004
   4403453.17746   3439538.50746  24324170.0214   24324174.2664   24324168.338
        41.0004         36.0004
 -26575989.90948 -20703636.76348  20414013.4104   20414017.9414   20414013.980
        53.0004         49.0004
 -16268739.23948 -12679137.89347  21132252.6764   21132254.7504   21132252.568
        51.0004         47.0004
 -20458955.83048 -15894897.73247  21865568.6794   21865573.8674   21865568.357
        49.0004         44.0004
 -17735918.89448 -13773718.38947  22084289.0834   22084292.8274   22084288.894
        51.0004         46.0004
  12170710.97347   9473753.72646  23940584.0704   23940591.2974   23940584.541
        44.0004         39.0004
   1609496.10847   1268691.94446  24544249.8704   24544255.4594   24544250.110
        43.0004         38.0004
 -12462902.06948  -9695602.39347  21698137.1644   21698138.3154   21698137.308
        51.0004         47.0004
  -7313830.64247  -5656286.17846  23938101.3884   23938107.6494   23938101.835
        45.0004         41.0004
 14  5 31  1 47  0.0000000  0 11G24G06G08G10G28G04G05G30G26G02G17
  -3799596.78447  -2930973.84246  24032056.9014   24032065.2064   24032056.345
        43.0004         38.0004
  11863801.95946   9264194.80145  24499358.6414   24499367.8134   24499358.824
        40.0004         35.0004
   4507588.64846   3520682.97246  24343984.7104   24343991.0974   24343984.772
        41.0004         37.0004
 -26587341.09248 -20712481.82848  20411853.3024   20411857.6694   20411853.829
        53.0004         49.0004
 -16250361.71348 -12664817.72347  21135749.3744   21135752.2284   21135749.816
        51.0004         47.0004
 -20388130.72148 -15839709.35747  21879046.1584   21879051.5084   21879046.014
        49.0004         44.0004
 -17822830.42248 -13841441.61047  22067750.9344   22067753.9354   22067749.410
        51.0004         46.0004
  12261471.94447   9544476.51646  23957856.7244   23957862.5844   23957855.813
        44.0004         39.0004
   1600135.79647   1261398.23446  24542468.4814   24542474.3894   24542468.849
        43.0004         38.0004
 -12435151.07448  -9673978.23347  21703417.5784   21703419.6004   21703417.888
        51.0004         47.0004
  -7326715.38147  -5666326.23046  23935650.3374   23935655.5684   23935649.594
        45.0004         41.0004
 14  5 31  1 47 30.0000000  0 11G24G06G08G10G28G04G05G30G26G02G17
  -3846396.87047  -2967441.42346  24023151.0984   24023160.9244   24023151.240
        43.0004         38.0004
  11949557.78946   9331017.42745  24515675.4404   24515689.3084   24515677.668
        40.0004         35.0004
   4611605.30746   3601734.83746  24363778.1764   24363782.3424   24363778.270
        41.0004         37.0004
 -26598147.87748 -20720902.69048  20409796.7344   20409801.0304   20409797.569
        53.0004         49.0004
 -16231425.12248 -12650061.91647  21139352.6284   21139355.7794   21139353.280
        51.0004         47.0004
 -20317190.11848 -15784430.98847  21892546.2554   21892550.0844   21892545.573
        49.0004         44.0004
 -17909530.84148 -13909000.33547  22051251.7784   22051255.8434   22051251.175
        51.0004         46.0004
  12352143.52847   9615129.68146  23975110.7424   23975117.7554   23975109.990
        43.0004         39.0004
   1590517.19347   1253903.25746  24540638.1404   24540644.9964   24540638.688
        43.0004         38.0004
 -12407140.70948  -9652151.96747  21708747.0954   21708750.1984   21708748.054
        51.0004         47.0004
  -7339752.08147  -5676484.69146  23933169.0224   23933174.6014   23933168.761
        46.0004         41.0004
 14  5 31  1 48  0.0000000  0 11G24G06G08G10G28G04G05G30G26G02G17
  -3892839.48047  -3003630.44446  24014312.8184   24014323.3264   24014312.614
        43.0004         38.0004
  12035168.43946   9397726.92045  24531970.9204   24531980.1184   24531968.942
        39.0004         34.0004
   4715501.11146   3682692.53946  24383549.1474   24383552.0034   24383548.484
        41.0004         36.0004
 -26608408.60448 -20728898.05048  20407844.0374   20407848.4164   20407844.726
        53.0004         49.0004
 -16211928.46548 -12634869.70047  21143063.6914   21143065.9724   21143063.392
        51.0004         47.0004
 -20246136.39048 -15729064.47947  21906067.8024   21906071.5904   21906066.452
        49.0004         45.0004
 -17996016.67548 -13976391.85047  22034793.5954   22034796.5374   22034793.819
        51.0004         46.0004
  12442724.09547   9685711.90046  23992346.5354   23992353.7414   23992346.494
        43.0004         39.0004
   1580640.15847   1246206.89646  24538759.6824   24538765.8974   24538758.686
        43.0004         38.0004
 -12378872.78048  -9630125.01147  21714127.0654   21714129.3964   21714127.476
        51.0004         47.0004
  -7352939.08847  -5686760.27646  23930658.7924   23930664.9424   23930659.224
        46.0004         41.0004
 14  5 31  1 48 30.0000000  0 11G24G06G08G10G28G04G05G30G26G02G17
  -3938924.72547  -3039540.98346  24005543.7834   24005552.2374   24005542.449
        43.0004         38.0004
  12120632.24846   9464321.99545  24548233.6114   24548241.2154   24548232.518
        39.0004         34.0004
   4819274.07846   3763554.51746  24403296.7014   24403300.9934   24403295.895
        41.0004         36.0004
 -26618121.50848 -20736466.53648  20405995.9844   20405999.9054   20405996.660
        53.0004         49.0004
 -16191871.74048 -12619241.06147  21146879.6294   21146882.8834   21146880.018
        51.0004         47.0004
 -20174971.95148 -15673611.68847  21919608.9364   21919615.0754   21919608.884
        49.0004         44.0004
 -18082284.83248 -14043613.74247  22018377.8724   22018381.7334   22018376.979
        51.0004         46.0004
  12533211.77247   9756221.73446  24009565.9084   24009574.3014   24009566.623
        43.0004         39.0004
   1570504.14447   1238308.76546  24536830.7014   24536836.1854   24536830.148
        43.0004         38.0004
 -12350349.38248  -9607898.98147  21719554.7454   21719557.0934   21719555.101
        51.0004         47.0004
  -7366274.57747  -5697151.56346  23928122.2404   23928127.8474   23928120.930
        46.0004         41.0004
 14  5 31  1 49  0.0000000  0 11G24G06G08G10G28G04G05G30G26G02G17
  -3984653.54647  -3075173.82946  23996842.2484   23996851.4394   23996841.660
        43.0004         38.0004
   9055105.68946   7075599.91445  24564467.6314   24564475.4514   24564467.323
        39.0004         34.0004
   4922920.17546   3844317.63346  24423019.9634   24423025.5444   24423019.666
        41.0004         36.0004
 -26627287.41748 -20743608.79448  20404251.5874   20404255.9904   20404252.363
        53.0004         49.0004
 -16171256.18648 -12603176.97147  21150802.8654   21150805.5394   21150803.089
        51.0004         47.0004
 -20103701.27348 -15618076.11647  21933171.8204   21933176.3034   21933170.949
        49.0004         44.0004
 -18168334.13148 -14110665.10147  22002003.1234   22002006.3094   22002002.594
        51.0004         46.0004
  12623602.70147   9826656.19346  24026767.3304   24026774.0144   24026766.785
        43.0004         38.0004
   1560106.79447   1230206.97146  24534851.7744   24534856.9334   24534851.278
        43.0004         38.0004
 -12321574.59948  -9585477.06447  21725030.8824   21725032.8404   21725030.833
        51.0004         47.0004
  -7379758.57547  -5707658.57646  23925555.8154   23925561.2104   23925555.684
        46.0004         41.0004
 14  5 31  1 49 30.0000000  0 11G24G06G08G10G28G04G05G30G26G02G17
  -4030024.40547  -3110527.71546  23988207.9744   23988217.3774   23988207.702
        43.0004         39.0004
   9140268.82146   7141960.70345  24580675.4184   24580685.1884   24580672.601
        38.0004         34.0004
   5026438.60846   3924981.27246  24442719.1794   24442723.2614   24442718.407
        41.0004         36.0004
 -26635903.13448 -20750322.33048  20402612.1834   20402616.6094   20402612.845
        53.0004         49.0004
 -16150079.83348 -12586675.89847  21154832.3874   21154835.4564   21154832.556
        51.0004         47.0004
 -20032325.32648 -15562458.52247  21946753.5494   21946759.3634   21946753.262
        49.0004         44.0004
 -18254159.79348 -14177542.20047  21985670.9074   21985673.8524   21985670.591
        51.0004         46.0004
  12713896.63847   9897015.07346  24043950.2234   24043955.9204   24043949.989
        43.0004         38.0004
   1549449.42847   1221902.57646  24532824.5084   24532830.0774   24532823.096
        43.0004         38.0004
 -12292548.75548  -9562859.51947  21730554.0474   21730555.9964   21730554.322
        51.0004         47.0004
  -7393388.56547  -5718279.34846  23922961.7194   23922967.1334   23922961.961
        46.0004         41.0004
 14  5 31  1 50  0.0000000  0 10G24G08G10G28G04G05G30G26G02G17
  -4075036.30247  -3145601.89146  23979643.7694   23979652.3904   23979642.487
        43.0004         38.0004
   5129828.45046   4005544.70246  24462392.7284   24462398.1454   24462393.658
        41.0004         36.0004
 -26643966.07948 -20756605.13448  20401077.8144   20401081.8924   20401078.419
        53.0004         49.0004
 -16128341.20848 -12569736.68747  21158969.3354   21158971.9514   21158969.293
        51.0004         46.0004
 -19960845.32048 -15506759.84347  21960356.6054   21960361.3144   21960355.857
        49.0004         44.0004
 -18339758.11448 -14244242.15147  21969382.1094   21969384.5454   21969381.063
        51.0004         46.0004
  12804092.73947   9967297.69646  24061113.9504   24061120.7524   24061113.444
        43.0004         38.0004
   1538532.57947   1213395.97746  24530745.8704   24530751.9414   24530745.942
        43.0004         38.0004
 -12263273.04048  -9540047.26347  21736124.7854   21736127.1444   21736125.051
        51.0004         47.0004
  -7407161.34047  -5729011.37746  23920341.5964   23920346.6804   23920340.939
        46.0004         41.0004
 14  5 31  1 50 30.0000000  0 10G24G08G10G28G04G05G30G26G02G17
  -4119693.04847  -3180399.32846  23971144.8314   23971154.0614   23971143.937
        43.0004         39.0004
   5233083.31946   4086002.96346  24482040.5634   24482046.7974   24482042.101
        41.0004         36.0004
 -26651479.08748 -20762459.41848  20399648.2174   20399652.4544   20399648.839
        53.0004         49.0004
 -16106044.10348 -12552362.30347  21163212.4464   21163215.2674   21163212.389
        51.0004         46.0004
 -19889268.46348 -15450985.69147  21973976.6654   21973981.4634   21973976.280
        49.0004         44.0004
 -18425130.17948 -14310765.79747  21953136.0224   21953139.4284   21953135.653
        51.0004         46.0004
  12894184.87247  10037499.31246  24078259.0544   24078264.4044   24078258.225
        43.0004         38.0004
   1527351.50847   1204683.49346  24528618.5074   24528624.4144   24528618.237
        43.0004         38.0004
 -12233753.78148  -9517045.23447  21741742.1144   21741743.7044   21741742.758
        51.0004         47.0004
  -7421079.71747  -5739856.86646  23917692.8044   23917699.1064   23917692.663
        46.0004         41.0004
 14  5 31  1 51  0.0000000  0 10G24G08G10G28G04G05G30G26G02G17
  -4163989.52147  -3214916.03846  23962716.0624   23962723.9134   23962714.844
        43.0004         39.0004
   5336206.00746   4166358.20846  24501665.4804   24501670.9384   24501665.814
        41.0004         36.0004
 -26658435.93548 -20767880.32948  20398324.1694   20398328.0804   20398324.941
        53.0004         49.0004
 -16083183.33448 -12534548.69647  21167562.2454   21167565.5334   21167562.413
        51.0004         46.0004
 -19817592.13648 -15395134.03347  21987616.5154   21987621.2844   21987615.864
        49.0004         44.0004
 -18510267.86848 -14377106.80547  21936934.7604   21936938.6324   21936934.694
        51.0004         46.0004
  12984176.03247  10107622.24946  24095382.3914   24095389.9094   24095382.782
        43.0004         38.0004
   1515910.64347   1195768.57846  24526440.8374   24526446.2644   24526440.697
        43.0004         38.0004
 -12203988.40448  -9493851.43047  21747406.3044   21747408.9044   21747406.543
        51.0004         47.0004
  -7435136.90447  -5750810.50746  23915018.1414   23915023.2884   23915017.841
        46.0004         41.0004
 14  5 31  1 51 30.0000000  0 10G24G08G10G28G04G05G30G26G02G17
  -4207921.78847  -3249148.94546  23954354.9634   23954364.2164   23954354.238
        43.0004         39.0004
   5439198.65946   4246612.14746  24521265.0004   24521270.2914   24521264.745
        41.0004         36.0004
 -26664831.44748 -20772863.83848  20397107.3004   20397111.3854   20397107.733
        53.0004         49.0004
 -16059754.73048 -12516292.61547  21172020.9784   21172023.4574   21172021.249
        51.0004         46.0004
 -19745814.90348 -15339203.74147  22001275.7544   22001280.3154   22001274.635
        48.0004         44.0004
 -18595164.41148 -14443259.91947  21920779.6784   21920783.1764   21920778.862
        51.0004         46.0004
  13074068.39647  10177668.19446  24112489.6714   24112495.2204   24112488.279
        43.0004         38.0004
   1504213.73947   1186654.14946  24524215.2844   24524220.8804   24524214.754
        43.0004         38.0004
 -12173974.63748  -9470464.07147  21753117.5194   21753119.4404   21753118.182
        51.0004         47.0004
  -7449327.25447  -5761867.91946  23912316.7864   23912322.6084   23912317.283
        46.0004         41.0004
 14  5 31  1 52  0.0000000  0 10G24G08G10G28G04G05G30G26G02G17
  -4251505.79847  -3283110.47446  23946062.1104   23946071.1974   23946060.667
        43.0004         39.0004
   5542042.81146   4326750.36446  24540835.2704   24540841.7204   24540835.626
        41.0004         36.0004
 -26670680.49648 -20777421.53548  20395994.4734   20395998.4834   20395994.862
        53.0004         49.0004
 -16035774.11948 -12497606.41147  21176584.0064   21176586.8794   21176584.267
        51.0004         46.0004
 -19673955.63448 -15283209.53947  22014948.6864   22014954.0304   22014948.988
        48.0004         44.0004
 -18679832.78248 -14509235.23547  21904667.6334   21904671.1454   21904667.369
        51.0004         46.0004
  13163843.86147  10247623.05146  24129572.5844   24129580.1874   24129572.421
        43.0004         38.0004
   1492244.04247   1177327.15546  24521936.8124   24521942.8514   24521936.916
        43.0004         38.0004
 -12143731.42348  -9446897.92447  21758873.0634   21758874.8344   21758873.024
        51.0004         46.0004
  -7463665.42447  -5773040.51646  23909588.6404   23909595.6634   23909588.842
        46.0004         41.0004
 14  5 31  1 52 30.0000000  0 10G24G08G10G28G04G05G30G26G02G17
  -4294730.39947  -3316791.95546  23937836.2934   23937844.8004   23937835.344
        43.0004         39.0004
   5644747.81146   4406780.15746  24560379.6834   24560384.6134   24560379.725
        41.0004         36.0004
 -26675970.49048 -20781543.60248  20394987.5544   20394991.6704   20394988.127
        53.0004         49.0004
 -16011230.08348 -12478481.17047  21181254.6474   21181257.3804   21181254.857
        51.0004         46.0004
 -19602005.51148 -15227144.53047  22028641.9824   22028645.6884   22028641.064
        48.0004         44.0004
 -18764258.89948 -14575021.77847  21888601.6884   21888604.7944   21888601.910
        51.0004         46.0004
  13253511.82947  10317494.14146  24146636.4814   24146642.0894   24146636.258
        43.0004         38.0004
   1480012.36947   1167796.02146  24519609.4924   24519614.9664   24519609.637
        43.0004         38.0004
 -12113249.30848  -9423145.62047  21764672.7924   21764675.9174   21764673.681
        51.0004         46.0004
  -7478138.39647  -5784318.14846  23906835.0604   23906840.6684   23906834.446
        46.0004         41.0004
 14  5 31  1 53  0.0000000  0 10G24G08G10G28G04G05G30G26G02G17
  -4337596.51047  -3350194.09046  23929679.3404   23929688.3884   23929678.292
        43.0004         39.0004
   5747309.87746   4486698.56246  24579897.1444   24579902.0694   24579896.421
        41.0004         36.0004
 -26680701.65948 -20785230.22348  20394087.4864   20394091.5034   20394087.959
        53.0004         49.0004
 -15986123.88648 -12458917.87947  21186031.8144   21186035.1494   21186032.312
        51.0004         46.0004
 -19529968.72748 -15171011.99747  22042350.5544   22042353.8324   22042349.175
        49.0004         44.0004
 -18848441.06948 -14640618.24247  21872582.7264   21872585.9314   21872582.111
        51.0004         46.0004
  13343068.95447  10387278.86946  24163678.2234   24163684.7624   24163677.738
        43.0004         38.0004
   1467516.88747   1158059.32046  24517232.7544   24517237.8814   24517232.464
        43.0004         38.0004
 -12082531.90148  -9399209.98247  21770519.1744   21770520.5794   21770519.144
        51.0004         46.0004
  -7492746.02047  -5795700.70446  23904054.9284   23904060.6024   23904054.521
        46.0004         41.0004
 14  5 31  1 53 30.0000000  0 10G24G08G10G28G04G05G30G26G02G17
  -4380106.78847  -3383318.94446  23921590.3474   23921598.1914   23921589.561
        44.0004         39.0004
   5849724.74646   4566502.26546  24599383.3994   24599389.9134   24599385.354
        41.0004         36.0004
 -26684875.15848 -20788482.29548  20393293.3134   20393297.2304   20393293.663
        53.0004         49.0004
 -15960457.89948 -12438918.39347  21190916.3754   21190919.0964   21190916.300
        51.0004         46.0004
 -19457849.79948 -15114815.45647  22056073.0774   22056078.5644   22056072.483
        49.0004         44.0004
 -18932378.79848 -14706024.23247  21856610.0614   21856613.0634   21856609.563
        51.0004         46.0004
  13432511.00547  10456973.91046  24180698.0364   24180704.1144   24180698.270
        43.0004         38.0004
   1454754.83447   1148114.91046  24514803.6654   24514809.1664   24514803.660
        43.0004         38.0004
 -12051583.82148  -9375094.58747  21776408.3014   21776409.7294   21776408.217
        51.0004         47.0004
  -7507489.34447  -5807188.98546  23901249.6894   23901256.3614   23901248.960
        45.0004         41.0004
 14  5 31  1 54  0.0000000  0 10G24G08G10G28G04G05G30G26G02G17
  -4422256.86547  -3416163.12446  23913567.7194   23913577.4554   23913567.932
        44.0004         39.0004
   5951994.47146   4646192.86246  24618847.0634   24618851.6254   24618847.275
        41.0004         36.0004
 -26688485.32348 -20791295.40848  20392606.0044   20392610.5364   20392606.902
        53.0004         49.0004
 -15934227.41948 -12418479.03847  21195907.7244   21195911.0314   21195908.063
        51.0004         46.0004
 -19385647.25948 -15058553.76847  22069812.9094   22069817.4584   22069812.479
        48.0004         44.0004
 -19016064.70848 -14771233.99447  21840684.5984   21840688.3604   21840684.462
        51.0004         46.0004
  13521840.46047  10526581.22246  24197696.4804   24197704.0144   24197696.930
        43.0004         38.0004
   1441730.14447   1137965.85146  24512325.7434   24512329.7744   24512324.739
        43.0004         38.0004
 -12020403.05248  -9350797.88247  21782341.8494   21782344.1614   21782341.818
        51.0004         47.0004
  -7522361.92447  -5818777.98846  23898419.5714   23898424.2934   23898418.915
        45.0004         41.0004
 14  5 31  1 54 30.0000000  0 10G24G08G10G28G04G05G30G26G02G17
  -4464050.95847  -3448729.90546  23905615.4464   23905624.1894   23905614.514
        44.0004         39.0004
   6054112.96246   4725765.61946  24638279.0944   24638285.9454   24638279.650
        41.0004         36.0004
 -26691535.50348 -20793672.16848  20392025.7934   20392029.7444   20392026.171
        53.0004         49.0004
 -15907436.52748 -12397603.00447  21201006.3094   21201009.2674   21201006.318
        51.0004         46.0004
 -19313367.56248 -15002231.95847  22083565.9754   22083572.3254   22083566.887
        48.0004         43.0004
 -19099499.94548 -14836248.42747  21824808.0124   21824810.7504   21824807.025
        51.0004         46.0004
  13611051.20747  10596096.03146  24214673.5004   24214680.4724   24214673.581
        43.0004         38.0004
   1428438.17147   1127608.51946  24509795.6484   24509801.5574   24509795.265
        43.0004         38.0004
 -11988995.98848  -9326324.83747  21788318.0464   21788320.1834   21788318.380
        51.0004         46.0004
  -7537366.40347  -5830469.77346  23895564.5044   23895569.6784   23895563.907
        45.0004         41.0004
 14  5 31  1 55  0.0000000  0 10G24G08G10G28G04G05G30G26G02G17
  -4505487.83347  -3481018.34546  23897729.7904   23897739.1424   23897729.030
        44.0004         39.0004
   6156079.42346   4805219.89846  24657682.1734   24657686.6684   24657683.150
        41.0004         36.0004
 -26694023.38248 -20795610.77348  20391551.9084   20391556.2624   20391552.873
        53.0004         49.0004
 -15880084.28448 -12376289.55047  21206210.1614   21206213.5214   21206211.029
        51.0004         46.0004
 -19241012.19448 -14945851.17747  22097336.5954   22097340.6094   22097335.691
        48.0004         43.0004
 -19182680.39648 -14901064.33147  21808978.6404   21808982.6174   21808978.581
        51.0004         47.0004
  13700142.81947  10665518.00946  24231628.1044   24231633.5304   24231627.872
        43.0004         38.0004
   1414879.96747   1117043.72146  24507214.8274   24507221.5264   24507214.469
        43.0004         38.0004
 -11957363.51748  -9301676.15647  21794338.0814   21794339.5364   21794338.007
        51.0004         46.0004
  -7552499.84347  -5842262.05846  23892684.3964   23892689.0724   23892683.867
        45.0004         41.0004
 14  5 31  1 55 30.0000000  0 10G24G08G10G28G04G05G30G26G02G17
  -4546566.96747  -3513028.02346  23889912.5104   23889922.0714   23889912.804
        44.0004         39.0004
   6257892.55246   4884554.70646  24677055.9154   24677064.4084   24677057.061
        41.0004         36.0004
 -26695947.06448 -20797109.74148  20391186.1494   20391190.0934   20391186.627
        53.0004         49.0004
 -15852169.90748 -12354538.07347  21211522.6204   21211524.9184   21211523.207
        51.0004         46.0004
 -19168582.88548 -14889412.77147  22111118.6344   22111123.8194   22111118.602
        48.0004         43.0004
 -19265602.31948 -14965678.78747  21793199.5474   21793203.4254   21793198.940
        51.0004         47.0004
  13789114.07847  10734846.20146  24248557.9294   24248563.0294   24248557.810
        43.0004         38.0004
   1401055.67647   1106271.57746  24504584.1314   24504589.6294   24504584.535
        43.0004         38.0004
 -11925507.37348  -9276853.18247  21800399.1874   21800401.7264   21800399.612
        51.0004         46.0004
  -7567759.48647  -5854152.67446  23889779.6654   23889785.7604   23889779.890
        45.0004         41.0004
 14  5 31  1 56  0.0000000  0 10G24G08G10G28G04G05G30G26G02G17
  -4587289.30947  -3544759.67446  23882164.3244   23882172.0974   23882163.071
        44.0004         39.0004
   6359549.39446   4963767.73946  24696400.6234   24696406.9094   24696401.842
        41.0004         36.0004
 -26697306.28548 -20798168.87648  20390927.1714   20390931.6304   20390928.043
        53.0004         49.0004
 -15823694.12648 -12332349.13347  21216941.1294   21216944.1934   21216941.322
        51.0004         46.0004
 -19096082.98948 -14832919.38147  22124914.8994   22124920.4024   22124914.839
        48.0004         43.0004
 -19348263.58248 -15030090.12147  21777469.3414   21777472.5804   21777468.827
        51.0004         47.0004
  13877962.26247  10804078.49446  24265464.0284   24265470.4074   24265464.426
        43.0004         38.0004
   1386964.13847   1095291.19346  24501902.5524   24501908.8154   24501903.081
        43.0004         38.0004
 -11893430.49148  -9251858.20447  21806503.7064   21806505.5214   21806503.938
        51.0004         46.0004
  -7583144.64547  -5866141.09346  23886853.1554   23886858.8104   23886852.074
        45.0004         41.0004
 14  5 31  1 56 30.0000000  0 10G24G08G10G28G04G05G30G26G02G17
  -4627654.81447  -3576213.28846  23874482.0004   23874490.5404   23874481.603
        44.0004         39.0004
   6461047.90446   5042857.38945  24715715.8164   24715722.5504   24715716.448
        40.0004         35.0004
 -26698100.42148 -20798787.67748  20390776.2944   20390780.1724   20390776.998
        53.0004         49.0004
 -15794657.22748 -12309722.96147  21222466.4794   21222470.2724   21222467.239
        51.0004         46.0004
 -19023515.33048 -14776373.18847  22138724.4804   22138729.2794   22138724.049
        48.0004         44.0004
 -19430661.53948 -15094296.28747  21761789.5834   21761793.0154   21761789.048
        51.0004         47.0004
  13966685.44247  10873213.37946  24282348.8934   24282355.6464   24282348.286
        43.0004         38.0004
   1372604.83647   1084102.16046  24499170.5544   24499175.2124   24499169.914
        43.0004         38.0004
 -11861135.24248  -9226693.07147  21812648.9234   21812651.0674   21812649.525
        51.0004         46.0004
  -7598654.23147  -5878226.46146  23883901.6944   23883906.9974   23883900.780
        45.0004         41.0004
 14  5 31  1 57  0.0000000  0 10G24G08G10G28G04G05G30G26G02G17
  -4667663.18247  -3607388.60146  23866869.1374   23866878.0214   23866868.688
        44.0004         39.0004
   6562386.51046   5121822.43745  24735003.3804   24735005.4844   24735000.698
        40.0004         35.0004
 -26698327.66748 -20798964.74848  20390733.1324   20390737.6114   20390733.849
        53.0004         49.0004
 -15765058.52948 -12286659.02347  21228099.7114   21228102.5224   21228099.781
        51.0004         46.0004
 -18950881.93548 -14719775.77447  22152547.0104   22152550.2674   22152545.694
        48.0004         44.0004
 -19512792.49348 -15158294.40247  21746160.3524   21746164.1624   21746160.207
        51.0004         47.0004
  14055282.41547  10942249.92446  24299207.1424   24299213.9204   24299207.884
        42.0004         38.0004
   1357978.04847   1072704.69946  24496386.9374   24496392.6854   24496386.666
        43.0004         38.0004
 -11828623.29948  -9201359.08247  21818835.9154   21818837.9484   21818836.440
        51.0004         46.0004
  -7614285.44747  -5890406.61046  23880926.4584   23880932.5514   23880926.494
        46.0004         41.0004
 14  5 31  1 57 30.0000000  0 10G24G08G10G28G04G05G30G26G02G17
  -4707313.75747  -3638285.11346  23859323.8604   23859332.6414   23859323.372
        44.0004         39.0004
   6663563.87246   5200661.83445  24754252.7834   24754261.4124   24754254.240
        40.0004         35.0004
 -26697986.71648 -20798699.06948  20390798.2964   20390802.4254   20390798.512
        53.0004         49.0004
 -15734897.53848 -12263156.93847  21233839.3274   21233841.9034   21233839.061
        51.0004         46.0004
 -18878184.13348 -14663128.16247  22166380.6744   22166384.9114   22166379.750
        48.0004         44.0004
 -19594652.67248 -15222081.52047  21730583.0324   21730586.0204   21730582.680
        51.0004         47.0004
  14143752.12547  11011187.28946  24316042.4164   24316049.8404   24316042.436
        42.0004         38.0004
   1343084.12647   1061099.09346  24493552.7994   24493558.7444   24493552.244
        43.0004         38.0004
 -11795896.37348  -9175857.57647  21825064.2174   21825065.5234   21825064.177
        51.0004         46.0004
  -7630035.97547  -5902679.73346  23877929.8544   23877934.9884   23877929.256
        46.0004         41.0004
 14  5 31  1 58  0.0000000  0 10G24G08G10G28G04G05G30G26G02G17
  -4746609.79847  -3668905.36346  23851846.2854   23851855.5054   23851845.739
        44.0004         39.0004
   6764575.27546   5279371.95745  24773475.5774   24773482.7514   24773476.218
        39.0004         35.0004
 -26697079.16748 -20797991.88748  20390971.0174   20390974.9534   20390971.383
        53.0004         49.0004
 -15704177.36348 -12239219.12447  21239685.0244   21239686.6034   21239684.937
        51.0004         46.0004
 -18805427.72548 -14606434.88947  22180224.3194   22180230.5474   22180224.528
        48.0004         43.0004
 -19676242.20748 -15285657.75147  21715057.0944   21715060.6424   21715056.529
        51.0004         47.0004
  14232089.84747  11080021.80846  24332852.9304   24332858.8214   24332853.368
        42.0004         38.0004
   1327919.81947   1049282.79546  24490667.0964   24490672.9684   24490666.479
        43.0004         38.0004
 -11762959.61848  -9150192.56747  21831330.6674   21831333.7424   21831331.520
        51.0004         46.0004
  -7645907.16347  -5915046.87346  23874909.2204   23874915.5384   23874908.801
        46.0004         41.0004
 14  5 31  1 58 30.0000000  0 10G24G08G10G28G04G05G30G26G02G17
  -4785548.93147  -3699247.50546  23844436.5304   23844444.3484   23844435.898
        44.0004         39.0004
   6865421.02946   5357952.96145  24792666.0314   24792670.5974   24792666.207
        39.0004         35.0004
 -26695601.61948 -20796840.55048  20391251.8154   20391256.0594   20391252.645
        53.0004         49.0004
 -15672895.55948 -12214843.68147  21245637.0834   21245639.0404   21245637.778
        51.0004         46.0004
 -18732612.70848 -14549695.95047  22194080.3754   22194085.9504   22194080.864
        48.0004         43.0004
 -19757555.75048 -15349018.91947  21699582.9524   21699586.9434   21699582.897
        51.0004         47.0004
  14320296.21547  11148753.97846  24349638.1284   24349644.4824   24349638.644
        42.0004         38.0004
   1312487.31847   1037257.51246  24487731.2284   24487735.8134   24487729.814
        43.0004         38.0004
 -11729812.70748  -9124363.80347  21837639.2024   21837640.7034   21837639.420
        51.0004         46.0004
  -7661894.63647  -5927504.61946  23871867.1984   23871872.9914   23871867.373
        46.0004         41.0004
 14  5 31  1 59  0.0000000  0 10G24G08G10G28G04G05G30G26G02G17
  -4824132.48147  -3729312.56946  23837094.1884   23837102.9714   23837092.756
        44.0004         39.0004
   6966097.89346   5436402.38445  24811823.8894   24811830.7424   24811824.635
        39.0004         34.0004
 -26693555.07748 -20795245.84148  20391641.2524   20391645.5424   20391641.791
        53.0004         49.0004
 -15641053.88748 -12190031.97647  21251696.8884   21251699.2414   21251697.132
        51.0004         46.0004
 -18659742.87448 -14492914.29547  22207946.8194   22207953.3624   22207947.683
        48.0004         43.0004
 -19838591.64948 -15412163.74447  21684162.8574   21684166.1614   21684162.287
        51.0004         47.0004
  14408368.10947  11217381.34646  24366398.5824   24366404.6054   24366398.239
        42.0004         38.0004
   1296784.81747   1025021.83046  24484742.5784   24484746.7644   24484741.472
        43.0004         38.0004
 -11696459.37748  -9098374.19747  21843986.0074   21843987.8804   21843986.385
        51.0004         46.0004
  -7677998.07247  -5940052.72946  23868802.0894   23868808.6024   23868801.825
        46.0004         41.0004
 14  5 31  1 59 30.0000000  0 10G24G08G10G28G04G05G30G26G02G17
  -4862360.11547  -3759100.30046  23829819.3324   23829827.0574   23829818.951
        44.0004         39.0004
   7066605.02846   5514719.54045  24830950.4924   24830957.9624   24830950.473
        38.0004         34.0004
 -26690937.22848 -20793205.95848  20392139.7074   20392144.1774   20392140.239
        53.0004         49.0004
 -15608651.21148 -12164783.12647  21257862.8764   21257864.7344   21257862.756
        51.0004         46.0004
 -18586819.28748 -14436090.75547  22221824.1074   22221830.2814   22221824.938
        48.0004         43.0004
 -19919345.71448 -15475088.95147  21668795.7874   21668799.2644   21668795.383
        52.0004         47.0004
  14496305.06047  11285903.58646  24383131.9774   24383137.5784   24383131.920
        42.0004         37.0004
   1280813.43147   1012576.64246  24481703.1164   24481708.6864   24481702.574
        43.0004         38.0004
 -11662900.54048  -9072224.45447  21850372.1404   21850374.3214   21850372.339
        51.0004         46.0004
  -7694214.28847  -5952688.72346  23865716.8754   23865722.3354   23865716.546
        46.0004         41.0004
 14  5 31  2  0  0.0000000  0 10G24G08G10G28G04G05G30G26G02G17
  -4900231.32947  -3788610.30346  23822612.2004   23822620.7904   23822611.964
        44.0004         39.0004
   7166941.02646   5592903.33045  24850046.7534   24850048.8084   24850044.028
        39.0004         34.0004
 -26687747.06248 -20790720.11648  20392746.8604   20392750.6124   20392747.198
        53.0004         49.0004
 -15575687.98648 -12139097.47347  21264135.3414   21264137.9744   21264135.403
        51.0004         46.0004
 -18513844.82048 -14379227.56347  22235711.2214   22235717.0684   22235711.311
        48.0004         43.0004
 -19999814.85948 -15537792.14947  21653482.9744   21653486.8684   21653482.574
        52.0004         47.0004
  14584105.24647  11354319.25046  24399839.6934   24399845.3044   24399839.799
        42.0004         37.0004
   1264572.83547    999921.67846  24478612.6794   24478617.6004   24478612.039
        43.0004         38.0004
 -11629138.64148  -9045916.47747  21856796.7714   21856798.8414   21856796.996
        51.0004         46.0004
  -7710541.86647  -5965411.50446  23862609.3144   23862614.7874   23862609.238
        46.0004         41.0004
 14  5 31  2  0 30.0000000  0 10G24G08G10G28G04G05G30G26G02G17
  -4937748.81647  -3817844.66646  23815473.4934   23815482.0404   23815472.612
        44.0004         39.0004
   7267101.21846   5670950.12245  24869108.2644   24869109.0194   24869103.692
        39.0004         34.0004
 -26683986.40948 -20787789.73448  20393461.7914   20393466.4994   20393462.821
        53.0004         49.0004
 -15542166.75048 -12112977.01547  21270514.2694   21270516.7434   21270514.556
        51.0004         46.0004
 -18440824.13648 -14322328.34247  22249607.3844   22249611.7614   22249606.777
        48.0004         43.0004
 -20079998.95748 -15600273.23247  21638224.6964   21638228.1794   21638224.076
        52.0004         47.0004
  14671764.53947  11422625.11446  24416520.3004   24416527.4514   24416520.627
        42.0004         37.0004
   1248060.17047    987054.70446  24475468.7454   24475475.9714   24475469.639
        43.0004         38.0004
 -11595178.26648  -9019453.84547  21863259.2724   21863260.8784   21863259.507
        51.0004         46.0004
  -7726981.27047  -5978221.40846  23859481.1024   23859487.5364   23859480.911
        46.0004         41.0004
 14  5 31  2  1  0.0000000  0 10G24G08G10G28G04G05G30G26G02G17
  -4974909.89347  -3846801.33146  23808402.3464   23808410.2164   23808401.407
        44.0004         39.0004
   7367086.75546   5748860.79345  24888131.5144   24888136.3554   24888130.848
        38.0004         34.0004
 -26679651.11648 -20784411.58748  20394287.2704   20394291.6884   20394287.805
        53.0004         49.0004
 -15508084.55148 -12086419.44347  21277000.1524   21277002.6994   21277000.105
        51.0004         46.0004
 -18367756.45648 -14265392.51947  22263511.6794   22263514.6054   22263511.017
        48.0004         43.0004
 -20159891.69248 -15662527.27047  21623021.2664   21623024.5314   21623021.233
        52.0004         47.0004
  14759284.48747  11490822.38546  24433174.7874   24433181.8394   24433175.191
        42.0004         37.0004
   1231278.61047    973978.20746  24472277.1994   24472282.0534   24472276.937
        43.0004         39.0004
 -11561018.43448  -8992835.79847  21869758.9214   21869761.7814   21869759.575
        51.0004         46.0004
  -7743527.38347  -5991114.46046  23856332.9214   23856338.4004   23856332.573
        46.0004         41.0004
 14  5 31  2  1 30.0000000  0 10G24G08G10G28G04G05G30G26G02G17
  -5011717.22847  -3875482.32746  23801397.1594   23801406.5224   23801396.462
        44.0004         39.0004
   7466893.37846   5826632.05245  24907121.5944   24907129.2764   24907121.799
        38.0004         34.0004
 -26674743.00148 -20780587.07748  20395221.3144   20395225.3434   20395221.643
        53.0004         49.0004
 -15473444.47448 -12059427.16447  21283591.7384   21283594.2614   21283592.048
        50.0004         46.0004
 -18294646.86848 -14208424.04347  22277423.1124   22277428.7814   22277423.309
        48.0004         43.0004
 -20239492.62648 -15724553.93747  21607874.4834   21607877.2914   21607873.435
        52.0004         47.0004
  14846660.72747  11558907.69746  24449802.4154   24449808.3464   24449802.525
        42.0004         37.0004
   1214225.23747    960689.90646  24469031.1994   24469036.4844   24469031.392
        43.0004         38.0004
 -11526664.31048  -8966066.34647  21876296.7634   21876298.6324   21876296.998
        51.0004         46.0004
  -7760180.95047  -6004091.23946  23853163.7394   23853169.2254   23853163.446
        46.0004         41.0004
