     2.11           OBSERVATION DATA    G (GPS)             RINEX VERSION / TYPE
teqc  2008Oct2      gpsops              20090119 00:09:32UTCPGM / RUN BY / DATE
    30.0000                                                 INTERVAL
     1     1                                                WAVELENGTH FACT L1/2
     7    L1    L2    P1    P2    C1    S1    S2            # / TYPES OF OBSERV
Linux 2.4.20-8|Pentium IV|gcc -static|Linux|486/DX+         COMMENT
     2.10           OBSERVATION DATA    GPS                 COMMENT
soc2rnx ver 1.20    gpsops              19-Jan-2009 00:09:25COMMENT
S1, if present, is the SNR for the C/A data stream on L1.   COMMENT
 SNR is mapped to RINEX snr flag value [1,4-9]              COMMENT
    SNR:   >316  >100  >31.6  >10  >3.2    >0 bad=0         COMMENT
L1 & L2:      9     8     7     6     5     4     1         COMMENT
                                                            COMMENT
This data is provided as a public service by NASA/JPL.      COMMENT
No warranty is expressed or implied regarding suitability   COMMENT
for use.  For further information, contact:                 COMMENT
Dave Stowers, NASA/JPL m/s 238-600                          COMMENT
4800 Oak Grove Drive, Pasadena CA 91109 USA                 COMMENT
                                                            COMMENT
Forced Modulo Decimation to 30 seconds                      COMMENT
  2009     1    18     0     0    0.0000000     GPS         TIME OF FIRST OBS
GGN                 JPL                                     OBSERVER / AGENCY
CR519992104         ASH701945B_M    SCIT                    ANT # / TYPE
   -33801.4662 -6377516.5323   -82154.3508                  APPROX POSITION XYZ
        0.0083        0.0000        0.0000                  ANTENNA: DELTA H/E/N
ZR220013847         ASHTECH UZ-12       CQ00                REC # / TYPE / VERS
GLPS                                                        MARKER NAME
42005M002                                                   MARKER NUMBER
                                                            END OF HEADER
 09  1 18  0  0  0.0000000  0 12G 6G21G31G 5G22G 9G24G18G30G29G14G12
 129270988.78347 100730612.59047  24599474.5844   24599478.5374   24599473.4614
        41.000          36.000
 106393342.04547  82903886.49647  20245991.1244   20245993.8244   20245991.3284
        55.000          49.000
 122596601.33847  95529805.55347  23329366.0124   23329369.9944   23329365.7204
        47.000          41.000
 124452863.12547  96976240.33047  23682602.7644   23682609.5954   23682604.0174
        45.000          39.000
 126891212.74847  98876265.85847  24146596.5304   24146599.0744   24146596.4274
        43.000          38.000
 117597866.36847  91634684.45647  22378141.1144   22378145.9914   22378140.8164
        49.000          43.000
 113769913.59447  88651849.54347  21649719.2214   21649724.9474   21649719.1124
        52.000          46.000
 123472850.94747  96212605.55147  23496105.2174   23496108.1494   23496105.8514
        47.000          40.000
 122451012.02347  95416354.19647  23301667.2354   23301671.3594   23301666.3984
        47.000          41.000
 118387769.76047  92250193.27747  22528455.3594   22528459.2024   22528455.3024
        49.000          44.000
 115307771.46547  89850190.61947  21942354.9734   21942358.7474   21942354.9984
        50.000          45.000
 128168760.60447  99871739.75547  24389721.5104   24389726.1664   24389721.1334
        44.000          39.000
 09  1 18  0  0 30.0000000  0 12G 6G21G31G 5G22G 9G24G18G30G29G14G12
 129222300.56647 100692673.66047  24590209.3154   24590213.9194   24590208.8744
        42.000          37.000
 106351798.87947  82871515.21147  20238085.3394   20238088.1664   20238085.7714
        54.000          49.000
 122494603.73647  95450326.95247  23309956.7874   23309960.7894   23309956.2634
        48.000          41.000
 124438894.69347  96965355.85847  23679945.1994   23679951.6784   23679945.6074
        45.000          39.000
 126867696.25947  98857941.34447  24142121.8464   24142124.1364   24142121.5484
        44.000          38.000
 117668753.08347  91689920.89747  22391630.2074   22391634.5794   22391630.3404
        49.000          43.000
 113808528.18247  88681938.81547  21657067.2954   21657073.2194   21657067.4994
        52.000          46.000
 123447994.02247  96193236.53047  23491375.5694   23491378.1534   23491376.1264
        47.000          40.000
 122427352.26147  95397918.00447  23297163.9194   23297169.4414   23297163.5614
        47.000          41.000
 118463228.58047  92308992.32747  22542815.0824   22542818.9884   22542814.8124
        49.000          44.000
 115320448.55447  89860068.90747  21944767.2164   21944771.0604   21944767.7844
        50.000          44.000
 128169613.88447  99872404.69147  24389883.4674   24389888.6034   24389883.1674
        43.000          39.000
 09  1 18  0  1  0.0000000  0 12G 6G21G31G 5G22G 9G24G18G30G29G14G12
 129173916.47747 100654971.74047  24581001.2514   24581007.0624   24581001.4314
        42.000          37.000
 106310763.38147  82839539.51047  20230276.4524   20230279.1424   20230276.7644
        54.000          49.000
 122392706.39947  95370926.48547  23290566.3884   23290570.1394   23290565.8444
        47.000          42.000
 124424946.09547  96954486.82547  23677291.1984   23677297.2284   23677291.6534
        46.000          39.000
 126843952.37647  98839439.65447  24137603.9744   24137605.2724   24137603.9854
        43.000          38.000
 117740088.81547  91745507.23847  22405205.1694   22405209.2074   22405205.3514
        50.000          43.000
 113847607.94447  88712390.56247  21664504.0334   21664509.7604   21664504.1264
        52.000          46.000
 123422945.32147  96173718.06947  23486609.0584   23486611.7274   23486609.3734
        48.000          40.000
 122403575.17947  95379390.40547  23292639.3824   23292644.6624   23292638.8954
        47.000          41.000
 118538704.83847  92367804.97847  22557177.5744   22557181.5434   22557177.3454
        49.000          43.000
 115333494.82247  89870234.85747  21947249.5284   21947253.2864   21947249.6294
        51.000          45.000
 128170485.73847  99873084.09347  24390048.7244   24390054.1814   24390048.6134
        43.000          38.000
 09  1 18  0  1 30.0000000  0 12G 6G21G31G 5G22G 9G24G18G30G29G14G12
 129125839.99647 100617509.52547  24571852.9584   24571858.4654   24571853.0094
        42.000          37.000
 106270241.38647  82807963.93747  20222565.6304   20222568.1204   20222566.0854
        55.000          49.000
 122290915.47047  95291608.92747  23271196.3744   23271200.0224   23271195.9654
        47.000          42.000
 124411022.63347  96943637.38947  23674641.8034   23674647.4834   23674642.5254
        45.000          39.000
 126819983.94147  98820762.95347  24133042.3504   24133044.6494   24133042.2044
        43.000          38.000
 117811874.50347  91801444.17647  22418865.4094   22418869.4004   22418865.4854
        50.000          43.000
 113887155.41447  88743206.76247  21672029.8114   21672035.2394   21672029.8164
        52.000          46.000
 123397708.75947  96154053.21347  23481806.7024   23481809.5314   23481807.3024
        47.000          40.000
 122379685.54747  95360775.10047  23288093.6434   23288098.8424   23288093.1334
        48.000          41.000
 118614199.24947  92426631.75847  22571543.6064   22571547.8704   22571543.3104
        49.000          44.000
 115346911.29947  89880689.28747  21949802.9174   21949806.7154   21949803.2814
        50.000          44.000
 128171381.46047  99873782.09747  24390218.9544   24390224.2734   24390218.6374
        43.000          38.000
 09  1 18  0  2  0.0000000  0 12G 6G21G31G 5G22G 9G24G18G30G29G14G12
 129078068.61747 100580285.04447  24562762.3244   24562768.0034   24562762.5644
        43.000          37.000
 106230232.49247  82776788.18747  20214952.0304   20214954.6974   20214952.4574
        54.000          49.000
 122189231.23447  95212374.50947  23251846.4444   23251850.0094   23251846.3224
        48.000          42.000
 124397123.86147  96932807.20647  23671996.6984   23672002.7494   23671997.3564
        45.000          39.000
 126795788.39847  98801909.28247  24128437.6384   24128439.9554   24128437.3624
        44.000          38.000
 117884105.86747  91857728.39647  22432610.3814   22432614.3864   22432610.3744
        49.000          43.000
 113927167.34847  88774384.87847  21679643.8194   21679649.2934   21679643.9474
        52.000          46.000
 123372282.98147  96134240.92947  23476968.3234   23476970.6604   23476968.6764
        47.000          40.000
 122355682.67247  95342071.54947  23283526.2414   23283530.9134   23283525.5324
        48.000          41.000
 118689706.91447  92485468.87647  22585912.4204   22585916.6674   22585911.7464
        49.000          44.000
 115360693.29647  89891428.53447  21952425.5344   21952429.0044   21952425.8124
        50.000          44.000
 128172300.24847  99874498.05047  24390393.8494   24390399.1204   24390393.5434
        44.000          38.000
 09  1 18  0  2 30.0000000  0 12G 6G21G31G 5G22G 9G24G18G30G29G14G12
 129030602.49047 100543298.42547  24553729.7834   24553735.7314   24553729.9634
        42.000          37.000
 106190739.40047  82746014.35647  20207436.8474   20207439.3434   20207437.2184
        55.000          49.000
 122087656.70347  95133225.58047  23232517.0734   23232520.9044   23232516.8614
        47.000          42.000
 124383252.08547  96921998.05947  23669356.7554   23669363.5524   23669357.3164
        44.000          39.000
 126771365.38247  98782878.38647  24123791.1884   24123792.0274   24123790.9004
        45.000          39.000
 117956781.23047  91914358.58247  22446439.8334   22446444.1254   22446439.7634
        48.000          42.000
 113967643.52447  88805924.73947  21687345.9994   21687351.6864   21687346.0504
        52.000          46.000
 123346668.71247  96114281.77347  23472093.8204   23472096.7544   23472094.3634
        47.000          40.000
 122331568.22547  95323281.06947  23278937.0134   23278942.0344   23278937.0114
        47.000          41.000
 118765225.52747  92544314.52047  22600283.0454   22600287.1444   22600282.6804
        49.000          43.000
 115374838.94947  89902451.15247  21955117.0004   21955120.9224   21955117.2684
        50.000          44.000
 128173244.66247  99875233.97247  24390573.6624   24390578.7254   24390573.4804
        43.000          38.000
 09  1 18  0  3  0.0000000  0 12G 6G21G31G 5G22G 9G24G18G30G29G14G12
 128983443.09447 100506550.81947  24544755.9384   24544760.8734   24544755.6844
        42.000          37.000
 106151765.69847  82715645.25047  20200020.2804   20200023.0484   20200020.6674
        54.000          49.000
 121986196.02347  95054165.37147  23213209.6384   23213213.6914   23213208.9284
        47.000          42.000
 124369410.77647  96911212.65447  23666722.4144   23666728.9154   23666723.1364
        44.000          39.000
 126746716.48447  98763671.47247  24119100.3634   24119101.8434   24119100.8374
        45.000          39.000
 118029900.29147  91971334.51147  22460353.9704   22460357.9314   22460353.9774
        48.000          42.000
 114008584.64947  88837826.90347  21695136.9104   21695142.5474   21695137.0664
        52.000          46.000
 123320868.84647  96094178.00447  23467184.0764   23467186.9344   23467184.5504
        46.000          40.000
 122307345.16947  95304405.95247  23274327.3894   23274332.4924   23274327.0714
        47.000          41.000
 118840754.29547  92603168.08147  22614655.4474   22614659.8714   22614655.5914
        49.000          43.000
 115389347.36947  89913756.44247  21957878.2324   21957881.8904   21957878.4144
        51.000          45.000
 128174217.38847  99875991.95447  24390758.1624   24390764.0124   24390757.5794
        43.000          38.000
 09  1 18  0  3 30.0000000  0 12G 6G21G31G 5G22G 9G24G18G30G29G14G12
 128936589.36747 100470041.40647  24535839.8954   24535845.6504   24535839.1964
        42.000          37.000
 106113312.38847  82685681.64047  20192702.8974   20192705.3134   20192703.2834
        55.000          49.000
 121884850.95447  94975195.25447  23193924.0014   23193928.2374   23193923.5534
        47.000          42.000
 124355600.88047  96900451.73847  23664094.4424   23664100.9354   23664094.8874
        45.000          39.000
 126721840.47347  98744287.58647  24114366.7994   24114368.4394   24114367.1084
        45.000          39.000
 118103459.96747  92028653.77947  22474352.0384   22474356.0784   22474352.3324
        49.000          42.000
 114049989.15147  88870090.13547  21703016.0544   21703021.4784   21703016.2604
        52.000          46.000
 123294882.91247  96073929.23647  23462239.2994   23462242.4234   23462239.5914
        47.000          40.000
 122283014.28147  95285446.79947  23269697.6254   23269702.6234   23269697.3104
        47.000          41.000
 118916289.60047  92662026.73447  22629029.5464   22629034.0354   22629028.9934
        49.000          44.000
 115404215.98847  89925342.40747  21960707.9124   21960711.2794   21960707.9874
        51.000          45.000
 128175219.38247  99876772.77647  24390948.9554   24390954.7194   24390948.7484
        43.000          38.000
 09  1 18  0  4  0.0000000  0 12G 6G21G31G 5G22G 9G24G18G30G29G14G12
 128890042.00347 100433770.70347  24526982.2634   24526987.2854   24526982.0334
        41.000          37.000
 106075382.66847  82656126.02147  20185485.1134   20185487.5784   20185485.5724
        54.000          49.000
 121783625.51347  94896318.34947  23174661.3234   23174665.7564   23174661.2504
        47.000          42.000
 124341825.28447  96889717.54147  23661472.9904   23661479.7824   23661473.3394
        45.000          39.000
 126696738.00047  98724727.25247  24109589.8124   24109591.6314   24109589.7464
        45.000          39.000
 118177458.93847  92086315.36647  22488433.6984   22488437.4664   22488433.8754
        49.000          42.000
 114091857.03547  88902714.45147  21710983.2454   21710988.7634   21710983.2924
        52.000          46.000
 123268712.74647  96053536.91447  23457259.3454   23457262.0814   23457259.7204
        48.000          40.000
 122258577.60547  95266405.23247  23265047.0244   23265052.7864   23265047.0554
        47.000          41.000
 118991829.98347  92720889.34247  22643404.0964   22643409.0084   22643403.6624
        48.000          43.000
 115419442.89247  89937207.55247  21963605.2494   21963608.9944   21963605.3814
        51.000          45.000
 128176253.65147  99877578.73247  24391146.4914   24391151.3384   24391145.9684
        44.000          38.000
 09  1 18  0  4 30.0000000  0 12G 6G21G31G 5G22G 9G24G18G30G29G14G12
 128843798.20847 100397736.54547  24518181.8164   24518187.1064   24518181.3984
        42.000          37.000
 106037975.92547  82626977.92147  20178366.7254   20178369.3624   20178367.1164
        55.000          49.000
 121682519.73047  94817534.68747  23155421.3894   23155425.7804   23155420.7374
        47.000          42.000
 124328083.36747  96879009.56247  23658858.3824   23658864.8174   23658858.9144
        45.000          39.000
 126671406.39847  98704988.35147  24104769.3324   24104771.0044   24104769.2574
        45.000          39.000
 118251892.45247  92144315.55047  22502597.8844   22502602.0244   22502597.7184
        49.000          42.000
 114134184.98447  88935697.25547  21719038.1744   21719043.6224   21719038.3064
        52.000          46.000
 123242356.93747  96032999.94547  23452243.8074   23452246.8744   23452244.0394
        48.000          40.000
 122234034.22547  95247280.50947  23260376.5754   23260382.2274   23260376.3734
        47.000          41.000
 119067370.59147  92779752.12547  22657779.1794   22657784.1304   22657778.8334
        49.000          43.000
 115435023.67547  89949348.44847  21966570.2494   21966573.9934   21966570.5234
        51.000          45.000
 128177319.38247  99878409.20847  24391349.1444   24391353.5584   24391348.8714
        43.000          38.000
 09  1 18  0  5  0.0000000  0 12G 6G21G31G 5G22G 9G24G18G30G29G14G12
 128797861.94147 100361942.02547  24509440.6984   24509446.8744   24509440.5624
        42.000          37.000
 106001098.15547  82598241.99847  20171349.3014   20171351.6864   20171349.7324
        54.000          49.000
 121581540.23347  94738849.42847  23136205.7674   23136209.7074   23136204.8504
        47.000          42.000
 124314381.11347  96868332.50847  23656250.8484   23656257.0854   23656251.1654
        45.000          39.000
 126645849.62947  98685074.01747  24099906.1274   24099907.7144   24099906.1114
        45.000          39.000
 118326762.34947  92202655.75547  22516844.6994   22516849.1074   22516844.9234
        49.000          42.000
 114176976.14247  88969041.00447  21727180.8804   21727186.5554   21727180.9524
        52.000          45.000
 123215819.91147  96012321.76147  23447194.2584   23447197.2934   23447194.5524
        48.000          40.000
 122209389.93547  95228077.15147  23255687.3604   23255692.4684   23255686.8014
        47.000          41.000
 119142912.38747  92838615.84747  22672154.3004   22672159.2504   22672154.2054
        48.000          43.000
 115450960.03947  89961766.42447  21969602.7164   21969606.2804   21969603.0694
        51.000          45.000
 128178422.11947  99879268.52047  24391558.5424   24391564.1334   24391558.1984
        44.000          39.000
 09  1 18  0  5 30.0000000  0 12G 6G21G31G 5G22G 9G24G18G30G29G14G12
 128752230.21547 100326384.79447  24500757.0374   24500762.5034   24500757.0254
        41.000          37.000
 105964748.86347  82569917.88147  20164432.0064   20164434.5324   20164432.3264
        54.000          49.000
 121480687.27247  94660262.77047  23117014.2774   23117018.0524   23117013.9024
        48.000          42.000
 124300717.79747  96857685.79247  23653650.6164   23653657.2094   23653650.7784
        45.000          39.000
 126620064.05347  98664981.40347  24094999.5434   24095000.7124   24094999.4864
        45.000          39.000
 118402063.87447  92261332.30047  22531174.4314   22531178.5794   22531174.6134
        49.000          42.000
 114220227.11247  89002743.03647  21735411.0764   21735416.8204   21735411.1844
        52.000          45.000
 123189100.08847  95991501.14947  23442109.1414   23442112.5114   23442109.8184
        47.000          40.000
 122184643.32947  95208794.08547  23250978.0514   23250983.4194   23250977.9734
        48.000          41.000
 119218450.75147  92897476.86947  22686528.6914   22686533.7964   22686528.6254
        48.000          43.000
 115467247.14347  89974457.69447  21972701.9884   21972705.5164   21972702.0644
        51.000          45.000
 128179560.99847  99880155.99147  24391775.1984   24391781.0264   24391774.7274
        44.000          38.000
 09  1 18  0  6  0.0000000  0 12G 6G21G31G 5G22G 9G24G18G30G29G14G12
 128706905.10847 100291066.51047  24492132.6874   24492137.7704   24492132.6144
        42.000          37.000
 105928932.16447  82542008.76947  20157616.5074   20157618.9804   20157616.9214
        54.000          49.000
 121379965.57247  94581778.39347  23097847.5994   23097851.2094   23097847.5644
        48.000          42.000
 124287097.60147  96847072.67147  23651059.0334   23651065.5054   23651059.8004
        45.000          39.000
 126594052.21747  98644712.49047  24090049.3064   24090050.6464   24090049.1374
        45.000          39.000
 118477797.11447  92320345.24747  22545585.8554   22545590.0824   22545586.0344
        48.000          42.000
 114263939.23247  89036804.41347  21743729.2664   21743735.0914   21743729.2314
        52.000          45.000
 123162200.58047  95970540.50347  23436990.6114   23436993.8074   23436990.8704
        47.000          40.000
 122159798.27347  95189434.29547  23246250.2224   23246255.6294   23246250.1534
        47.000          41.000
 119293985.12447  92956334.79047  22700902.4614   22700907.3044   22700902.0964
        48.000          43.000
 115483884.58647  89987421.95947  21975868.0904   21975871.4284   21975868.4524
        51.000          45.000
 128180740.29047  99881074.94247  24392000.0224   24392005.0964   24391999.9484
        45.000          38.000
 09  1 18  0  6 30.0000000  0 12G 6G21G31G 5G22G 9G24G18G30G29G14G12
 128661883.88847 100255985.01047  24483565.0544   24483570.6244   24483564.7984
        42.000          36.000
 105893647.68547  82514514.37947  20150901.9474   20150904.6114   20150902.3424
        54.000          49.000
 121279375.68247  94503396.72647  23078706.1734   23078709.6734   23078705.5554
        48.000          43.000
 124273520.11647  96836492.82347  23648475.5714   23648481.1954   23648476.1644
        46.000          39.000
 126567811.28847  98624265.02847  24085055.9744   24085057.6074   24085056.0454
        45.000          39.000
 118553957.09747  92379690.73647  22560078.5084   22560082.4374   22560078.8484
        49.000          42.000
 114308109.09447  89071222.47047  21752134.5454   21752140.2194   21752134.7114
        51.000          45.000
 123135119.83847  95949438.65147  23431837.3214   23431840.3574   23431837.9074
        48.000          40.000
 122134854.18047  95169997.32047  23241503.4234   23241509.2194   23241503.2684
        47.000          41.000
 119369510.71347  93015185.87247  22715274.6334   22715279.5274   22715274.1464
        48.000          43.000
 115500868.15747  90000655.93447  21979099.9474   21979103.4254   21979099.9904
        51.000          45.000
 128181958.96647  99882024.56147  24392231.8594   24392237.4424   24392231.5984
        44.000          38.000
 09  1 18  0  7  0.0000000  0 12G 6G21G31G 5G22G 9G24G18G30G29G14G12
 128617169.35447 100221142.48447  24475055.6314   24475060.9644   24475055.9534
        42.000          36.000
 105858900.43347  82487438.60047  20144289.7494   20144292.4604   20144290.2334
        54.000          49.000
 121178923.20847  94425122.13547  23059590.6094   23059594.1744   23059590.0594
        48.000          43.000
 124259990.16147  96825950.03547  23645900.9984   23645907.1454   23645901.4094
        45.000          39.000
 126541344.06247  98603641.23947  24080019.3764   24080020.6854   24080019.2404
        45.000          39.000
 118630544.82947  92439369.53747  22574652.8894   22574656.5354   22574652.7934
        48.000          42.000
 114352738.89447  89105998.91547  21760627.1204   21760632.8824   21760627.1294
        52.000          45.000
 123107861.57347  95928198.45147  23426650.1474   23426652.7484   23426650.8114
        48.000          40.000
 122109815.37747  95150486.56447  23236738.5274   23236744.0964   23236738.3374
        48.000          41.000
 119445028.12347  93074030.57947  22729645.1914   22729649.9114   22729645.0084
        48.000          43.000
 115518198.10747  90014159.81347  21982397.4834   21982401.2504   21982397.7044
        51.000          45.000
 128183222.00147  99883008.76947  24392471.8394   24392477.3944   24392471.7994
        44.000          38.000
 09  1 18  0  7 30.0000000  0 12G 6G21G31G 5G22G 9G24G18G30G29G14G12
 128572758.93647 100186536.94747  24466605.6054   24466610.6314   24466605.6574
        41.000          37.000
 105824690.18947  82460781.28147  20137779.4184   20137782.6574   20137779.7204
        54.000          49.000
 121078608.44747  94346954.86547  23040501.1164   23040504.7814   23040501.1204
        49.000          43.000
 124246507.60647  96815444.15847  23643335.5624   23643341.3554   23643335.8434
        46.000          39.000
 126514648.37847  98582839.45347  24074939.2434   24074940.5944   24074938.9684
        45.000          39.000
 118707555.81447  92499378.13747  22589307.1754   22589311.2864   22589307.3294
        48.000          42.000
 114397825.39247  89141131.23147  21769206.7414   21769212.4944   21769206.7254
        51.000          45.000
 123080424.82147  95906819.17547  23421429.2134   23421432.1964   23421429.7584
        48.000          40.000
 122084681.38147  95130901.61847  23231956.0934   23231961.2554   23231955.5994
        48.000          41.000
 119520532.59947  93132865.20647  22744012.9334   22744017.7644   22744012.9224
        48.000          43.000
 115535870.13447  90027930.24847  21985760.5274   21985764.0534   21985760.8024
        51.000          45.000
 128184528.96447  99884027.19947  24392720.6654   24392726.1334   24392720.4734
        44.000          38.000
 09  1 18  0  8  0.0000000  0 12G 6G21G31G 5G22G 9G24G18G30G29G14G12
 128528655.01447 100152170.26347  24458212.8464   24458218.1734   24458212.5384
        42.000          37.000
 105791021.30647  82434545.79647  20131372.6694   20131375.5494   20131373.1114
        54.000          49.000
 120978437.36947  94268899.54947  23021438.9954   23021442.8114   23021438.6824
        48.000          42.000
 124233076.94647  96804978.71847  23640779.3164   23640785.5724   23640780.0384
        46.000          40.000
 126487726.44547  98561861.34947  24069815.9964   24069817.5464   24069816.3284
        45.000          39.000
 118784990.68647  92559717.02947  22604042.5874   22604046.9004   22604042.3474
        48.000          42.000
 114443370.27047  89176620.73247  21777874.0124   21777879.6014   21777874.1304
        52.000          45.000
 123052813.04747  95885303.51347  23416175.4504   23416178.2484   23416175.7674
        48.000          40.000
 122059456.17347  95111245.62047  23227156.3824   23227160.9624   23227156.1364
        48.000          41.000
 119596024.48347  93191690.02147  22758378.6764   22758383.2154   22758378.4434
        48.000          43.000
 115553884.68447  90041967.58047  21989188.4014   21989192.0444   21989188.3654
        51.000          45.000
 128185884.48347  99885083.44747  24392978.7794   24392984.1094   24392978.6464
        44.000          38.000
 09  1 18  0  8 30.0000000  0 12G 6G21G31G 5G22G 9G24G18G30G29G14G12
 128484854.70947 100118040.12047  24449877.5094   24449883.2684   24449878.2594
        41.000          37.000
 105757893.24947  82408731.73247  20125068.6844   20125071.4364   20125069.0694
        54.000          49.000
 120878409.94047  94190956.15747  23002404.4134   23002408.2584   23002403.4174
        48.000          42.000
 124219697.51947  96794553.19847  23638233.2414   23638239.5664   23638233.5964
        45.000          40.000
 126460575.19947  98540704.57547  24064649.2484   24064651.1574   24064649.6304
        44.000          39.000
 118862843.96947  92620381.97447  22618857.5174   22618861.9154   22618857.7474
        48.000          42.000
 114489369.87247  89212464.55247  21786627.4814   21786633.0314   21786627.6164
        51.000          45.000
 123025024.65047  95863650.23147  23410887.0094   23410889.7524   23410887.3334
        48.000          40.000
 122034138.93947  95091517.91147  23222338.0804   23222343.5264   23222337.9184
        48.000          41.000
 119671498.35747  93250500.81047  22772741.0474   22772745.3134   22772740.3834
        48.000          43.000
 115572236.45647  90056267.69047  21992680.7874   21992684.5414   21992680.9394
        51.000          45.000
 128187287.67647  99886176.87047  24393245.7264   24393250.9914   24393245.2834
        43.000          38.000
 09  1 18  0  9  0.0000000  0 12G 6G21G31G 5G22G 9G24G18G30G29G14G12
 128441358.38347 100084146.84047  24441600.4864   24441606.4374   24441600.2684
        41.000          36.000
 105725308.19147  82383340.78247  20118868.0944   20118870.6704   20118868.4594
        54.000          50.000
 120778529.43647  94113127.25047  22983397.8014   22983401.7324   22983397.5334
        48.000          43.000
 124206372.09347  96784169.76147  23635697.6894   23635703.7894   23635697.9484
        46.000          39.000
 126433196.02147  98519370.16147  24059438.9144   24059441.0904   24059438.7654
        45.000          39.000
 118941114.31347  92681371.88947  22633752.2604   22633756.2404   22633752.4154
        49.000          42.000
 114535824.06947  89248662.60747  21795467.1954   21795473.2164   21795467.3674
        51.000          45.000
 122997061.45547  95841860.73447  23405565.9884   23405568.6644   23405566.3044
        49.000          40.000
 122008731.81747  95071720.16347  23217503.0654   23217508.3924   23217502.8124
        47.000          41.000
 119746952.91947  93309296.53247  22787099.8464   22787103.9684   22787099.5484
        48.000          43.000
 115590923.82647  90070829.29547  21996236.7604   21996240.4574   21996236.9014
        51.000          45.000
 128188740.81047  99887309.18447  24393522.4394   24393527.8764   24393521.8834
        44.000          38.000
 09  1 18  0  9 30.0000000  0 12G 6G21G31G 5G22G 9G24G18G30G29G14G12
 128398167.96447 100050491.94647  24433381.9184   24433387.0994   24433382.1614
        42.000          36.000
 105693270.47547  82358376.33247  20112771.5104   20112774.0074   20112771.9834
        54.000          49.000
 120678801.07647  94035416.89947  22964420.0084   22964424.0464   22964419.6734
        48.000          43.000
 124193104.95147  96773831.75147  23633172.5774   23633179.3894   23633173.0934
        46.000          40.000
 126405590.45647  98497859.36547  24054186.1424   24054187.2104   24054186.3024
        45.000          39.000
 119019802.11247  92742687.10847  22648725.7774   22648729.6484   22648726.0244
        48.000          42.000
 114582733.99647  89285215.77647  21804393.8814   21804399.9194   21804394.1944
        51.000          45.000
 122968926.35347  95819937.28747  23400211.8044   23400214.8444   23400212.2794
        48.000          40.000
 121983238.62347  95051855.35847  23212652.1144   23212657.0154   23212651.7474
        48.000          42.000
 119822387.84847  93368076.96647  22801454.4834   22801458.8304   22801454.1954
        48.000          43.000
 115609946.63247  90085652.28047  21999856.4094   21999860.1994   21999856.7334
        50.000          44.000
 128190247.80547  99888483.47547  24393809.3324   24393814.5254   24393808.8484
        44.000          39.000
 09  1 18  0 10  0.0000000  0 12G 6G21G31G 5G22G 9G24G18G30G29G14G12
 128355281.72147 100017074.07447  24425220.7754   24425226.0904   24425221.1124
        42.000          37.000
 105661780.67147  82333838.82847  20106779.0604   20106781.7084   20106779.4694
        54.000          49.000
 120579226.25747  93957826.19547  22945471.6544   22945475.6514   22945471.1504
        49.000          43.000
 124179896.70847  96763539.61747  23630659.4754   23630665.8584   23630659.9844
        46.000          40.000
 126377756.93247  98476170.96847  24048889.4584   24048890.6114   24048889.4614
        46.000          39.000
 119098903.44147  92804324.55647  22663778.4774   22663782.0574   22663778.6994
        48.000          41.000
 114630097.54647  89322122.42347  21813406.9804   21813412.8494   21813407.0824
        51.000          45.000
 122940619.36047  95797879.88747  23394825.2934   23394828.4864   23394825.7174
        48.000          40.000
 121957659.82547  95031923.83247  23207784.9534   23207789.7274   23207784.7654
        48.000          41.000
 119897799.36347  93426839.15347  22815804.9074   22815809.2264   22815804.3864
        48.000          43.000
 115629301.56947  90100734.07247  22003539.7044   22003543.3384   22003539.9224
        50.000          45.000
 128191809.31247  99889700.26347  24394106.4644   24394111.5194   24394106.3414
        43.000          38.000
 09  1 18  0 10 30.0000000  0 12G 6G21G31G 5G22G 9G24G18G30G29G14G12
 128312698.60147  99983892.40347  24417117.3644   24417122.4624   24417117.7304
        43.000          37.000
 105630839.73547  82309729.00947  20100891.3714   20100893.8524   20100891.7684
        54.000          49.000
 120479807.07447  93880356.76047  22926552.7564   22926556.4504   22926552.2424
        48.000          43.000
 124166748.63347  96753294.39147  23628157.7224   23628163.6494   23628158.1294
        46.000          39.000
 126349694.80047  98454304.41147  24043549.1814   24043550.7054   24043549.3074
        45.000          39.000
 119178415.09847  92866281.72547  22678908.7914   22678912.7264   22678909.0274
        47.000          41.000
 114677912.58447  89359380.88347  21822505.9134   21822511.5564   21822506.0494
        51.000          45.000
 122912140.61347  95775688.66147  23389406.0454   23389408.3224   23389406.2764
        48.000          40.000
 121931996.15647  95011926.18447  23202901.3664   23202905.8354   23202901.0154
        47.000          41.000
 119973184.38247  93485580.69847  22830150.2994   22830154.5794   22830149.9594
        48.000          43.000
 115648985.54447  90116072.26147  22007285.3034   22007289.1834   22007285.6264
        50.000          45.000
 128193426.63347  99890960.52847  24394414.0304   24394418.4764   24394413.4404
        43.000          38.000
 09  1 18  0 11  0.0000000  0 12G 6G21G31G 5G22G 9G24G18G30G29G14G12
 128270419.65947  99950947.76247  24409072.5694   24409077.2244   24409072.7254
        43.000          37.000
 105600450.81047  82286049.33847  20095108.3874   20095111.0334   20095108.7124
        54.000          50.000
 120380547.35747  93803011.58947  22907664.1114   22907667.8624   22907663.6974
        49.000          43.000
 124153664.08947  96743098.66147  23625667.2994   23625673.6444   23625667.5524
        46.000          39.000
 126321405.65747  98432260.95447  24038166.0144   24038167.6884   24038165.7044
        46.000          39.000
 119258336.06347  92928557.83147  22694116.8264   22694121.0834   22694117.1364
        47.000          41.000
 114726179.49347  89396991.45347  21831690.7114   21831696.4774   21831690.7344
        51.000          45.000
 122883492.22647  95753365.25547  23383954.1854   23383956.6704   23383954.8274
        47.000          40.000
 121906250.96547  94991865.02047  23198001.9664   23198007.0864   23198001.3294
        48.000          42.000
 120048541.93747  93544300.84347  22844490.6374   22844495.0754   22844490.2034
        48.000          43.000
 115668997.43047  90131665.96047  22011093.5724   22011097.4434   22011093.8004
        50.000          45.000
 128195102.76447  99892266.61247  24394732.1754   24394737.8084   24394732.4794
        43.000          38.000
 09  1 18  0 11 30.0000000  0 12G 6G21G31G 5G22G 9G24G18G30G29G14G12
 128228443.63147  99918239.15147  24401083.7964   24401089.8574   24401083.7784
        41.000          37.000
 105570614.76847  82262800.47947  20089430.8244   20089433.5664   20089431.3044
        54.000          50.000
 120281449.39047  93725792.46347  22888806.1184   22888810.1984   22888805.8584
        48.000          43.000
 124140644.10147  96732953.24247  23623189.7154   23623196.0724   23623190.2034
        45.000          39.000
 126292888.30247  98410039.67647  24032739.5424   24032740.6994   24032739.6614
        46.000          39.000
 119338663.16647  92991150.40947  22709402.5014   22709406.7184   22709402.7344
        47.000          41.000
 114774896.51747  89434952.75347  21840961.2284   21840967.2764   21840961.2844
        51.000          45.000
 122854674.61047  95730909.96747  23378470.7044   23378472.9334   23378471.2384
        48.000          40.000
 121880424.87747  94971740.81747  23193087.5044   23193092.3394   23193087.0484
        48.000          41.000
 120123868.88847  93602997.13947  22858824.9634   22858829.3374   22858824.6204
        48.000          43.000
 115689333.77447  90147512.48847  22014963.3284   22014966.9864   22014963.5884
        50.000          44.000
 128196838.34347  99893619.01947  24395062.7334   24395068.6464   24395062.6324
        43.000          38.000
 09  1 18  0 12  0.0000000  0 12G 6G21G31G 5G22G 9G24G18G30G29G14G12
 128186771.75347  99885767.53847  24393154.2234   24393159.6024   24393154.1914
        43.000          37.000
 105541335.02447  82239985.10147  20083858.9794   20083861.8054   20083859.3404
        54.000          50.000
 120182517.83247  93648702.98547  22869980.1364   22869983.8974   22869979.2114
        48.000          43.000
 124127692.41847  96722861.03647  23620724.9414   23620731.4284   23620724.9484
        45.000          39.000
 126264144.02547  98387641.58147  24027269.9774   24027270.7214   24027269.8584
        46.000          39.000
 119419395.59947  93054058.83947  22724765.2494   22724769.7774   22724765.3054
        47.000          41.000
 114824064.15847  89473265.19747  21850317.4264   21850323.2834   21850317.4484
        51.000          45.000
 122825690.41647  95708324.90847  23372954.9104   23372957.0914   23372955.4264
        48.000          40.000
 121854521.21647  94951556.16247  23188158.0584   23188162.7654   23188158.4204
        48.000          41.000
 120199164.36247  93661668.90147  22873153.1704   22873157.4324   22873152.9354
        48.000          43.000
 115709993.67447  90163611.13247  22018894.4974   22018898.4794   22018894.6404
        50.000          44.000
 128198637.06747  99895020.66347  24395405.6174   24395410.5354   24395405.6484
        44.000          38.000
 09  1 18  0 12 30.0000000  0 12G 6G21G31G 5G22G 9G24G18G30G29G14G12
 128145403.03947  99853532.13047  24385282.6524   24385286.8104   24385282.6384
        42.000          37.000
 105512612.74847  82217604.10547  20078393.5134   20078396.1364   20078393.9764
        54.000          49.000
 120083754.56547  93571744.65347  22851186.2004   22851189.9564   22851186.2544
        49.000          43.000
 124114810.38547  96712823.11247  23618273.8694   23618279.7214   23618274.2394
        46.000          39.000
 126235172.52547  98365066.42647  24021756.5744   24021758.2234   24021756.5794
        46.000          40.000
 119500530.25447  93117280.68747  22740204.5864   22740208.8384   22740204.8074
        46.000          41.000
 114873680.39047  89511927.17847  21859759.3304   21859765.1844   21859759.5154
        51.000          45.000
 122796539.90447  95685610.21447  23367407.8924   23367409.7854   23367408.2504
        48.000          40.000
 121828540.91647  94931311.79347  23183214.2374   23183219.3354   23183213.7574
        48.000          42.000
 120274425.53347  93720313.94147  22887474.7624   22887479.2024   22887474.4364
        48.000          43.000
 115730974.51047  90179959.86047  22022886.9384   22022891.1324   22022887.1274
        50.000          44.000
 128200500.21347  99896472.48447  24395760.0574   24395765.4044   24395759.7814
        43.000          38.000
 09  1 18  0 13  0.0000000  0 12G 6G21G31G 5G22G 9G24G18G30G29G14G12
 128104336.73547  99821532.39147  24377466.9934   24377473.4734   24377466.8574
        42.000          37.000
 105484449.34647  82195658.60647  20073033.9194   20073036.6974   20073034.3094
        54.000          50.000
 119985161.98747  93494919.31847  22832424.7484   22832428.0014   22832424.6174
        49.000          43.000
 124101999.79547  96702840.83947  23615835.9784   23615842.6504   23615836.5604
        46.000          39.000
 126205973.43547  98342313.95047  24016200.3274   24016201.5194   24016200.2054
        45.000          39.000
 119582064.56347  93180813.93347  22755720.2784   22755724.5544   22755720.1874
        47.000          41.000
 114923744.26247  89550937.97147  21869286.0724   21869291.8374   21869286.1464
        51.000          45.000
 122767224.24947  95662766.84747  23361829.5014   23361831.4594   23361829.7934
        47.000          40.000
 121802485.47447  94911008.86547  23178256.0284   23178261.1864   23178255.7574
        48.000          41.000
 120349649.79447  93778930.21147  22901789.3524   22901793.9134   22901788.8174
        48.000          43.000
 115752273.43647  90196556.45147  22026940.1534   22026944.0334   22026940.3644
        50.000          44.000
 128202429.08347  99897975.51847  24396127.0414   24396131.6544   24396127.2044
        43.000          38.000
 09  1 18  0 13 30.0000000  0 12G 6G21G31G 5G22G 9G24G18G30G29G14G12
 128063573.82247  99789769.04447  24369710.7064   24369716.7754   24369711.3014
        41.000          37.000
 105456847.88747  82174150.97847  20067781.7694   20067784.3524   20067782.1464
        54.000          49.000
 119886744.36947  93418230.31547  22813696.7104   22813699.4544   22813696.5724
        49.000          43.000
 124089263.80847  96692916.72247  23613412.4854   23613418.4974   23613413.1164
        45.000          39.000
 126176547.91347  98319385.01447  24010600.0804   24010601.8414   24010600.4224
        45.000          39.000
 119663997.78347  93244658.02447  22771311.7294   22771316.0384   22771311.6354
        47.000          41.000
 114974255.92847  89590297.71047  21878898.0534   21878903.6894   21878898.4484
        51.000          45.000
 122737745.70447  95639796.54647  23356219.7724   23356222.1464   23356220.1894
        48.000          40.000
 121776357.86647  94890649.70147  23173283.9414   23173289.5164   23173283.9344
        48.000          41.000
 120424836.19247  93837516.98847  22916096.7454   22916101.3584   22916096.3044
        48.000          43.000
 115773889.42747  90213400.10247  22031053.6814   22031057.4024   22031053.9514
        50.000          44.000
 128204427.12147  99899532.45247  24396507.1614   24396512.1724   24396506.7534
        43.000          38.000
 09  1 18  0 14  0.0000000  0 12G 6G21G31G 5G22G 9G24G18G30G29G14G12
 128023111.27447  99758239.77147  24362010.2474   24362016.5994   24362010.5714
        43.000          37.000
 105429807.31747  82153080.41147  20062635.9364   20062638.5924   20062636.3504
        54.000          49.000
 119788502.23347  93341678.03647  22795001.8484   22795004.7244   22795001.0984
        49.000          43.000
 124076602.18947  96683050.55447  23611002.9924   23611008.9204   23611003.1294
        45.000          39.000
 126146893.46247  98296277.71347  24004957.2334   24004958.5414   24004957.3504
        45.000          39.000
 119746324.68647  93308808.89847  22786978.2414   22786982.2414   22786978.2924
        47.000          41.000
 115025211.74947  89630003.52447  21888594.7144   21888600.2624   21888594.8774
        51.000          45.000
 122708102.90747  95616698.27247  23350578.5214   23350581.7324   23350578.9614
        48.000          40.000
 121750157.44347  94870233.80847  23168298.2114   23168303.0944   23168297.5684
        48.000          41.000
 120499979.97047  93896070.54447  22930396.0124   22930400.8474   22930395.5124
        48.000          43.000
 115795817.60847  90230487.02447  22035226.5894   22035230.1104   22035226.8424
        51.000          44.000
 128206493.53847  99901142.68347  24396900.0804   24396905.4874   24396900.0544
        43.000          38.000
 09  1 18  0 14 30.0000000  0 12G 6G21G31G 5G22G 9G24G18G30G29G14G12
 127982951.11847  99726946.11847  24354369.4264   24354374.4124   24354369.8394
        42.000          37.000
 105403331.47447  82132449.89547  20057597.7754   20057600.5614   20057598.1634
        54.000          50.000
 119690440.50047  93265266.33047  22776341.2654   22776344.0634   22776340.6394
        49.000          43.000
 124064019.29047  96673245.73747  23608608.7384   23608614.2224   23608609.1964
        46.000          39.000
 126117012.46747  98272993.86847  23999271.2644   23999272.4414   23999271.3244
        46.000          39.000
 119829045.17947  93373266.46247  22802719.3524   22802723.4754   22802719.1984
        48.000          41.000
 115076612.51747  89670056.05647  21898376.1714   21898381.6994   21898376.4004
        51.000          45.000
 122678299.61747  95593474.93047  23344907.3064   23344909.7814   23344907.9994
        48.000          40.000
 121723888.16847  94849764.25947  23163299.2674   23163304.4734   23163298.8384
        48.000          42.000
 120575080.91347  93954590.72047  22944687.5484   22944692.0074   22944687.1414
        48.000          43.000
 115818057.71347  90247816.99147  22039458.6124   22039462.1454   22039458.9374
        50.000          44.000
 128208632.55147  99902809.48047  24397307.9124   24397312.0224   24397307.0894
        44.000          38.000
 09  1 18  0 15  0.0000000  0 12G 6G21G31G 5G22G 9G24G18G30G29G14G12
 127943092.27047  99695887.26947  24346783.3354   24346789.6464   24346783.3844
        43.000          37.000
 105377422.10647  82112260.78347  20052667.4094   20052670.1304   20052667.8144
        54.000          50.000
 119592561.70447  93188997.18147  22757715.1614   22757718.3064   22757714.9014
        49.000          43.000
 124051516.50647  96663503.33747  23606229.2854   23606235.3114   23606229.9444
        46.000          39.000
 126086904.52047  98249533.17047  23993541.7244   23993542.7284   23993542.0244
        45.000          39.000
 119912156.36847  93438028.45847  22818534.7454   22818539.2424   22818534.7444
        47.000          41.000
 115128456.64447  89710454.06147  21908241.7894   21908247.2664   21908241.7934
        51.000          45.000
 122648336.21547  95570126.83147  23339206.0944   23339208.6174   23339206.2804
        47.000          40.000
 121697551.69147  94829242.33547  23158287.5174   23158292.7704   23158287.3184
        48.000          42.000
 120650136.51647  94013075.56647  22958970.2584   22958974.8854   22958969.8924
        48.000          43.000
 115840606.60547  90265387.57747  22043749.7154   22043753.0534   22043749.8934
        50.000          44.000
 128210845.19847  99904533.64847  24397728.4084   24397733.2994   24397728.4084
        43.000          38.000
 09  1 18  0 15 30.0000000  0 12G 6G21G31G 5G22G 9G24G18G30G29G14G12
 127903536.27847  99665064.38547  24339256.8534   24339261.8704   24339257.3214
        42.000          37.000
 105352082.34047  82092515.51447  20047845.4724   20047848.1244   20047845.7864
        54.000          50.000
 119494870.52347  93112874.22247  22739124.9014   22739127.9854   22739124.4024
        49.000          43.000
 124039097.90547  96653826.54447  23603866.3754   23603872.1514   23603866.8754
        45.000          39.000
 126056571.65847  98225897.20747  23987769.8834   23987770.7524   23987769.4994
        45.000          39.000
 119995657.75447  93503094.50347  22834424.6024   22834428.8354   22834424.6754
        47.000          41.000
 115180744.74847  89751198.03047  21918192.0384   21918197.3894   21918192.1424
        51.000          45.000
 122618215.85647  95546656.42347  23333474.1554   23333476.7034   23333474.4174
        47.000          40.000
 121671151.36947  94808670.65947  23153263.6934   23153268.7624   23153263.1384
        48.000          42.000
 120725146.52447  94071524.89347  22973244.2724   22973248.7714   22973243.9324
        48.000          42.000
 115863463.92247  90283198.49547  22048099.1274   22048102.7854   22048099.4764
        51.000          45.000
 128213135.54447  99906318.36347  24398164.3484   24398168.5044   24398163.6354
        43.000          38.000
 09  1 18  0 16  0.0000000  0 12G 6G21G31G 5G22G 9G24G18G30G29G14G12
 127864278.92447  99634474.20947  24331786.3904   24331791.4994   24331786.1124
        42.000          37.000
 105327309.67347  82073212.14647  20043131.2594   20043134.1244   20043131.6394
        54.000          50.000
 119397365.99747  93036896.70747  22720570.3224   22720573.7764   22720569.7694
        49.000          43.000
 124026761.65047  96644213.92647  23601518.7924   23601524.3684   23601519.2344
        45.000          39.000
 126026010.18247  98202083.12147  23981953.6864   23981954.5854   23981953.7514
        45.000          39.000
 120079543.11247  93568459.76647  22850387.2474   22850391.2854   22850387.5684
        48.000          41.000
 115233471.84947  89792284.06947  21928225.5774   21928231.2294   21928225.6764
        51.000          45.000
 122587935.72447  95523061.51447  23327712.0404   23327714.5654   23327712.4544
        47.000          40.000
 121644685.18747  94788047.67347  23148227.6484   23148232.1704   23148227.3774
        48.000          42.000
 120800104.85247  94129933.93947  22987508.4874   22987512.9884   22987508.3714
        48.000          42.000
 115886623.63147  90301245.04847  22052506.4324   22052509.8174   22052506.6934
        50.000          44.000
 128215501.41947  99908161.93447  24398614.4374   24398619.3504   24398614.2834
        44.000          39.000
 09  1 18  0 16 30.0000000  0 12G 6G21G31G 5G22G 9G24G18G30G29G14G12
 127825322.92847  99604118.85747  24324372.6264   24324379.1094   24324372.9734
        42.000          37.000
 105303109.33847  82054354.75147  20038526.2054   20038528.8244   20038526.6614
        54.000          50.000
 119300054.48247  92961069.58947  22702052.7864   22702056.0014   22702052.4474
        49.000          43.000
 124014513.25747  96634669.76947  23599187.3544   23599193.9054   23599187.8484
        45.000          39.000
 125995223.57747  98178093.59847  23976095.6774   23976096.5614   23976095.7894
        45.000          39.000
 120163813.48447  93634125.00547  22866423.4404   22866427.8124   22866423.6924
        48.000          41.000
 115286640.18347  89833713.93247  21938343.0194   21938349.0574   21938342.9984
        51.000          45.000
 122557500.60647  95499345.84947  23321920.4434   23321922.4194   23321921.0884
        47.000          40.000
 121618158.23947  94767377.33147  23143179.5314   23143184.3924   23143179.3004
        48.000          42.000
 120875012.45247  94188303.45747  23001762.8764   23001766.9814   23001762.4504
        47.000          42.000
 115910086.65247  90319527.93647  22056971.1554   22056974.8694   22056971.2464
        51.000          45.000
 128217948.13147  99910068.49247  24399080.1854   24399084.8474   24399080.2324
        44.000          39.000
 09  1 18  0 17  0.0000000  0 12G 6G21G31G 5G22G 9G24G18G30G29G14G12
 127786666.13747  99573996.64647  24317016.9034   24317022.6164   24317016.4174
        42.000          36.000
 105279481.08247  82035943.13147  20034029.8264   20034032.5304   20034030.1724
        54.000          50.000
 119202936.89147  92885393.58347  22683571.7424   22683575.3104   22683571.7784
        49.000          43.000
 124002353.14047  96625194.39647  23596873.5524   23596879.7134   23596873.9274
        46.000          39.000
 125964209.82747  98153927.08047  23970193.4934   23970194.8674   23970193.4294
        44.000          38.000
 120248464.58247  93700086.93147  22882532.0564   22882536.4404   22882532.2884
        47.000          41.000
 115340246.68047  89875485.21847  21948543.9984   21948550.1574   21948544.0744
        51.000          45.000
 122526909.96947  95475508.99747  23316098.7584   23316101.3274   23316099.0814
        47.000          40.000
 121591570.94847  94746659.96447  23138120.2274   23138125.0454   23138119.8794
        48.000          42.000
 120949865.51647  94246630.47447  23016006.8164   23016011.4244   23016006.5304
        48.000          42.000
 115933848.81847  90338043.93647  22061492.8764   22061496.7044   22061493.2364
        51.000          45.000
 128220475.92747  99912038.23947  24399561.3554   24399566.4124   24399560.9804
        43.000          39.000
 09  1 18  0 17 30.0000000  0 12G 6G21G31G 5G22G 9G24G18G30G29G14G12
 127748309.20947  99544108.10047  24309717.8234   24309723.9664   24309717.6064
        42.000          37.000
 105256427.72247  82017979.48447  20029643.0124   20029645.7544   20029643.3784
        54.000          50.000
 119106017.69947  92809872.16647  22665128.8204   22665132.4044   22665127.7894
        49.000          43.000
 123990284.38047  96615790.18947  23594576.8844   23594583.1624   23594577.4594
        45.000          39.000
 125932970.49447  98129584.78947  23964248.5694   23964250.3734   23964248.3284
        45.000          39.000
 120333494.89747  93766344.35547  22898713.0044   22898716.5644   22898713.0344
        47.000          41.000
 115394291.43847  89917598.00347  21958828.4254   21958834.4364   21958828.4164
        51.000          45.000
 122496166.32647  95451552.91947  23310248.7574   23310250.9854   23310249.4094
        47.000          40.000
 121564925.84447  94725897.56847  23133049.6464   23133054.6794   23133049.5844
        48.000          42.000
 121024663.06547  94304914.24947  23030240.7194   23030244.9684   23030240.3994
        48.000          42.000
 115957908.63347  90356791.87547  22066071.5094   22066075.0854   22066071.6054
        51.000          45.000
 128223087.66147  99914073.37947  24400058.2324   24400063.2964   24400058.0004
        44.000          38.000
 09  1 18  0 18  0.0000000  0 12G 6G21G31G 5G22G 9G24G18G30G29G14G12
 127710251.24447  99514452.52747  24302475.2644   24302481.7314   24302475.6224
        42.000          37.000
 105233950.10547  82000464.46547  20025365.5554   20025368.2284   20025365.9254
        54.000          50.000
 119009298.97847  92734506.97447  22646723.4704   22646727.2274   22646723.5784
        49.000          43.000
 123978308.64247  96606458.48147  23592297.9154   23592304.1954   23592298.2784
        46.000          39.000
 125901505.51047  98105066.66247  23958261.6504   23958261.8404   23958261.4914
        45.000          39.000
 120418901.57247  93832895.03447  22914964.9954   22914968.7574   22914965.0894
        47.000          40.000
 115448772.67547  89960050.90147  21969195.7724   21969201.6914   21969195.9924
        51.000          45.000
 122465270.30547  95427478.10147  23304369.2074   23304372.0654   23304369.6524
        47.000          40.000
 121538224.77547  94705091.55747  23127968.5274   23127973.6484   23127968.3264
        48.000          41.000
 121099402.84347  94363152.99447  23044463.0974   23044467.5384   23044462.6654
        48.000          42.000
 115982263.27847  90375769.53947  22070705.8984   22070709.5614   22070706.3254
        50.000          45.000
 128225784.81247  99916175.08847  24400571.3484   24400576.2844   24400571.2844
        44.000          38.000
 09  1 18  0 18 30.0000000  0 12G 6G21G31G 5G22G 9G24G18G30G29G14G12
 127672491.29347  99485029.15447  24295290.8934   24295296.0724   24295290.3074
        42.000          37.000
 105212049.35847  81983398.95547  20021198.0874   20021200.8284   20021198.4904
        54.000          50.000
 118912783.44047  92659300.10447  22628357.3054   22628360.6854   22628356.8884
        49.000          43.000
 123966427.67447  96597200.63347  23590037.0464   23590042.9744   23590037.5414
        46.000          39.000
 125869814.62047  98080372.48147  23952230.7004   23952231.5214   23952230.5804
        45.000          39.000
 120504681.74347  93899736.75847  22931288.3504   22931292.0164   22931288.4114
        47.000          40.000
 115503688.72747  90002842.62047  21979645.9874   21979651.8804   21979646.2664
        51.000          44.000
 122434222.85047  95403285.28247  23298460.8104   23298463.7794   23298461.2824
        47.000          40.000
 121511469.08047  94684242.96347  23122876.7864   23122882.0004   23122876.6334
        48.000          41.000
 121174081.85047  94421344.39647  23058674.1354   23058678.3534   23058673.8684
        48.000          42.000
 116006909.81347  90394974.66447  22075395.9804   22075399.4034   22075396.1984
        51.000          45.000
 128228568.80047  99918344.46447  24401100.9644   24401106.2814   24401101.1404
        44.000          39.000
 09  1 18  0 19  0.0000000  0 12G 6G21G31G 5G22G 9G24G18G30G29G14G12
 127635030.31047  99455838.74247  24288161.8124   24288167.3874   24288161.7714
        43.000          37.000
 105190728.55547  81966785.34647  20017140.6874   20017143.4224   20017141.0204
        54.000          50.000
 118816474.98647  92584254.60147  22610030.4284   22610033.8874   22610030.0574
        50.000          44.000
 123954644.91747  96588019.30447  23587794.8234   23587801.0814   23587795.3514
        46.000          39.000
 125837898.96447  98055503.17647  23946157.3054   23946158.6554   23946157.3944
        46.000          39.000
 120590834.29247  93966868.65947  22947682.3724   22947686.4714   22947682.6184
        47.000          41.000
 115559039.54347  90045973.10547  21990178.7994   21990184.9174   21990178.8494
        51.000          44.000
 122403026.59147  95378976.52447  23292524.6694   23292527.3384   23292525.2484
        46.000          40.000
 121484661.82647  94663354.19647  23117775.8484   23117780.9104   23117775.2494
        48.000          41.000
 121248699.39247  94479487.90547  23072873.4294   23072877.6874   23072873.2074
        48.000          42.000
 116031847.38547  90414406.56147  22080141.3764   22080145.0434   22080141.7084
        51.000          45.000
 128231443.12447  99920584.22847  24401648.0534   24401653.4314   24401647.8184
        43.000          39.000
 09  1 18  0 19 30.0000000  0 12G 6G21G31G 5G22G 9G24G18G30G29G14G12
 127597866.66247  99426880.02347  24281089.5774   24281095.2764   24281090.0794
        42.000          37.000
 105169987.94947  81950623.84047  20013194.0094   20013196.5104   20013194.4074
        54.000          50.000
 118720375.89547  92509372.22747  22591743.3234   22591746.6714   22591742.6374
        49.000          44.000
 123942961.46147  96578915.34547  23585571.4604   23585577.2874   23585571.7894
        46.000          39.000
 125805758.04347  98030458.35247  23940041.2854   23940042.7554   23940041.6354
        45.000          39.000
 120677355.52847  94034287.82647  22964146.6814   22964151.4494   22964147.1104
        46.000          40.000
 115614822.80947  90089440.57847  22000794.2154   22000799.9584   22000794.4554
        51.000          44.000
 122371682.00547  95354552.18547  23286559.6624   23286562.3434   23286560.4494
        47.000          40.000
 121457804.16147  94642426.16347  23112664.9154   23112670.4224   23112664.6014
        48.000          41.000
 121323252.35247  94537581.07647  23087060.1854   23087064.4764   23087060.1334
        47.000          42.000
 116057072.41747  90434062.44947  22084941.6874   22084944.8174   22084942.1864
        51.000          45.000
 128234408.36847  99922894.85747  24402212.7024   24402217.3184   24402212.3504
        44.000          39.000
 09  1 18  0 20  0.0000000  0 12G 6G21G31G 5G22G 9G24G18G30G29G14G12
 127561000.80247  99398153.33547  24274074.2894   24274080.0064   24274073.8944
        42.000          37.000
 105149829.64347  81934916.07747  20009357.8694   20009360.6534   20009358.3004
        54.000          50.000
 118624489.71647  92434655.76647  22573497.0534   22573499.8764   22573496.7084
        50.000          44.000
 123931380.47447  96569891.23847  23583367.8104   23583373.7764   23583368.6944
        45.000          39.000
 125773392.89647  98005238.79647  23933882.1154   23933883.6874   23933882.0414
        45.000          39.000
 120764244.31547  94101993.39947  22980681.5204   22980685.4524   22980681.8964
        47.000          40.000
 115671038.36947  90133244.90047  22011491.6324   22011497.5704   22011491.8264
        51.000          44.000
 122340191.35447  95330014.02447  23280567.5974   23280570.1974   23280568.3324
        47.000          40.000
 121430898.95947  94621461.08347  23107545.1874   23107550.1934   23107544.9284
        48.000          42.000
 121397739.90547  94595623.29347  23101234.6774   23101239.2114   23101234.2894
        47.000          42.000
 116082583.45847  90453941.20347  22089796.3544   22089799.5384   22089796.7124
        51.000          44.000
 128237467.34147  99925278.48547  24402794.3364   24402799.3374   24402794.3074
        45.000          39.000
 09  1 18  0 20 30.0000000  0 12G 6G21G31G 5G22G 9G24G18G30G29G14G12
 127524430.31847  99369656.81347  24267115.6574   24267120.7374   24267115.4684
        43.000          37.000
 105130253.42047  81919661.87847  20005632.6614   20005635.2424   20005632.9914
        54.000          50.000
 118528817.86147  92360106.31747  22555290.7984   22555294.0374   22555290.6444
        50.000          44.000
 123919902.04047  96560947.04347  23581183.3704   23581189.7264   23581183.6944
        46.000          39.000
 125740801.93747  97979843.28047  23927679.9984   23927681.3194   23927679.8944
        46.000          39.000
 120851495.83147  94169981.62447  22997284.8024   22997288.7474   22997284.7554
        46.000          40.000
 115727682.92747  90177383.49947  22022270.9354   22022276.8214   22022271.1124
        51.000          44.000
 122308553.94847  95305361.52547  23274546.8194   23274549.6074   23274547.3264
        47.000          41.000
 121403946.01847  94600458.81247  23102415.9054   23102420.9184   23102415.9144
        48.000          41.000
 121472157.79947  94653611.23547  23115395.9884   23115400.5974   23115395.5574
        47.000          42.000
 116108376.20747  90474039.48047  22094704.1704   22094707.7964   22094704.3734
        50.000          44.000
 128240620.23347  99927735.31347  24403394.0064   24403399.5834   24403394.2114
        44.000          39.000
 09  1 18  0 21  0.0000000  0 12G 6G21G31G 5G22G 9G24G18G30G29G14G12
 127488156.76947  99341391.68947  24260213.0354   24260218.4124   24260213.0834
        43.000          37.000
 105111262.73947  81904863.94947  20002019.0264   20002021.5124   20002019.3244
        54.000          50.000
 118433365.23147  92285727.69847  22537126.7794   22537130.1324   22537126.3194
        50.000          44.000
 123908530.43847  96552086.10547  23579019.4234   23579025.6854   23579019.9434
        45.000          39.000
 125707987.64347  97954273.74247  23921436.1534   23921437.5864   23921436.4474
        46.000          40.000
 120939109.91547  94238252.35847  23013957.1204   23013961.3274   23013957.1054
        47.000          41.000
 115784757.37647  90221857.08847  22033131.7904   22033137.6584   22033131.9894
        51.000          44.000
 122276773.58747  95280597.62547  23268499.1754   23268502.2264   23268499.6104
        48.000          41.000
 121376949.51847  94579422.57947  23097278.8314   23097283.6464   23097277.9764
        48.000          41.000
 121546506.13147  94711544.96447  23129543.9584   23129548.5104   23129543.5554
        47.000          42.000
 116134450.12847  90494356.85347  22099666.0614   22099669.3814   22099666.3174
        50.000          45.000
 128243871.18347  99930268.58747  24404012.4664   24404018.0314   24404012.2164
        44.000          39.000
 09  1 18  0 21 30.0000000  0 12G 6G21G31G 5G22G 9G24G18G30G29G14G12
 127452178.48947  99313356.60547  24253365.9674   24253371.8464   24253366.4794
        42.000          37.000
 105092858.15147  81890522.71147  19998516.7854   19998519.3054   19998517.1744
        54.000          50.000
 118338133.78147  92211521.42347  22519004.7604   22519008.1244   22519004.1024
        49.000          44.000
 123897266.95447  96543309.39147  23576875.9104   23576881.7964   23576876.4004
        46.000          39.000
 125674949.42047  97928529.72347  23915149.1684   23915150.5664   23915149.2274
        46.000          39.000
 121027083.54747  94306803.27747  23030698.2204   23030701.7784   23030698.0104
        47.000          40.000
 115842259.26547  90266663.74147  22044074.0434   22044079.9704   22044074.3304
        51.000          44.000
 122244850.48747  95255722.50147  23262424.7684   23262427.2704   23262425.1234
        48.000          41.000
 121349910.35447  94558353.10547  23092133.2624   23092138.3974   23092133.1324
        48.000          41.000
 121620782.20647  94769422.39747  23143678.2314   23143682.7384   23143678.1524
        47.000          42.000
 116160801.96347  90514890.77647  22104680.4484   22104684.0034   22104680.5674
        50.000          44.000
 128247220.87347  99932878.78547  24404650.4704   24404654.7964   24404650.2034
        43.000          38.000
 09  1 18  0 22  0.0000000  0 12G 6G21G31G 5G22G 9G24G18G30G29G14G12
 127416496.26447  99285552.22647  24246576.2674   24246582.0794   24246576.0404
        42.000          37.000
 105075042.00747  81876640.00047  19995126.5154   19995129.0074   19995126.8734
        54.000          50.000
 118243127.60347  92137490.68947  22500925.6624   22500928.9724   22500925.2654
        50.000          44.000
 123886114.75747  96534619.41347  23574753.6754   23574759.4474   23574754.2454
        45.000          39.000
 125641688.36647  97902612.05847  23908819.8704   23908820.4434   23908819.8534
        46.000          39.000
 121115415.11747  94375633.11447  23047506.9934   23047510.7694   23047506.8874
        47.000          40.000
 115900188.22347  90311803.16847  22055097.5874   22055103.4414   22055097.6474
        51.000          44.000
 122212787.06647  95230738.02947  23256323.6184   23256326.1634   23256324.0064
        48.000          41.000
 121322831.52547  94537252.74547  23086980.3254   23086985.5944   23086980.3804
        47.000          41.000
 121694984.81547  94827242.59147  23157798.5734   23157802.8984   23157798.6374
        47.000          41.000
 116187430.35547  90535640.20747  22109747.7744   22109751.1374   22109747.9044
        50.000          44.000
 128250672.32447  99935568.28747  24405306.6604   24405311.4994   24405306.0524
        44.000          39.000
 09  1 18  0 22 30.0000000  0 12G 6G21G31G 5G22G 9G24G18G30G29G14G12
 127381107.86247  99257976.81747  24239841.8844   24239847.7214   24239842.2654
        41.000          37.000
 105057813.93147  81863215.51947  19991848.0164   19991850.6974   19991848.3954
        54.000          50.000
 118148347.99647  92063636.50247  22482889.8374   22482893.0914   22482889.3534
        50.000          44.000
 123875074.30947  96526016.51247  23572652.7784   23572658.9614   23572653.1594
        45.000          39.000
 125608203.44647  97876519.94147  23902447.9624   23902448.6654   23902448.1974
        46.000          40.000
 121204100.07447  94444738.31747  23064383.0384   23064386.7824   23064383.0344
        47.000          40.000
 115958541.42447  90357273.18647  22066201.9674   22066207.5414   22066202.1844
        51.000          44.000
 122180583.19447  95205644.12747  23250195.2454   23250197.9054   23250195.5614
        48.000          41.000
 121295713.55647  94516121.88547  23081819.6844   23081825.0894   23081819.5074
        48.000          41.000
 121769110.13147  94885002.56447  23171904.0204   23171908.3204   23171904.2084
        47.000          42.000
 116214331.03347  90556601.79547  22114866.7274   22114870.2374   22114866.8804
        50.000          44.000
 128254225.77547  99938337.26947  24405982.8584   24405987.9034   24405982.7474
        44.000          38.000
 09  1 18  0 23  0.0000000  0 12G 6G21G31G 5G22G 9G24G18G30G29G14G12
 127346012.39947  99230629.68247  24233163.8514   24233169.0854   24233163.2614
        42.000          37.000
 105041175.09947  81850250.19547  19988681.6454   19988684.4344   19988681.9784
        54.000          50.000
 118053797.94947  91989961.19247  22464897.5514   22464900.8234   22464897.0784
        50.000          44.000
 123864147.66147  96517502.29447  23570573.7264   23570579.7584   23570573.7064
        45.000          40.000
 125574494.77147  97850253.48447  23896033.4214   23896034.4664   23896033.4274
        46.000          39.000
 121293135.68547  94514116.77747  23081325.8134   23081329.5834   23081326.0594
        47.000          40.000
 116017317.32547  90403072.56647  22077386.4974   22077392.2024   22077386.5954
        51.000          44.000
 122148240.42447  95180441.98547  23244040.5724   23244043.1994   23244040.8224
        48.000          41.000
 121268558.39947  94494962.02847  23076652.5104   23076657.7234   23076652.4184
        48.000          42.000
 121843156.39447  94942700.92047  23185994.6434   23185999.2404   23185994.7374
        47.000          42.000
 116241501.37847  90577773.52547  22120037.0504   22120040.4994   22120037.3494
        50.000          45.000
 128257883.21947  99941187.29847  24406679.0564   24406683.6934   24406678.9734
        44.000          39.000
 09  1 18  0 23 30.0000000  0 12G 6G21G31G 5G22G 9G24G18G30G29G14G12
 127311211.92947  99203512.36447  24226542.2564   24226547.3164   24226542.2954
        42.000          37.000
 105025129.21447  81837746.90547  19985628.3064   19985630.8874   19985628.6694
        54.000          50.000
 117959482.66447  91916468.81047  22446949.7304   22446953.1704   22446949.5554
        50.000          44.000
 123853339.39547  96509080.30347  23568516.7894   23568523.1844   23568517.3914
        46.000          39.000
 125540565.18247  97823814.86947  23889576.3274   23889577.6674   23889576.2304
        46.000          40.000
 121382522.00047  94583768.49047  23098335.8214   23098339.4824   23098335.8764
        46.000          40.000
 116076517.01147  90449202.17247  22088652.0344   22088657.5164   22088652.0364
        51.000          44.000
 122115762.39647  95155134.45947  23237860.0204   23237862.9234   23237860.6314
        48.000          41.000
 121241370.47747  94473776.65647  23071478.8324   23071483.7354   23071478.6144
        48.000          42.000
 121917123.96647  95000337.94647  23200070.2364   23200074.9574   23200069.7994
        47.000          42.000
 116268941.50247  90599155.46047  22125258.4734   22125262.3764   22125258.6984
        50.000          44.000
 128261648.96947  99944121.71847  24407395.8594   24407400.5264   24407395.5144
        44.000          38.000
 09  1 18  0 24  0.0000000  0 12G 6G21G31G 5G22G 9G24G18G30G29G14G12
 127276702.56347  99176621.92247  24219974.9414   24219980.1594   24219974.6384
        42.000          37.000
 105009674.27047  81825704.09247  19982687.4184   19982689.9144   19982687.7454
        54.000          50.000
 117865401.95047  91843159.21747  22429046.5314   22429050.1784   22429046.1604
        50.000          44.000
 123842648.57647  96500749.83947  23566482.3284   23566488.3964   23566483.1534
        46.000          40.000
 125506411.71647  97797201.80847  23883077.2904   23883078.0934   23883077.1354
        46.000          40.000
 121472253.49347  94653689.19247  23115411.1454   23115414.9034   23115411.0644
        46.000          40.000
 116136135.83747  90495658.39147  22099997.1354   22100002.7044   22099997.3474
        51.000          44.000
 122083147.39847  95129720.18947  23231653.4314   23231656.4564   23231653.7374
        48.000          41.000
 121214148.59447  94452564.81247  23066298.5324   23066303.8854   23066298.5894
        48.000          42.000
 121991007.79847  95057909.73647  23214130.0174   23214134.7864   23214129.8224
        48.000          42.000
 116296645.98347  90620743.39447  22130530.4874   22130534.1544   22130530.8024
        50.000          44.000
 128265521.82847  99947139.59047  24408132.9114   24408137.3804   24408132.5594
        44.000          38.000
 09  1 18  0 24 30.0000000  0 12G 6G21G31G 5G22G 9G24G18G30G29G14G12
 127242486.95047  99149960.36547  24213463.8904   24213468.8064   24213463.9174
        43.000          37.000
 104994814.98447  81814125.42547  19979859.7874   19979862.3964   19979860.2104
        54.000          50.000
 117771562.02047  91770037.24547  22411189.7254   22411193.0084   22411189.1364
        50.000          44.000
 123832080.68447  96492515.17047  23564471.6484   23564477.5184   23564472.3274
        46.000          40.000
 125472038.26747  97770417.33447  23876535.9304   23876536.9554   23876536.0574
        45.000          39.000
 121562330.90547  94723879.41347  23132551.7044   23132556.4594   23132551.6904
        45.000          40.000
 116196175.89447  90542442.83647  22111422.2114   22111427.9394   22111422.4314
        51.000          44.000
 122050400.49547  95104203.12847  23225421.9314   23225424.9884   23225422.2974
        48.000          41.000
 121186898.10247  94431330.69547  23061113.1884   23061118.0494   23061112.9854
        49.000          42.000
 122064809.32247  95115417.38447  23228174.0884   23228178.6694   23228173.6404
        47.000          42.000
 116324615.39347  90642537.76147  22135852.8744   22135856.5614   22135852.9504
        50.000          44.000
 128269506.81047  99950244.84447  24408890.3344   24408895.6614   24408890.1734
        43.000          38.000
 09  1 18  0 25  0.0000000  0 12G 6G21G31G 5G22G 9G24G18G30G29G14G12
 127208562.23547  99123525.45547  24207008.6344   24207013.6794   24207008.5114
        43.000          37.000
 104980550.12947  81803009.94747  19977145.2864   19977147.8194   19977145.7084
        54.000          50.000
 117677963.66447  91697103.53647  22393378.4794   22393381.9724   22393378.7284
        50.000          44.000
 123821635.52747  96484376.13347  23562483.9384   23562489.6884   23562484.4864
        46.000          40.000
 125437442.89047  97743459.92347  23869952.6704   23869953.9874   23869952.9014
        45.000          39.000
 121652749.15347  94794335.24047  23149758.0334   23149762.2494   23149758.2154
        46.000          40.000
 116256633.18047  90589552.39847  22122926.7494   22122932.5294   22122926.9414
        51.000          44.000
 122017520.70847  95078582.52147  23219165.2714   23219167.6834   23219165.5964
        47.000          41.000
 121159618.66947  94410074.00447  23055922.5674   23055926.8804   23055922.0484
        49.000          42.000
 122138524.33147  95172857.62647  23242201.5064   23242206.1854   23242201.4894
        47.000          42.000
 116352844.99947  90664534.88347  22141225.0774   22141228.3484   22141225.3924
        50.000          45.000
 128273603.32247  99953436.98047  24409670.2874   24409675.3474   24409670.2164
        44.000          38.000
 09  1 18  0 25 30.0000000  0 12G 6G21G31G 5G22G 9G24G18G30G29G14G12
 127174927.81147  99097316.76347  24200607.7164   24200612.9274   24200607.9444
        42.000          37.000
 104966880.83747  81792358.54647  19974543.9814   19974546.6744   19974544.3654
        54.000          50.000
 117584609.67347  91624360.22747  22375613.3184   22375617.3474   22375612.9914
        50.000          44.000
 123811315.23347  96476334.37947  23560519.7894   23560525.5864   23560520.5804
        45.000          39.000
 125402625.63147  97716329.59747  23863326.8254   23863328.3624   23863327.0814
        45.000          39.000
 121743505.65547  94865054.62647  23167028.4044   23167032.6204   23167028.3544
        45.000          40.000
 116317506.32047  90636985.99747  22134510.6364   22134516.6114   22134510.7364
        51.000          44.000
 121984509.59347  95052859.58847  23212883.2464   23212885.9444   23212883.2854
        47.000          40.000
 121132312.46547  94388796.44947  23050725.7514   23050730.4194   23050725.5534
        49.000          42.000
 122212150.42747  95230228.58247  23256212.1884   23256216.8504   23256211.7964
        47.000          42.000
 116381332.23147  90686732.74947  22146645.8854   22146649.5014   22146645.9994
        50.000          44.000
 128277813.63347  99956717.78547  24410471.3804   24410476.2624   24410471.4364
        43.000          38.000
 09  1 18  0 26  0.0000000  0 12G 6G21G31G 5G22G 9G24G18G30G29G14G12
 127141584.11947  99071334.61347  24194262.1754   24194267.7554   24194262.4834
        42.000          37.000
 104953809.36847  81782172.97947  19972056.6444   19972059.1574   19972057.0674
        54.000          50.000
 117491504.35447  91551810.69947  22357895.8974   22357899.7854   22357895.5114
        49.000          44.000
 123801123.12047  96468392.50947  23558580.2674   23558586.4224   23558580.6034
        45.000          40.000
 125367588.54047  97689027.97547  23856659.3824   23856660.4514   23856659.0234
        45.000          39.000
 121834599.13747  94936036.59247  23184362.8494   23184366.9654   23184362.9474
        46.000          40.000
 116378794.80847  90684743.25147  22146173.6434   22146179.4434   22146173.8004
        51.000          44.000
 121951369.75647  95027036.35547  23206576.9284   23206579.8434   23206577.4394
        47.000          41.000
 121104982.70747  94367500.55747  23045525.0954   23045529.9894   23045525.0774
        48.000          42.000
 122285687.28247  95287530.00147  23270205.9454   23270210.6594   23270205.8114
        47.000          42.000
 116410075.79847  90709130.36047  22152115.5304   22152119.1184   22152115.8694
        50.000          44.000
 128282140.96747  99960089.78447  24411294.5704   24411300.0814   24411294.4844
        43.000          38.000
 09  1 18  0 26 30.0000000  0 12G 6G21G31G 5G22G 9G24G18G30G29G14G12
 127108529.94047  99045578.05147  24187972.2874   24187978.5874   24187972.1584
        42.000          37.000
 104941336.29447  81772453.69347  19969683.0674   19969685.5574   19969683.4154
        54.000          50.000
 117398650.19847  91479456.87047  22340226.2344   22340230.0244   22340225.6884
        50.000          44.000
 123791060.84947  96460551.83147  23556665.0764   23556671.3684   23556665.6414
        45.000          39.000
 125332331.49047  97661554.97447  23849950.0264   23849951.4124   23849950.1814
        45.000          38.000
 121926026.52447  95007278.75347  23201760.8584   23201764.3924   23201761.2154
        46.000          40.000
 116440496.70647  90732822.64747  22157915.0504   22157920.7104   22157915.3494
        51.000          44.000
 121918102.35247  95001113.71847  23200246.4344   23200249.1944   23200246.9664
        47.000          41.000
 121077630.68747  94346187.31847  23040319.9524   23040325.2804   23040319.5974
        49.000          42.000
 122359132.44447  95344759.96947  23284181.9594   23284186.7574   23284181.8314
        47.000          42.000
 116439072.81647  90731725.45647  22157633.3534   22157636.8114   22157633.5654
        50.000          44.000
 128286586.42047  99963553.82047  24412140.6704   24412146.4414   24412140.7684
        43.000          38.000
 09  1 18  0 27  0.0000000  0 12G 6G21G31G 5G22G 9G24G18G30G29G14G12
 127075764.96647  99020046.86547  24181737.4964   24181743.3234   24181737.4034
        42.000          37.000
 104929463.19047  81763201.91947  19967423.7504   19967426.3554   19967424.1024
        54.000          50.000
 117306050.41747  91407301.25347  22322605.0584   22322608.6814   22322604.8374
        50.000          44.000
 123781130.88647  96452814.23747  23554775.5624   23554781.6974   23554775.8994
        45.000          39.000
 125296855.17447  97633911.11147  23843199.1624   23843201.1174   23843199.7204
        45.000          39.000
 122017785.40247  95078779.22847  23219222.2014   23219225.4474   23219222.1644
        45.000          39.000
 116502611.11247  90781223.48547  22169734.9984   22169740.5874   22169735.0714
        51.000          44.000
 121884709.08447  94975092.99447  23193891.9664   23193894.7244   23193892.6404
        48.000          41.000
 121050258.98647  94324858.74747  23035111.7504   23035116.7364   23035111.2334
        49.000          42.000
 122432484.30947  95401917.24347  23298140.2814   23298145.2534   23298140.1754
        47.000          42.000
 116468321.04947  90754516.30647  22163199.0144   22163202.4904   22163199.2454
        50.000          44.000
 128291152.36747  99967111.73447  24413009.6044   24413014.4384   24413009.4194
        43.000          38.000
 09  1 18  0 27 30.0000000  0 12G 6G21G31G 5G22G 9G24G18G30G29G14G12
 127043287.18847  98994739.45747  24175557.3144   24175562.9624   24175557.0304
        43.000          37.000
 104918189.96847  81754417.58147  19965278.5764   19965281.1564   19965278.9654
        54.000          50.000
 117213706.70747  91335345.16847  22305032.6174   22305036.3594   22305031.8884
        50.000          44.000
 123771334.09247  96445180.41447  23552911.1404   23552917.2804   23552911.7814
        45.000          39.000
 125261158.75647  97606095.71947  23836406.8684   23836407.9884   23836406.7694
        46.000          39.000
 122109872.13647  95150535.15347  23236745.6074   23236749.0824   23236745.7104
        46.000          39.000
 116565135.03947  90829943.41147  22181632.9854   22181638.4994   22181633.1004
        50.000          44.000
 121851190.26047  94948974.43647  23187513.7574   23187516.3954   23187514.0824
        48.000          41.000
 121022868.40747  94303515.46347  23029899.2864   23029904.3544   23029899.1214
        48.000          42.000
 122505739.72047  95458999.36547  23312080.2814   23312085.3134   23312080.2434
        47.000          42.000
 116497816.54447  90777499.82547  22168812.1114   22168815.5074   22168812.0724
        51.000          44.000
 128295839.15347  99970763.80547  24413901.1674   24413906.3834   24413900.8244
        42.000          38.000
 09  1 18  0 28  0.0000000  0 12G 6G21G31G 5G22G 9G24G18G30G29G14G12
 127011097.19847  98969656.30547  24169431.9034   24169437.8674   24169432.9814
        43.000          38.000
 104907518.18347  81746101.89347  19963247.6724   19963250.2834   19963248.0684
        54.000          50.000
 117121623.11447  91263591.78547  22287509.6254   22287513.4904   22287509.6704
        50.000          44.000
 123761673.80747  96437652.94247  23551073.1784   23551078.8484   23551073.7204
        45.000          39.000
 125225243.91147  97578110.13247  23829572.7724   23829573.6754   23829572.7614
        46.000          39.000
 122202284.93047  95222545.16347  23254331.3214   23254334.7874   23254331.5094
        45.000          39.000
 116628068.22147  90878982.24347  22193608.5544   22193614.4714   22193608.8314
        51.000          44.000
 121817548.88047  94922760.37847  23181111.9254   23181114.5134   23181112.4284
        47.000          40.000
 120995462.06647  94282159.90647  23024683.8734   23024689.0044   23024683.7584
        49.000          42.000
 122578898.07747  95516005.84947  23326002.2924   23326007.1484   23326001.8824
        46.000          41.000
 116527558.11447  90800675.08547  22174471.7334   22174475.0464   22174471.9614
        50.000          44.000
 128300649.97947  99974512.53847  24414817.2764   24414821.9884   24414817.1124
        44.000          39.000
 09  1 18  0 28 30.0000000  0 12G 6G21G31G 5G22G 9G24G18G30G29G14G12
 126979193.73647  98944796.43047  24163360.8764   24163366.5374   24163360.9704
        43.000          38.000
 104897448.82247  81738255.63047  19961331.5454   19961334.2244   19961331.9234
        54.000          50.000
 117029801.91147  91192042.85247  22270036.5604   22270040.3214   22270035.6904
        50.000          45.000
 123752151.86047  96430233.27347  23549261.3534   23549266.9624   23549262.1364
        45.000          39.000
 125189110.77847  97549954.45647  23822696.6304   23822698.0464   23822696.8894
        46.000          39.000
 122295020.83247  95294806.94047  23271978.3824   23271981.4424   23271978.5264
        45.000          39.000
 116691408.50547  90928338.30247  22205661.8064   22205667.7024   22205661.8724
        50.000          44.000
 121783786.17347  94896451.78147  23174686.7714   23174689.3094   23174687.2514
        47.000          40.000
 120968041.81047  94260793.49547  23019466.1464   23019471.0084   23019465.6444
        49.000          42.000
 122651957.08147  95572934.91047  23339904.9754   23339909.5444   23339904.9794
        47.000          41.000
 116557542.95547  90824039.91747  22180177.2914   22180180.6784   22180177.2734
        50.000          44.000
 128305586.61447  99978359.30547  24415756.0284   24415761.2564   24415755.9014
        42.000          38.000
 09  1 18  0 29  0.0000000  0 12G 6G21G31G 5G22G 9G24G18G30G29G14G12
 126947575.78847  98920159.00347  24157344.3124   24157350.0644   24157344.5834
        43.000          38.000
 104887982.45547  81730879.23347  19959530.1294   19959532.7994   19959530.5054
        54.000          50.000
 116938246.47547  91120701.01247  22252614.5314   22252617.9234   22252613.9764
        50.000          45.000
 123742769.93847  96422922.70247  23547476.4924   23547481.3164   23547476.6794
        45.000          39.000
 125152759.36647  97521628.68147  23815778.8384   23815780.1564   23815779.2024
        46.000          39.000
 122388076.75347  95367318.09247  23289685.9524   23289689.3964   23289686.2664
        45.000          39.000
 116755153.94247  90978010.06147  22217792.2284   22217798.0574   22217792.4734
        50.000          44.000
 121749903.16247  94870049.43447  23168239.1014   23168241.2434   23168239.3624
        47.000          40.000
 120940609.24647  94239417.50447  23014245.9264   23014250.9904   23014245.8794
        49.000          42.000
 122724914.51947  95629784.84047  23353788.2314   23353792.8814   23353788.5074
        47.000          41.000
 116587767.92247  90847591.84847  22185929.0204   22185932.4334   22185929.1934
        50.000          44.000
 128310650.35647  99982305.10147  24416719.6974   24416724.9724   24416719.1584
        43.000          38.000
 09  1 18  0 29 30.0000000  0 12G 6G21G31G 5G22G 9G24G18G30G29G14G12
 126916243.29947  98895744.03647  24151381.5084   24151387.9044   24151381.2934
        43.000          38.000
 104879120.62147  81723973.90247  19957843.8874   19957846.3394   19957844.2874
        54.000          50.000
 116846959.73747  91049568.54447  22235243.2424   22235246.4564   22235243.2124
        51.000          45.000
 123733530.89247  96415723.46647  23545717.7214   23545723.6084   23545718.0374
        45.000          39.000
 125116191.06247  97493133.89547  23808820.3484   23808821.3284   23808820.7414
        46.000          39.000
 122481451.09247  95440077.36147  23307454.5234   23307458.3694   23307454.6694
        46.000          39.000
 116819303.58047  91027996.77947  22229999.5764   22230005.3074   22229999.6314
        50.000          44.000
 121715901.96147  94843554.98747  23161769.0674   23161771.4434   23161769.6874
        48.000          41.000
 120913167.14247  94218034.06747  23009023.7964   23009028.6544   23009022.7124
        48.000          42.000
 122797769.22547  95686554.70847  23367652.0704   23367656.5314   23367652.0284
        46.000          41.000
 116618231.27647  90871329.54047  22191726.1274   22191729.4164   22191726.3964
        50.000          44.000
 128315843.63647  99986351.81647  24417707.6104   24417712.6104   24417706.9374
        43.000          38.000
 09  1 18  0 30  0.0000000  0 12G 6G21G31G 5G22G 9G24G18G30G29G14G12
 126885195.73347  98871551.06247  24145473.9094   24145479.3964   24145474.0264
        42.000          38.000
 104870864.68547  81717540.69847  19956272.7674   19956275.5514   19956273.1524
        54.000          50.000
 116755945.12847  90978648.11747  22217923.6004   22217926.9424   22217923.3024
        50.000          45.000
 123724437.14447  96408637.44447  23543987.2534   23543993.0134   23543987.7584
        45.000          39.000
 125079406.44147  97464470.55147  23801820.1534   23801821.6644   23801820.1094
        45.000          39.000
 122575141.56647  95513082.98447  23325283.1654   23325286.7834   23325283.4834
        46.000          40.000
 116883856.39847  91078297.66847  22242283.5684   22242289.1704   22242283.8074
        50.000          43.000
 121681784.98547  94816970.33747  23155276.7614   23155279.2314   23155277.4944
        48.000          41.000
 120885717.67947  94196644.90647  23003800.3034   23003805.5064   23003800.4514
        49.000          42.000
 122870520.24947  95743243.81047  23381496.2474   23381500.2454   23381495.9414
        46.000          41.000
 116648930.75547  90895251.22647  22197567.8964   22197571.4254   22197568.1444
        50.000          44.000
 128321168.87447  99990501.36147  24418721.8454   24418726.4504   24418721.2904
        44.000          39.000
 09  1 18  0 30 30.0000000  0 12G 6G21G31G 5G22G 9G24G18G30G29G14G12
 126854432.63547  98847579.78747  24139619.2034   24139625.8524   24139618.9114
        42.000          37.000
 104863215.99147  81711580.66647  19954817.2894   19954819.9484   19954817.7144
        54.000          50.000
 116665205.75047  90907942.15747  22200656.7154   22200659.7594   22200656.1114
        51.000          45.000
 123715491.17747  96401666.56247  23542284.5384   23542290.7284   23542285.5944
        45.000          39.000
 125042406.67547  97435639.56547  23794778.9864   23794780.7544   23794779.0374
        45.000          39.000
 122669145.60947  95586332.93947  23343171.5634   23343175.4304   23343171.8624
        46.000          40.000
 116948810.84547  91128911.50547  22254643.8334   22254649.5954   22254644.2454
        50.000          43.000
 121647554.00147  94790296.85947  23148763.0504   23148765.0724   23148763.4294
        47.000          41.000
 120858263.73947  94175252.23347  22998576.1314   22998581.0274   22998575.7754
        49.000          42.000
 122943165.10347  95799850.16647  23395319.9524   23395323.8144   23395319.7264
        47.000          41.000
 116679864.29647  90919355.29847  22203454.3294   22203458.0244   22203454.6034
        50.000          44.000
 128326628.38447  99994755.53547  24419760.9604   24419764.7424   24419760.1544
        43.000          39.000
 09  1 18  0 31  0.0000000  0 12G 6G21G31G 5G22G 9G24G18G30G29G14G12
 126823951.86247  98823828.48347  24133819.1034   24133824.8274   24133819.4794
        43.000          37.000
 104856173.56047  81706093.04647  19953477.1994   19953479.8164   19953477.5104
        54.000          50.000
 116574743.48247  90837452.12347  22183441.9844   22183445.1574   22183441.6844
        51.000          45.000
 123706693.82347  96394811.48147  23540610.9964   23540616.7724   23540611.4964
        46.000          39.000
 125005190.67147  97406640.08347  23787697.3634   23787698.6064   23787697.6004
        46.000          39.000
 122763459.17147  95659824.07247  23361119.0784   23361122.2314   23361119.3214
        45.000          40.000
 117014164.02847  91179836.06547  22267080.2534   22267086.1664   22267080.3494
        50.000          43.000
 121613209.08147  94763534.58647  23142227.2754   23142229.8424   23142227.4944
        48.000          41.000
 120830806.12947  94153856.71747  22993351.0944   22993356.1574   22993350.7624
        49.000          42.000
 123015701.15647  95856371.73147  23409123.0634   23409127.3914   23409122.8664
        46.000          41.000
 116711027.71747  90943638.49947  22209384.9644   22209388.1464   22209385.0024
        50.000          44.000
 128332222.34847  99999114.48847  24420824.9134   24420829.4864   24420824.0974
        43.000          38.000
 09  1 18  0 31 30.0000000  0 12G 6G21G31G 5G22G 9G24G18G30G29G14G12
 126793751.12047  98800295.39947  24128072.6274   24128078.5974   24128072.4784
        44.000          37.000
 104849736.80047  81701077.37647  19952252.3554   19952254.8834   19952252.7724
        54.000          50.000
 116484559.61047  90767179.02447  22166280.5524   22166283.7354   22166280.1714
        51.000          45.000
 123698045.63747  96388072.64847  23538965.2074   23538971.1624   23538965.7874
        46.000          40.000
 124967757.35747  97377471.27747  23780574.5164   23780575.5384   23780574.6764
        46.000          40.000
 122858077.97547  95733553.06047  23379124.4334   23379127.9794   23379124.4154
        45.000          40.000
 117079912.78947  91231068.85047  22279591.9564   22279597.6534   22279592.1854
        49.000          43.000
 121578750.14747  94736683.48347  23135669.8294   23135672.7304   23135670.5314
        48.000          41.000
 120803345.40347  94132458.77547  22988125.3584   22988130.3044   22988125.1294
        48.000          42.000
 123088125.19247  95912806.03747  23422904.8794   23422908.9444   23422905.0144
        47.000          41.000
 116742417.28447  90968097.90847  22215357.8284   22215361.1594   22215357.9234
        50.000          44.000
 128337951.27247 100003578.60147  24421914.3614   24421920.0584   24421913.9324
        43.000          38.000
 09  1 18  0 32  0.0000000  0 12G 6G21G31G 5G22G 9G24G18G30G29G14G12
 126763833.71047  98776983.09947  24122379.0804   24122385.2034   24122379.3704
        43.000          37.000
 104843911.20347  81696537.94147  19951143.7494   19951146.2144   19951144.2824
        54.000          50.000
 116394661.14647  90697128.31347  22149173.4974   22149176.5844   22149173.0614
        51.000          45.000
 123689552.97347  96381454.99747  23537349.0354   23537355.0374   23537349.6194
        46.000          39.000
 124930111.79247  97348137.07347  23773410.2784   23773412.0714   23773410.4194
        45.000          39.000
 122953003.38547  95807520.94247  23397187.6174   23397191.7364   23397188.0494
        45.000          39.000
 117146059.63247  91282611.83947  22292178.8114   22292185.0344   22292178.9394
        50.000          43.000
 121544183.14647  94709748.16247  23129092.2164   23129094.7364   23129092.7134
        48.000          41.000
 120775887.43047  94111062.97247  22982899.9564   22982905.3594   22982899.3934
        48.000          42.000
 123160439.40647  95969154.75747  23436665.8894   23436670.2244   23436665.8204
        46.000          41.000
 116774034.30447  90992734.55947  22221374.4004   22221377.8904   22221374.4724
        50.000          44.000
 128343821.10747 100008152.49747  24423031.8704   24423037.2154   24423031.0624
        43.000          38.000
 09  1 18  0 32 30.0000000  0 12G 6G21G31G 5G22G 9G24G18G30G29G14G12
 126734196.72047  98753889.28447  24116739.9774   24116745.1034   24116740.0834
        43.000          38.000
 104838694.56447  81692473.01347  19950151.1154   19950153.6384   19950151.5494
        54.000          50.000
 116305049.20847  90627300.87647  22132120.6964   22132123.9724   22132120.4124
        51.000          45.000
 123681215.86947  96374958.55447  23535762.9544   23535767.8064   23535763.7534
        46.000          39.000
 124892252.38847  97318636.23947  23766205.9164   23766207.6564   23766205.8934
        45.000          39.000
 123048230.89947  95881724.24147  23415309.0124   23415312.7264   23415309.4104
        45.000          39.000
 117212600.75547  91334462.06647  22304841.4074   22304847.0854   22304841.5654
        49.000          43.000
 121509508.09747  94682728.64747  23122493.5354   23122496.2494   23122494.0094
        48.000          41.000
 120748432.68547  94089669.69447  22977675.5794   22977680.9624   22977675.4124
        48.000          42.000
 123232640.12347  96025415.03947  23450404.9124   23450409.6914   23450404.7604
        46.000          41.000
 116805874.36447  91017545.00647  22227433.2004   22227436.7404   22227433.1824
        50.000          44.000
 128349831.58547 100012835.96847  24424175.3644   24424180.7864   24424175.4474
        43.000          39.000
 09  1 18  0 33  0.0000000  0 12G 6G21G31G 5G22G 9G24G18G30G29G14G12
 126704838.95247  98731013.07847  24111153.1254   24111158.8704   24111152.7704
        42.000          38.000
 104834087.67747  81688883.21847  19949274.2724   19949277.1224   19949274.6844
        54.000          50.000
 116215726.00747  90557698.42847  22115123.0854   22115126.3334   22115122.4654
        51.000          45.000
 123673036.08347  96368584.70747  23534205.8044   23534211.4554   23534206.5544
        45.000          39.000
 124854179.54147  97288969.10147  23758961.1854   23758962.2544   23758961.0824
        46.000          40.000
 123143757.19747  95956160.36947  23433486.6514   23433490.6094   23433486.7944
        44.000          39.000
 117279534.08347  91386617.89847  22317577.9844   22317584.2824   22317578.0634
        50.000          43.000
 121474726.61847  94655626.19347  23115874.7104   23115877.6444   23115875.3174
        48.000          41.000
 120720982.93747  94068280.29447  22972451.9444   22972457.4524   22972451.8364
        48.000          42.000
 123304725.13947  96081585.16847  23464122.2974   23464127.0674   23464121.9754
        46.000          41.000
 116837934.54547  91042526.98647  22233534.4644   22233537.7864   22233534.7074
        50.000          44.000
 128355984.46247 100017630.40147  24425347.0484   24425351.6804   24425346.4364
        44.000          39.000
 09  1 18  0 33 30.0000000  0 12G 6G21G31G 5G22G 9G24G18G30G29G14G12
 126675759.89947  98708354.02447  24105620.0374   24105625.1594   24105620.4504
        43.000          38.000
 104830091.70047  81685769.46147  19948513.9814   19948516.6944   19948514.4394
        54.000          50.000
 116126694.94347  90488323.61547  22098181.0084   22098184.2014   22098180.4944
        51.000          45.000
 123665016.00447  96362335.32247  23532679.2354   23532685.7944   23532679.8954
        45.000          39.000
 124815893.77047  97259136.05347  23751675.5654   23751676.8444   23751675.9024
        46.000          39.000
 123239580.07847  96030827.59047  23451721.2844   23451725.4454   23451721.3314
        45.000          39.000
 117346858.12547  91439078.18147  22330389.8134   22330395.5414   22330389.9864
        50.000          43.000
 121439839.97647  94628441.80447  23109236.0164   23109238.8564   23109236.5034
        49.000          41.000
 120693540.45747  94046896.56447  22967230.2054   22967235.1694   22967229.7464
        48.000          42.000
 123376693.19847  96137664.16047  23477817.5284   23477822.3644   23477816.6504
        46.000          41.000
 116870212.47347  91067678.62847  22239676.3044   22239680.0384   22239676.5884
        50.000          44.000
 128362281.92047 100022537.48947  24426545.1294   24426550.2494   24426544.7874
        43.000          39.000
 09  1 18  0 34  0.0000000  0 12G 6G21G31G 5G22G 9G24G18G30G29G14G12
 126646957.18247  98685910.31147  24100138.2734   24100144.6014   24100137.7784
        43.000          38.000
 104826705.40447  81683130.77847  19947869.5584   19947872.5214   19947869.8744
        54.000          50.000
 116037957.67247  90419177.73447  22081294.9094   22081297.9784   22081294.6234
        51.000          45.000
 123657156.32347  96356210.89947  23531184.0124   23531190.3294   23531184.6834
        46.000          40.000
 124777394.56947  97229136.69247  23744349.5484   23744350.5514   23744349.5994
        46.000          39.000
 123335695.50047  96105722.77547  23470011.4044   23470015.4194   23470011.5424
        45.000          39.000
 117414569.95147  91491840.63847  22343275.1824   22343280.7474   22343275.1164
        50.000          43.000
 121404848.39447  94601175.62247  23102577.5114   23102580.3964   23102577.9734
        48.000          41.000
 120666105.91247  94025519.02847  22962009.4004   22962014.3134   22962009.1094
        48.000          42.000
 123448540.84647  96193649.31647  23491489.4294   23491494.7984   23491488.8574
        45.000          41.000
 116902704.12047  91092996.81247  22245859.3564   22245863.0354   22245859.7004
        50.000          44.000
 128368724.15747 100027557.39747  24427770.7324   24427776.0854   24427770.3324
        44.000          39.000
 09  1 18  0 34 30.0000000  0 12G 6G21G31G 5G22G 9G24G18G30G29G14G12
 126618433.98547  98663684.39647  24094711.1514   24094716.6784   24094711.3394
        44.000          38.000
 104823933.87847  81680971.13747  19947342.2424   19947345.0364   19947342.6674
        54.000          50.000
 115949521.00447  90350266.08647  22064466.0064   22064468.9614   22064465.3994
        51.000          45.000
 123649463.30647  96350216.34947  23529720.4194   23529726.1104   23529720.9874
        46.000          40.000
 124738686.60847  97198974.66647  23736983.3244   23736985.0004   23736983.4174
        46.000          40.000
 123432104.60547  96180846.82447  23488357.5034   23488361.1154   23488357.3984
        45.000          39.000
 117482671.69847  91544906.91647  22356234.5064   22356240.2474   22356234.7294
        50.000          43.000
 121369758.03047  94573832.47047  23095900.0404   23095902.4434   23095900.5834
        48.000          41.000
 120638685.66847  94004152.64147  22956791.4204   22956796.4484   22956791.0074
        49.000          42.000
 123520270.49547  96249542.53447  23505139.0424   23505144.3924   23505138.7174
        45.000          41.000
 116935411.14347  91118482.82247  22252083.1404   22252087.0394   22252083.4064
        50.000          44.000
 128375317.01647 100032694.67547  24429025.3324   24429030.3004   24429025.0524
        43.000          38.000
 09  1 18  0 35  0.0000000  0 12G 6G21G31G 5G22G 9G24G18G30G29G14G12
 126590184.52547  98641671.80347  24089335.3454   24089341.2214   24089334.9104
        43.000          38.000
 104821772.51947  81679286.94947  19946930.8664   19946933.6984   19946931.2704
        54.000          50.000
 115861382.73747  90281586.95947  22047693.8014   22047696.8434   22047693.4194
        52.000          45.000
 123641933.92747  96344349.31247  23528287.5344   23528292.7254   23528287.7244
        45.000          40.000
 124699765.39447  97168646.45947  23729577.4874   23729578.1994   23729577.5894
        47.000          40.000
 123528799.42847  96256193.48647  23506758.0254   23506762.2884   23506757.7614
        45.000          39.000
 117551156.66947  91598271.81847  22369266.9284   22369272.3354   22369266.9914
        50.000          43.000
 121334565.50647  94546409.71447  23089203.1294   23089205.6484   23089203.5634
        48.000          41.000
 120611276.74047  93982795.06047  22951576.1794   22951580.9014   22951575.7774
        49.000          42.000
 123591875.65747  96305338.75547  23518765.4264   23518770.6094   23518765.2294
        46.000          41.000
 116968325.66947  91144130.52347  22258346.7994   22258350.1924   22258347.0984
        50.000          44.000
 128382057.21947 100037946.73947  24430308.6714   24430312.8464   24430308.2344
        44.000          39.000
 09  1 18  0 35 30.0000000  0 12G 6G21G31G 5G22G 9G24G18G30G29G14G12
 126562212.52547  98619875.39147  24084012.1684   24084018.5454   24084012.5864
        43.000          38.000
 104820226.71247  81678082.41247  19946636.6964   19946639.4484   19946637.1574
        54.000          49.000
 115773550.50747  90213146.30647  22030979.6114   22030982.8104   22030979.3534
        51.000          45.000
 123634575.12547  96338615.19847  23526886.9074   23526892.4574   23526887.6364
        46.000          40.000
 124660636.60047  97138156.52247  23722131.4034   23722132.2144   23722131.6354
        46.000          40.000
 123625782.31847  96331764.63847  23525213.1314   23525216.7714   23525213.1454
        45.000          39.000
 117620028.08547  91651937.83747  22382372.7434   22382378.2854   22382373.0254
        50.000          43.000
 121299277.25847  94518912.35747  23082488.0374   23082490.6344   23082488.1854
        47.000          41.000
 120583886.16847  93961451.78647  22946364.0274   22946368.4444   22946363.8304
        49.000          42.000
 123663359.43847  96361040.39547  23532367.8324   23532373.4704   23532368.0104
        45.000          41.000
 117001450.08347  91169941.77447  22264650.2514   22264653.6444   22264650.5954
        50.000          44.000
 128388951.75947 100043319.10147  24431620.4654   24431625.2594   24431619.9284
        44.000          39.000
 09  1 18  0 36  0.0000000  0 12G 6G21G31G 5G22G 9G24G18G30G29G14G12
 126534512.90747  98598291.23347  24078740.9654   24078747.5934   24078741.1764
        43.000          38.000
 104819292.82847  81677354.70347  19946458.8694   19946461.6534   19946459.2094
        54.000          49.000
 115686023.21647  90144943.26147  22014323.6174   22014326.9674   22014323.3244
        51.000          46.000
 123627384.95547  96333012.48547  23525518.6474   23525524.4934   23525519.2754
        45.000          40.000
 124621296.54447  97107501.95447  23714644.3354   23714646.3024   23714644.7334
        46.000          40.000
 123723046.30947  96407554.81947  23543721.5844   23543725.1764   23543722.0614
        45.000          39.000
 117689279.59147  91705900.03347  22395550.6344   22395556.1894   22395550.8324
        49.000          43.000
 121263891.05747  94491338.68947  23075754.2504   23075756.9264   23075754.6164
        48.000          41.000
 120556512.08647  93940121.36047  22941154.8484   22941159.1424   22941154.3094
        49.000          42.000
 123734716.09747  96416642.98147  23545946.4194   23545952.1114   23545946.2204
        45.000          40.000
 117034777.53947  91195911.24247  22270991.8954   22270995.3534   22270992.2064
        50.000          44.000
 128395998.16647 100048809.77947  24432961.4074   24432965.3044   24432961.3664
        44.000          38.000
 09  1 18  0 36 30.0000000  0 12G 6G21G31G 5G22G 9G24G18G30G29G14G12
 126507086.47147  98576919.93647  24073522.6874   24073528.4994   24073522.8124
        43.000          38.000
 104818972.77547  81677105.29847  19946398.1004   19946400.7214   19946398.5194
        54.000          50.000
 115598805.25747  90076981.25447  21997726.6814   21997730.1724   21997725.8404
        51.000          46.000
 123620367.17947  96327544.11347  23524183.6604   23524189.2894   23524183.9084
        45.000          40.000
 124581747.51147  97076684.55247  23707118.8734   23707120.0964   23707119.0574
        47.000          40.000
 123820590.18447  96483563.08347  23562283.8214   23562287.6584   23562283.7434
        44.000          39.000
 117758911.26447  91760158.47047  22408800.6564   22408806.7634   22408800.8764
        49.000          43.000
 121228410.15947  94463691.21747  23069001.8954   23069004.7884   23069002.4444
        47.000          41.000
 120529158.57247  93918806.97047  22935949.0494   22935953.9544   22935948.8764
        49.000          42.000
 123805945.04547  96472146.03547  23559501.2064   23559506.7584   23559500.7724
        46.000          41.000
 117068307.20747  91222038.27547  22277372.6084   22277375.9874   22277373.1184
        50.000          44.000
 128403200.03247 100054421.62747  24434331.7084   24434336.1604   24434331.5494
        44.000          39.000
 09  1 18  0 37  0.0000000  0 12G 6G21G31G 5G22G 9G24G18G30G29G14G12
 126479933.20347  98555761.51747  24068355.0264   24068361.7484   24068355.1584
        43.000          38.000
 104819268.08147  81677335.39247  19946454.3984   19946457.0144   19946454.7084
        54.000          50.000
 115511900.48947  90009263.30447  21981189.1714   21981192.7534   21981188.7244
        51.000          46.000
 123613524.59147  96322212.25347  23522881.2204   23522886.9964   23522881.4764
        45.000          40.000
 124541990.92847  97045705.40947  23699553.6094   23699554.8594   23699553.8434
        47.000          40.000
 123918411.89447  96559787.84447  23580898.1024   23580902.1164   23580898.7274
        44.000          38.000
 117828922.13747  91814712.38547  22422123.3624   22422129.2594   22422123.6724
        49.000          43.000
 121192837.27847  94435972.08647  23062232.7574   23062235.3494   23062233.1524
        47.000          41.000
 120501828.33547  93897510.70547  22930748.5544   22930753.2164   22930748.0084
        49.000          42.000
 123877045.67647  96527549.11147  23573031.6494   23573036.3194   23573031.3194
        46.000          41.000
 117102037.24447  91248321.43347  22283791.1744   22283794.6604   22283791.4744
        50.000          44.000
 128410559.81747 100060156.53147  24435732.5844   24435737.3694   24435732.0554
        45.000          39.000
 09  1 18  0 37 30.0000000  0 12G 6G21G31G 5G22G 9G24G18G30G29G14G12
 126453050.87247  98534814.20247  24063239.4604   24063245.8164   24063239.6464
        43.000          38.000
 104820178.36347  81678044.68947  19946627.6464   19946630.3254   19946628.0614
        54.000          50.000
 115425310.79347  89941790.86047  21964711.6354   21964715.0864   21964711.2594
        51.000          46.000
 123606858.32447  96317017.78247  23521612.9074   23521618.5694   23521613.4254
        45.000          40.000
 124502026.96447  97014564.68047  23691948.7884   23691950.1394   23691948.6794
        47.000          40.000
 124016508.19947  96636226.57447  23599565.4174   23599568.8374   23599565.2664
        44.000          38.000
 117899309.15047  91869559.39647  22435517.6234   22435523.8444   22435517.9874
        49.000          43.000
 121157173.21547  94408181.88347  23055446.4484   23055448.9164   23055446.8484
        47.000          41.000
 120474522.79247  93876233.69047  22925552.2714   22925557.1064   22925552.4024
        49.000          42.000
 123948015.66347  96582850.39247  23586536.8834   23586541.6284   23586536.4624
        46.000          41.000
 117135964.25047  91274758.08747  22290247.4404   22290250.6194   22290247.8264
        50.000          44.000
 128418078.34047 100066015.13147  24437162.8344   24437167.9844   24437162.6124
        43.000          39.000
 09  1 18  0 38  0.0000000  0 12G 6G21G31G 5G22G 9G24G18G30G29G14G12
 126426440.05347  98514078.45347  24058175.8464   24058181.7624   24058175.7944
        43.000          38.000
 104821705.48947  81679234.64447  19946918.3114   19946920.9384   19946918.7074
        54.000          50.000
 115339040.66147  89874567.42447  21948295.2374   21948298.1904   21948294.8174
        52.000          46.000
 123600371.94047  96311963.46847  23520378.3614   23520384.3334   23520378.7954
        45.000          40.000
 124461857.62147  96983263.89847  23684305.0204   23684306.0484   23684304.8444
        47.000          40.000
 124114877.39347  96712877.94247  23618284.6334   23618288.1674   23618284.4514
        44.000          39.000
 117970071.98847  91924699.25447  22448983.4544   22448989.5204   22448983.4554
        49.000          43.000
 121121420.96647  94380322.96447  23048642.6894   23048645.7334   23048643.1184
        47.000          41.000
 120447245.37747  93854978.59747  22920361.3694   22920366.7444   22920360.8754
        49.000          42.000
 124018855.17747  96638049.99447  23600017.1834   23600022.0524   23600016.9094
        46.000          41.000
 117170087.16647  91301347.39347  22296740.2704   22296744.1104   22296740.4764
        49.000          44.000
 128425758.89047 100072000.00047  24438624.0404   24438629.2084   24438623.1274
        43.000          39.000
 09  1 18  0 38 30.0000000  0 12G 6G21G31G 5G22G 9G24G18G30G29G14G12
 126400097.64647  98493551.85247  24053162.8774   24053169.0744   24053163.2144
        44.000          38.000
 104823847.37347  81680903.63647  19947325.8034   19947328.4454   19947326.2264
        54.000          50.000
 115253090.32347  89807593.17947  21931939.5494   21931942.4204   21931939.4014
        52.000          46.000
 123594065.30347  96307049.23047  23519178.2254   23519183.6384   23519178.7264
        45.000          40.000
 124421481.65847  96951802.12747  23676621.8604   23676622.3434   23676622.0024
        47.000          40.000
 124213514.38447  96789737.98247  23637054.6484   23637058.2374   23637054.7424
        44.000          39.000
 118041206.53947  91980128.76047  22462520.0264   22462525.8924   22462520.0414
        49.000          43.000
 121085580.32747  94352395.18447  23041822.5594   23041825.5604   23041823.2324
        47.000          41.000
 120419995.91747  93833745.28647  22915175.6864   22915180.8754   22915175.6344
        48.000          42.000
 124089559.65747  96693144.39047  23613471.8654   23613476.4964   23613471.4674
        46.000          40.000
 117204401.01547  91328085.48747  22303270.4344   22303273.6734   22303270.5204
        50.000          44.000
 128433601.24247 100078110.95847  24440116.2384   24440121.6354   24440115.8764
        43.000          39.000
 09  1 18  0 39  0.0000000  0 12G 6G21G31G 5G22G 9G24G18G30G29G14G12
 126374024.03447  98473234.71247  24048201.6674   24048207.5284   24048202.0234
        43.000          38.000
 104826605.86047  81683053.09747  19947850.7424   19947853.4144   19947851.1614
        54.000          50.000
 115167464.41047  89740871.72747  21915645.5904   21915648.4284   21915644.9554
        51.000          46.000
 123587941.97147  96302277.81547  23518012.7904   23518018.6864   23518013.4684
        45.000          40.000
 124380900.50547  96920180.47647  23668898.8034   23668899.7674   23668898.8414
        47.000          40.000
 124312418.14547  96866805.89847  23655875.4144   23655878.6214   23655875.4984
        45.000          39.000
 118112712.52847  92035847.69947  22476126.7924   22476133.0234   22476126.9134
        49.000          43.000
 121049654.61047  94324401.11047  23034986.5494   23034989.2784   23034986.9924
        48.000          41.000
 120392778.33847  93812536.81647  22909996.4124   22910001.1734   22909996.1384
        49.000          42.000
 124160129.01547  96748133.50547  23626900.7854   23626905.1844   23626900.4604
        46.000          40.000
 117238904.50447  91354971.33447  22309835.6144   22309839.3574   22309836.0874
        49.000          44.000
 128441608.83147 100084350.66647  24441640.6294   24441645.2424   24441640.5464
        45.000          39.000
 09  1 18  0 39 30.0000000  0 12G 6G21G31G 5G22G 9G24G18G30G29G14G12
 126348218.11047  98453126.15747  24043290.7784   24043297.0924   24043290.9404
        44.000          38.000
 104829981.57247  81685683.50947  19948493.1464   19948495.8284   19948493.5374
        54.000          50.000
 115082165.51647  89674405.10947  21899413.5284   21899416.5694   21899413.3894
        52.000          46.000
 123582003.96847  96297650.82947  23516882.5744   23516888.6214   23516883.2084
        45.000          40.000
 124340115.38647  96888399.90347  23661137.7134   23661139.0284   23661137.7634
        47.000          40.000
 124411585.62247  96944079.31347  23674746.1344   23674749.2334   23674746.1944
        44.000          39.000
 118184587.91647  92091854.48047  22489804.4984   22489810.8004   22489804.6954
        49.000          43.000
 121013645.53747  94296342.07147  23028134.1754   23028136.9004   23028134.4494
        47.000          41.000
 120365594.53947  93791354.66947  22904823.8704   22904828.8404   22904823.5244
        49.000          42.000
 124230561.74647  96803016.15747  23640303.5124   23640307.9794   23640303.3994
        46.000          40.000
 117273595.14847  91382003.03347  22316437.1094   22316440.9554   22316437.3224
        49.000          44.000
 128449782.66947 100090719.92947  24443195.7404   24443200.6734   24443195.6474
        45.000          39.000
 09  1 18  0 40  0.0000000  0 12G 6G21G31G 5G22G 9G24G18G30G29G14G12
 126322678.86947  98433225.40447  24038430.8364   24038436.7994   24038430.9024
        42.000          38.000
 104833974.07447  81688794.53747  19949252.9664   19949255.5694   19949253.3534
        54.000          50.000
 114997196.45347  89608195.49547  21883244.3564   21883247.4294   21883244.1204
        52.000          46.000
 123576253.20247  96293169.73047  23515788.5344   23515794.6264   23515788.9844
        46.000          40.000
 124299126.95447  96856460.87947  23653338.1604   23653339.0204   23653338.1554
        46.000          40.000
 124511014.18947  97021556.18147  23693666.6644   23693670.2644   23693666.5764
        44.000          38.000
 118256830.75347  92148147.59247  22503551.7514   22503558.2914   22503551.8534
        48.000          43.000
 120977554.59447  94268219.23547  23021266.0734   23021269.0654   23021266.6154
        47.000          41.000
 120338446.61347  93770200.49147  22899657.7724   22899662.5424   22899657.0824
        49.000          42.000
 124300856.34347  96857791.16347  23653680.1124   23653685.1704   23653679.9094
        45.000          40.000
 117308470.19547  91409178.41347  22323073.8424   22323077.5204   22323073.9264
        50.000          44.000
 128458124.73447 100097220.26847  24444783.6214   24444788.3264   24444783.4034
        44.000          39.000
 09  1 18  0 40 30.0000000  0 12G 6G21G31G 5G22G 9G24G18G30G29G14G12
 126297403.95147  98413530.61947  24033621.2454   24033627.7624   24033621.1804
        42.000          38.000
 104838582.75747  81692385.70847  19950130.0164   19950132.4474   19950130.4604
        54.000          50.000
 114912559.09447  89542244.34347  21867138.3404   21867141.4094   21867137.6144
        52.000          46.000
 123570690.66847  96288835.30547  23514730.5894   23514735.9044   23514731.0454
        46.000          40.000
 124257934.93647  96824363.22047  23645499.3324   23645500.3274   23645499.4174
        47.000          40.000
 124610699.55647  97099233.14647  23712636.1934   23712639.8474   23712636.1894
        44.000          38.000
 118329437.87547  92204724.54647  22517368.4404   22517374.8444   22517368.4994
        49.000          43.000
 120941382.90147  94240033.46647  23014382.9674   23014385.9384   23014383.1974
        48.000          41.000
 120311335.85447  93749075.25847  22894498.6344   22894503.3424   22894498.1524
        49.000          42.000
 124371010.12447  96912456.42347  23667029.6274   23667035.0714   23667029.0054
        44.000          40.000
 117343526.14647  91436494.75747  22329744.8514   22329748.2204   22329745.1314
        49.000          44.000
 128466635.61847 100103852.16547  24446402.8044   24446407.5414   24446402.5894
        45.000          39.000
 09  1 18  0 41  0.0000000  0 12G 6G21G31G 5G22G 9G24G18G30G29G14G12
 126272393.71947  98394042.07647  24028862.0344   24028868.2534   24028862.2524
        43.000          38.000
 104843808.99547  81696458.09047  19951124.4714   19951127.1504   19951124.8444
        54.000          50.000
 114828257.29147  89476554.67047  21851096.0564   21851099.3814   21851095.7724
        51.000          46.000
 123565319.66647  96284650.11547  23513708.7084   23513713.9654   23513709.2204
        46.000          40.000
 124216541.19147  96792108.37247  23637622.9624   23637623.1404   23637622.9864
        47.000          40.000
 124710640.16047  97177108.98347  23731653.9764   23731657.6804   23731653.9054
        44.000          38.000
 118402408.80147  92261584.98947  22531254.4804   22531260.7904   22531254.7724
        48.000          42.000
 120905133.20547  94211786.92947  23007485.0084   23007487.6784   23007485.3004
        48.000          41.000
 120284266.13747  93727982.01847  22889347.6754   22889352.0724   22889347.1814
        49.000          42.000
 124441022.63447  96967011.60147  23680352.5984   23680358.0384   23680351.8544
        45.000          40.000
 117378761.31747  91463950.75447  22336449.8344   22336453.3014   22336450.0004
        49.000          44.000
 128475318.61047 100110618.19747  24448055.4714   24448059.9834   24448055.0734
        44.000          39.000
 09  1 18  0 41 30.0000000  0 12G 6G21G31G 5G22G 9G24G18G30G29G14G12
 126247647.31547  98374759.11647  24024153.1514   24024159.1554   24024153.1024
        44.000          38.000
 104849653.49347  81701012.23147  19952236.6334   19952239.4244   19952236.9984
        54.000          50.000
 114744294.30947  89411129.01847  21835118.2064   21835121.9404   21835117.6634
        52.000          46.000
 123560142.62747  96280616.08047  23512723.2164   23512728.4544   23512723.7394
        46.000          40.000
 124174946.95647  96759697.29747  23629707.7204   23629708.4114   23629707.7064
        47.000          40.000
 124810833.82147  97255182.01947  23750720.0104   23750723.9144   23750720.0534
        44.000          38.000
 118475741.88147  92318727.62647  22545209.4294   22545215.5304   22545209.2634
        49.000          42.000
 120868808.03647  94183481.55947  23000572.7414   23000574.8794   23000572.7924
        48.000          41.000
 120257239.83747  93706922.60447  22884204.8474   22884208.9464   22884204.3984
        49.000          42.000
 124510892.49947  97021455.64447  23693648.5264   23693653.7874   23693648.0394
        44.000          40.000
 117414173.46947  91491544.66547  22343188.4974   22343191.9214   22343188.7954
        49.000          44.000
 128484175.69547 100117519.86947  24449740.8334   24449745.1644   24449740.7514
        45.000          39.000
 09  1 18  0 42  0.0000000  0 12G 6G21G31G 5G22G 9G24G18G30G29G14G12
 126223162.15047  98355679.72847  24019493.8234   24019500.1594   24019494.1074
        44.000          38.000
 104856114.66547  81706046.89647  19953466.2264   19953468.8364   19953466.7034
        54.000          50.000
 114660671.50547  89345968.44047  21819205.2344   21819208.9364   21819204.6034
        52.000          46.000
 123555160.01847  96276733.55847  23511774.9854   23511780.1194   23511775.8394
        46.000          40.000
 124133151.53047  96727129.45247  23621753.8854   23621755.1434   23621753.7984
        46.000          40.000
 124911276.07047  97333448.76147  23769833.4124   23769837.8174   23769833.5054
        44.000          38.000
 118549433.56247  92376149.68847  22559232.7964   22559238.3074   22559233.1004
        48.000          42.000
 120832407.48947  94155117.46547  22993646.0144   22993648.2644   22993646.3694
        48.000          41.000
 120230257.44647  93685897.39447  22879069.7534   22879074.6264   22879069.4064
        49.000          42.000
 124580616.72447  97075786.19347  23706916.4064   23706922.0824   23706915.9904
        44.000          40.000
 117449758.48847  91519273.26247  22349960.1614   22349963.4294   22349960.2884
        50.000          44.000
 128493207.02647 100124557.32047  24451458.6684   24451463.6574   24451458.3764
        43.000          39.000
 09  1 18  0 42 30.0000000  0 12G 6G21G31G 5G22G 9G24G18G30G29G14G12
 126198939.00147  98336804.51047  24014884.0234   24014890.0844   24014884.2084
        43.000          38.000
 104863194.73947  81711563.82847  19954813.5364   19954816.0594   19954813.9764
        54.000          49.000
 114577393.28547  89281076.36247  21803358.0664   21803361.4744   21803357.7234
        52.000          46.000
 123550375.74147  96273005.56747  23510864.4074   23510869.5324   23510864.9854
        46.000          40.000
 124091157.49547  96694406.84147  23613762.5894   23613763.9814   23613762.4454
        46.000          40.000
 125011966.03847  97411908.53247  23788994.5174   23788998.1944   23788994.4184
        44.000          38.000
 118623483.80147  92433851.15747  22573323.9414   22573329.6284   22573324.0354
        49.000          42.000
 120795935.38347  94126697.60947  22986705.5804   22986708.0004   22986705.9784
        48.000          41.000
 120203323.14647  93664909.66447  22873944.3124   22873949.2114   22873943.9234
        49.000          42.000
 124650195.93847  97130003.75347  23720156.7664   23720162.5274   23720156.7274
        44.000          40.000
 117485515.77547  91547136.10747  22356764.7444   22356767.9234   22356764.9314
        49.000          43.000
 128502416.46747 100131733.56947  24453210.9394   24453216.0924   24453210.8694
        43.000          39.000
 09  1 18  0 43  0.0000000  0 12G 6G21G31G 5G22G 9G24G18G30G29G14G12
 126174975.55147  98318131.63147  24010323.9914   24010330.3084   24010324.1024
        44.000          38.000
 104870892.57547  81717562.12647  19956278.4024   19956280.8934   19956278.7644
        54.000          49.000
 114494461.41547  89216454.16947  21787576.8454   21787579.9604   21787576.4174
        52.000          46.000
 123545790.62047  96269432.76347  23509992.0804   23509997.0944   23509992.4294
        46.000          40.000
 124048964.27347  96661529.03847  23605733.8094   23605735.0264   23605733.8034
        47.000          40.000
 125112899.40147  97490557.96547  23808201.5204   23808205.1004   23808201.5234
        45.000          37.000
 118697889.18447  92491829.35847  22587482.4684   22587488.4204   22587482.7494
        48.000          42.000
 120759392.48947  94098222.60647  22979751.3704   22979753.9434   22979751.7594
        48.000          42.000
 120176437.78647  93643960.05747  22868828.0434   22868833.1014   22868828.0204
        48.000          42.000
 124719627.01547  97184105.87647  23733369.8944   23733374.6194   23733369.3024
        45.000          40.000
 117521440.88347  91575129.71347  22363600.7164   22363604.3554   22363601.2194
        49.000          44.000
 128511804.00447 100139048.57647  24454997.7664   24455002.8914   24454996.9964
        44.000          39.000
 09  1 18  0 43 30.0000000  0 12G 6G21G31G 5G22G 9G24G18G30G29G14G12
 126151271.19747  98299660.64947  24005813.9514   24005819.8014   24005813.5904
        44.000          38.000
 104879208.79247  81724042.28247  19957860.8114   19957863.4734   19957861.2434
        54.000          49.000
 114411879.22547  89152104.46647  21771861.7154   21771864.8934   21771861.5574
        52.000          46.000
 123541407.21247  96266017.14547  23509157.5334   23509163.4504   23509157.9504
        45.000          39.000
 124006573.91647  96628497.63147  23597667.0424   23597668.1184   23597667.1014
        47.000          40.000
 125214073.94147  97569395.32747  23827454.4364   23827457.8554   23827454.3714
        44.000          37.000
 118772648.37347  92550083.24247  22601709.0704   22601714.7704   22601709.3034
        48.000          42.000
 120722781.05647  94069694.20647  22972784.7784   22972787.4704   22972784.9644
        48.000          42.000
 120149604.26247  93623050.83847  22863721.9674   22863726.5884   22863721.6804
        49.000          42.000
 124788909.09247  97238091.88647  23746553.6294   23746558.8224   23746553.1444
        45.000          40.000
 117557532.61847  91603253.15847  22370468.7364   22370472.2214   22370468.8644
        49.000          43.000
 128521372.19547 100146504.34047  24456818.7694   24456823.2184   24456818.6504
        45.000          39.000
 09  1 18  0 44  0.0000000  0 12G 6G21G31G 5G22G 9G24G18G30G29G14G12
 126127825.33847  98281391.10447  24001352.2574   24001358.1964   24001351.8504
        44.000          38.000
 104888143.77547  81731004.59547  19959561.1314   19959563.9334   19959561.5364
        54.000          49.000
 114329649.69547  89088029.55447  21756214.0664   21756217.0024   21756213.7024
        52.000          46.000
 123537227.91947  96262760.56747  23508361.9624   23508368.2884   23508362.3824
        45.000          39.000
 123963986.83047  96595312.93347  23589562.6994   23589563.5864   23589562.6324
        46.000          40.000
 125315487.66647  97648419.08447  23846753.1134   23846756.0274   23846752.5394
        44.000          37.000
 118847759.86447  92608611.65347  22616002.1474   22616008.0044   22616002.2054
        48.000          42.000
 120686103.24847  94041114.08947  22965805.0314   22965807.9324   22965805.4814
        49.000          42.000
 120122825.27447  93602184.11247  22858626.0834   22858630.5974   22858625.7624
        48.000          42.000
 124858041.23247  97291961.06347  23759708.9504   23759713.9064   23759708.5614
        45.000          40.000
 117593788.34347  91631504.38947  22377367.9044   22377371.5594   22377368.0294
        49.000          44.000
 128531123.03447 100154102.43747  24458673.9264   24458679.1244   24458673.7164
        44.000          39.000
 09  1 18  0 44 30.0000000  0 12G 6G21G31G 5G22G 9G24G18G30G29G14G12
 126104636.10747  98263321.51847  23996939.7504   23996945.1404   23996939.5154
        44.000          38.000
 104897696.82747  81738448.51847  19961379.0114   19961381.8044   19961379.4674
        54.000          49.000
 114247775.16447  89024231.25447  21740633.9574   21740636.6384   21740633.4954
        52.000          46.000
 123533254.20347  96259664.16847  23507606.2084   23507611.6094   23507606.4504
        45.000          40.000
 123921203.78247  96561975.49347  23581421.4504   23581422.5034   23581421.4804
        47.000          40.000
 125417136.46447  97727626.01647  23866095.6694   23866098.9484   23866095.6344
        44.000          37.000
 118923220.86447  92667412.40447  22630361.8434   22630367.8584   22630362.2164
        49.000          42.000
 120649360.56247  94012483.41947  22958813.2214   22958815.8444   22958813.5764
        49.000          42.000
 120096102.43247  93581361.14947  22853541.0804   22853545.2594   22853540.5564
        49.000          42.000
 124927021.37247  97345711.81547  23772835.3184   23772840.1874   23772835.1324
        45.000          40.000
 117630204.79547  91659880.86847  22384297.7404   22384301.0584   22384297.8974
        49.000          43.000
 128541057.80547 100161843.83247  24460564.7214   24460568.9754   24460564.5144
        45.000          39.000
 09  1 18  0 45  0.0000000  0 12G 6G21G31G 5G22G 9G24G18G30G29G14G12
 126081701.91647  98245450.67747  23992575.1844   23992580.6624   23992575.3254
        43.000          38.000
 104907867.63147  81746373.80347  19963314.4324   19963317.2064   19963314.8614
        54.000          49.000
 114166258.16047  88960711.55947  21725121.4524   21725124.4324   21725121.5694
        52.000          46.000
 123529487.80047  96256729.32347  23506889.1114   23506894.9144   23506889.5334
        45.000          40.000
 123878225.35047  96528485.81447  23573242.9324   23573244.1624   23573242.9844
        47.000          40.000
 125519017.27847  97807013.73447  23885483.1144   23885486.2814   23885482.8414
        43.000          37.000
 118999029.09347  92726483.73047  22644787.7594   22644793.6114   22644788.1354
        48.000          42.000
 120612554.83247  93983803.62647  22951809.4934   22951811.9384   22951809.8584
        49.000          42.000
 120069437.86747  93560583.56947  22848466.7204   22848471.5764   22848466.7174
        49.000          42.000
 124995847.63747  97399342.65447  23785932.8824   23785937.3254   23785932.5794
        46.000          40.000
 117666779.22147  91688380.43847  22391257.8114   22391260.8784   22391257.8114
        49.000          43.000
 128551177.99147 100169729.72047  24462490.7004   24462495.2054   24462490.7874
        44.000          39.000
 09  1 18  0 45 30.0000000  0 12G 6G21G31G 5G22G 9G24G18G30G29G14G12
 126059022.09347  98227778.05447  23988259.1484   23988265.3724   23988258.9984
        43.000          38.000
 104918656.36647  81754780.59447  19965367.5274   19965370.2144   19965367.9574
        54.000          49.000
 114085101.75747  88897472.84647  21709677.7844   21709680.8634   21709677.2824
        52.000          46.000
 123525930.90647  96253957.72147  23506212.6454   23506218.2034   23506213.0144
        46.000          40.000
 123835052.57147  96494844.70847  23565027.2934   23565028.6114   23565027.4364
        47.000          40.000
 125621127.73947  97886580.38647  23904913.6324   23904917.2154   23904913.6504
        43.000          37.000
 119075182.84747  92785824.30547  22659279.2024   22659285.3564   22659279.3994
        48.000          42.000
 120575687.97947  93955076.20047  22944793.6484   22944796.2864   22944794.1114
        49.000          42.000
 120042833.87747  93539853.20447  22843404.8184   22843408.8294   22843404.4434
        49.000          42.000
 125064518.99147  97452852.79747  23799000.0934   23799004.6354   23798999.9764
        45.000          40.000
 117703509.04947  91717001.09847  22398247.1884   22398250.7234   22398247.5754
        50.000          44.000
 128561485.49747 100177761.57747  24464451.6584   24464456.1724   24464451.6274
        44.000          39.000
 09  1 18  0 46  0.0000000  0 12G 6G21G31G 5G22G 9G24G18G30G29G14G12
 126036594.16847  98210301.70247  23983991.2624   23983997.1844   23983991.6214
        44.000          37.000
 104930061.71247  81763667.86447  19967537.9134   19967540.5664   19967538.3354
        54.000          49.000
 114004307.16547  88834516.06247  21694303.2884   21694306.2404   21694302.9134
        52.000          47.000
 123522584.28347  96251349.98347  23505575.6994   23505581.3774   23505576.1254
        46.000          40.000
 123791685.21947  96461051.98047  23556775.1324   23556775.9034   23556775.1714
        47.000          40.000
 125723463.88247  97966322.89647  23924387.9874   23924390.8784   23924387.8774
        42.000          37.000
 119151678.79447  92845431.51247  22673835.7584   22673842.2624   22673836.0584
        48.000          42.000
 120538760.82747  93926301.78947  22937766.7934   22937769.5244   22937767.2964
        49.000          42.000
 120016291.53147  93519170.86047  22838353.2734   22838357.6964   22838353.1914
        49.000          42.000
 125133032.62547  97506240.05647  23812037.9154   23812042.6984   23812037.8634
        45.000          40.000
 117740390.73647  91745740.09347  22405265.4814   22405269.0344   22405266.0614
        49.000          43.000
 128571980.53747 100185939.57047  24466449.2814   24466453.8574   24466449.4914
        44.000          39.000
 09  1 18  0 46 30.0000000  0 12G 6G21G31G 5G22G 9G24G18G30G29G14G12
 126014419.97047  98193023.08447  23979771.4454   23979777.6834   23979771.6974
        43.000          37.000
 104942086.54147  81773037.84647  19969826.2244   19969828.6684   19969826.7254
        54.000          49.000
 113923880.20847  88771845.73847  21678998.5874   21679001.4934   21678998.1804
        52.000          47.000
 123519452.98747  96248910.03347  23504979.8294   23504985.5794   23504980.4064
        46.000          40.000
 123748126.69147  96427110.27747  23548485.8954   23548487.0074   23548485.7974
        47.000          40.000
 125826025.83847  98046241.34447  23943904.6254   23943907.8864   23943904.7744
        42.000          37.000
 119228517.73847  92905305.99847  22688457.4934   22688463.7574   22688458.0614
        48.000          42.000
 120501778.29647  93897484.21547  22930729.3154   22930732.0274   22930729.6304
        48.000          42.000
 119989816.07847  93498540.65147  22833315.7274   22833319.7204   22833315.4284
        49.000          42.000
 125201390.14247  97559505.65147  23825045.9834   23825051.1214   23825045.8244
        45.000          40.000
 117777424.38247  91774597.48747  22412312.6704   22412315.9604   22412312.9124
        49.000          43.000
 128582668.09347 100194267.55847  24468482.9324   24468487.6414   24468482.6124
        43.000          38.000
 09  1 18  0 47  0.0000000  0 12G 6G21G31G 5G22G 9G24G18G30G29G14G12
 125992497.81847  98175940.85947  23975599.8804   23975605.7034   23975599.9574
        42.000          37.000
 104954730.36847  81782890.15947  19972232.2684   19972234.9654   19972232.6394
        54.000          49.000
 113843823.32847  88709463.78947  21663764.2294   21663767.3274   21663763.7894
        52.000          47.000
 123516538.69547  96246639.17547  23504424.8554   23504430.7584   23504425.5624
        46.000          40.000
 123704378.39847  96393020.70647  23540160.9114   23540162.1424   23540161.0984
        47.000          40.000
 125928810.21847  98126333.12847  23963463.3014   23963467.2254   23963463.5754
        42.000          37.000
 119305697.35047  92965445.93547  22703144.7294   22703150.7984   22703144.6744
        48.000          42.000
 120464742.48047  93868625.11347  22923681.4144   22923684.3794   22923681.7994
        48.000          42.000
 119963409.25547  93477963.90647  22828290.3154   22828294.8584   22828289.9834
        49.000          42.000
 125269589.59847  97612648.08547  23838024.2294   23838028.9034   23838024.1944
        45.000          40.000
 117814607.22047  91803571.13547  22419388.4784   22419392.1184   22419388.6764
        49.000          44.000
 128593549.35447 100202746.49847  24470552.8514   24470558.2004   24470552.3054
        44.000          39.000
 09  1 18  0 47 30.0000000  0 12G 6G21G31G 5G22G 9G24G18G30G29G14G12
 125970824.67047  98159052.66347  23971475.9944   23971482.0944   23971476.1054
        43.000          38.000
 104967990.94147  81793223.05947  19974755.6184   19974758.1704   19974755.8924
        54.000          49.000
 113764137.33447  88647370.84847  21648600.3114   21648603.6454   21648600.0984
        52.000          47.000
 123513841.29447  96244537.31047  23503911.6634   23503917.6274   23503912.3004
        46.000          40.000
 123660439.01647  96358782.23047  23531799.5944   23531800.7684   23531799.6564
        47.000          40.000
 126031812.11547  98206594.39247  23983063.7604   23983067.9994   23983063.7714
        41.000          37.000
 119383213.61047  93025848.19947  22717895.9834   22717901.4614   22717896.4254
        48.000          42.000
 120427652.73247  93839724.00047  22916623.5934   22916626.3164   22916623.9664
        48.000          42.000
 119937071.89147  93457441.29147  22823278.4764   22823283.3154   22823278.1574
        49.000          42.000
 125337627.75147  97665664.84547  23850970.8424   23850975.7864   23850970.8614
        45.000          39.000
 117851934.61447  91832657.42647  22426491.6554   22426494.8214   22426491.9504
        50.000          43.000
 128604623.97547 100211376.09847  24472660.6764   24472665.4104   24472660.3664
        44.000          39.000
 09  1 18  0 48  0.0000000  0 12G 6G21G31G 5G22G 9G24G18G30G29G14G12
 125949399.97047  98142358.05747  23967399.1234   23967405.0104   23967399.2524
        44.000          38.000
 104981868.94047  81804037.06947  19977396.4934   19977399.1814   19977396.9044
        54.000          49.000
 113684825.53747  88585569.47947  21633507.6794   21633510.8644   21633507.1154
        52.000          47.000
 123511363.55247  96242606.62947  23503440.8664   23503445.8634   23503441.1384
        46.000          40.000
 123616310.18547  96324396.12547  23523402.4984   23523403.0014   23523402.4284
        46.000          40.000
 126135029.82247  98287023.81747  24002704.7684   24002709.6254   24002705.3464
        42.000          37.000
 119461065.12547  93086511.70447  22732710.5964   22732716.1674   22732710.5664
        48.000          42.000
 120390511.71947  93810782.92547  22909555.6874   22909558.8344   22909556.1744
        49.000          42.000
 119910806.74247  93436974.94647  22818280.0444   22818285.0224   22818279.7724
        49.000          42.000
 125405504.12047  97718555.53547  23863887.3974   23863892.0254   23863887.1604
        45.000          39.000
 117889404.55447  91861854.78547  22433621.8634   22433625.2814   22433622.0924
        49.000          43.000
 128615894.46047 100220158.32947  24474805.5014   24474809.8214   24474805.1764
        44.000          39.000
 09  1 18  0 48 30.0000000  0 12G 6G21G31G 5G22G 9G24G18G30G29G14G12
 125928221.88747  98125855.60947  23963368.7874   23963375.4164   23963369.1644
        43.000          38.000
 104996363.26847  81815331.32947  19980154.6184   19980157.3974   19980154.9854
        54.000          49.000
 113605890.15447  88524061.42547  21618486.7244   21618489.7884   21618486.5084
        52.000          47.000
 123509106.82447  96240848.14947  23503011.1654   23503016.4654   23503011.6144
        46.000          40.000
 123571992.30247  96289862.71547  23514968.6774   23514969.7584   23514968.8334
        47.000          40.000
 126238459.39047  98367618.32647  24022387.5984   24022390.9364   24022387.5674
        42.000          38.000
 119539249.20147  93147434.33847  22747588.5544   22747594.5034   22747588.5184
        48.000          42.000
 120353321.06647  93781803.17047  22902478.7984   22902481.6534   22902479.3344
        48.000          42.000
 119884615.50047  93416566.18647  22813295.9444   22813300.7974   22813295.5004
        49.000          42.000
 125473216.66647  97771318.58747  23876772.9694   23876777.5604   23876772.9294
        45.000          39.000
 117927014.05447  91891160.90547  22440778.7904   22440782.1524   22440779.2624
        49.000          43.000
 128627361.76447 100229093.96147  24476987.5374   24476992.0684   24476987.2174
        44.000          38.000
 09  1 18  0 49  0.0000000  0 12G 6G21G31G 5G22G 9G24G18G30G29G14G12
 125907290.84947  98109545.68147  23959385.7104   23959392.3464   23959385.8294
        43.000          38.000
 105011475.35147  81827106.96047  19983030.4204   19983033.1334   19983030.7924
        54.000          49.000
 113527335.44447  88462849.98947  21603538.2874   21603541.2004   21603537.7034
        53.000          47.000
 123507074.70047  96239264.70647  23502624.5574   23502629.6074   23502624.9224
        45.000          39.000
 123527487.97547  96255184.03147  23506499.6854   23506500.8264   23506500.0134
        47.000          40.000
 126342099.66247  98448377.03247  24042109.9404   24042113.1784   24042109.7944
        43.000          38.000
 119617765.30247  93208615.69747  22762529.9674   22762535.3704   22762530.2074
        49.000          42.000
 120316084.51247  93752787.66347  22895392.8584   22895395.4974   22895393.3774
        48.000          41.000
 119858502.23147  93396218.19147  22808327.4624   22808331.9114   22808326.9864
        49.000          42.000
 125540765.61447  97823954.14447  23889627.3144   23889631.6994   23889626.9224
        44.000          39.000
 117964761.82247  91920574.75747  22447961.9774   22447965.5514   22447962.0264
        50.000          44.000
 128639029.55947 100238185.80147  24479207.8534   24479212.1804   24479207.7014
        44.000          38.000
 09  1 18  0 49 30.0000000  0 12G 6G21G31G 5G22G 9G24G18G30G29G14G12
 125886604.03847  98093426.05647  23955448.4804   23955455.6394   23955448.7924
        42.000          37.000
 105027203.54347  81839362.67147  19986023.6064   19986026.0354   19986024.0124
        54.000          49.000
 113449162.31347  88401935.88847  21588662.5704   21588665.3394   21588662.3574
        53.000          47.000
 123505267.58547  96237856.58447  23502280.0704   23502285.8254   23502280.7884
        46.000          40.000
 123482796.96147  96220359.87847  23497995.3104   23497996.3204   23497995.5164
        46.000          40.000
 126445946.45147  98529296.65147  24061871.2014   24061874.6144   24061871.4644
        43.000          38.000
 119696609.83947  93270052.98647  22777533.6494   22777539.2984   22777533.5174
        48.000          42.000
 120278802.41247  93723736.66547  22888298.4014   22888301.0574   22888298.8084
        48.000          41.000
 119832467.35347  93375931.26947  22803372.6004   22803377.4364   22803372.0824
        49.000          43.000
 125608147.93047  97876459.84247  23902449.3864   23902454.0554   23902448.9324
        44.000          40.000
 118002643.70047  91950093.11147  22455170.9214   22455174.1424   22455170.8904
        50.000          44.000
 128650897.50647 100247433.61847  24481465.6704   24481470.8204   24481465.6604
        44.000          38.000
 09  1 18  0 50  0.0000000  0 12G 6G21G31G 5G22G 9G24G18G30G29G14G12
 125866161.13347  98077496.48847  23951558.3284   23951565.3364   23951558.2184
        41.000          37.000
 105043548.31847  81852098.84147  19989133.9024   19989136.3954   19989134.4024
        54.000          49.000
 113371374.95347  88341322.38747  21573860.1414   21573862.9164   21573859.8164
        53.000          47.000
 123503688.44147  96236626.10147  23501979.6764   23501985.8154   23501980.2414
        46.000          40.000
 123437921.05647  96185391.64847  23489455.6464   23489457.0454   23489455.4344
        46.000          40.000
 126549997.80547  98610375.68147  24081671.9434   24081675.0214   24081672.0224
        42.000          38.000
 119775781.60847  93331745.26247  22792599.3894   22792605.0574   22792599.5914
        49.000          42.000
 120241477.72847  93694652.47147  22881195.6694   22881198.3894   22881196.3594
        48.000          41.000
 119806514.12147  93355707.98447  22798434.4094   22798438.7554   22798434.0964
        49.000          43.000
 125675363.15647  97928835.35147  23915239.3854   23915244.8364   23915239.1034
        44.000          39.000
 118040658.44447  91979714.99447  22462404.7724   22462407.8294   22462404.9704
        49.000          44.000
 128662968.19747 100256839.41747  24483763.1034   24483767.7914   24483762.1814
        44.000          39.000
 09  1 18  0 50 30.0000000  0 12G 6G21G31G 5G22G 9G24G18G30G29G14G12
 125845960.94147  98061756.04847  23947714.5084   23947721.7354   23947714.8284
        42.000          37.000
 105060509.27347  81865315.14947  19992361.5054   19992364.0374   19992361.9384
        54.000          49.000
 113293975.68447  88281011.29347  21559131.5344   21559134.1714   21559130.9884
        53.000          47.000
 123502339.29647  96235574.84947  23501722.5274   23501728.8834   23501723.0614
        46.000          40.000
 123392861.06647  96150279.97147  23480881.1994   23480882.2114   23480881.0234
        47.000          40.000
 126654250.82347  98691611.83647  24101510.1694   24101513.5044   24101510.3424
        43.000          38.000
 119855278.53347  93393690.90347  22807727.1474   22807733.0734   22807727.5084
        48.000          42.000
 120204112.58947  93665536.75947  22874085.5194   22874088.0064   22874085.8854
        48.000          41.000
 119780645.10147  93335550.29747  22793511.4374   22793515.7544   22793510.7174
        50.000          43.000
 125742410.31847  97981079.90947  23927998.8194   23928003.0114   23927998.5884
        44.000          39.000
 118078803.06547  92009438.08147  22469663.5244   22469666.5794   22469663.4994
        49.000          44.000
 128675243.37947 100266404.57347  24486098.5824   24486103.2834   24486098.2774
        43.000          39.000
 09  1 18  0 51  0.0000000  0 12G 6G21G31G 5G22G 9G24G18G30G29G14G12
 125826001.11747  98046202.90847  23943916.3924   23943923.3014   23943916.5704
        42.000          37.000
 105078084.82147  81879010.36047  19995705.9344   19995708.5674   19995706.3034
        54.000          49.000
 113216966.10647  88221003.86247  21544476.7804   21544479.8724   21544476.3634
        52.000          47.000
 123501220.87847  96234703.36947  23501509.9474   23501515.9724   23501510.1764
        46.000          40.000
 123347617.66747  96115025.37047  23472271.4514   23472272.4404   23472271.8794
        46.000          40.000
 126758701.55047  98773002.06447  24121386.6714   24121389.9894   24121386.5634
        43.000          38.000
 119935097.21047  93455887.27147  22822916.1534   22822922.0014   22822916.1164
        48.000          42.000
 120166707.87847  93636390.20847  22866967.7964   22866970.2314   22866968.0954
        49.000          42.000
 119754861.52747  93315459.20047  22788604.9544   22788609.0554   22788605.1024
        49.000          42.000
 125809286.77747  98033191.46847  23940724.3074   23940729.7574   23940724.6014
        44.000          39.000
 118117074.32347  92039259.84547  22476946.0114   22476949.4284   22476946.2174
        49.000          43.000
 128687723.45747 100276129.35947  24488473.7354   24488478.7854   24488473.4554
        44.000          39.000
 09  1 18  0 51 30.0000000  0 12G 6G21G31G 5G22G 9G24G18G30G29G14G12
 125806282.11947  98030837.42647  23940163.9134   23940170.4944   23940164.0974
        43.000          37.000
 105096276.63147  81893185.77647  19999167.6044   19999170.4754   19999167.9334
        54.000          49.000
 113140350.72947  88161303.59147  21529897.4224   21529900.3824   21529896.6864
        53.000          47.000
 123500337.01947  96234014.65447  23501342.1844   23501347.4934   23501342.7154
        46.000          40.000
 123302192.93647  96079629.48047  23463627.5514   23463628.5604   23463627.6914
        47.000          41.000
 126863348.93247  98854545.51247  24141300.0044   24141303.6954   24141300.3964
        43.000          38.000
 120015237.37447  93518334.14947  22838166.3884   22838172.2674   22838166.3974
        47.000          42.000
 120129267.77847  93607216.08347  22859843.0644   22859845.8524   22859843.4384
        48.000          41.000
 119729167.55247  93295437.92347  22783715.5184   22783720.2594   22783715.0214
        49.000          42.000
 125875993.28547  98085170.59447  23953418.1164   23953423.1784   23953418.3454
        45.000          39.000
 118155471.38747  92069179.63947  22484252.8514   22484255.8264   22484253.0144
        49.000          43.000
 128700412.60647 100286017.07047  24490888.6264   24490892.9984   24490888.4924
        44.000          39.000
 09  1 18  0 52  0.0000000  0 12G 6G21G31G 5G22G 9G24G18G30G29G14G12
 125786801.33747  98015657.55047  23936457.3784   23936463.4534   23936457.9844
        43.000          37.000
 105115082.93647  81907840.01647  20002746.4554   20002749.2194   20002746.9074
        54.000          49.000
 113064130.72647  88101911.41147  21515393.2844   21515396.2674   21515393.2134
        53.000          47.000
 123499688.23047  96233509.11547  23501218.6564   23501223.8544   23501219.5104
        45.000          40.000
 123256586.82947  96044092.26447  23454949.0814   23454950.1494   23454948.7944
        47.000          41.000
 126968188.73047  98936238.90947  24161250.7374   24161253.9014   24161250.8874
        43.000          37.000
 120095695.59947  93581028.85647  22853476.9024   22853482.8494   22853476.9344
        48.000          42.000
 120091792.68247  93578014.69447  22852711.5734   22852714.5764   22852711.9544
        48.000          42.000
 119703564.24647  93275487.29347  22778843.1734   22778848.1244   22778842.7294
        49.000          42.000
 125942527.14847  98137015.19747  23966079.4134   23966084.1974   23966079.3294
        44.000          39.000
 118193989.83947  92099194.02747  22491582.6394   22491585.8934   22491582.9554
        49.000          43.000
 128713310.20147 100296067.19347  24493342.6314   24493347.1244   24493342.3144
        44.000          38.000
 09  1 18  0 52 30.0000000  0 12G 6G21G31G 5G22G 9G24G18G30G29G14G12
 125767560.73747  98000664.85847  23932795.2884   23932802.2644   23932795.8414
        43.000          37.000
 105134506.49747  81922975.24047  20006442.5964   20006445.2284   20006443.0284
        54.000          49.000
 112988312.14547  88042832.01447  21500965.6614   21500968.4274   21500964.9744
        53.000          47.000
 123499279.72547  96233190.80747  23501141.3224   23501146.3944   23501141.5524
        45.000          40.000
 123210803.72747  96008417.12447  23446236.8034   23446237.7774   23446236.9164
        47.000          41.000
 127073221.41247  99018082.60547  24181237.5144   24181240.5004   24181237.7354
        42.000          37.000
 120176472.86747  93643972.16747  22868848.3864   22868854.2804   22868848.4454
        48.000          41.000
 120054288.11247  93548790.32647  22845574.6544   22845577.7824   22845575.0434
        48.000          42.000
 119678056.95747  93255611.48547  22773989.7844   22773993.5404   22773989.5744
        49.000          42.000
 126008890.29447  98188726.77947  23978708.0544   23978712.9194   23978707.8534
        44.000          39.000
 118232630.47747  92129303.61947  22498935.4014   22498938.9494   22498935.7754
        49.000          43.000
 128726421.23447 100306283.63847  24495838.2094   24495841.7074   24495838.1494
        44.000          38.000
 09  1 18  0 53  0.0000000  0 12G 6G21G31G 5G22G 9G24G18G30G29G14G12
 125748551.85947  97985852.69347  23929179.2224   23929185.6994   23929179.4034
        43.000          38.000
 105154539.44947  81938585.31247  20010254.6974   20010257.4644   20010255.1134
        54.000          49.000
 112912890.55947  87984061.97247  21486613.6074   21486615.9914   21486613.2594
        53.000          47.000
 123499106.34447  96233055.72347  23501107.6244   23501113.4774   23501108.1244
        45.000          40.000
 123164837.51447  95972599.28047  23437489.8324   23437490.7644   23437490.0034
        47.000          41.000
 127178437.06247  99100068.87647  24201259.4554   24201262.7284   24201259.3164
        42.000          37.000
 120257560.03847  93707156.96747  22884278.6994   22884284.4094   22884278.7814
        48.000          41.000
 120016749.06047  93519539.11347  22838431.2584   22838434.3284   22838431.6214
        49.000          42.000
 119652641.03647  93235806.86747  22769152.9294   22769157.5404   22769152.7824
        49.000          43.000
 126075074.59447  98240298.97747  23991302.4634   23991307.0274   23991301.5344
        44.000          39.000
 118271383.97547  92159501.15947  22506310.2514   22506313.3204   22506310.2094
        49.000          43.000
 128739740.40047 100316662.23047  24498372.4604   24498376.6494   24498371.9434
        44.000          38.000
 09  1 18  0 53 30.0000000  0 12G 6G21G31G 5G22G 9G24G18G30G29G14G12
 125729780.45947  97971225.59447  23925606.3094   23925613.4454   23925606.3064
        43.000          37.000
 105175188.16447  81954675.19647  20014184.1564   20014186.8974   20014184.4914
        54.000          49.000
 112837875.41347  87925608.63447  21472338.4914   21472340.8794   21472337.9684
        53.000          47.000
 123499176.89447  96233110.71747  23501121.0264   23501126.8874   23501121.6554
        44.000          39.000
 123118696.25847  95936645.04847  23428708.9684   23428710.4714   23428709.0874
        47.000          41.000
 127283839.34047  99182200.56447  24221316.7634   24221320.0234   24221316.7224
        41.000          36.000
 120338961.54647  93770586.71947  22899768.7784   22899774.7414   22899768.9264
        47.000          41.000
 119979184.20347  93490267.78747  22831282.7154   22831286.1024   22831283.2364
        49.000          42.000
 119627325.48347  93216080.46447  22764335.6454   22764340.1244   22764335.6644
        49.000          43.000
 126141085.25147  98291735.87547  24003863.8844   24003868.5154   24003863.4744
        44.000          39.000
 118310254.43347  92189789.84047  22513707.0904   22513710.0394   22513707.3014
        49.000          43.000
 128753276.37747 100327209.77747  24500947.8084   24500952.3724   24500947.8884
        43.000          38.000
 09  1 18  0 54  0.0000000  0 12G 6G21G31G 5G22G 9G24G18G30G29G14G12
 125711240.25447  97956778.66047  23922078.3694   23922084.7364   23922078.7954
        43.000          37.000
 105196447.36047  81971240.78747  20018229.7914   20018232.4124   20018230.2034
        54.000          49.000
 112763264.43447  87867470.23747  21458140.3844   21458142.9694   21458139.9644
        53.000          47.000
 123499488.52447  96233353.53447  23501180.3174   23501185.9264   23501180.8034
        45.000          39.000
 123072376.31047  95900551.56547  23419894.7244   23419895.9584   23419894.5814
        47.000          41.000
 127389420.97447  99264472.02647  24241407.3734   24241411.1744   24241408.1454
        41.000          36.000
 120420670.52747  93834256.03447  22915317.4334   22915323.2574   22915317.4354
        47.000          41.000
 119941591.29347  93460974.61047  22824129.4104   22824132.1704   22824129.8474
        49.000          42.000
 119602108.32147  93196430.73947  22759536.9804   22759541.2894   22759536.5754
        49.000          43.000
 126206916.60247  98343033.05447  24016390.9514   24016396.0414   24016390.5384
        44.000          39.000
 118349234.60947  92220164.00247  22521124.4134   22521127.8674   22521124.6744
        49.000          43.000
 128767025.80847 100337923.63647  24503564.1454   24503569.0914   24503563.4604
        44.000          38.000
 09  1 18  0 54 30.0000000  0 12G 6G21G31G 5G22G 9G24G18G30G29G14G12
 125692932.90847  97942513.15647  23918594.5864   23918600.9934   23918594.8704
        42.000          37.000
 105218319.71047  81988284.15347  20022391.7614   20022394.7324   20022392.0604
        54.000          49.000
 112689063.04947  87809651.00147  21444020.1334   21444022.9154   21444019.8594
        53.000          47.000
 123500046.09047  96233788.01547  23501286.0574   23501292.4604   23501286.8044
        44.000          39.000
 123025882.27847  95864322.44647  23411047.6404   23411048.6714   23411047.7044
        47.000          41.000
 127495182.22747  99346883.43847  24261533.7404   24261536.6594   24261534.0604
        41.000          36.000
 120502687.65447  93898165.47847  22930924.5294   22930930.5634   22930924.2084
        47.000          41.000
 119903975.08147  93431663.25047  22816971.3554   22816974.0744   22816971.7544
        49.000          42.000
 119576994.51047  93176861.54447  22754758.0974   22754762.5764   22754757.6984
        49.000          43.000
 126272570.51547  98394191.97647  24028884.3374   24028889.1384   24028884.0744
        44.000          38.000
 118388324.77947  92250623.87847  22528563.1464   22528566.3274   22528563.3624
        49.000          43.000
 128780993.06547 100348807.22347  24506221.9864   24506226.5804   24506221.6794
        44.000          38.000
 09  1 18  0 55  0.0000000  0 12G 6G21G31G 5G22G 9G24G18G30G29G14G12
 125674856.27147  97928427.44947  23915154.4734   23915161.2464   23915154.7834
        42.000          37.000
 105240803.42947  82005803.91147  20026670.2314   20026673.2874   20026670.6334
        54.000          49.000
 112615273.22947  87752152.46647  21429978.2234   21429981.3174   21429977.8954
        53.000          47.000
 123500850.66347  96234414.94347  23501439.4184   23501445.0624   23501440.2234
        44.000          39.000
 122979213.86947  95827957.45847  23402166.4534   23402168.1134   23402166.4564
        47.000          41.000
 127601119.43247  99429431.94347  24281692.8744   24281696.4764   24281692.9524
        39.000          35.000
 120585010.09447  93962312.82147  22946589.4074   22946595.9404   22946589.5104
        47.000          41.000
 119866337.02147  93402334.86847  22809809.0134   22809811.6924   22809809.4344
        50.000          42.000
 119551985.37847  93157373.92147  22749999.1414   22750003.5134   22749998.8204
        50.000          43.000
 126338044.87247  98445210.97447  24041343.9854   24041348.3814   24041343.9954
        44.000          38.000
 118427521.77147  92281166.98747  22536021.7324   22536025.5404   22536021.8534
        48.000          43.000
 128795179.17147 100359861.34047  24508921.1034   24508926.0614   24508920.9004
        43.000          38.000
 09  1 18  0 55 30.0000000  0 12G 6G21G31G 5G22G 9G24G18G30G29G14G12
 125657008.92547  97914520.38747  23911758.7744   23911764.9794   23911759.1634
        43.000          37.000
 105263897.74947  82023799.46047  20031064.8974   20031068.0954   20031065.2864
        54.000          49.000
 112541897.56447  87694976.65147  21416015.2364   21416018.6684   21416014.6394
        53.000          47.000
 123501904.05047  96235235.78547  23501639.6984   23501645.7134   23501640.2504
        44.000          39.000
 122932372.16347  95791457.41847  23393252.6684   23393254.1984   23393252.6644
        48.000          41.000
 127707229.36347  99512115.04747  24301884.5454   24301888.6694   24301884.5194
        38.000          35.000
 120667635.35947  94026696.13547  22962312.5814   22962319.0064   22962312.7364
        47.000          41.000
 119828679.32547  93372991.19847  22802643.2744   22802645.4314   22802643.6584
        50.000          42.000
 119527083.44747  93137969.82747  22745259.9324   22745264.9164   22745259.4184
        49.000          43.000
 126403338.21747  98496088.93247  24053768.6064   24053773.1084   24053768.7354
        44.000          39.000
 118466822.76547  92311791.14447  22543500.7484   22543504.1864   22543500.8124
        49.000          43.000
 128809585.37647 100371086.95747  24511662.2624   24511667.7704   24511662.1274
        44.000          38.000
 09  1 18  0 56  0.0000000  0 12G 6G21G31G 5G22G 9G24G18G30G29G14G12
 125639389.16747  97900790.68847  23908405.8414   23908412.3244   23908405.8944
        43.000          38.000
 105287601.96247  82042270.25047  20035575.7984   20035578.8114   20035576.2014
        54.000          49.000
 112468938.08847  87638125.13747  21402131.7204   21402134.8534   21402131.4314
        53.000          47.000
 123503207.80047  96236251.66847  23501887.6944   23501894.4484   23501888.1984
        45.000          39.000
 122885358.55847  95754823.44047  23384307.1484   23384307.9664   23384307.2404
        48.000          42.000
 127813509.03047  99594930.41747  24322108.6214   24322112.3534   24322108.8084
        38.000          35.000
 120750560.92747  94091313.46047  22978092.7974   22978099.4074   22978092.5904
        47.000          41.000
 119791003.77447  93343633.59547  22795474.0754   22795475.9274   22795474.4534
        50.000          42.000
 119502290.83047  93118650.92347  22740542.2654   22740546.7574   22740541.6084
        49.000          43.000
 126468449.32047  98546824.87747  24066158.8704   24066163.8584   24066158.7784
        44.000          39.000
 118506224.68647  92342493.94747  22550998.9374   22551002.3164   22550999.2584
        49.000          43.000
 128824213.10947 100382485.21847  24514446.5384   24514451.0314   24514446.8674
        44.000          38.000
 09  1 18  0 56 30.0000000  0 12G 6G21G31G 5G22G 9G24G18G30G29G14G12
 125621996.46547  97887237.90247  23905096.5724   23905102.7234   23905096.7984
        43.000          38.000
 105311915.93547  82061216.17747  20040202.5884   20040205.5154   20040202.9654
        54.000          49.000
 112396398.13047  87581600.51447  21388327.8644   21388330.7194   21388327.4314
        53.000          47.000
 123504764.45247  96237464.63847  23502183.7844   23502189.7324   23502184.4224
        45.000          39.000
 122838174.78347  95718056.86347  23375328.4834   23375329.0764   23375328.5464
        48.000          42.000
 127919955.99347  99677876.14047  24342364.7384   24342368.8414   24342365.7594
        40.000          35.000
 120833785.13747  94156163.48347  22993929.9584   22993936.3974   22993930.0804
        47.000          41.000
 119753313.23547  93314264.33547  22788301.5204   22788304.0404   22788302.0134
        49.000          42.000
 119477610.63547  93099419.59647  22735845.3064   22735850.4604   22735845.0924
        49.000          43.000
 126533377.51147  98597418.29947  24078514.3354   24078519.0744   24078514.2614
        45.000          39.000
 118545725.84247  92373274.07047  22558515.5114   22558518.9034   22558515.5664
        48.000          43.000
 128839064.55247 100394057.78347  24517272.5194   24517277.0474   24517272.2264
        43.000          38.000
 09  1 18  0 57  0.0000000  0 12G 6G21G31G 5G22G 9G24G18G30G29G14G12
 125604829.32047  97873860.89747  23901829.6364   23901835.9234   23901829.7964
        43.000          38.000
 105336838.85847  82080636.61047  20044945.2514   20044948.2094   20044945.5704
        54.000          49.000
 112324280.23747  87525404.77647  21374604.4444   21374607.1354   21374604.0244
        53.000          47.000
 123506575.98147  96238876.20847  23502529.2534   23502534.5944   23502529.7474
        45.000          39.000
 122790821.88647  95681158.50647  23366317.2314   23366318.1004   23366317.2944
        48.000          42.000
 128026567.40047  99760950.00447  24362653.4044   24362655.6144   24362653.3834
        39.000          35.000
 120917306.02047  94221244.68247  23009823.4354   23009829.9344   23009823.3264
        46.000          41.000
 119715609.81047  93284885.03447  22781126.2854   22781129.6094   22781126.7804
        49.000          42.000
 119453045.23347  93080277.72847  22731171.1324   22731176.1224   22731170.9094
        49.000          43.000
 126598121.82347  98647868.42847  24090835.0304   24090839.4744   24090834.7704
        45.000          39.000
 118585323.82047  92404129.64947  22566050.6474   22566054.2574   22566050.8134
        49.000          43.000
 128854141.16647 100405805.79747  24520142.1894   24520145.8334   24520141.5554
        44.000          38.000
 09  1 18  0 57 30.0000000  0 12G 6G21G31G 5G22G 9G24G18G30G29G14G12
 125587886.40047  97860658.59647  23898605.5484   23898612.0704   23898605.6874
        43.000          38.000
 105362370.26147  82100531.18647  20049803.7984   20049806.6734   20049804.2104
        54.000          49.000
 112252586.79647  87469539.78647  21360961.5434   21360964.2694   21360961.3914
        53.000          47.000
 123508644.24047  96240487.83447  23502923.0834   23502927.9074   23502923.8564
        45.000          39.000
 122743301.12347  95644129.33747  23357274.1344   23357275.2534   23357274.3214
        48.000          42.000
 128133340.90847  99844150.18247  24382971.0574   24382974.4734   24382970.8564
        40.000          35.000
 121001121.34447  94286555.31247  23025773.1044   23025779.8124   23025773.0944
        47.000          41.000
 119677895.76847  93255497.46347  22773949.6144   22773952.5594   22773950.0174
        49.000          42.000
 119428596.81047  93061227.00947  22726518.5154   22726523.7234   22726518.1234
        49.000          43.000
 126662681.20347  98698174.45547  24103120.5784   24103124.8144   24103120.7614
        44.000          39.000
 118625016.11347  92435058.72547  22573603.9284   22573607.6744   22573603.9664
        49.000          43.000
 128869444.63147 100417730.59947  24523054.2594   24523057.9444   24523053.2804
        43.000          38.000
 09  1 18  0 58  0.0000000  0 12G 6G21G31G 5G22G 9G24G18G30G29G14G12
 125571165.09647  97847628.98847  23895423.4644   23895429.7314   23895423.2004
        43.000          38.000
 105388507.73547  82120898.02647  20054777.5584   20054780.4864   20054777.9424
        54.000          49.000
 112181319.46747  87414006.82247  21347399.7264   21347402.4474   21347399.4534
        53.000          48.000
 123510969.85847  96242299.99947  23503365.1554   23503370.8674   23503365.6114
        45.000          39.000
 122695612.59347  95606969.45347  23348199.1714   23348200.3024   23348199.4014
        48.000          42.000
 128240272.32647  99927473.40947  24403319.8994   24403322.9524   24403318.9024
        39.000          35.000
 121085227.59147  94352092.62947  23041778.4154   23041784.2874   23041778.4454
        47.000          41.000
 119640172.19447  93226102.46747  22766771.0034   22766774.0594   22766771.5234
        48.000          42.000
 119404266.59747  93042268.40947  22721888.8184   22721893.5034   22721888.4014
        50.000          43.000
 126727053.28347  98748334.51947  24115369.5944   24115374.4204   24115369.4024
        44.000          39.000
 118664798.90447  92466058.29447  22581174.4664   22581178.0354   22581174.6804
        48.000          43.000
 128884975.30847 100429832.42347  24526009.1164   24526013.6814   24526008.5914
        43.000          37.000
 09  1 18  0 58 30.0000000  0 12G 6G21G31G 5G22G 9G24G18G30G29G14G12
 125554664.57447  97834771.42547  23892283.5344   23892290.0224   23892283.8174
        43.000          38.000
 105415251.14047  82141737.02347  20059866.8354   20059869.5144   20059867.2254
        54.000          49.000
 112110481.23347  87358808.21547  21333919.6484   21333922.4654   21333919.0604
        53.000          48.000
 123513555.29047  96244314.61347  23503856.6084   23503862.8434   23503856.7864
        44.000          39.000
 122647758.20847  95569680.31847  23339092.8734   23339093.8854   23339092.8804
        48.000          42.000
 128347359.21147 100010917.76247  24423697.5674   24423700.5074   24423697.5704
        40.000          34.000
 121169623.21147  94417855.43347  23057838.5984   23057844.7414   23057838.6984
        47.000          41.000
 119602441.82447  93196702.17747  22759591.1284   22759594.5744   22759591.5094
        49.000          42.000
 119380057.53447  93023404.20547  22717282.1534   22717287.0554   22717281.9544
        50.000          43.000
 126791237.59447  98798348.27947  24127583.4364   24127587.9454   24127583.4354
        44.000          39.000
 118704670.37147  92497126.97647  22588761.5524   22588765.1374   22588761.8924
        48.000          43.000
 128900735.40447 100442113.05347  24529008.4974   24529013.1244   24529008.1484
        42.000          37.000
 09  1 18  0 59  0.0000000  0 12G 6G21G31G 5G22G 9G24G18G30G29G14G12
 125538383.73947  97822085.04447  23889185.0964   23889191.6924   23889185.2984
        43.000          38.000
 105442599.92747  82163047.74247  20065071.1444   20065073.9714   20065071.6524
        54.000          49.000
 112040074.47947  87303945.83547  21320521.6694   21320524.4124   21320521.4814
        53.000          48.000
 123516402.49647  96246533.21447  23504398.6574   23504404.8544   23504399.1704
        45.000          39.000
 122599739.72947  95532263.31747  23329955.1324   23329956.6364   23329955.3494
        48.000          42.000
 128454598.88347 100094481.19247  24444104.3674   24444107.1844   24444104.9174
        40.000          35.000
 121254306.23547  94483842.20247  23073953.3254   23073958.8434   23073953.4074
        47.000          40.000
 119564706.92047  93167298.34147  22752410.8254   22752413.5784   22752411.3014
        49.000          42.000
 119355972.10447  93004636.33747  22712698.9904   22712703.6814   22712698.7814
        50.000          43.000
 126855233.15147  98848214.96047  24139761.5854   24139765.8484   24139761.2084
        44.000          39.000
 118744627.78747  92528262.62847  22596365.3714   22596368.4554   22596365.5514
        48.000          43.000
 128916726.13347 100454573.37047  24532050.6514   24532055.1564   24532050.3534
        42.000          37.000
 09  1 18  0 59 30.0000000  0 12G 6G21G31G 5G22G 9G24G18G30G29G14G12
 125522321.51747  97809569.00947  23886128.8834   23886134.8094   23886129.0654
        44.000          38.000
 105470553.75147  82184829.92147  20070390.4364   20070393.4384   20070390.8774
        54.000          49.000
 111970102.31047  87249422.07847  21307206.1814   21307209.3234   21307205.3674
        53.000          48.000
 123519513.90047  96248957.67247  23504991.2364   23504996.9344   23504991.6634
        46.000          40.000
 122551558.42647  95494719.43347  23320786.6754   23320787.5824   23320786.9414
        48.000          42.000
 128561989.01647 100178161.86847  24464539.4194   24464544.2844   24464540.4364
        39.000          34.000
 121339274.68547  94550051.37347  23090122.3594   23090128.0894   23090122.9404
        47.000          41.000
 119526970.40347  93137893.24647  22745230.0854   22745232.7634   22745230.4084
        50.000          42.000
 119332013.19847  92985967.05947  22708139.5354   22708143.8764   22708139.4164
        50.000          43.000
 126919039.66947  98897934.34247  24151903.6704   24151908.1644   24151903.6134
        44.000          39.000
 118784669.66747  92559464.11647  22603984.7334   22603988.2754   22603984.8384
        48.000          43.000
 128932950.08947 100467215.44547  24535137.9434   24535143.3004   24535138.1194
        43.000          37.000
 09  1 18  1  0  0.0000000  0 12G 6G21G31G 5G22G 9G24G18G30G29G14G12
 125506475.85147  97797221.72147  23883113.8164   23883120.7144   23883113.6144
        43.000          38.000
 105499110.77747  82207082.12847  20075824.6134   20075827.6364   20075825.0064
        54.000          49.000
 111900566.51047  87195238.35947  21293974.1704   21293977.1424   21293974.0384
        53.000          48.000
 123522890.45847  96251588.76147  23505634.0554   23505639.6584   23505634.5334
        46.000          40.000
 122503214.87447  95457049.12147  23311587.3724   23311588.2924   23311587.4674
        48.000          41.000
 128669526.33247 100261957.23747  24485004.1524   24485006.8354   24485003.7794
        39.000          34.000
 121424525.50447  94616480.56447  23106344.8954   23106351.0114   23106345.0144
        47.000          40.000
 119489233.48947  93108487.83247  22738048.7554   22738051.6244   22738049.2704
        49.000          42.000
 119308182.55447  92967397.72947  22703604.5204   22703609.2604   22703604.5024
        49.000          42.000
 126982655.25547  98947504.93747  24164009.7134   24164014.0674   24164008.8654
        45.000          39.000
 118824792.33647  92590728.54047  22611619.9464   22611623.5544   22611620.2164
        48.000          43.000
 128949407.48247 100480039.42747  24538270.4554   24538274.8054   24538269.7944
        42.000          37.000
 09  1 18  1  0 30.0000000  0 12G 6G21G31G 5G22G 9G24G18G30G29G14G12
 125490845.47547  97785042.19147  23880139.1374   23880145.3584   23880139.3734
        43.000          38.000
 105528270.40747  82229803.89347  20081373.7444   20081376.5294   20081374.1994
        54.000          49.000
 111831469.32047  87141396.41047  21280825.1914   21280828.3114   21280824.9084
        53.000          48.000
 123526534.05247  96254427.92547  23506327.0354   23506332.6474   23506327.5224
        46.000          40.000
 122454710.80147  95419253.71847  23302357.3054   23302358.2494   23302357.3904
        48.000          41.000
 128777207.66647 100345864.83247  24505494.7154   24505498.6854   24505494.3574
        39.000          34.000
 121510056.37147  94683127.98347  23122621.0764   23122626.9374   23122621.1804
        47.000          41.000
 119451498.46847  93079083.89347  22730867.9634   22730870.9334   22730868.4524
        49.000          42.000
 119284482.50047  92948930.15347  22699094.7654   22699099.3984   22699094.5344
        49.000          43.000
 127046078.49647  98996925.66747  24176077.9064   24176082.7664   24176077.9934
        44.000          39.000
 118864993.35947  92622054.02547  22619270.1014   22619273.3684   22619270.4364
        48.000          43.000
 128966100.09047 100493046.69547  24541446.4344   24541451.0854   24541445.9244
        42.000          37.000
 09  1 18  1  1  0.0000000  0 11G 6G21G31G 5G22G24G18G30G29G14G12
 125475428.81647  97773029.20247  23877205.2664   23877212.2114   23877205.2994
        43.000          38.000
 105558031.39647  82252994.25447  20087037.0654   20087039.8054   20087037.5214
        54.000          49.000
 111762813.65747  87087898.50647  21267760.6104   21267763.4914   21267760.0804
        53.000          48.000
 123530446.60747  96257476.67247  23507071.9294   23507077.2634   23507072.6094
        46.000          40.000
 122406047.34547  95381334.12247  23293096.9394   23293098.1534   23293096.9804
        48.000          41.000
 121595865.21247  94749992.00947  23138949.8134   23138955.7454   23138949.8204
        47.000          40.000
 119413767.88447  93049683.40147  22723688.1074   22723690.7984   22723688.4424
        49.000          42.000
 119260915.45647  92930566.21147  22694609.7074   22694614.6014   22694609.4984
        50.000          43.000
 127109308.86847  99046196.10547  24188110.0194   24188114.9644   24188109.8614
        43.000          39.000
 118905270.67847  92653438.96747  22626934.7034   22626937.7834   22626934.9414
        48.000          42.000
 128983029.41347 100506238.42647  24544668.4454   24544672.5714   24544667.9814
        42.000          37.000
 09  1 18  1  1 30.0000000  0 11G 6G21G31G 5G22G24G18G30G29G14G12
 125460224.93547  97761182.01047  23874312.6704   23874319.0734   23874312.4014
        44.000          39.000
 105588393.33547  82276652.88647  20092814.8424   20092817.5474   20092815.2754
        54.000          49.000
 111694601.98347  87034746.56847  21254780.2274   21254783.1784   21254780.0424
        53.000          48.000
 123534630.30847  96260736.70247  23507867.4144   23507873.2564   23507868.0454
        46.000          40.000
 122357226.40447  95343291.79947  23283806.6104   23283807.4644   23283806.4354
        48.000          41.000
 121681950.02947  94817071.05847  23155331.2484   23155337.0514   23155331.3414
        47.000          40.000
 119376044.41347  93020288.46347  22716509.3634   22716512.1094   22716509.8474
        49.000          42.000
 119237484.31947  92912308.16847  22690150.9904   22690155.7954   22690150.8454
        49.000          43.000
 127172345.44147  99095315.53547  24200105.7914   24200110.2334   24200105.7094
        44.000          39.000
 118945621.74847  92684881.38147  22634613.1304   22634616.4874   22634613.4164
        48.000          42.000
 129000197.23047 100519615.96047  24547935.5224   24547939.5944   24547935.1394
        43.000          37.000
 09  1 18  1  2  0.0000000  0 11G 6G21G31G 5G22G24G18G30G29G14G12
 125445231.63547  97749498.91847  23871459.6674   23871465.4754   23871459.6374
        45.000          38.000
 105619354.43847  82300778.40447  20098706.4314   20098709.1864   20098706.7504
        54.000          49.000
 111626836.28247  86981942.13847  21241884.7494   21241887.8824   21241884.0224
        53.000          48.000
 123539086.20347  96264208.83247  23508715.5904   23508721.0064   23508715.8844
        45.000          39.000
 122308248.25547  95305126.98447  23274486.1844   23274487.6514   23274486.1034
        48.000          42.000
 121768307.76347  94884362.79147  23171764.5404   23171770.4414   23171764.5354
        47.000          40.000
 119338329.56347  92990900.23747  22709332.7744   22709335.3794   22709333.2054
        48.000          42.000
 119214190.82847  92894157.37947  22685718.5084   22685723.1604   22685718.3834
        50.000          43.000
 127235186.79847  99144282.84247  24212064.6664   24212068.6314   24212064.2434
        44.000          39.000
 118986043.45347  92716378.84147  22642305.2654   22642308.0974   22642305.3724
        48.000          42.000
 129017604.37347 100533179.99447  24551247.5214   24551251.4944   24551247.3674
        42.000          37.000
 09  1 18  1  2 30.0000000  0 11G 6G21G31G 5G22G24G18G30G29G14G12
 125430447.31547  97737978.65247  23868645.8804   23868652.4754   23868646.2354
        44.000          38.000
 105650913.58447  82325369.93447  20104711.8954   20104714.6864   20104712.2994
        54.000          49.000
 111559518.65747  86929486.86747  21229074.7114   21229077.5944   21229074.6374
        53.000          48.000
 123543815.91147  96267894.31847  23509615.3664   23509621.3054   23509615.5294
        45.000          40.000
 122259114.33947  95266840.77947  23265136.4714   23265137.6234   23265136.4014
        48.000          41.000
 121854935.91947  94951865.22747  23188249.2844   23188255.5874   23188249.3544
        47.000          40.000
 119300625.34247  92961520.30947  22702157.8734   22702160.2804   22702158.2204
        49.000          42.000
 119191037.14947  92876115.53947  22681312.9374   22681317.0524   22681312.6244
        49.000          43.000
 127297831.74047  99193097.10247  24223985.1764   24223990.4574   24223985.0054
        43.000          39.000
 119026533.43247  92747929.48547  22650010.4584   22650013.1904   22650010.6784
        48.000          43.000
 129035252.25647 100546931.61647  24554605.5814   24554610.2114   24554605.8214
        42.000          37.000
 09  1 18  1  3  0.0000000  0 11G 6G21G31G 5G22G24G18G30G29G14G12
 125415872.53047  97726621.69047  23865872.4374   23865879.6034   23865872.5504
        44.000          38.000
 105683071.76547  82350428.24247  20110831.4254   20110834.3024   20110831.8234
        54.000          49.000
 111492653.58047  86877384.22247  21216350.7314   21216353.5144   21216350.1984
        53.000          48.000
 123548823.23747  96271796.12147  23510568.4454   23510574.3204   23510568.5574
        46.000          40.000
 122209828.17847  95228435.93347  23255757.4354   23255758.7444   23255757.6954
        48.000          41.000
 121941834.26247  95019578.18847  23204785.7384   23204791.8294   23204785.9404
        47.000          40.000
 119262936.42647  92932152.29747  22694985.6234   22694988.6384   22694986.2714
        49.000          42.000
 119168027.39947  92858185.85147  22676934.1104   22676938.7054   22676933.9044
        49.000          43.000
 127360281.48347  99241759.27847  24235868.7974   24235874.0984   24235868.4954
        44.000          39.000
 119067091.03647  92779532.82347  22657728.0224   22657731.3974   22657728.1484
        48.000          42.000
 129053144.33547 100560873.51647  24558009.8644   24558014.9684   24558009.6114
        41.000          37.000
 09  1 18  1  3 30.0000000  0 11G 6G21G31G 5G22G24G18G30G29G14G12
 125401501.02147  97715423.10647  23863137.6074   23863143.6934   23863137.5174
        43.000          38.000
 105715823.06947  82375948.72847  20117063.5894   20117066.6144   20117063.8224
        54.000          49.000
 111426238.59447  86825632.29847  21203712.4624   21203715.1984   21203711.9844
        53.000          48.000
 123554105.18047  96275911.91347  23511573.3444   23511579.4954   23511573.7604
        45.000          40.000
 122160386.22647  95189909.68947  23246349.1444   23246350.2514   23246349.1064
        48.000          41.000
 122028995.90347  95087496.34447  23221371.9974   23221377.9364   23221372.1834
        46.000          40.000
 119225260.02747  92902794.03547  22687816.3084   22687818.9054   22687816.8924
        50.000          42.000
 119145159.33147  92840366.55747  22672582.4744   22672587.1014   22672582.1274
        50.000          43.000
 127422530.03147  99290264.65647  24247714.4244   24247719.8454   24247714.0444
        44.000          39.000
 119107708.94847  92811183.16347  22665456.9724   22665460.7024   22665457.2214
        48.000          42.000
 129071277.52247 100575003.27647  24561461.1304   24561465.5574   24561460.7334
        42.000          37.000
 09  1 18  1  4  0.0000000  0 11G 6G21G31G 5G22G24G18G30G29G14G12
 125387339.26647  97704387.97447  23860442.5264   23860449.3594   23860442.4844
        44.000          38.000
 105749174.08647  82401936.51947  20123410.1634   20123413.1634   20123410.5794
        54.000          49.000
 111360283.84947  86774239.00447  21191161.8134   21191164.4694   21191161.4234
        54.000          48.000
 123559671.40547  96280249.25347  23512632.8304   23512638.8664   23512632.9164
        46.000          40.000
 122110797.47247  95151269.05847  23236912.8414   23236913.9994   23236912.8474
        48.000          41.000
 122116426.21747  95155623.83147  23238009.6134   23238015.4174   23238009.8604
        46.000          40.000
 119187606.33447  92873453.47247  22680651.2184   22680654.0954   22680651.6004
        49.000          42.000
 119122443.43747  92822665.84447  22668259.9904   22668264.5204   22668259.7134
        50.000          43.000
 127484584.56747  99338618.87647  24259523.7604   24259527.9564   24259524.0484
        44.000          39.000
 119148392.69147  92842884.79647  22673198.7324   22673202.4074   22673199.0074
        48.000          42.000
 129089660.46447 100589327.66647  24564958.9754   24564964.3224   24564958.6454
        42.000          37.000
 09  1 18  1  4 30.0000000  0 11G 6G21G31G 5G22G24G18G30G29G14G12
 125373379.35147  97693510.11247  23857786.7774   23857792.5404   23857786.6984
        44.000          38.000
 105783117.38947  82428385.83547  20129869.4424   20129872.2654   20129869.8884
        54.000          49.000
 111294785.25747  86723201.16147  21178697.7844   21178700.5394   21178697.5214
        54.000          48.000
 123565517.13747  96284804.37147  23513744.9314   23513751.4274   23513745.4054
        45.000          40.000
 122061057.29747  95112510.44847  23227447.5034   23227448.3954   23227447.5314
        48.000          41.000
 122204116.34647  95223953.77947  23254696.0114   23254702.4204   23254695.8694
        46.000          40.000
 119149971.13047  92844127.32247  22673489.2404   22673492.2824   22673489.7834
        49.000          42.000
 119099875.47547  92805080.40547  22663965.3794   22663970.3254   22663965.1324
        50.000          43.000
 127546437.42547  99386815.94547  24271293.3144   24271298.0314   24271293.0994
        44.000          39.000
 119189133.18847  92874630.65547  22680951.5934   22680955.0594   22680951.7284
        48.000          42.000
 129108288.19847 100603842.78447  24568504.2664   24568508.6274   24568504.0764
        42.000          37.000
 09  1 18  1  5  0.0000000  0 11G 6G21G31G 5G22G24G18G30G29G14G12
 125359620.46247  97682788.91447  23855168.1304   23855174.2704   23855168.3904
        44.000          38.000
 105817652.50447  82455296.29647  20136441.3454   20136444.1664   20136441.7174
        54.000          49.000
 111229746.04547  86672521.27147  21166321.3114   21166323.8504   21166320.8414
        54.000          48.000
 123571644.86747  96289579.23447  23514911.4724   23514917.3354   23514911.8634
        45.000          40.000
 122011168.38647  95073635.94047  23217954.0494   23217954.8894   23217954.1554
        48.000          41.000
 122292065.02447  95292485.20147  23271432.0454   23271438.3954   23271432.1934
        46.000          40.000
 119112357.86447  92814818.26447  22666331.7294   22666334.7974   22666331.9724
        49.000          42.000
 119077458.52947  92787612.64347  22659699.0974   22659704.0824   22659698.7394
        49.000          43.000
 127608088.75247  99434855.96347  24283025.1474   24283029.5664   24283024.7794
        44.000          39.000
 119229929.06847  92906419.67147  22688714.9024   22688718.0884   22688715.2304
        48.000          43.000
 129127163.09047 100618550.53247  24572095.6024   24572100.3224   24572095.3024
        43.000          37.000
 09  1 18  1  5 30.0000000  0 11G 6G21G31G 5G22G24G18G30G29G14G12
 125346062.05947  97672223.93047  23852588.6004   23852593.9744   23852588.6324
        44.000          38.000
 105852779.18247  82482667.71747  20143125.8394   20143128.6054   20143126.2994
        54.000          49.000
 111165169.31947  86622201.76147  21154032.7674   21154035.3064   21154032.5204
        54.000          48.000
 123578057.27547  96294575.91747  23516131.1514   23516137.0334   23516131.7914
        45.000          39.000
 121961132.66947  95034647.04147  23208433.0944   23208433.5534   23208433.0034
        48.000          41.000
 122380270.58647  95361216.79247  23288217.2724   23288222.9194   23288217.1854
        46.000          40.000
 119074769.66847  92785528.73647  22659179.3004   22659182.1634   22659179.4894
        49.000          42.000
 119055196.31347  92770265.44647  22655463.1564   22655467.6554   22655462.7174
        49.000          43.000
 127669538.39647  99482738.84247  24294718.4304   24294723.1804   24294718.1724
        44.000          39.000
 119270778.47747  92938250.39347  22696488.2944   22696491.8634   22696488.4864
        48.000          43.000
 129146287.49947 100633452.69847  24575734.8834   24575739.1664   24575734.5594
        42.000          37.000
 09  1 18  1  6  0.0000000  0 11G 6G21G31G 5G22G24G18G30G29G14G12
 125332702.77047  97661814.11047  23850045.9554   23850052.0824   23850045.4444
        43.000          38.000
 105888496.33047  82510499.24247  20149922.6014   20149925.3304   20149923.0034
        54.000          49.000
 111101057.44147  86572244.47347  21141832.5164   21141835.3004   21141831.9994
        54.000          48.000
 123584756.21547  96299795.86347  23517406.4614   23517411.9544   23517406.8604
        45.000          39.000
 121910951.41947  94995544.72847  23198883.4634   23198884.4844   23198883.4784
        48.000          41.000
 122468730.93947  95430146.92747  23305050.5314   23305056.5604   23305050.7044
        46.000          40.000
 119037208.79247  92756260.50347  22652031.5714   22652034.5324   22652032.0214
        49.000          43.000
 119033091.21347  92753040.67247  22651256.6824   22651260.8824   22651256.2514
        50.000          43.000
 127730785.72247  99530464.04747  24306373.7024   24306377.9174   24306373.2334
        43.000          39.000
 119311679.40147  92970121.23847  22704271.5794   22704275.1104   22704271.8204
        48.000          43.000
 129165662.90347 100648550.45447  24579421.9504   24579426.6564   24579421.8934
        42.000          37.000
 09  1 18  1  6 30.0000000  0 11G 6G21G31G 5G22G24G18G30G29G14G12
 125319541.02147  97651558.20547  23847540.9164   23847547.5104   23847541.5074
        43.000          38.000
 105924802.53647  82538789.77847  20156831.2754   20156834.3464   20156831.6044
        54.000          49.000
 111037412.57447  86522651.09447  21129721.3974   21129724.0414   21129721.0984
        54.000          48.000
 123591743.25747  96305240.30447  23518735.8644   23518741.1784   23518736.3894
        45.000          39.000
 121860626.09347  94956330.16047  23189306.7954   23189307.9974   23189306.8464
        48.000          41.000
 122557443.68547  95499273.72847  23321932.1554   23321937.9334   23321932.3344
        46.000          40.000
 118999677.59247  92727015.40147  22644889.4314   22644892.6474   22644889.8094
        49.000          42.000
 119011145.31947  92735939.95647  22647080.7714   22647085.3674   22647080.6634
        50.000          43.000
 127791829.93047  99578030.98047  24317989.6004   24317994.7394   24317989.4544
        44.000          38.000
 119352628.86047  93002029.92047  22712063.9564   22712067.0024   22712064.0124
        48.000          42.000
 129185290.51347 100663844.73447  24583156.5564   24583161.5474   24583156.7604
        42.000          37.000
 09  1 18  1  7  0.0000000  0 11G 6G21G31G 5G22G24G18G30G29G14G12
 125306574.43447  97641454.40147  23845073.7104   23845079.9404   23845073.7494
        44.000          38.000
 105961695.62347  82567537.62647  20163851.8724   20163854.8244   20163852.2714
        54.000          49.000
 110974236.27647  86473422.82847  21117699.3954   21117701.9894   21117698.8584
        54.000          48.000
 123599019.22447  96310909.88947  23520120.4204   23520125.9454   23520120.7674
        45.000          39.000
 121810157.59447  94917004.01247  23179703.4994   23179703.9444   23179703.7044
        48.000          41.000
 122646405.51647  95568594.63047  23338860.7384   23338866.9334   23338861.1024
        46.000          40.000
 118962177.33147  92697794.40947  22637753.3824   22637756.5124   22637753.8394
        49.000          42.000
 118989359.99347  92718964.36347  22642935.0904   22642939.6134   22642934.8984
        50.000          43.000
 127852668.91647  99625438.01147  24329566.6274   24329571.4524   24329566.8964
        44.000          38.000
 119393623.95347  93033974.15247  22719865.0384   22719868.4534   22719864.9624
        48.000          42.000
 129205170.99547 100679336.07047  24586940.5734   24586944.8724   24586939.8464
        43.000          37.000
 09  1 18  1  7 30.0000000  0 11G 6G21G31G 5G22G24G18G30G29G14G12
 125293803.80547  97631503.26447  23842643.4884   23842649.5004   23842644.1674
        44.000          38.000
 105999176.76647  82596743.69747  20170984.3654   20170987.1514   20170984.7624
        55.000          49.000
 110911532.95947  86424563.11647  21105767.4204   21105769.8884   21105767.0794
        54.000          48.000
 123606588.18647  96316807.77447  23521560.5594   23521566.4124   23521560.8564
        45.000          39.000
 121759549.51347  94877569.12847  23170072.7624   23170073.7314   23170072.7914
        47.000          41.000
 122735616.43747  95638109.61847  23355837.0244   23355843.2864   23355837.1794
        46.000          40.000
 118924713.22047  92668601.56847  22630624.2014   22630627.1684   22630624.7904
        49.000          42.000
 118967740.35747  92702117.87147  22638820.9704   22638825.8284   22638820.7464
        49.000          43.000
 127913304.37347  99672686.42647  24341105.3854   24341110.3264   24341105.5824
        43.000          38.000
 119434664.43947  93065953.75347  22727674.7294   22727678.0754   22727675.0054
        48.000          42.000
 129225308.07547 100695027.32847  24590771.4204   24590776.2494   24590771.2614
        41.000          37.000
 09  1 18  1  8  0.0000000  0 11G 6G21G31G 5G22G24G18G30G29G14G12
 125281224.60647  97621701.30747  23840250.0874   23840256.3384   23840249.6064
        44.000          38.000
 106037241.41447  82626404.44747  20178227.9404   20178230.6484   20178228.4074
        54.000          49.000
 110849301.95247  86376071.43747  21093924.9354   21093927.6204   21093924.5264
        54.000          48.000
 123614448.75047  96322932.89747  23523056.8114   23523062.4124   23523057.1984
        46.000          40.000
 121708800.57947  94838024.46347  23160415.2864   23160417.1344   23160415.1854
        47.000          41.000
 122825071.19147  95707814.62447  23372859.5264   23372866.0584   23372859.6534
        45.000          40.000
 118887284.40247  92639436.23147  22623501.9944   22623504.4804   22623502.5514
        49.000          42.000
 118946285.45047  92685399.75547  22634738.1894   22634742.5664   22634738.0944
        50.000          43.000
 127973732.49747  99719773.31347  24352603.9794   24352609.1454   24352604.0074
        42.000          38.000
 119475744.91147  93097964.51447  22735492.3664   22735495.3864   22735492.6234
        48.000          42.000
 129245699.90747 100710917.12947  24594652.0104   24594656.4924   24594652.1454
        43.000          37.000
 09  1 18  1  8 30.0000000  0 11G 6G21G31G 5G22G24G18G30G29G14G12
 125268837.84747  97612049.28147  23837892.9294   23837898.8614   23837892.8824
        44.000          38.000
 106075890.70847  82656520.75847  20185582.5824   20185585.4624   20185583.0404
        54.000          49.000
 110787547.83247  86327951.37047  21082173.3954   21082176.3354   21082173.1564
        54.000          48.000
 123622605.04347  96329288.44047  23524608.8424   23524614.2804   23524609.1734
        46.000          40.000
 121657914.63847  94798373.03747  23150732.2514   23150733.5634   23150732.3344
        47.000          40.000
 122914769.82847  95777709.65747  23389928.8474   23389935.2314   23389928.7874
        46.000          40.000
 118849895.41247  92610301.93347  22616386.8264   22616389.7324   22616387.4184
        49.000          42.000
 118925000.29447  92668813.90647  22630687.6444   22630692.2664   22630687.2514
        50.000          43.000
 128033955.07047  99766700.03647  24364063.9564   24364068.7734   24364063.9134
        42.000          37.000
 119516865.34847  93130006.41047  22743316.8504   22743320.1254   22743317.3174
        48.000          42.000
 129266350.24447 100727008.34147  24598581.6784   24598585.7284   24598581.3364
        42.000          37.000
 09  1 18  1  9  0.0000000  0 11G 6G21G31G 5G22G24G18G30G29G14G12
 125256639.75947  97602544.29647  23835571.4494   23835577.7434   23835571.3734
        44.000          38.000
 106115121.14447  82687089.90947  20193047.9764   20193050.7554   20193048.3244
        54.000          49.000
 110726270.79947  86280203.05347  21070512.5684   21070515.6284   21070512.1494
        54.000          48.000
 123631056.65847  96335874.11747  23526217.2244   23526222.7864   23526217.8024
        45.000          40.000
 121606891.26447  94758614.53247  23141022.6634   23141024.0944   23141022.8124
        47.000          41.000
 123004707.94347  95847791.30347  23407043.8514   23407049.6904   23407044.2004
        46.000          40.000
 118812546.99547  92581199.24447  22609280.1614   22609282.4974   22609280.5254
        50.000          43.000
 118903885.22247  92652360.58647  22626669.6354   22626674.2454   22626669.3594
        49.000          43.000
 128093968.95347  99813464.14147  24375483.8934   24375488.7624   24375483.8504
        42.000          37.000
 119558021.30047  93162075.98247  22751148.5704   22751152.0004   22751148.8234
        47.000          42.000
 129287258.16447 100743300.28047  24602560.4794   24602564.7774   24602560.3034
        40.000          37.000
 09  1 18  1  9 30.0000000  0 11G 6G21G31G 5G22G24G18G30G29G14G12
 125244629.70447  97593185.81147  23833286.5194   23833292.2514   23833286.5304
        44.000          38.000
 106154932.25147  82718111.52947  20200623.7524   20200626.4864   20200624.1824
        55.000          49.000
 110665473.89947  86232828.86547  21058943.4724   21058946.3114   21058943.1884
        54.000          48.000
 123639806.05247  96342691.83647  23527881.8654   23527887.9704   23527882.4724
        46.000          40.000
 121555733.01447  94718750.93547  23131287.2404   23131288.8964   23131287.1994
        47.000          41.000
 123094883.72947  95918058.15047  23424203.3894   23424209.7904   23424203.4534
        46.000          40.000
 118775242.16147  92552130.49447  22602181.3684   22602183.4844   22602181.7354
        50.000          42.000
 118882943.29047  92636042.17547  22622684.3194   22622689.1874   22622683.9964
        50.000          43.000
 128153774.46047  99860065.86147  24386864.4304   24386869.3724   24386864.7604
        43.000          37.000
 119599211.36947  93194172.13947  22758987.0584   22758990.0624   22758987.1054
        47.000          42.000
 129308426.12347 100759794.82247  24606588.7084   24606592.5554   24606588.5694
        41.000          37.000
 09  1 18  1 10  0.0000000  0 11G 6G21G31G 5G22G24G18G30G29G14G12
 125232805.24847  97583971.96147  23831035.9834   23831042.2024   23831035.9614
        44.000          39.000
 106195321.80647  82749583.89547  20208309.5364   20208312.4104   20208309.9174
        54.000          49.000
 110605158.19947  86185829.63847  21047465.7334   21047468.5874   21047465.3174
        54.000          48.000
 123648853.98647  96349742.18047  23529603.9994   23529609.6944   23529604.2494
        45.000          39.000
 121504440.47847  94678782.67947  23121527.2934   23121528.3644   23121527.4254
        48.000          41.000
 123185294.01747  95988507.73147  23441408.0644   23441414.4074   23441408.0064
        45.000          40.000
 118737982.34847  92523096.84847  22595090.9984   22595093.8684   22595091.4194
        50.000          42.000
 118862176.20747  92619860.01447  22618732.7494   22618737.3094   22618732.3244
        49.000          43.000
 128213369.78447  99906503.81247  24398205.7104   24398209.9804   24398205.0824
        43.000          37.000
 119640432.33847  93226292.37947  22766830.9004   22766834.1674   22766830.9364
        47.000          42.000
 129329854.38047 100776492.18947  24610666.5994   24610670.4394   24610666.1194
        42.000          37.000
 09  1 18  1 10 30.0000000  0 11G 6G21G31G 5G22G24G18G30G29G14G12
 125221166.92147  97574903.13447  23828821.1474   23828827.8194   23828821.0054
        44.000          39.000
 106236290.42647  82781507.47547  20216105.5424   20216108.4254   20216105.9674
        54.000          49.000
 110545328.09747  86139208.80047  21036080.5064   21036083.2784   21036080.1534
        54.000          48.000
 123658204.23347  96357028.11147  23531382.9094   23531388.6654   23531383.0534
        45.000          39.000
 121453017.11147  94638712.49147  23111741.7244   23111742.7754   23111741.7634
        48.000          41.000
 123275938.84847  96059140.07347  23458657.2274   23458663.9044   23458657.3704
        46.000          39.000
 118700772.34947  92494102.01347  22588009.9664   22588013.3184   22588010.5114
        50.000          43.000
 118841588.56747  92603817.68947  22614815.0754   22614819.5514   22614814.7634
        50.000          43.000
 128272756.36647  99952779.11747  24409506.2704   24409511.1604   24409506.1294
        42.000          37.000
 119681683.83847  93258436.40247  22774681.1754   22774684.0754   22774681.2514
        48.000          42.000
 129351546.39447 100793395.07247  24614794.3174   24614798.6234   24614794.3784
        42.000          37.000
 09  1 18  1 11  0.0000000  0 11G 6G21G31G 5G22G24G18G30G29G14G12
 125209711.13847  97565976.55947  23826641.2644   23826647.4024   23826641.6054
        44.000          39.000
 106277834.37547  82813879.36747  20224011.0504   20224014.2884   20224011.3384
        54.000          49.000
 110485983.56547  86092966.32447  21024787.6974   21024790.4484   21024787.2144
        54.000          48.000
 123667856.27547  96364549.18947  23533219.5474   23533225.4954   23533219.8784
        45.000          39.000
 121401462.52347  94598540.04047  23101931.2934   23101932.2044   23101931.3384
        48.000          41.000
 123366813.64847  96129951.59947  23475950.0744   23475956.2774   23475950.5624
        46.000          39.000
 118663612.34147  92465146.12247  22580938.5374   22580941.7414   22580939.0694
        50.000          43.000
 118821180.23147  92587915.05747  22610931.7124   22610936.2374   22610931.2974
        50.000          43.000
 128331931.28347  99998889.48447  24420766.9454   24420772.0314   24420766.5984
        43.000          37.000
 119722961.19647  93290600.57147  22782535.6944   22782539.0984   22782536.1584
        47.000          42.000
 129373501.52747 100810503.01447  24618972.3334   24618976.1564   24618972.5854
        42.000          37.000
 09  1 18  1 11 30.0000000  0 11G 6G21G31G 5G22G24G18G30G29G14G12
 125198437.46147  97557191.88447  23824495.7264   23824502.5664   23824495.7464
        43.000          39.000
 106319953.13747  82846699.15947  20232026.2694   20232029.2274   20232026.7354
        54.000          49.000
 110427127.81047  86047104.71547  21013587.8174   21013590.4934   21013587.5194
        54.000          48.000
 123677812.71747  96372307.46747  23535114.2304   23535119.9774   23535114.7584
        45.000          39.000
 121349779.38447  94558267.41347  23092096.3074   23092097.6524   23092096.2654
        48.000          41.000
 123457917.10647  96200941.31047  23493286.6954   23493292.9794   23493287.1024
        45.000          39.000
 118626505.79747  92436231.91247  22573877.4084   22573880.7104   22573877.7614
        49.000          43.000
 118800955.16247  92572155.23647  22607082.9634   22607087.3744   22607082.6864
        50.000          43.000
 128390894.91647 100044835.22247  24431987.5024   24431992.2464   24431987.4204
        43.000          38.000
 119764263.21647  93322783.96147  22790395.0964   22790398.6424   22790395.3054
        48.000          42.000
 129395721.82647 100827817.56347  24623200.0094   24623204.8694   24623200.0864
        42.000          37.000
 09  1 18  1 12  0.0000000  0 11G 6G21G31G 5G22G24G18G30G29G14G12
 125187343.71547  97548547.41447  23822384.4874   23822391.7864   23822384.7864
        43.000          38.000
 106362644.60347  82879965.22347  20240150.0504   20240153.1084   20240150.3234
        54.000          49.000
 110368762.48447  86001625.25847  21002481.0414   21002483.9724   21002480.6874
        54.000          48.000
 123688074.60547  96380303.76347  23537067.2504   23537072.7174   23537067.5584
        46.000          39.000
 121297968.85947  94517895.53647  23082236.8104   23082238.6324   23082237.0554
        48.000          41.000
 123549246.13547  96272106.78847  23510666.2984   23510672.6204   23510666.1184
        46.000          39.000
 118589454.47047  92407360.70147  22566826.9014   22566829.7464   22566827.5604
        50.000          43.000
 118780915.03647  92556539.53347  22603269.2364   22603273.6274   22603269.0414
        50.000          43.000
 128449645.88347 100090615.24447  24443167.6184   24443172.2014   24443167.6534
        43.000          38.000
 119805587.04647  93354984.35947  22798259.1234   22798262.3714   22798259.3684
        48.000          42.000
 129418208.13347 100845339.39747  24627479.3344   24627483.5044   24627479.1754
        41.000          37.000
 09  1 18  1 12 30.0000000  0 11G 6G21G31G 5G22G24G18G30G29G14G12
 125176428.15147  97540041.79147  23820307.7274   23820314.0884   23820307.5544
        43.000          38.000
 106405907.48247  82913676.53947  20248382.8234   20248385.7164   20248383.2314
        55.000          49.000
 110310889.51747  85956529.45347  20991468.3834   20991470.8904   20991468.1124
        54.000          48.000
 123698643.48947  96388539.27047  23539078.4134   23539084.0244   23539079.0044
        46.000          40.000
 121246032.44547  94477425.56747  23072353.5684   23072355.3174   23072353.6844
        47.000          41.000
 123640798.42347  96343446.22747  23528087.8734   23528093.9444   23528088.2914
        46.000          39.000
 118552461.06347  92378534.63147  22559787.6924   22559790.1544   22559788.0804
        50.000          43.000
 118761062.03447  92541069.64647  22599491.8264   22599495.8994   22599491.4084
        50.000          43.000
 128508183.55647 100136229.05147  24454307.0774   24454311.6334   24454307.1624
        43.000          38.000
 119846930.42947  93387199.98047  22806126.3744   22806129.7774   22806126.6504
        48.000          42.000
 129440961.50247 100863069.32947  24631808.0314   24631814.0344   24631807.8864
        41.000          37.000
 09  1 18  1 13  0.0000000  0 11G 6G21G31G 5G22G24G18G30G29G14G12
 125165689.86147  97531674.30947  23818264.0444   23818270.6464   23818264.6854
        43.000          38.000
 106449740.44547  82947832.07747  20256723.9334   20256726.9284   20256724.4374
        54.000          49.000
 110253511.31747  85911819.18447  20980549.3424   20980552.2804   20980548.9604
        54.000          48.000
 123709521.48947  96397015.64547  23541148.3934   23541153.7844   23541149.0354
        46.000          40.000
 121193972.47147  94436859.32447  23062446.9974   23062448.6434   23062446.9724
        48.000          42.000
 123732571.77847  96414957.93947  23545551.9834   23545557.7574   23545551.9364
        45.000          39.000
 118515528.35947  92349755.86047  22552759.2614   22552762.2524   22552759.9974
        49.000          43.000
 118741398.99847  92525747.77747  22595749.5494   22595754.3594   22595749.0224
        50.000          43.000
 128566507.96647 100181676.68647  24465405.5044   24465409.6364   24465405.3754
        43.000          38.000
 119888291.37547  93419429.28747  22813996.9494   22814000.2814   22813996.9274
        47.000          42.000
 129463983.81647 100881008.83147  24636189.6694   24636194.6654   24636189.4404
        42.000          37.000
 09  1 18  1 13 30.0000000  0 11G 6G21G31G 5G22G24G18G30G29G14G12
 125155125.68447  97523442.51047  23816253.9444   23816260.1084   23816253.6024
        43.000          38.000
 106494140.42947  82982429.45047  20265172.9134   20265176.0854   20265173.2344
        54.000          49.000
 110196628.56747  85867494.97847  20969724.9404   20969727.8444   20969724.4164
        54.000          48.000
 123720708.67647  96405732.94747  23543277.6174   23543282.7224   23543278.1414
        46.000          40.000
 121141788.85347  94396196.71847  23052516.7784   23052518.6004   23052516.6574
        48.000          42.000
 123824562.77947  96486639.23947  23563057.2044   23563062.7094   23563056.8694
        45.000          39.000
 118478657.38047  92321025.19347  22545743.0004   22545746.1204   22545743.2784
        49.000          43.000
 118721927.15347  92510574.89147  22592043.9654   22592049.1314   22592043.4614
        50.000          43.000
 128624616.81147 100226956.33547  24476463.0024   24476467.5254   24476462.9704
        43.000          38.000
 119929666.13447  93451669.37347  22821870.1964   22821873.6064   22821870.4034
        48.000          42.000
 129487274.78047 100899157.67947  24640621.6084   24640627.1184   24640621.4584
        41.000          37.000
 09  1 18  1 14  0.0000000  0 11G 6G21G31G 5G22G24G18G30G29G14G12
 125144735.82047  97515346.53047  23814276.7294   23814282.8964   23814277.1354
        44.000          38.000
 106539107.55047  83017468.75247  20273729.7984   20273733.0664   20273730.1934
        54.000          49.000
 110140244.92047  85823559.68347  20958995.5894   20958998.2204   20958995.2154
        54.000          48.000
 123732208.12047  96414693.55347  23545465.4254   23545471.2244   23545465.8914
        46.000          40.000
 121089484.92047  94355440.36847  23042563.7494   23042565.2684   23042563.8234
        48.000          42.000
 123916770.54247  96558489.43847  23580603.3324   23580609.5674   23580603.6424
        46.000          39.000
 118441852.13347  92292345.74347  22538739.1914   22538742.3984   22538739.6784
        50.000          43.000
 118702650.50047  92495554.10247  22588375.8044   22588381.2014   22588375.5234
        50.000          43.000
 128682510.96747 100272068.69547  24487480.1594   24487484.6394   24487480.0424
        43.000          38.000
 119971053.94947  93483919.62847  22829746.0004   22829749.7114   22829746.0924
        47.000          42.000
 129510837.04947 100917517.96447  24645105.8044   24645110.0304   24645105.3784
        41.000          37.000
 09  1 18  1 14 30.0000000  0 11G 6G21G31G 5G22G24G18G30G29G14G12
 125134518.26647  97507384.82947  23812332.6094   23812338.9014   23812332.6494
        44.000          39.000
 106584639.80947  83052948.42247  20282394.2454   20282397.3604   20282394.6264
        54.000          49.000
 110084362.20247  85780014.71947  20948361.4754   20948364.2364   20948361.0844
        54.000          48.000
 123744021.18747  96423898.53847  23547713.5534   23547719.1434   23547714.1294
        46.000          40.000
 121037062.29547  94314591.52247  23032588.3334   23032589.4694   23032587.9984
        48.000          42.000
 124009192.40247  96630506.47847  23598190.8024   23598196.4304   23598190.9674
        45.000          39.000
 118405115.08047  92263719.40947  22531748.3454   22531751.2374   22531748.9164
        49.000          42.000
 118683571.07547  92480686.99247  22584745.2984   22584750.1044   22584744.8744
        50.000          43.000
 128740189.54447 100317013.06847  24498456.0824   24498460.3684   24498455.8464
        43.000          37.000
 120012452.21447  93516178.00147  22837624.0144   22837627.9094   22837624.1184
        48.000          43.000
 129534671.96347 100936090.66647  24649642.0504   24649645.3864   24649640.6834
        41.000          37.000
 09  1 18  1 15  0.0000000  0 11G 6G21G31G 5G22G24G18G30G29G14G12
 125124471.09347  97499555.89947  23810420.8144   23810427.1074   23810420.8704
        44.000          38.000
 106630735.02647  83088866.76147  20291165.8334   20291168.8944   20291166.2464
        54.000          49.000
 110028981.91947  85736861.26647  20937822.9664   20937825.6704   20937822.5944
        54.000          49.000
 123756148.91047  96433348.74247  23550021.3244   23550027.1474   23550021.8084
        46.000          40.000
 120984522.13847  94273651.09447  23022590.2284   23022591.8404   23022590.1914
        49.000          43.000
 124101825.60647  96702688.21447  23615818.5644   23615823.5954   23615818.4964
        46.000          39.000
 118368447.89347  92235147.53747  22524770.6884   22524773.4224   22524771.1594
        49.000          42.000
 118664690.63747  92465974.95247  22581152.5254   22581157.5064   22581152.2834
        50.000          43.000
 128797651.59747 100361788.72247  24509390.8334   24509394.5634   24509390.2884
        43.000          37.000
 120053858.17747  93548442.39347  22845503.7534   22845506.8814   22845503.9724
        49.000          42.000
 129558780.01047 100954876.20747  24654228.7404   24654232.4834   24654228.5924
        42.000          36.000
 09  1 18  1 15 30.0000000  0 11G 6G21G31G 5G22G24G18G30G29G14G12
 125114591.83447  97491857.79547  23808540.3134   23808546.9414   23808540.8104
        43.000          38.000
 106677390.95947  83125222.01947  20300044.2234   20300047.2904   20300044.6394
        54.000          49.000
 109974105.21947  85694100.21447  20927380.3274   20927383.1114   20927379.8734
        54.000          49.000
 123768592.08047  96443044.73047  23552389.1314   23552395.2434   23552389.5854
        45.000          40.000
 120931865.43147  94232619.85047  23012570.1884   23012571.5584   23012570.4254
        49.000          43.000
 124194666.79547  96775032.01747  23633485.7354   23633490.9894   23633486.1024
        46.000          39.000
 118331852.48147  92206631.60347  22517807.0644   22517810.2254   22517807.3494
        49.000          42.000
 118646010.84447  92451419.27047  22577597.9044   22577602.8534   22577597.3104
        50.000          43.000
 128854896.00447 100406394.81947  24520284.2604   24520288.3174   24520284.0494
        42.000          38.000
 120095268.66247  93580710.31047  22853383.7554   22853386.9654   22853383.8354
        48.000          42.000
 129583161.67947 100973874.95147  24658868.0474   24658873.0504   24658867.8564
        40.000          37.000
 09  1 18  1 16  0.0000000  0 11G 6G21G31G 5G22G24G18G30G29G14G12
 125104879.79947  97484290.01147  23806692.2214   23806698.4624   23806692.0654
        43.000          38.000
 106724606.45047  83162013.29947  20309029.0734   20309032.2844   20309029.4054
        54.000          49.000
 109919735.07847  85651733.88547  20917033.8844   20917036.9124   20917033.6404
        54.000          49.000
 123781353.02447  96452988.32947  23554817.4734   23554823.2664   23554817.9944
        45.000          40.000
 120879094.82247  94191499.85447  23002528.3424   23002529.9904   23002528.4654
        50.000          43.000
 124287714.59547  96847536.80647  23651192.1654   23651197.5224   23651192.5764
        45.000          39.000
 118295332.32947  92178174.30547  22510857.4134   22510860.8924   22510857.8964
        50.000          43.000
 118627535.09047  92437022.56547  22574082.4424   22574086.7774   22574082.3094
        50.000          43.000
 128911922.65247 100450831.24747  24531135.9874   24531139.8874   24531135.6094
        43.000          37.000
 120136682.71347  93612981.00847  22861264.5584   22861267.9924   22861264.6704
        48.000          42.000
 129607818.90347 100993088.42347  24663560.2014   24663564.5394   24663560.6084
        42.000          37.000
 09  1 18  1 16 30.0000000  0 11G 6G21G31G 5G22G24G18G30G29G14G12
 125095332.64547  97476850.69247  23804875.4804   23804882.1404   23804875.0764
        44.000          38.000
 106772378.99747  83199238.64847  20318120.0004   20318123.1074   20318120.5174
        54.000          49.000
 109865872.31547  85609762.91547  20906784.3114   20906787.0904   20906783.8134
        54.000          49.000
 123794432.48847  96463180.14447  23557306.1604   23557311.9274   23557306.8344
        45.000          39.000
 120826211.27247  94150291.85047  22992465.1124   22992466.5634   22992465.1954
        50.000          43.000
 124380965.67947  96920200.00247  23668937.1254   23668943.0404   23668937.3964
        45.000          39.000
 118258889.22747  92149777.03347  22503923.0914   22503925.7564   22503923.7084
        50.000          43.000
 118609264.93047  92422786.07047  22570605.6934   22570610.1704   22570605.4014
        50.000          43.000
 128968730.35547 100495097.03647  24541946.0574   24541950.0254   24541946.0144
        43.000          38.000
 120178097.01847  93645251.89547  22869145.7244   22869148.7934   22869145.6414
        48.000          42.000
 129632752.24647 101012517.06247  24668305.4374   24668309.6414   24668305.4324
        42.000          36.000
 09  1 18  1 17  0.0000000  0 11G 6G21G31G 5G22G24G18G30G29G14G12
 125085949.42047  97469539.10447  23803089.6654   23803096.0964   23803089.7934
        44.000          38.000
 106820707.65847  83236897.33547  20327316.5614   20327319.7404   20327316.8734
        54.000          49.000
 109812519.46847  85568189.27947  20896631.4434   20896634.3344   20896631.1494
        54.000          49.000
 123807832.41747  96473621.63047  23559856.2154   23559862.0294   23559856.6494
        45.000          40.000
 120773216.90747  94108997.50147  22982380.5374   22982381.8094   22982380.4834
        49.000          43.000
 124474418.15347  96993020.11747  23686720.2134   23686726.5714   23686720.3544
        44.000          39.000
 118222525.67047  92121441.74047  22497003.1544   22497006.2044   22497003.6754
        50.000          43.000
 118591203.44947  92408712.18647  22567168.4544   22567173.1544   22567168.0554
        50.000          43.000
 129025318.85847 100539192.04647  24552714.6024   24552718.3984   24552715.4094
        44.000          38.000
 120219509.61447  93677521.45747  22877025.9044   22877029.2294   22877026.3394
        49.000          42.000
 129657963.22847 101032162.04547  24673103.0464   24673107.7224   24673102.5904
        41.000          36.000
 09  1 18  1 17 30.0000000  0 11G 6G21G31G 5G22G24G18G30G29G14G12
 125076728.09447  97462353.67947  23801335.5684   23801341.6104   23801335.8024
        45.000          39.000
 106869590.39447  83274987.77147  20336618.7534   20336621.6994   20336619.1154
        54.000          49.000
 109759678.30347  85527014.35647  20886576.1414   20886578.8454   20886575.6714
        54.000          49.000
 123821554.13147  96484313.91147  23562467.0964   23562473.0464   23562467.4414
        45.000          39.000
 120720113.42947  94067618.12547  22972275.1824   22972276.4464   22972275.1874
        49.000          43.000
 124568069.71347  97065995.36247  23704541.1214   23704548.0894   23704541.1654
        44.000          38.000
 118186244.15647  92093170.38847  22490098.8284   22490102.0154   22490099.2894
        50.000          43.000
 118573352.55647  92394802.39847  22563771.5644   22563776.6554   22563771.1034
        50.000          43.000
 129081687.87847 100583116.08747  24563441.6504   24563444.9594   24563440.9874
        43.000          38.000
 120260918.40347  93709788.05147  22884905.8514   22884909.0654   22884905.9774
        47.000          42.000
 129683452.94047 101052024.18647  24677953.2474   24677957.5614   24677953.3474
        42.000          36.000
 09  1 18  1 18  0.0000000  0 11G 6G21G31G 5G22G24G18G30G29G14G12
 125067666.57947  97455292.77247  23799610.9484   23799616.9654   23799610.9634
        44.000          38.000
 106919024.64947  83313507.96347  20346025.8424   20346028.7384   20346026.1704
        55.000          48.000
 109707350.14047  85486239.17747  20876618.5204   20876621.2764   20876618.1954
        54.000          49.000
 123835598.53747  96495257.59547  23565139.7064   23565145.6864   23565139.8984
        45.000          39.000
 120666902.02947  94026154.66547  22962149.3194   22962150.9054   22962149.4774
        49.000          43.000
 124661917.37847  97139123.42447  23722399.7264   23722406.1864   23722400.2654
        44.000          39.000
 118150046.93347  92064964.71447  22483210.8724   22483213.7454   22483211.4104
        50.000          43.000
 118555713.89647  92381057.99247  22560414.8834   22560420.0614   22560414.5804
        50.000          43.000
 129137836.12547 100626868.09147  24574125.7964   24574129.4654   24574125.1324
        43.000          38.000
 120302320.62047  93742049.52147  22892784.1034   22892787.7034   22892784.5064
        48.000          42.000
 129709221.74947 101072103.83147  24682856.8814   24682860.8674   24682856.9494
        41.000          36.000
 09  1 18  1 18 30.0000000  0 11G 6G21G31G 5G22G24G18G30G29G14G12
 125058765.13447  97448356.60347  23797916.4624   23797923.4444   23797915.9904
        44.000          38.000
 106969010.69447  83352458.11847  20355537.9124   20355540.8374   20355538.3464
        55.000          49.000
 109655538.66947  85445866.62047  20866759.1084   20866761.9144   20866758.8024
        54.000          49.000
 123849968.83647  96506455.23947  23567874.5934   23567880.1234   23567875.4064
        45.000          39.000
 120613586.35047  93984609.93647  22952003.7484   22952005.3764   22952003.8684
        49.000          42.000
 124755960.38347  97212403.72247  23740295.7324   23740301.5834   23740296.0894
        45.000          39.000
 118113938.25447  92036828.04847  22476339.8594   22476342.5214   22476340.3824
        50.000          43.000
 118538291.99647  92367482.49247  22557099.4674   22557104.4744   22557099.1804
        49.000          43.000
 129193764.79947 100670449.04047  24584768.3284   24584772.3754   24584768.1244
        41.000          37.000
 120343715.48947  93774305.27047  22900661.4584   22900664.7354   22900661.7784
        47.000          42.000
 129735272.60847 101092403.25147  24687814.5114   24687819.4654   24687814.2814
        41.000          36.000
 09  1 18  1 19  0.0000000  0 11G 6G21G31G 5G22G24G18G30G29G14G12
 125050020.05047  97441542.26247  23796252.5614   23796258.9664   23796252.6964
        44.000          38.000
 107019544.29147  83391834.93847  20365154.2284   20365157.0544   20365154.6724
        55.000          48.000
 109604243.66947  85405896.50547  20856997.8144   20857000.7784   20856997.4304
        54.000          49.000
 123864664.35847  96517906.31047  23570670.9504   23570676.5514   23570671.2274
        45.000          39.000
 120560166.35947  93942983.94747  22941838.1404   22941839.9104   22941838.2704
        48.000          42.000
 124850194.45647  97285832.89447  23758228.0154   23758233.2434   23758228.0404
        45.000          38.000
 118077918.62147  92008760.75447  22469485.5914   22469488.4784   22469486.0184
        51.000          43.000
 118521086.90947  92354075.93947  22553825.5414   22553830.5394   22553825.2864
        50.000          43.000
 129249471.38647 100713856.95847  24595368.9914   24595372.8064   24595368.3314
        42.000          37.000
 120385098.95447  93806552.14147  22908536.3804   22908539.7244   22908536.6184
        47.000          42.000
 129761604.62247 101112921.74847  24692825.6014   24692828.8234   24692824.6784
        41.000          36.000
 09  1 18  1 19 30.0000000  0 11G 6G21G31G 5G22G24G18G30G29G14G12
 125041429.66647  97434848.48447  23794617.9534   23794623.9184   23794618.2774
        45.000          38.000
 107070623.57547  83431636.97247  20374874.0854   20374877.0484   20374874.4414
        54.000          48.000
 109553466.65847  85366330.01547  20847335.4464   20847338.1924   20847334.9934
        54.000          49.000
 123879686.56847  96529611.93047  23573529.4904   23573535.4624   23573529.7494
        45.000          39.000
 120506643.28947  93901277.62847  22931653.0894   22931654.7154   22931653.0004
        48.000          42.000
 124944617.07247  97359408.97647  23776195.9554   23776202.2334   23776196.1914
        44.000          38.000
 118041990.21847  91980764.54447  22462648.7084   22462651.4134   22462649.3274
        51.000          43.000
 118504101.09547  92340840.24447  22550593.1644   22550598.4374   22550592.7274
        50.000          43.000
 129304955.19147 100757091.17447  24605926.7604   24605931.2494   24605926.1554
        41.000          37.000
 120426468.57947  93838788.21547  22916408.4254   22916412.3334   22916408.5714
        47.000          42.000
 129788218.87247 101133660.16047  24697889.0414   24697893.3794   24697889.1354
        41.000          36.000
 09  1 18  1 20  0.0000000  0 11G 6G21G31G 5G22G24G18G30G29G14G12
 125032993.30147  97428274.70147  23793012.3714   23793018.6334   23793013.3644
        44.000          38.000
 107122247.57447  83471863.45747  20384697.8894   20384700.7254   20384698.4924
        55.000          48.000
 109503210.59147  85327169.45747  20837771.8984   20837774.7624   20837771.6534
        54.000          49.000
 123895037.78247  96541573.91447  23576450.7474   23576456.3604   23576451.3164
        44.000          39.000
 120453020.37747  93859493.51747  22921449.0314   22921450.5624   22921449.1044
        48.000          42.000
 125039226.84247  97433130.89147  23794199.4754   23794205.9094   23794199.8494
        44.000          38.000
 118006156.81047  91952842.37047  22455829.9604   22455832.8194   22455830.4954
        50.000          43.000
 118487337.73247  92327777.90147  22547403.5464   22547408.4104   22547403.4294
        50.000          43.000
 129360217.15247 100800152.60347  24616441.7974   24616447.2804   24616442.0354
        41.000          37.000
 120467823.24047  93871012.62347  22924278.0574   22924282.0024   22924278.2384
        47.000          42.000
 129815117.19347 101154619.97647  24703008.7644   24703012.7834   24703008.3114
        41.000          36.000
 09  1 18  1 20 30.0000000  0 11G 6G21G31G 5G22G24G18G30G29G14G12
 125024707.01547  97421817.86347  23791435.4544   23791442.0334   23791435.2254
        42.000          38.000
 107174411.99947  83512511.06347  20394624.3104   20394627.3954   20394624.6994
        54.000          48.000
 109453474.90747  85288414.40147  20828307.4294   20828310.2184   20828307.0364
        54.000          49.000
 123910717.19647  96553791.62947  23579434.6164   23579439.6924   23579434.7264
        44.000          39.000
 120399297.06247  93817631.17047  22911225.9414   22911227.2634   22911225.8624
        49.000          42.000
 125134018.91447  97506994.86447  23812237.1174   23812243.9124   23812237.6684
        44.000          38.000
 117970418.65347  91924994.42047  22449028.6904   22449032.0134   22449029.1344
        50.000          43.000
 118470797.19547  92314889.18147  22544256.1024   22544260.5394   22544255.6594
        50.000          43.000
 129415253.90747 100843038.54347  24626915.1924   24626919.9754   24626915.1504
        42.000          37.000
 120509158.42647  93903221.86247  22932144.2274   22932147.2044   22932144.3414
        47.000          42.000
 129842298.43147 101175800.22147  24708179.8374   24708184.7244   24708180.2094
        42.000          36.000
 09  1 18  1 21  0.0000000  0 11G 6G21G31G 5G22G24G18G30G29G14G12
 125016571.96147  97415478.86247  23789887.6374   23789893.9364   23789887.8474
        43.000          38.000
 107227117.42347  83553580.21447  20404653.9214   20404657.0484   20404654.4474
        54.000          48.000
 109404263.67647  85250068.00047  20818942.7114   20818945.5874   20818942.1534
        54.000          49.000
 123926728.49247  96566267.95447  23582481.1424   23582487.3884   23582481.7604
        44.000          39.000
 120345477.53547  93775693.85647  22900984.5494   22900985.7454   22900984.6484
        48.000          42.000
 125228993.37747  97581000.96147  23830310.3094   23830316.8454   23830310.8014
        43.000          38.000
 117934780.80947  91897224.62947  22442247.2014   22442250.5894   22442247.3924
        50.000          43.000
 118454484.57747  92302178.06447  22541151.6984   22541156.1204   22541151.3774
        50.000          43.000
 129470067.74047 100885750.79647  24637345.7134   24637350.3194   24637345.3594
        40.000          37.000
 120550474.34247  93935416.09147  22940006.3334   22940009.4284   22940006.5154
        47.000          42.000
 129869766.37147 101197203.87047  24713406.5624   24713410.9524   24713406.6104
        41.000          36.000
 09  1 18  1 21 30.0000000  0 11G 6G21G31G 5G22G24G18G30G29G14G12
 125008586.43947  97409256.37447  23788368.2384   23788374.3124   23788368.5504
        44.000          38.000
 107280362.75047  83595070.07647  20414786.1354   20414789.1564   20414786.4844
        55.000          48.000
 109355579.20147  85212132.06147  20809678.5964   20809681.3514   20809678.3554
        54.000          49.000
 123943073.42347  96579004.25347  23585591.4574   23585597.6504   23585591.9324
        44.000          39.000
 120291564.29547  93733683.51247  22890725.0394   22890726.4184   22890724.9404
        48.000          42.000
 125324148.45547  97655147.80047  23848418.1564   23848424.4864   23848418.3374
        43.000          38.000
 117899246.00647  91869535.12347  22435485.5874   22435488.5534   22435485.7844
        50.000          43.000
 118438401.94947  92289646.15947  22538091.1704   22538095.5514   22538090.8874
        50.000          43.000
 129524659.02047 100928289.67547  24647734.0534   24647738.6464   24647734.5924
        40.000          37.000
 120591769.20347  93967593.91047  22947864.2174   22947867.8594   22947864.5944
        47.000          42.000
 129897522.28747 101218831.93547  24718689.0414   24718693.3584   24718688.6984
        42.000          36.000
 09  1 18  1 22  0.0000000  0 11G 6G21G31G 5G22G24G18G30G29G14G12
 125000746.07647  97403147.01747  23786876.1144   23786882.5964   23786876.2864
        44.000          38.000
 107334142.87247  83636976.66047  20425020.2844   20425023.2614   20425020.8104
        55.000          48.000
 109307420.60547  85174605.89547  20800514.2364   20800516.9864   20800513.8624
        54.000          49.000
 123959750.69847  96591999.51547  23588765.7024   23588770.9654   23588765.6914
        45.000          39.000
 120237556.25447  93691599.30447  22880447.7184   22880449.1004   22880447.9394
        48.000          42.000
 125419478.87347  97729431.27647  23866558.7534   23866565.3374   23866558.0374
        44.000          38.000
 117863814.00447  91841925.72447  22428743.1644   22428746.1244   22428743.5234
        50.000          43.000
 118422548.93847  92277293.18147  22535074.8654   22535079.0074   22535074.6874
        50.000          43.000
 129579023.88547 100970651.99647  24658079.1074   24658084.5134   24658078.9614
        41.000          37.000
 120633038.38047  93999751.71847  22955717.7044   22955721.3404   22955717.7704
        47.000          42.000
 129925564.26847 101240682.90847  24724025.0794   24724029.1434   24724025.3004
        40.000          36.000
 09  1 18  1 22 30.0000000  0 11G 6G21G31G 5G22G24G18G30G29G14G12
 124993051.84847  97397151.51547  23785412.1634   23785418.4034   23785412.2924
        44.000          38.000
 107388458.24847  83679300.33047  20435356.0734   20435359.1774   20435356.4194
        55.000          48.000
 109259791.60647  85137492.40347  20791450.8244   20791453.4904   20791450.4364
        54.000          49.000
 123976763.75947  96605256.41847  23592003.2724   23592008.8394   23592003.7784
        44.000          39.000
 120183458.08247  93649444.87347  22870153.1834   22870154.8344   22870153.1064
        48.000          42.000
 125514984.29547  97803851.11147  23884732.2284   23884738.7604   23884732.2664
        43.000          38.000
 117828490.03947  91814400.52347  22422020.7884   22422024.1674   22422021.1244
        50.000          43.000
 118406930.37947  92265122.88447  22532102.4994   22532107.3564   22532102.2824
        50.000          43.000
 129633164.61047 101012839.75247  24668380.8204   24668386.6584   24668380.2594
        40.000          36.000
 120674281.95547  94031889.58847  22963566.2344   22963569.3954   22963566.4874
        47.000          42.000
 129953896.04947 101262759.67547  24729416.0084   24729420.9244   24729415.9134
        40.000          35.000
 09  1 18  1 23  0.0000000  0 11G 6G21G31G 5G22G24G18G30G29G14G12
 124985500.33347  97391267.22947  23783974.4294   23783981.0384   23783974.2254
        43.000          38.000
 107443305.07947  83722038.11747  20445793.1844   20445796.1614   20445793.6344
        54.000          48.000
 109212692.37947  85100791.71547  20782488.1304   20782490.9764   20782487.7044
        54.000          49.000
 123994112.73547  96618775.10047  23595304.3694   23595309.6944   23595304.8094
        44.000          39.000
 120129269.84847  93607220.25847  22859841.7144   22859843.0314   22859841.7734
        49.000          42.000
 125610661.28747  97878404.61947  23902939.4804   23902945.5834   23902940.0084
        43.000          37.000
 117793274.89247  91786960.11447  22415319.8274   22415323.0354   22415320.0254
        50.000          43.000
 118391547.25647  92253136.04647  22529175.3234   22529179.8624   22529175.2734
        50.000          43.000
 129687079.45647 101054851.36847  24678640.8814   24678646.2714   24678640.4294
        41.000          36.000
 120715495.92947  94064004.38647  22971408.9894   22971411.8114   22971408.8424
        47.000          41.000
 129982516.75447 101285061.58647  24734862.1954   24734866.5054   24734861.9394
        41.000          36.000
 09  1 18  1 23 30.0000000  0 11G 6G21G31G 5G22G24G18G30G29G14G12
 124978091.18047  97385493.86947  23782564.7744   23782571.4084   23782565.2664
        44.000          38.000
 107498682.63747  83765189.45247  20456331.0754   20456334.1874   20456331.4974
        54.000          48.000
 109166125.65647  85064505.96947  20773626.8154   20773629.4484   20773626.4064
        54.000          49.000
 124011799.76647  96632557.19247  23598670.2284   23598675.7004   23598670.7654
        44.000          39.000
 120074994.56047  93564927.81447  22849513.6614   22849514.8664   22849513.9034
        49.000          43.000
 125706508.30647  97953090.63447  23921178.4104   23921184.8054   23921178.4934
        43.000          38.000
 117758172.29347  91759607.40547  22408639.7234   22408643.1424   22408640.2504
        50.000          43.000
 118376402.81547  92241335.19047  22526293.1874   22526297.7594   22526292.9404
        50.000          43.000
 129740768.58547 101096687.07047  24688858.3544   24688862.9464   24688857.7514
        40.000          36.000
 120756679.26247  94096095.30447  22979245.7914   22979248.7584   22979245.9454
        47.000          42.000
 130011428.87847 101307590.60247  24740363.6984   24740368.4024   24740363.9344
        41.000          36.000
 09  1 18  1 24  0.0000000  0 11G 6G21G31G 5G22G24G18G30G29G14G12
 124970821.23147  97379828.99347  23781181.7604   23781187.8754   23781181.5834
        44.000          38.000
 107554587.32347  83808751.53747  20466969.5174   20466972.5464   20466969.8574
        55.000          48.000
 109120091.85847  85028635.49247  20764866.9794   20764869.5344   20764866.6924
        54.000          49.000
 124029824.89047  96646602.71647  23602100.3724   23602105.7924   23602101.0064
        44.000          39.000
 120020633.02147  93522568.15447  22839169.0634   22839170.1294   22839169.0154
        49.000          43.000
 125802521.57647  98027906.18947  23939449.0084   23939455.8834   23939448.3274
        43.000          37.000
 117723183.57547  91732343.42247  22401981.9234   22401985.0704   22401982.1744
        50.000          43.000
 118361498.30647  92229721.31547  22523456.8974   22523461.9794   22523456.6554
        50.000          43.000
 129794230.41747 101138345.47847  24699031.6424   24699036.2634   24699030.8624
        41.000          36.000
 120797828.83047  94128159.92347  22987076.2054   22987079.5034   22987076.3094
        47.000          42.000
 130040631.67747 101330346.10147  24745920.6864   24745926.0424   24745921.0984
        40.000          36.000
 09  1 18  1 24 30.0000000  0 11G 6G21G31G 5G22G24G18G30G29G14G12
 124963691.45747  97374273.33647  23779824.6094   23779830.8524   23779825.2694
        45.000          38.000
 107611019.56947  83852724.71247  20477708.2224   20477711.1934   20477708.6864
        55.000          48.000
 109074594.97347  84993183.38247  20756209.0414   20756211.8054   20756208.5494
        54.000          49.000
 124048191.84747  96660914.62447  23605595.1194   23605600.6184   23605595.6334
        44.000          38.000
 119966189.12847  93480144.32447  22828808.5594   22828809.7404   22828808.6934
        49.000          43.000
 125898701.00347  98102851.22547  23957751.4294   23957758.2184   23957751.0584
        43.000          37.000
 117688313.78547  91705172.10447  22395346.5314   22395349.4964   22395346.9734
        50.000          43.000
 118346838.06347  92218297.77047  22520667.0224   22520672.0314   22520666.5814
        50.000          43.000
 129847467.65147 101179829.19647  24709162.7364   24709167.3464   24709161.9684
        41.000          36.000
 120838944.79647  94160198.34347  22994900.1984   22994903.6794   22994900.2364
        47.000          41.000
 140070130.62457  91353333.81557  24751534.1115   24751539.1525   24751533.0905
        41.000          36.000
 09  1 18  1 25  0.0000000  0 11G 6G21G31G 5G22G24G18G30G29G14G12
 124956695.85947  97368822.23247  23778493.7484   23778499.5804   23778493.6384
        44.000          38.000
 107667973.03647  83897104.03247  20488546.0494   20488549.2244   20488546.4404
        54.000          48.000
 109029632.06747  84958147.36647  20747652.7904   20747655.7464   20747652.5994
        54.000          49.000
 124066897.65747  96675490.57147  23609154.5744   23609160.2444   23609155.4294
        44.000          38.000
 119911660.77647  93437654.67947  22818432.3514   22818433.1844   22818432.3564
        50.000          43.000
 125995040.13747  98177920.70847  23976084.7634   23976090.5084   23976084.7714
        43.000          37.000
 117653560.95647  91678091.93047  22388733.3124   22388736.7884   22388733.5404
        50.000          43.000
 118332420.14947  92207063.04847  22517923.5204   22517928.1224   22517923.0744
        50.000          43.000
 129900475.53747 101221134.32947  24719249.5524   24719253.7094   24719249.2114
        42.000          37.000
 120880020.87647  94192205.68847  23002716.8514   23002720.1894   23002716.9874
        47.000          41.000
 140099918.31147  91376545.03347  24757202.1994   24757206.6034   24757201.4534
        40.000          35.000
 09  1 18  1 25 30.0000000  0 11G 6G21G31G 5G22G24G18G30G29G14G12
 124949835.35647  97363476.41047  23777188.4234   23777194.2844   23777187.9094
        44.000          38.000
 107725448.05247  83941889.75247  20499483.1534   20499486.2774   20499483.5924
        54.000          48.000
 108985207.38347  84923530.73947  20739199.3464   20739202.0374   20739198.9004
        54.000          49.000
 124085946.08647  96690333.50147  23612779.1144   23612785.2554   23612779.6824
        44.000          38.000
 119857052.71647  93395102.90447  22808040.8604   22808041.6684   22808040.7434
        50.000          43.000
 126091539.07647  98253114.72447  23994447.5204   23994453.9224   23994448.0284
        43.000          37.000
 117618930.45347  91651107.09847  22382142.9274   22382146.5474   22382143.5654
        50.000          43.000
 118318249.86947  92196021.27047  22515226.8814   22515231.5644   22515226.5634
        50.000          43.000
 129953255.68347 101262261.79447  24729293.1324   24729296.9904   24729293.0874
        42.000          37.000
 120921057.21747  94224182.06947  23010525.7754   23010529.1524   23010526.1234
        47.000          41.000
 140130000.26047  91399985.59447  24762927.8754   24762930.6934   24762927.0364
        41.000          35.000
 09  1 18  1 26  0.0000000  0 11G 6G21G31G 5G22G24G18G30G29G14G12
 124943108.73747  97358234.91747  23775908.1664   23775914.2294   23775908.2404
        44.000          38.000
 107783442.93247  83987080.55847  20510519.1384   20510522.2144   20510519.4514
        54.000          48.000
 108941322.87947  84889335.02147  20730848.0554   20730851.0254   20730847.4824
        54.000          49.000
 124105338.75947  96705444.67247  23616469.4104   23616474.9884   23616470.2954
        44.000          39.000
 119802367.18047  93352490.76647  22797634.6154   22797635.6254   22797634.5344
        49.000          43.000
 126188195.64547  98328431.56747  24012840.6604   24012846.8844   24012841.3944
        43.000          37.000
 117584425.34347  91624219.95347  22375577.2194   22375580.4804   22375577.6654
        50.000          43.000
 118304329.62247  92185174.34547  22512578.0554   22512582.6864   22512577.8494
        50.000          43.000
 130005808.57747 101303212.09747  24739293.7814   24739297.7014   24739293.4074
        39.000          36.000
 120962051.99747  94256126.06647  23018327.0014   23018330.0144   23018327.3534
        47.000          41.000
 140160377.85547  91423656.51747  24768708.4744   24768710.8114   24768708.0154
        42.000          36.000
 09  1 18  1 26 30.0000000  0 11G 6G21G31G 5G22G24G18G30G29G14G12
 124936510.84447  97353093.69147  23774652.4724   23774658.4224   23774652.3774
        43.000          38.000
 107841952.24447  84032672.22247  20521653.2604   20521656.1594   20521653.6554
        55.000          48.000
 108897976.85947  84855558.91347  20722599.7074   20722602.4204   20722599.4754
        54.000          49.000
 124125073.77247  96720822.61447  23620225.3424   23620231.2634   23620226.2514
        44.000          39.000
 119747602.83947  93309817.21947  22787213.1374   22787214.3574   22787213.2704
        49.000          43.000
 126285004.52847  98403867.09547  24031263.1764   24031268.8864   24031263.2214
        43.000          37.000
 117550044.86247  91597429.92647  22369034.5864   22369037.8644   22369034.9564
        50.000          43.000
 118290658.49447  92174521.52847  22509976.4244   22509981.2944   22509976.0194
        50.000          43.000
 130058130.87747 101343982.81447  24749249.6564   24749253.8184   24749249.6804
        41.000          36.000
 121003000.26747  94288033.82347  23026119.3304   23026122.1774   23026119.5314
        47.000          41.000
 140191048.80747  91447555.99647  24774544.8754   24774548.4484   24774544.3044
        41.000          36.000
 09  1 18  1 27  0.0000000  0 12G 6G21G31G 5G22G16G24G18G30G29G14G12
 124930043.83947  97348054.48747  23773422.0944   23773428.1454   23773421.9954
        44.000          38.000
 107900977.49947  84078665.91347  20532885.3284   20532888.3684   20532885.7774
        54.000          48.000
 108855174.15647  84822206.16247  20714454.7014   20714457.1814   20714454.2054
        54.000          49.000
 124145155.93147  96736471.04747  23624047.0564   23624052.8274   23624047.5934
        44.000          39.000
 119692765.93347  93267087.13047  22776777.7794   22776779.4684   22776777.8374
        49.000          43.000
 141649126.95657  92583713.64057  25052010.6375   25052015.8945   25052012.5005
        42.000          34.000
 126381966.71147  98479422.06047  24049714.5794   24049720.3084   24049714.2744
        43.000          37.000
 117515795.50047  91570742.05647  22362517.4084   22362520.4634   22362517.6424
        51.000          43.000
 118277242.65447  92164067.63647  22507423.7374   22507428.0794   22507423.5084
        50.000          43.000
 130110225.50847 101384576.06547  24759163.7664   24759167.2864   24759162.9934
        42.000          36.000
 121043903.67947  94319906.62747  23033902.6154   23033905.8994   23033903.0354
        47.000          41.000
 140222017.59747  91471687.62047  24780438.0584   24780440.8904   24780437.6634
        41.000          35.000
 09  1 18  1 27 30.0000000  0 12G 6G21G31G 5G22G16G24G18G30G29G14G12
 124923703.98947  97343114.36347  23772215.5404   23772221.4054   23772215.8914
        44.000          38.000
 107960514.32247  84125058.23547  20544214.8714   20544217.8164   20544215.3044
        54.000          48.000
 108812914.25647  84789276.37547  20706412.6094   20706415.5094   20706412.1624
        54.000          49.000
 124165584.18147  96752389.18747  23627934.5874   23627939.9004   23627934.9714
        45.000          39.000
 119637855.38947  93224299.66047  22766328.6914   22766330.4264   22766328.7114
        49.000          43.000
 141583622.26447  92532671.09647  25039545.1814   25039550.3304   25039546.9624
        40.000          34.000
 126479077.83747  98555093.08747  24068193.7624   24068199.6964   24068194.2554
        42.000          37.000
 117481677.19247  91544156.32047  22356025.1354   22356028.0404   22356025.7514
        50.000          43.000
 118264082.09947  92153812.65447  22504919.1194   22504923.9624   22504918.6424
        49.000          43.000
 130162090.65847 101424990.78547  24769032.3914   24769036.8244   24769032.2854
        42.000          37.000
 121084757.81447  94351741.01947  23041676.8964   23041680.2284   23041676.9764
        47.000          41.000
 140253282.86447  91496050.23647  24786387.1674   24786390.1244   24786386.5604
        40.000          35.000
 09  1 18  1 28  0.0000000  0 12G 6G21G31G 5G22G16G24G18G30G29G14G12
 124917490.29947  97338272.55147  23771032.3404   23771039.3564   23771032.3834
        44.000          38.000
 108020561.18947  84171848.00047  20555641.3474   20555644.3864   20555641.5754
        54.000          48.000
 108771199.39947  84756771.30247  20698474.8664   20698477.3374   20698474.5884
        54.000          49.000
 124186360.45547  96768578.51847  23631887.7354   23631893.6964   23631888.2664
        45.000          39.000
 119582874.27147  93181457.20847  22755866.0514   22755867.6144   22755866.1394
        49.000          43.000
 141517874.60447  92481439.22147  25027033.9414   25027038.6924   25027034.5204
        40.000          34.000
 126576336.16347  98630878.84647  24086701.6464   24086706.9474   24086702.1664
        43.000          37.000
 117447693.43547  91517675.43947  22349557.9754   22349561.0904   22349558.3744
        50.000          43.000
 118251179.75647  92143758.89247  22502463.6624   22502468.6294   22502463.6454
        50.000          43.000
 130213726.29047 101465226.53047  24778858.8284   24778862.7284   24778858.4314
        41.000          36.000
 121125561.21347  94383535.88947  23049441.6164   23049444.7144   23049441.7054
        47.000          41.000
 140284846.36647  91520645.25347  24792393.1794   24792397.0044   24792393.2244
        41.000          36.000
 09  1 18  1 28 30.0000000  0 12G 6G21G31G 5G22G16G24G18G30G29G14G12
 124911400.99647  97333527.63947  23769874.2534   23769880.3804   23769874.7114
        44.000          38.000
 108081115.98147  84219033.54347  20567164.4974   20567167.5914   20567164.9724
        54.000          48.000
 108730030.94547  84724691.99047  20690640.7854   20690643.3144   20690640.4474
        55.000          49.000
 124207485.86147  96785039.88547  23635907.9644   23635913.7904   23635908.3424
        45.000          39.000
 119527824.82047  93138561.50047  22745390.5294   22745391.9904   22745390.5914
        49.000          43.000
 141451884.89647  92430018.73547  25014475.9194   25014481.8004   25014476.8494
        40.000          34.000
 126673739.36747  98706777.51347  24105236.9604   24105242.9974   24105237.2544
        43.000          37.000
 117413847.18447  91491301.70747  22343117.2654   22343120.3664   22343117.6904
        50.000          43.000
 118238537.61947  92133907.87447  22500058.4024   22500063.2394   22500057.8674
        50.000          43.000
 130265132.11947 101505283.08747  24788640.5384   24788643.6884   24788640.6734
        41.000          36.000
 121166311.96147  94415289.72847  23057196.3484   23057199.2544   23057196.4984
        47.000          41.000
 140316708.96047  91545473.29447  24798456.4084   24798459.8824   24798456.6654
        41.000          35.000
 09  1 18  1 29  0.0000000  0 12G 6G21G31G 5G22G16G24G18G30G29G14G12
 124905433.57347  97328877.72147  23768738.5484   23768745.3654   23768738.5704
        44.000          38.000
 108142175.43847  84266612.33647  20578783.6454   20578786.7994   20578784.0854
        54.000          48.000
 108689409.38747  84693038.83047  20682910.6094   20682913.2814   20682910.1744
        55.000          49.000
 124228960.75447  96801773.58947  23639994.2544   23639999.8014   23639994.6634
        45.000          39.000
 119472708.44947  93095613.65647  22734902.2254   22734903.7674   22734902.3384
        50.000          43.000
 141385653.29247  92378409.73047  25001872.2674   25001878.2404   25001872.9464
        40.000          34.000
 126771284.32247  98782786.68647  24123798.7714   24123804.5854   24123798.7124
        43.000          37.000
 117380139.91347  91465036.25947  22336703.0804   22336706.3174   22336703.5374
        50.000          43.000
 118226157.58247  92124261.08347  22497702.5964   22497707.4094   22497702.4644
        50.000          44.000
 130316307.27747 101545159.87047  24798379.1024   24798382.6294   24798378.4394
        41.000          36.000
 121207007.44147  94447000.50747  23064940.0214   23064943.4984   23064940.2934
        46.000          41.000
 140348870.41347  91570534.25647  24804577.1744   24804579.7574   24804577.3084
        40.000          35.000
 09  1 18  1 29 30.0000000  0 12G 6G21G31G 5G22G16G24G18G30G29G14G12
 124899586.80547  97324321.79347  23767626.3874   23767632.4944   23767626.5904
        44.000          38.000
 108203737.73547  84314582.96047  20590498.7754   20590501.6414   20590499.2164
        55.000          48.000
 108649336.57247  84661813.27347  20675285.1844   20675287.8444   20675285.0254
        55.000          49.000
 124250786.55747  96818780.72647  23644147.5054   23644153.6944   23644147.6724
        45.000          39.000
 119417526.94747  93052615.05447  22724401.7214   22724403.3154   22724401.7394
        49.000          43.000
 141319180.35747  92326612.67347  24989223.7624   24989228.3684   24989223.6154
        41.000          34.000
 126868968.51747  98858904.34447  24142387.0984   24142392.8784   24142387.2054
        42.000          37.000
 117346574.68647  91438881.48247  22330315.9494   22330318.9314   22330316.3774
        50.000          43.000
 118214042.04547  92114820.40947  22495397.0274   22495401.6234   22495396.6804
        50.000          43.000
 130367251.69547 101584856.86947  24808073.4794   24808076.5334   24808073.1614
        40.000          36.000
 121247645.64847  94478666.64247  23072673.3294   23072676.7444   23072673.5254
        47.000          41.000
 140381331.92847  91595829.03347  24810754.0014   24810756.8384   24810754.3384
        41.000          36.000
 09  1 18  1 30  0.0000000  0 12G 6G21G31G 5G22G16G24G18G30G29G14G12
 124893859.17547  97319858.71647  23766535.9914   23766542.4004   23766536.0824
        44.000          38.000
 108265800.80847  84362943.79347  20602309.0914   20602311.8264   20602309.5514
        54.000          48.000
 108609813.78447  84631016.29347  20667764.1334   20667766.7864   20667763.5944
        55.000          49.000
 124272964.65847  96836062.37447  23648368.0184   23648373.7974   23648368.3784
        44.000          39.000
 119362282.75747  93009567.61847  22713889.1984   22713890.8564   22713889.0674
        49.000          43.000
 141252467.29347  92274628.51547  24976528.8244   24976533.7564   24976528.5844
        41.000          34.000
 126966790.27147  98935129.19947  24161002.1804   24161007.9864   24161002.4504
        42.000          37.000
 117313154.29947  91412839.58447  22323956.1674   22323959.5164   22323956.3204
        50.000          43.000
 118202193.40447  92105587.69747  22493141.9474   22493146.7384   22493141.6534
        50.000          43.000
 130417965.66547 101624374.31047  24817723.8144   24817726.8064   24817723.4074
        42.000          36.000
 121288224.69947  94510286.68947  23080395.5864   23080398.8364   23080396.1164
        46.000          41.000
 140414094.74547  91621358.55547  24816988.2914   24816992.6674   24816988.9194
        42.000          36.000
 09  1 18  1 30 30.0000000  0 12G 6G21G31G 5G22G16G24G18G30G29G14G12
 124888247.86947  97315486.26247  23765468.4844   23765474.5324   23765468.6714
        44.000          38.000
 108328361.26647  84411692.20647  20614213.6684   20614216.8814   20614213.9744
        54.000          48.000
 108570841.31947  84600648.14547  20660347.9294   20660350.4984   20660347.6124
        55.000          49.000
 124295494.99847  96853618.49547  23652654.7194   23652661.3364   23652655.2004
        44.000          39.000
 119306977.18247  92966472.34847  22703364.7944   22703366.2894   22703364.8434
        49.000          43.000
 141185514.10347  92222457.25347  24963788.1354   24963792.4084   24963788.6274
        41.000          34.000
 127064745.89947  99011458.30647  24179642.4324   24179647.9524   24179643.3394
        43.000          37.000
 117279880.18047  91386911.65547  22317624.5184   22317627.9154   22317624.9034
        50.000          43.000
 118190612.65947  92096563.74347  22490938.0364   22490942.8854   22490937.7824
        50.000          43.000
 130468447.71147 101663711.08247  24827329.6504   24827333.9294   24827329.6194
        42.000          36.000
 121328741.75647  94541858.43147  23088105.5594   23088108.4204   23088105.7604
        46.000          41.000
 140447158.11447  91647122.26447  24823280.7594   24823284.8214   24823280.3654
        41.000          36.000
 09  1 18  1 31  0.0000000  0 12G 6G21G31G 5G22G16G24G18G30G29G14G12
 124882751.97147  97311203.75947  23764422.7254   23764428.2724   23764422.8144
        45.000          39.000
 108391417.47447  84460826.91047  20626212.7474   20626216.0324   20626213.0954
        54.000          48.000
 108532421.46047  84570710.60447  20653036.9434   20653039.4634   20653036.5774
        55.000          50.000
 124318379.55647  96871450.61947  23657010.0364   23657015.6844   23657010.4644
        45.000          39.000
 119251613.15447  92923331.53747  22692829.3104   22692831.0014   22692829.2924
        49.000          43.000
 141118322.20347  92170099.97647  24951001.0084   24951006.5784   24951001.9924
        41.000          35.000
 127162833.45247  99087890.16247  24198308.1714   24198314.0584   24198308.7764
        43.000          37.000
 117246755.55147  91361100.21247  22311321.2844   22311324.4134   22311321.7914
        50.000          43.000
 118179303.18547  92087751.15947  22488786.2544   22488790.7544   22488785.7714
        50.000          43.000
 130518698.61547 101702867.82147  24836892.1894   24836896.2254   24836891.9214
        42.000          36.000
 121369195.34347  94573380.70347  23095803.6774   23095806.5824   23095803.9274
        47.000          41.000
 140480524.18147  91673121.82947  24829629.5324   24829633.1464   24829629.3014
        40.000          36.000
 09  1 18  1 31 30.0000000  0 12G 6G21G31G 5G22G16G24G18G30G29G14G12
 124877370.92347  97307010.74047  23763399.0754   23763404.5554   23763399.3634
        44.000          39.000
 108454967.84147  84510346.67647  20638306.2434   20638309.1764   20638306.6794
        54.000          48.000
 108494556.12747  84541205.14847  20645831.4434   20645834.0064   20645830.9044
        55.000          50.000
 124341620.28147  96889560.28447  23661432.8814   23661438.1544   23661433.4994
        45.000          39.000
 119196193.30047  92880147.22747  22682283.2974   22682285.0594   22682283.5604
        50.000          43.000
 141050893.88247  92117558.48547  24938170.0194   24938174.8834   24938170.5974
        41.000          35.000
 127261052.28047  99164424.50947  24216999.0974   24217004.1624   24216998.2484
        43.000          37.000
 117213784.26247  91335408.25847  22305046.7934   22305050.0254   22305047.2464
        50.000          43.000
 118168268.13847  92079152.41047  22486686.2994   22486691.2244   22486685.9644
        50.000          44.000
 130568719.10347 101741844.91447  24846411.1444   24846414.4374   24846410.9044
        42.000          37.000
 121409584.61747  94604852.87147  23103489.4544   23103492.5514   23103489.7804
        47.000          41.000
 140514194.59947  91699358.59947  24836036.0134   24836039.6424   24836036.3534
        39.000          35.000
 09  1 18  1 32  0.0000000  0 12G 6G21G31G 5G22G16G24G18G30G29G14G12
 124872100.77147  97302904.15247  23762395.9364   23762401.6084   23762395.3344
        44.000          38.000
 108519008.21447  84560248.26347  20650492.6174   20650495.7114   20650493.1584
        54.000          48.000
 108457244.51547  84512131.17747  20638731.2904   20638733.8694   20638731.0334
        55.000          50.000
 124365216.05047  96907946.59947  23665922.7524   23665928.3834   23665923.0464
        45.000          39.000
 119140717.97547  92836919.70047  22671726.6624   22671728.3414   22671726.7504
        49.000          43.000
 140983227.32147  92064831.34047  24925293.6724   24925299.2844   24925294.1514
        41.000          35.000
 127359397.08647  99241056.84547  24235712.3934   24235718.4374   24235712.4734
        43.000          37.000
 117180966.63247  91309836.03347  22298801.7294   22298805.0224   22298802.1424
        50.000          43.000
 118157507.57747  92070767.55347  22484638.5244   22484643.5834   22484638.0784
        50.000          44.000
 130618506.95447 101780640.80347  24855885.2554   24855888.6524   24855885.0574
        41.000          36.000
 121449905.36747  94636271.62947  23111162.0424   23111165.4804   23111162.0964
        46.000          41.000
 120548155.67757 111725820.15757  24842500.3065   24842503.2045   24842500.2145
        39.000          35.000
 09  1 18  1 32 30.0000000  0 12G 6G21G31G 5G22G16G24G18G30G29G14G12
 124866939.98747  97298882.74747  23761413.6894   23761419.2184   23761414.2514
        44.000          39.000
 108583536.09747  84610529.73047  20662771.7834   20662775.0074   20662772.2004
        54.000          48.000
 108420488.09447  84483489.82247  20631736.5254   20631739.4254   20631736.1084
        54.000          50.000
 124389168.04247  96926610.48747  23670480.7994   23670486.4244   23670481.5374
        45.000          39.000
 119085189.31447  92793650.60347  22661159.7744   22661161.7634   22661159.9124
        50.000          43.000
 140915323.48447  92011919.35547  24912371.9974   24912376.3764   24912373.3304
        42.000          35.000
 127457866.03447  99317785.98647  24254450.8854   24254456.2284   24254450.8724
        44.000          37.000
 117148305.58847  91284385.80747  22292586.8484   22292590.0424   22292587.2624
        51.000          43.000
 118147023.96947  92062598.49747  22482643.5324   22482648.4944   22482643.0194
        50.000          44.000
 130668061.67547 101819254.89447  24865315.3284   24865318.1754   24865314.9614
        42.000          36.000
 121490155.79847  94667635.58947  23118821.5344   23118824.8654   23118821.7124
        46.000          41.000
 120582432.25647 111752529.22947  24849024.4154   24849027.1854   24849023.9004
        40.000          35.000
 09  1 18  1 33  0.0000000  0 12G 6G21G31G 5G22G16G24G18G30G29G14G12
 124861887.18247  97294945.52547  23760451.7154   23760458.2154   23760451.5844
        46.000          39.000
 108648549.55747  84661189.56747  20675143.5414   20675146.5494   20675143.8874
        54.000          48.000
 108384288.15247  84455282.08547  20624847.8074   20624850.5204   20624847.3204
        55.000          49.000
 124413477.72647  96945553.08747  23675106.6814   23675112.3744   23675107.3784
        45.000          39.000
 119029609.86147  92750341.93147  22650583.3294   22650585.1584   22650583.7174
        49.000          43.000
 140847184.12947  91958823.79947  24899404.9674   24899408.9694   24899406.4554
        42.000          35.000
 127556457.50347  99394610.82447  24273211.4434   24273217.1284   24273212.4454
        43.000          36.000
 117115804.12647  91259059.93847  22286402.1004   22286405.3974   22286402.5194
        50.000          43.000
 118136819.85847  92054647.23347  22480702.1574   22480706.7784   22480701.7374
        51.000          44.000
 130717383.69447 101857687.52847  24874700.5794   24874703.3204   24874700.3924
        41.000          37.000
 121530334.45647  94698943.64747  23126467.3944   23126470.4504   23126467.6454
        46.000          41.000
 120617013.76847 111779475.92747  24855604.6564   24855608.7884   24855605.3154
        39.000          35.000
 09  1 18  1 33 30.0000000  0 12G 6G21G31G 5G22G16G24G18G30G29G14G12
 124856941.43447  97291091.70047  23759511.2024   23759517.0664   23759511.4964
        43.000          39.000
 108714046.79247  84712226.36747  20687607.2914   20687610.3614   20687607.7354
        54.000          48.000
 108348646.72347  84427509.55847  20618065.4974   20618068.2274   20618065.2534
        54.000          49.000
 124438146.68647  96964775.65447  23679800.9354   23679806.8214   23679801.6484
        45.000          39.000
 118973982.25847  92706995.74247  22639998.0134   22639999.4144   22639997.9184
        50.000          43.000
 140778810.73347  91905545.90947  24886395.0314   24886399.2634   24886395.1914
        40.000          35.000
 127655168.75247  99471528.73847  24291996.0554   24292001.6404   24291996.2854
        42.000          37.000
 117083465.42447  91233860.90547  22280247.7334   22280251.2294   22280248.3584
        50.000          43.000
 118126897.97347  92046915.88247  22478814.2234   22478818.7344   22478813.9304
        51.000          44.000
 130766473.86147 101895939.63547  24884042.7304   24884044.5764   24884042.1274
        40.000          36.000
 121570439.81647  94730194.58347  23134098.9514   23134102.2344   23134099.2734
        46.000          41.000
 120651901.54147 111806661.26247  24862243.7024   24862248.1134   24862243.4854
        40.000          35.000
 09  1 18  1 34  0.0000000  0 12G 6G21G31G 5G22G16G24G18G30G29G14G12
 124852100.97347  97287319.94247  23758589.2984   23758596.0754   23758589.4404
        44.000          39.000
 108780025.48147  84763638.32847  20700162.3634   20700165.6524   20700162.7924
        54.000          48.000
 108313564.96547  84400173.13847  20611389.7084   20611392.2164   20611389.2684
        55.000          49.000
 124463175.93247  96984278.93147  23684563.9994   23684569.8134   23684564.6284
        45.000          39.000
 118918308.85447  92663613.85547  22629403.7444   22629404.9224   22629403.7884
        50.000          43.000
 140710204.12747  91852086.31147  24873339.3504   24873344.4134   24873340.4584
        42.000          35.000
 127753998.04347  99548538.63347  24310801.8154   24310807.1104   24310802.3944
        42.000          36.000
 117051292.23547  91208790.83947  22274125.9404   22274129.1794   22274126.2784
        50.000          43.000
 118117260.14347  92039405.88047  22476980.1204   22476984.6014   22476979.7474
        50.000          44.000
 130815332.11947 101934011.08047  24893339.7654   24893342.6524   24893339.0344
        41.000          37.000
 121610469.83347  94761386.79147  23141716.6424   23141719.4134   23141716.7014
        46.000          41.000
 120687096.34147 111834085.86447  24868940.4764   24868944.4414   24868940.5314
        40.000          35.000
 09  1 18  1 34 30.0000000  0 12G 6G21G31G 5G22G16G24G18G30G29G14G12
 124847362.33847  97283627.50147  23757688.6914   23757694.4974   23757688.8024
        44.000          39.000
 108846481.44947  84815422.19847  20712808.6734   20712811.7734   20712809.1204
        54.000          47.000
 108279041.71747  84373271.92247  20604820.0094   20604822.6684   20604819.6674
        55.000          49.000
 124488564.63447  97004062.30547  23689395.3144   23689400.7314   23689396.0304
        44.000          39.000
 118862589.81247  92620196.41647  22618800.4874   22618802.0094   22618800.7924
        49.000          43.000
 140641363.38847  91798444.24247  24860239.4994   24860243.5904   24860240.5384
        42.000          35.000
 127852940.93147  99625636.99947  24329630.6344   24329636.0394   24329630.3344
        43.000          37.000
 117019285.08247  91183850.13947  22268035.3014   22268038.6004   22268035.4754
        50.000          43.000
 118107907.25447  92032117.90847  22475200.3244   22475204.7834   22475199.9284
        51.000          44.000
 130863956.39147 101971900.20947  24902592.4474   24902595.8614   24902591.8284
        41.000          36.000
 121650421.19947  94792517.73747  23149319.4504   23149321.9784   23149319.6384
        46.000          41.000
 120722596.45147 111861748.37247  24875696.4524   24875699.3024   24875696.0614
        39.000          35.000
 09  1 18  1 35  0.0000000  0 12G 6G21G31G 5G22G16G24G18G30G29G14G12
 124842724.84747  97280013.90447  23756805.4634   23756812.0294   23756805.2244
        43.000          38.000
 108913413.16747  84867576.78447  20725545.4814   20725548.4884   20725545.9384
        54.000          48.000
 108245079.46047  84346807.83847  20598357.1874   20598359.8494   20598356.7744
        54.000          49.000
 124514314.83147  97024127.37647  23694295.1154   23694301.1994   23694295.4214
        44.000          39.000
 118806828.20447  92576745.79747  22608189.7264   22608191.1004   22608189.7084
        50.000          43.000
 140572290.60147  91744621.35947  24847095.3934   24847098.6774   24847096.0424
        41.000          35.000
 127951996.62947  99702823.45847  24348479.5484   24348485.3744   24348479.6514
        42.000          36.000
 116987448.09447  91159042.03847  22261976.8194   22261980.1404   22261977.0984
        50.000          43.000
 118098842.15447  92025054.19847  22473475.2834   22473479.9424   22473475.0684
        50.000          43.000
 130912348.00547 102009608.26947  24911800.4374   24911804.4664   24911800.0944
        40.000          37.000
 121690293.01947  94823586.69047  23156906.5464   23156909.3304   23156906.7044
        47.000          41.000
 120758403.94947 111889650.41047  24882510.4774   24882513.0754   24882509.5284
        40.000          35.000
 09  1 18  1 35 30.0000000  0 12G 6G21G31G 5G22G16G24G18G30G29G14G12
 124838187.70447  97276478.48947  23755942.4064   23755948.5644   23755942.4634
        45.000          39.000
 108980818.73047  84920100.59847  20738372.3514   20738375.2504   20738372.8994
        54.000          47.000
 108211680.18847  84320782.44947  20592001.4984   20592004.2404   20592001.1134
        55.000          50.000
 124540428.14947  97044475.37147  23699263.9484   23699270.4344   23699264.1584
        44.000          38.000
 118751027.20047  92533264.49847  22597571.1984   22597572.4754   22597571.2554
        50.000          43.000
 140502987.43447  91690618.97447  24833907.1684   24833910.8904   24833907.9634
        41.000          35.000
 128051163.35647  99780096.64847  24367350.6774   24367355.6164   24367350.5394
        43.000          36.000
 116955784.32547  91134368.90947  22255951.3224   22255954.5694   22255951.9144
        50.000          43.000
 118090067.96947  92018217.17047  22471805.4404   22471810.5654   22471805.2524
        50.000          44.000
 130960507.16347 102047134.99547  24920965.4484   24920968.8404   24920964.8334
        43.000          37.000
 121730083.86247  94854592.54047  23164478.3154   23164481.6954   23164478.5134
        47.000          41.000
 120794520.18447 111917793.00547  24889382.6544   24889386.1614   24889382.6114
        40.000          35.000
 09  1 18  1 36  0.0000000  0 12G 6G21G31G 5G22G16G24G18G30G29G14G12
 124833747.36847  97273018.50547  23755096.9824   23755103.4254   23755097.0524
        43.000          39.000
 109048694.24247  84972990.60647  20751288.5774   20751291.6124   20751288.9564
        54.000          47.000
 108178842.82547  84295194.91047  20585752.8074   20585755.5244   20585752.4284
        55.000          50.000
 124566903.77047  97065105.68647  23704302.8674   23704308.5344   23704303.1514
        45.000          38.000
 118695187.25347  92489752.85047  22586944.9434   22586946.3704   22586944.9504
        50.000          43.000
 140433453.14447  91636436.48947  24820675.0144   24820678.1884   24820675.9364
        41.000          35.000
 128150436.21247  99857452.27147  24386241.4074   24386246.8644   24386241.4424
        42.000          36.000
 116924294.82647  91109831.57947  22249958.8374   22249962.6354   22249959.4654
        49.000          43.000
 118081585.23947  92011607.25447  22470191.1464   22470195.8844   22470190.9784
        50.000          43.000
 131008432.37647 102084479.53047  24930085.1804   24930088.1514   24930084.0464
        40.000          36.000
 121769790.08947  94885532.45747  23172034.5424   23172037.7274   23172034.8994
        47.000          41.000
 120830944.28747 111946175.55847  24896313.5694   24896317.3494   24896313.7114
        41.000          35.000
 09  1 18  1 36 30.0000000  0 12G 6G21G31G 5G22G16G24G18G30G29G14G12
 124829402.20547  97269632.69747  23754270.6564   23754276.6044   23754270.4734
        44.000          39.000
 109117037.14047  85026244.80747  20764293.9334   20764296.8714   20764294.4104
        54.000          47.000
 108146568.56447  84270046.15547  20579611.4824   20579613.9074   20579611.0774
        55.000          50.000
 124593742.83947  97086019.21847  23709410.0554   23709415.8884   23709410.6334
        45.000          38.000
 118639310.78447  92446212.74447  22576312.2634   22576313.4214   22576312.2194
        50.000          43.000
 140363688.90147  91582074.79047  24807398.8024   24807403.5974   24807399.6464
        41.000          35.000
 128249813.86947  99934889.57947  24405152.0274   24405157.2644   24405151.9314
        41.000          36.000
 116892982.38947  91085432.21647  22244000.4224   22244004.2754   22244000.7954
        50.000          43.000
 118073396.37547  92005226.32747  22468633.0744   22468637.8704   22468632.7504
        50.000          44.000
 131056123.09547 102121641.10047  24939159.3654   24939163.8744   24939159.9524
        41.000          36.000
 121809410.08647  94916405.17847  23179573.7634   23179577.0314   23179574.1094
        46.000          41.000
 120867676.86747 111974798.46947  24903303.5954   24903306.6414   24903303.7054
        39.000          35.000
 09  1 18  1 37  0.0000000  0 12G 6G21G31G 5G22G16G24G18G30G29G14G12
 124825151.99947  97266320.85647  23753461.4704   23753467.2804   23753461.2344
        43.000          38.000
 109185846.30847  85079862.34647  20777387.7744   20777390.8244   20777388.1004
        54.000          47.000
 108114860.00247  84245338.20447  20573577.5004   20573580.0014   20573577.1924
        55.000          50.000
 124620947.55447  97107217.66047  23714586.6714   23714592.7934   23714587.2184
        45.000          39.000
 118583401.22447  92402646.85547  22565672.9594   22565674.4134   22565672.9974
        50.000          43.000
 140293697.29747  91527535.93647  24794079.9804   24794084.6074   24794080.5684
        40.000          35.000
 128349294.56947 100012407.00847  24424082.6944   24424087.1224   24424082.3194
        38.000          36.000
 116861850.91147  91061173.85747  22238076.3064   22238080.2694   22238076.6174
        50.000          43.000
 118065504.63747  91999076.93047  22467131.1734   22467135.8034   22467130.9164
        50.000          43.000
 131103581.24347 102158621.45847  24948191.1564   24948195.0194   24948190.5354
        39.000          36.000
 121848943.30347  94947210.28747  23187096.3064   23187099.8484   23187096.5764
        46.000          41.000
 120904719.93047 112003663.34047  24910352.0574   24910356.3574   24910351.4544
        40.000          35.000
 09  1 18  1 37 30.0000000  0 12G 6G21G31G 5G22G16G24G18G30G29G14G12
 124820993.06747  97263080.14647  23752670.4044   23752676.0854   23752670.1264
        44.000          38.000
 109255117.11647  85133839.60447  20790569.4694   20790572.5584   20790569.9534
        54.000          47.000
 108083716.08147  84221070.22847  20567650.8824   20567653.3514   20567650.5794
        55.000          50.000
 124648516.78747  97128700.13647  23719833.7014   23719838.8914   23719833.8354
        45.000          38.000
 118527459.45147  92359055.86347  22555027.6674   22555029.2444   22555028.0244
        50.000          43.000
 140223477.52447  91472819.31847  24780717.4084   24780721.0884   24780718.1624
        40.000          35.000
 128448874.39347 100090001.72947  24443031.1204   24443036.0624   24443031.3154
        42.000          36.000
 116830900.71347  91037056.76547  22232186.4614   22232190.4174   22232187.2954
        50.000          44.000
 118057910.07247  91993159.08747  22465685.9474   22465690.9964   22465685.6534
        50.000          43.000
 131150804.75047 102195419.02547  24957177.9454   24957181.2184   24957176.4164
        38.000          36.000
 121888386.07147  94977944.90747  23194602.1434   23194605.4744   23194602.1984
        47.000          41.000
 120942072.01547 112032768.98647  24917460.4764   24917463.8054   24917460.4704
        38.000          34.000
 09  1 18  1 38  0.0000000  0 12G 6G21G31G 5G22G16G24G18G30G29G14G12
 124816924.50247  97259909.84247  23751895.7354   23751901.8834   23751895.5574
        43.000          38.000
 109324847.83847  85188175.23947  20803839.0624   20803841.9074   20803839.5054
        54.000          47.000
 108053138.30847  84197243.41247  20561832.0814   20561834.5994   20561831.7824
        55.000          50.000
 124676452.19047  97150467.94847  23725149.6364   23725155.3014   23725149.9314
        44.000          38.000
 118471487.60947  92315441.43547  22544376.6134   22544378.0314   22544376.5074
        50.000          44.000
 140153030.83347  91417925.88147  24767311.9574   24767315.9544   24767311.5004
        40.000          35.000
 128548551.64847 100167672.32347  24461999.5284   24462004.6434   24461999.6694
        41.000          36.000
 116800135.42647  91013083.75147  22226332.6994   22226336.3284   22226333.1334
        50.000          43.000
 118050615.70547  91987475.17747  22464297.8984   22464302.7164   22464297.4994
        50.000          44.000
 131197794.34647 102232034.31447  24966119.1424   24966123.1524   24966118.3104
        40.000          36.000
 121927737.11047  95008608.06147  23202090.5904   23202093.9384   23202090.8174
        46.000          41.000
 120979734.47247 112062116.46647  24924627.4454   24924630.0754   24924626.9494
        40.000          35.000
 09  1 18  1 38 30.0000000  0 12G 6G21G31G 5G22G16G24G18G30G29G14G12
 124812944.97547  97256808.93047  23751138.3544   23751144.4584   23751138.6554
        44.000          38.000
 109395036.44847  85242867.66947  20817195.3094   20817198.2924   20817195.6034
        54.000          47.000
 108023128.13947  84173858.87747  20556121.1744   20556123.9424   20556120.7434
        55.000          50.000
 124704755.08647  97172522.13047  23730534.7994   23730540.8734   23730535.6284
        44.000          38.000
 118415488.89547  92271806.06947  22533720.1324   22533721.9654   22533720.0834
        50.000          44.000
 140082359.15947  91362857.11247  24753864.0654   24753867.5154   24753863.6034
        40.000          35.000
 128648324.69847 100245417.60547  24480985.3014   24480990.5924   24480986.3274
        42.000          36.000
 116769558.31247  90989257.37747  22220513.5574   22220517.8174   22220513.9244
        50.000          43.000
 118043624.17347  91982027.22547  22462967.6854   22462972.0914   22462967.2974
        50.000          44.000
 131244550.88547 102268468.04747  24975016.1354   24975019.6164   24975016.8804
        41.000          36.000
 121966995.29047  95039198.84547  23209560.9514   23209564.2094   23209561.1564
        47.000          41.000
 121017708.33447 112091706.66847  24931853.1304   24931856.8334   24931852.7794
        41.000          35.000
 09  1 18  1 39  0.0000000  0 12G 6G21G31G 5G22G16G24G18G30G29G14G12
 124809051.03847  97253774.70247  23750397.4504   23750403.5614   23750397.7624
        44.000          38.000
 109465678.57447  85297913.48447  20830637.9284   20830640.9884   20830638.3964
        54.000          47.000
 107993684.59247  84150915.86447  20550518.3164   20550520.8424   20550517.9344
        55.000          50.000
 124733424.46547  97194861.87147  23735991.0284   23735996.7054   23735991.2124
        43.000          39.000
 118359463.48147  92228149.90347  22523059.0914   22523060.5054   22523058.9804
        50.000          44.000
 140011461.21947  91307612.05547  24740372.3154   24740376.5474   24740372.3394
        40.000          35.000
 128748189.09647 100323234.05047  24499989.6244   24499994.2384   24499990.4024
        43.000          36.000
 116739170.36247  90965578.40147  22214731.0604   22214734.9914   22214731.5094
        50.000          43.000
 118036935.49947  91976815.26247  22461694.9694   22461699.3944   22461694.5954
        50.000          44.000
 131291072.06347 102304718.29447  24983868.7974   24983871.9504   24983868.7554
        39.000          36.000
 122006156.58747  95069714.15647  23217013.4234   23217016.1344   23217013.3214
        47.000          41.000
 121055992.29347 112121538.40347  24939137.3874   24939141.9364   24939137.8224
        39.000          35.000
 09  1 18  1 39 30.0000000  0 12G 6G21G31G 5G22G16G24G18G30G29G14G12
 124805243.90047  97250808.11247  23749672.8544   23749679.0124   23749672.8964
        43.000          38.000
 109536774.23347  85353312.71447  20844166.9964   20844170.0434   20844167.3274
        54.000          47.000
 107964811.47547  84128417.34547  20545024.0504   20545026.6034   20545023.7504
        55.000          50.000
 124762463.98447  97217490.03147  23741516.2284   23741522.9524   23741516.6804
        43.000          38.000
 118303416.67047  92184477.06147  22512393.7344   22512395.2604   22512393.8994
        50.000          44.000
 139940341.44047  91252194.12047  24726839.4064   24726842.4014   24726838.8774
        39.000          34.000
 128848145.28847 100401121.96047  24519011.0044   24519015.1234   24519011.3234
        43.000          36.000
 116708976.81447  90942050.91147  22208985.7604   22208989.1294   22208986.1894
        49.000          43.000
 118030554.79547  91971843.28147  22460480.2234   22460485.0324   22460479.9064
        50.000          44.000
 131337361.60847 102340788.19547  24992677.6054   24992680.6414   24992676.9264
        41.000          35.000
 122045222.19547  95100154.89247  23224447.4464   23224450.1254   23224447.5804
        47.000          41.000
 121094589.97047 112151614.62547  24946483.2644   24946486.0494   24946482.7334
        40.000          35.000
 09  1 18  1 40  0.0000000  0 12G 6G21G31G 5G22G16G24G18G30G29G14G12
 124801518.02547  97247904.83647  23748964.1784   23748970.9454   23748963.9504
        43.000          38.000
 109608317.17447  85409060.47547  20857781.3474   20857784.2994   20857781.8434
        54.000          47.000
 107936505.49647  84106360.74747  20539637.3224   20539640.1894   20539636.9244
        54.000          50.000
 124791870.46747  97240404.11847  23747112.6414   23747118.5564   23747112.8124
        44.000          38.000
 118247346.70847  92140786.18047  22501723.9394   22501725.4844   22501723.9204
        50.000          43.000
 139868997.18147  91196601.29047  24713261.6514   24713266.1904   24713261.7254
        40.000          34.000
 128948186.82847 100479076.32947  24538048.7014   24538053.2354   24538048.4064
        42.000          36.000
 116678976.38447  90918673.90047  22203276.8574   22203280.6794   22203277.3264
        51.000          44.000
 118024480.21847  91967109.84447  22459324.2714   22459329.4344   22459324.0024
        50.000          44.000
 131383414.30147 102376673.44947  25001440.9824   25001444.3614   25001440.9094
        39.000          36.000
 122084186.58047  95130516.75147  23231862.0524   23231865.0714   23231862.2574
        46.000          41.000
 121133497.68047 112181932.42447  24953886.2244   24953890.6724   24953885.9174
        39.000          35.000
 09  1 18  1 40 30.0000000  0 12G 6G21G31G 5G22G16G24G18G30G29G14G12
 124797874.15347  97245065.48147  23748270.6524   23748277.0454   23748270.4724
        44.000          39.000
 109680307.65747  85465156.96447  20871480.5074   20871483.6664   20871480.9544
        54.000          47.000
 107908770.35547  84084748.95747  20534359.5564   20534362.3514   20534359.1634
        55.000          50.000
 124821647.51347  97263606.98347  23752778.9884   23752784.8914   23752779.3494
        44.000          38.000
 118191258.68147  92097081.22147  22491050.4534   22491052.3034   22491050.5794
        49.000          43.000
 139797431.87747  91140836.20347  24699643.3404   24699647.3174   24699643.7924
        40.000          34.000
 129048314.96947 100557098.25647  24557101.4934   24557106.4274   24557102.2204
        43.000          36.000
 116649174.14147  90895451.32047  22197605.8904   22197609.2674   22197606.4554
        50.000          43.000
 118018716.77447  91962618.83147  22458227.8794   22458232.6074   22458227.5054
        50.000          44.000
 131429233.84447 102412377.00447  25010160.3084   25010164.2304   25010159.8424
        40.000          36.000
 122123050.39747  95160800.23747  23239257.2554   23239260.7794   23239257.3574
        46.000          40.000
 121172718.80147 112212494.41847  24961350.2724   24961353.9694   24961349.8154
        40.000          36.000
 09  1 18  1 41  0.0000000  0 12G 6G21G31G 5G22G16G24G18G30G29G14G12
 124794311.32047  97242289.24947  23747592.9304   23747598.8144   23747593.0824
        44.000          39.000
 109752743.35647  85521600.38347  20885264.7614   20885267.7384   20885265.2234
        54.000          47.000
 107881607.18847  84063582.86547  20529190.7144   20529193.3104   20529190.3694
        55.000          50.000
 124851796.33847  97287099.53947  23758516.0494   23758522.6084   23758516.2554
        44.000          38.000
 118135155.59547  92053364.52747  22480374.1374   22480376.3454   22480374.1424
        49.000          43.000
 139725647.21347  91084900.17847  24685983.1294   24685986.9634   24685982.8614
        40.000          35.000
 129148527.18447 100635185.64547  24576172.3114   24576176.7494   24576171.8214
        43.000          36.000
 116619573.50347  90872385.85447  22191972.9064   22191976.5604   22191973.2334
        50.000          44.000
 118013267.18547  91958372.38247  22457190.8694   22457195.8244   22457190.7924
        50.000          44.000
 131474820.75347 102447899.46547  25018835.2564   25018838.4714   25018834.2204
        40.000          35.000
 122161812.51047  95191004.48147  23246633.7714   23246636.8664   23246633.8634
        46.000          41.000
 121212254.07647 112243301.22247  24968872.7494   24968877.4694   24968872.1784
        38.000          35.000
 09  1 18  1 41 30.0000000  0 12G 6G21G31G 5G22G16G24G18G30G29G14G12
 124790827.44047  97239574.55647  23746929.6704   23746936.2164   23746929.2924
        43.000          38.000
 109825621.17847  85578388.30647  20899132.9594   20899136.1294   20899133.4314
        54.000          47.000
 107855016.28647  84042862.68047  20524130.6124   20524133.2894   20524130.2064
        55.000          50.000
 124882317.35347  97310882.12247  23764324.0184   23764330.0524   23764324.5664
        44.000          38.000
 118079039.22847  92009637.48447  22469695.6854   22469697.6714   22469695.7354
        49.000          43.000
 139653644.35947  91028794.14447  24672281.0644   24672284.9484   24672280.8834
        41.000          35.000
 129248820.99547 100713336.79847  24595257.4174   24595261.1404   24595257.1264
        42.000          36.000
 116590176.84247  90849479.30147  22186379.0024   22186382.8204   22186379.4424
        50.000          44.000
 118008132.77347  91954371.52347  22456213.8354   22456218.4374   22456213.6684
        50.000          43.000
 131520174.40047 102483239.96347  25027465.0304   25027469.1394   25027464.6104
        39.000          35.000
 122200470.86347  95221127.87247  23253989.9954   23253993.0494   23253990.4004
        46.000          41.000
 121252103.80147 112274353.04647  24976456.7024   24976459.3524   24976456.4024
        39.000          35.000
 09  1 18  1 42  0.0000000  0 12G 6G21G31G 5G22G16G24G18G30G29G14G12
 124787424.80147  97236923.12447  23746282.6124   23746288.4194   23746282.0714
        44.000          38.000
 109898942.33747  85635521.69247  20913085.4834   20913088.6274   20913085.7794
        54.000          47.000
 107829002.42547  84022592.14647  20519180.3114   20519182.9654   20519179.9384
        54.000          50.000
 124913215.17247  97334958.32547  23770203.6684   23770209.7174   23770203.8934
        44.000          38.000
 118022915.77947  91965904.92647  22459016.0824   22459017.4984   22459016.0654
        50.000          43.000
 139581427.92247  90972521.68847  24658538.7664   24658543.4964   24658538.7164
        39.000          35.000
 129349198.12847 100791552.97947  24614358.0304   24614362.6434   24614358.2974
        42.000          35.000
 116560990.52447  90826736.67147  22180824.9404   22180828.9134   22180825.3394
        50.000          44.000
 118003319.63647  91950621.00447  22455297.8044   22455302.3774   22455297.4344
        50.000          43.000
 131565298.95147 102518401.89347  25036051.8974   25036055.8454   25036052.6064
        40.000          35.000
 122239027.56547  95251172.06147  23261326.9734   23261330.2614   23261327.3384
        46.000          41.000
 121292272.40447 112305653.32947  24984100.4184   24984103.8734   24984100.1144
        39.000          35.000
 09  1 18  1 42 30.0000000  0 12G 6G21G31G 5G22G16G24G18G30G29G14G12
 124784089.21447  97234323.96347  23745647.3854   23745653.1474   23745647.3994
        43.000          38.000
 109972692.25447  85692989.17847  20927119.6214   20927122.5634   20927119.9134
        54.000          47.000
 107803554.16747  84002762.33247  20514337.6564   20514340.3014   20514337.2014
        55.000          50.000
 124944478.25347  97359319.16047  23776152.7854   23776158.9914   23776153.2534
        44.000          38.000
 117966775.28947  91922159.07847  22448332.8014   22448334.3364   22448332.6934
        50.000          44.000
 139508986.71647  90916074.08447  24644753.7024   24644758.4004   24644753.8264
        41.000          35.000
 129449643.75347 100869822.44247  24633473.3254   24633477.6694   24633472.8754
        43.000          36.000
 116532004.78947  90804150.34547  22175309.1304   22175313.1644   22175309.6774
        51.000          44.000
 117998817.42647  91947112.75647  22454440.9874   22454445.7084   22454440.6604
        50.000          43.000
 131610182.31147 102553375.81747  25044593.2604   25044597.4064   25044593.9374
        39.000          35.000
 122277468.53347  95281126.04847  23268641.9954   23268645.6004   23268642.3814
        46.000          41.000
 121332748.12347 112337192.96847  24991804.4304   24991805.5374   24991803.3184
        39.000          35.000
 09  1 18  1 43  0.0000000  0 12G 6G21G31G 5G22G16G24G18G30G29G14G12
 124780818.38147  97231775.28147  23745024.7484   23745030.9834   23745024.7434
        44.000          38.000
 110046867.08947  85750787.77047  20941234.5004   20941237.3864   20941235.1244
        54.000          47.000
 107778670.97047  83983372.82547  20509602.7024   20509605.2714   20509602.2994
        55.000          50.000
 124976106.45847  97383964.48547  23782171.4294   23782177.9354   23782172.0134
        44.000          38.000
 117910619.44547  91878401.26547  22437646.6714   22437648.1644   22437646.8844
        51.000          44.000
 139436321.58447  90859451.99247  24630926.2194   24630930.9234   24630926.3154
        40.000          36.000
 129550154.85447 100948142.88747  24652599.0044   24652602.9274   24652599.4744
        43.000          36.000
 116503221.70947  90781721.90947  22169832.2544   22169835.7134   22169833.0394
        51.000          44.000
 117994627.44347  91943847.80947  22453644.2064   22453648.5334   22453643.6904
        50.000          43.000
 131654824.10247 102588161.60347  25053088.4664   25053092.2334   25053088.0774
        39.000          35.000
 122315791.18147  95310987.84947  23275934.8674   23275937.9944   23275934.9964
        47.000          41.000
 121373530.60047 112368971.63447  24999564.0104   24999565.7104   24999562.9674
        40.000          35.000
 09  1 18  1 43 30.0000000  0 12G 6G21G31G 5G22G16G24G18G30G29G14G12
 124777627.45547  97229288.85547  23744417.5574   23744423.8494   23744417.2744
        44.000          38.000
 110121481.16447  85808928.62547  20955433.1894   20955435.8474   20955433.6794
        54.000          47.000
 107754370.48047  83964437.37547  20504978.5104   20504981.0344   20504978.2404
        55.000          50.000
 125008117.34047  97408908.01847  23788263.4104   23788268.6684   23788263.6714
        44.000          38.000
 117854467.32747  91834646.34947  22426961.6314   22426963.0994   22426961.6444
        50.000          44.000
 139363450.44147  90802669.37947  24617059.0474   24617063.7564   24617059.3594
        41.000          36.000
 129650745.84747 101026525.59947  24671740.4664   24671744.4904   24671740.6264
        42.000          35.000
 116474660.45147  90759466.33647  22164397.3384   22164400.5464   22164397.7564
        50.000          43.000
 117990768.51347  91940840.82047  22452909.5844   22452914.3414   22452909.2094
        50.000          44.000
 131699240.86547 102622772.01647  25061540.7064   25061545.3914   25061540.3104
        40.000          35.000
 122354010.77247  95340769.35347  23283207.8824   23283210.9374   23283208.1874
        46.000          41.000
 121414636.97247 112401002.67847  25007385.9834   25007387.8914   25007385.3624
        40.000          35.000
 09  1 18  1 44  0.0000000  0 12G 6G21G31G 5G22G16G24G18G30G29G14G12
 124774503.81247  97226854.85247  23743822.9894   23743829.4774   23743823.5814
        43.000          38.000
 110196520.48847  85867400.84147  20969712.6294   20969715.5254   20969712.8534
        54.000          47.000
 107730642.33547  83945947.90747  20500463.1784   20500465.5544   20500462.7594
        55.000          50.000
 125040500.53447  97434141.67247  23794425.8614   23794431.2334   23794426.0424
        45.000          39.000
 117798310.38947  91790887.69347  22416274.9184   22416276.8894   22416274.9424
        50.000          44.000
 139290363.33547  90745718.48147  24603151.4534   24603155.4854   24603151.8834
        41.000          36.000
 129751403.52647 101104960.41847  24690894.6514   24690899.2414   24690894.4384
        41.000          36.000
 116446312.73047  90737377.16547  22159002.7734   22159006.5104   22159003.2294
        51.000          44.000
 117987231.76247  91938084.90147  22452236.6204   22452241.1934   22452236.2174
        49.000          43.000
 131743421.84847 102657198.67947  25069948.0474   25069952.1424   25069948.1184
        39.000          35.000
 122392114.51347  95370460.58947  23290458.8064   23290461.8644   23290458.8924
        46.000          41.000
 121456056.49747 112433277.74047  25015266.9174   25015270.4624   25015267.0014
        41.000          35.000
 09  1 18  1 44 30.0000000  0 12G 6G21G31G 5G22G16G24G18G30G29G14G12
 124771448.36647  97224473.98247  23743241.5854   23743247.8834   23743241.7274
        42.000          38.000
 110271985.63947  85926204.86247  20984073.0284   20984075.9434   20984073.4704
        54.000          47.000
 107707490.01547  83927907.12947  20496057.3634   20496059.9444   20496057.0254
        55.000          50.000
 125073259.53647  97459668.11847  23800659.4914   23800665.3574   23800660.3644
        44.000          38.000
 117742153.68647  91747129.20947  22405588.7824   22405590.6044   22405588.7824
        50.000          44.000
 139217064.28447  90688602.43847  24589202.4554   24589207.4924   24589203.2944
        42.000          36.000
 129852128.16447 101183447.25647  24710061.3394   24710066.0364   24710061.5194
        41.000          36.000
 116418184.41547  90715458.94547  22153650.3854   22153654.1244   22153650.5714
        51.000          44.000
 117984021.65247  91935583.48547  22451625.4524   22451630.5824   22451625.0434
        49.000          44.000
 131787370.40347 102691444.32847  25078311.7464   25078316.2264   25078311.8254
        39.000          36.000
 122430103.48447  95400062.38147  23297687.8574   23297690.9614   23297687.9594
        46.000          40.000
 121497792.57847 112465799.48747  25023209.8404   25023212.0984   25023209.5024
        41.000          35.000
 09  1 18  1 45  0.0000000  0 12G 6G21G31G 5G22G16G24G18G30G29G14G12
 124768457.16047  97222143.18847  23742672.4814   23742679.0504   23742672.5584
        45.000          38.000
 110347871.08247  85985336.39747  20998513.6844   20998516.4514   20998514.1254
        54.000          47.000
 107684911.57047  83910313.53147  20491760.8224   20491763.4194   20491760.4434
        55.000          50.000
 125106392.44247  97485485.96647  23806964.2494   23806970.4944   23806965.1484
        44.000          38.000
 117685997.14447  91703370.85147  22394902.7064   22394904.5364   22394902.7474
        51.000          44.000
 139143552.34547  90631320.50547  24575213.5384   24575218.5724   24575214.5274
        42.000          36.000
 129952915.45647 101261983.08947  24729240.9194   24729244.5374   24729240.7174
        43.000          35.000
 116390275.34147  90693711.56747  22148339.2354   22148343.0424   22148339.7234
        50.000          44.000
 117981137.89547  91933336.38647  22451076.5274   22451081.7214   22451076.0744
        49.000          43.000
 131831084.23847 102725507.07847  25086629.9524   25086633.3594   25086629.6884
        39.000          35.000
 122467973.82547  95429571.75347  23304894.1744   23304897.3814   23304894.5304
        46.000          40.000
 121539843.18647 112498566.36447  25031210.8234   25031213.7754   25031210.9544
        40.000          35.000
 09  1 18  1 45 30.0000000  0 12G 6G21G31G 5G22G16G24G18G30G29G14G12
 124765528.86547  97219861.39047  23742115.6744   23742121.1534   23742115.9044
        44.000          38.000
 110424174.62647  86044793.72047  21013033.6454   21013036.5074   21013034.0614
        54.000          47.000
 107662907.94347  83893167.84147  20487573.7884   20487576.1854   20487573.3084
        55.000          50.000
 125139900.32647  97511595.99847  23813340.8004   23813346.1904   23813341.3374
        43.000          38.000
 117629843.16647  91659614.48547  22384216.9094   22384218.5404   22384217.1724
        50.000          44.000
 139069828.89647  90573873.75447  24561184.4654   24561188.6954   24561184.8084
        42.000          36.000
 130053762.70347 101340565.63047  24748431.2474   24748435.1914   24748431.3194
        42.000          35.000
 116362588.33047  90672137.23447  22143070.5014   22143074.3084   22143070.8374
        51.000          44.000
 117978582.88247  91931345.45147  22450590.3194   22450595.4374   22450589.9644
        49.000          43.000
 131874563.64147 102759387.02347  25094904.1334   25094907.5984   25094903.8684
        40.000          36.000
 122505723.96847  95458987.46047  23312077.3134   23312080.5824   23312077.4544
        46.000          40.000
 121582208.86947 112531578.72747  25039272.7194   25039276.6534   25039272.5554
        40.000          35.000
 09  1 18  1 46  0.0000000  0 12G 6G21G31G 5G22G16G24G18G30G29G14G12
 124762663.68747  97217628.80747  23741569.8714   23741576.7514   23741569.9344
        44.000          39.000
 110500895.36547  86104576.13347  21027633.1594   21027636.1204   21027633.5734
        54.000          47.000
 107641481.60947  83876471.99147  20483496.3444   20483498.8454   20483496.0704
        55.000          50.000
 125173785.78847  97538000.23347  23819789.1194   23819794.9994   23819789.6514
        45.000          38.000
 117573696.58447  91615863.88647  22373532.4904   22373533.9144   22373532.5484
        50.000          44.000
 138995897.31347  90516264.81347  24547116.2904   24547120.3274   24547115.5724
        42.000          36.000
 130154669.80047 101419194.31747  24767632.5484   24767638.0914   24767633.6714
        41.000          35.000
 116335128.29347  90650739.76547  22137845.2124   22137849.0924   22137845.7544
        51.000          44.000
 117976360.83947  91929613.97847  22450167.4664   22450172.9164   22450167.0104
        49.000          43.000
 131917810.91347 102793086.19847  25103133.6374   25103137.5924   25103133.6194
        39.000          36.000
 122543354.33247  95488309.82847  23319238.2684   23319241.4904   23319238.2114
        46.000          40.000
 121624892.35647 112564838.72547  25047394.8874   25047398.6764   25047394.9144
        39.000          35.000
 09  1 18  1 46 30.0000000  0 12G 6G21G31G 5G22G16G24G18G30G29G14G12
 124759858.09047  97215442.60547  23741036.4494   23741042.3834   23741037.2114
        44.000          39.000
 110578028.86947  86164680.18247  21042311.2284   21042314.1164   21042311.6594
        54.000          47.000
 107620630.95147  83860224.72147  20479528.5484   20479531.2234   20479528.0684
        55.000          50.000
 125208047.25747  97564697.47447  23826308.8104   23826315.0634   23826309.8804
        45.000          38.000
 117517558.11047  91572119.61147  22362849.7754   22362851.3764   22362849.7554
        50.000          44.000
 138921756.69047  90458492.94747  24533007.1384   24533012.2104   24533006.9164
        41.000          36.000
 130255633.20847 101497867.17147  24786846.1754   24786850.5564   24786846.7674
        42.000          35.000
 116307895.48547  90629519.35447  22132662.7524   22132666.9644   22132663.2344
        50.000          44.000
 117974471.39947  91928141.66547  22449807.9054   22449813.4304   22449807.5464
        49.000          43.000
 131960824.16847 102826603.00447  25111319.6344   25111322.9914   25111318.6654
        40.000          36.000
 122580861.08147  95517535.88047  23326376.1784   23326379.3984   23326376.4154
        46.000          40.000
 121667891.74247 112598344.86747  25055576.7434   25055579.7494   25055576.0594
        39.000          34.000
 09  1 18  1 47  0.0000000  0 12G 6G21G31G 5G22G16G24G18G30G29G14G12
 124757110.36547  97213301.53747  23740513.1574   23740519.8174   23740512.9994
        44.000          39.000
 110655572.20347  86225103.57847  21057067.1064   21057070.0504   21057067.5444
        54.000          47.000
 107600356.64047  83844426.54847  20475670.4894   20475673.0604   20475670.0674
        55.000          50.000
 125242685.45747  97591688.29647  23832900.2814   23832905.8044   23832901.0224
        44.000          38.000
 117461429.80047  91528383.25447  22352168.8934   22352170.1564   22352169.0134
        50.000          44.000
 138847408.65847  90400559.48147  24518858.9394   24518863.7524   24518858.7084
        42.000          36.000
 130356650.31847 101576581.95647  24806068.7894   24806072.8484   24806069.0244
        40.000          36.000
 116280892.81947  90608478.26447  22127524.8034   22127528.6184   22127525.3524
        51.000          44.000
 117972916.36647  91926929.93447  22449512.1684   22449517.2654   22449511.8454
        49.000          43.000
 132003603.69647 102859937.59847  25119459.6464   25119463.7024   25119459.4204
        41.000          36.000
 122618242.81547  95546664.51347  23333489.1554   23333492.7334   23333489.5994
        45.000          40.000
 121711207.15847 112632097.30347  25063819.4794   25063823.3214   25063818.6734
        39.000          34.000
 09  1 18  1 47 30.0000000  0 12G 6G21G31G 5G22G16G24G18G30G29G14G12
 124754419.51347  97211204.77947  23740001.4334   23740007.6424   23740001.2894
        44.000          38.000
 110733523.15947  86285844.59547  21071900.7164   21071903.5534   21071901.1624
        54.000          46.000
 107580659.48447  83829078.11347  20471922.2514   20471924.8884   20471921.9254
        55.000          50.000
 125277701.53547  97618973.56547  23839563.5774   23839569.6034   23839564.0414
        44.000          38.000
 117405314.83447  91484657.29447  22341490.7794   22341492.1874   22341490.8834
        51.000          44.000
 138772855.12747  90342465.90747  24504672.1224   24504677.3544   24504671.9194
        41.000          35.000
 130457719.41347 101655337.25247  24825301.8394   24825305.5384   24825301.5114
        42.000          36.000
 116254123.59447  90587619.08747  22122430.8604   22122434.6094   22122431.2624
        51.000          44.000
 117971698.33447  91925980.80847  22449280.5684   22449285.3914   22449280.1814
        49.000          43.000
 132046150.72347 102893091.20747  25127556.2464   25127559.5664   25127555.9514
        40.000          36.000
 122655498.64847  95575695.01947  23340578.3954   23340582.4814   23340578.8554
        45.000          40.000
 121754839.42147 112666096.60147  25072122.3954   25072125.7564   25072122.0504
        40.000          34.000
