     2.11           OBSERVATION DATA    G (GPS)             RINEX VERSION / TYPE
teqc  2013Mar15     gpsops              20140526 00:23:16UTCPGM / RUN BY / DATE
Linux 2.4.21-27.ELsmp|Opteron|gcc -static|Linux x86_64|=+   COMMENT
BIT 2 OF LLI FLAGS DATA COLLECTED UNDER A/S CONDITION       COMMENT
GLPS                                                        MARKER NAME
42005M002                                                   MARKER NUMBER
GGN                 JPL                                     OBSERVER / AGENCY
ZR220013847         ASHTECH UZ-12       CQ00                REC # / TYPE / VERS
CR519992104         ASH701945B_M    SCIT                    ANT # / TYPE
   -33801.4662 -6377516.5323   -82154.3508                  APPROX POSITION XYZ
        0.0083        0.0000        0.0000                  ANTENNA: DELTA H/E/N
     1     1                                                WAVELENGTH FACT L1/2
     7    L1    L2    P1    P2    C1    S1    S2            # / TYPES OF OBSERV
    30.0000                                                 INTERVAL
                                                            COMMENT
This data is provided as a public service by NASA/JPL.      COMMENT
No warranty is expressed or implied regarding suitability   COMMENT
for use.  For further information, contact:                 COMMENT
Dave Stowers, NASA/JPL m/s 238-600                          COMMENT
4800 Oak Grove Drive, Pasadena CA 91109 USA                 COMMENT
                                                            COMMENT
Forced Modulo Decimation to 30 seconds                      COMMENT
 SNR is mapped to RINEX snr flag value [0-9]                COMMENT
  L1 & L2: min(max(int(snr_dBHz/6), 0), 9)                  COMMENT
pseudorange smoothing corrections not applied               COMMENT
  2014     5    25     0     0    0.0000000     GPS         TIME OF FIRST OBS
                                                            END OF HEADER
 14  5 25  0  0  0.0000000  0 11G07G28G08G17G02G20G26G09G10G13G04
 -18006296.00848 -14018163.00947  21372464.7824   21372470.9344   21372464.596
        51.0004         46.0004
  -6593566.73547  -5140170.88146  22866206.2084   22866211.6854   22866205.613
        46.0004         41.0004
 -19706147.10848 -15345040.69048  20017461.0944   20017467.5794   20017461.568
        53.0004         49.0004
 -11003631.52047  -8526316.26747  23196985.4694   23196992.3124   23196984.272
        47.0004         42.0004
  -7485684.41547  -5822300.35847  22835546.6884   22835550.6144   22835546.674
        46.0004         42.0004
 -10779943.40446  -8348140.33245  23897634.2924   23897643.9724   23897634.913
        39.0004         35.0004
  -1771251.85247  -1368620.72846  24073372.3284   24073381.6754   24073370.645
        42.0004         38.0004
   -286480.87949   -221949.30048  20062665.4894   20062671.1814   20062665.462
        54.0004         50.0004
 -11476003.28647  -8929847.31246  23177830.2694   23177838.4034   23177830.459
        45.0004         40.0004
   2877660.57046   2297954.96545  25065581.3094   25065590.1534   25065580.658
        38.0004         34.0004
 -27458946.10448 -21343017.53448  20541639.5064   20541645.2474   20541639.255
        53.0004         48.0004
 14  5 25  0  0 30.0000000  0 11G07G28G08G17G02G20G26G09G10G13G04
 -17924909.92548 -13954745.29147  21387952.3874   21387958.3324   21387951.971
        51.0004         46.0004
  -6652094.46447  -5185776.82046  22855067.7154   22855074.3794   22855068.293
        46.0004         41.0004
 -19675884.25048 -15321459.21548  20023219.9934   20023226.1774   20023220.294
        53.0004         49.0004
 -10963565.72547  -8495096.15847  23204608.4364   23204617.1014   23204608.618
        47.0004         42.0004
  -7561205.34947  -5881147.74447  22821175.7584   22821181.2664   22821175.424
        46.0004         42.0004
 -10748529.83846  -8323662.19645  23903612.5754   23903623.0054   23903612.965
        39.0004         35.0004
  -1764337.54347  -1363232.89246  24074687.6164   24074697.7834   24074686.897
        43.0004         38.0004
   -262912.43749   -203584.25348  20067150.4694   20067156.0834   20067150.720
        54.0004         50.0004
 -11544821.05947  -8983471.42446  23164734.3564   23164741.8364   23164734.983
        45.0004         41.0004
   2933440.38146   2341419.85245  25076199.2844   25076202.4924   25076194.901
        38.0004         33.0004
 -27496312.12048 -21372133.86648  20534528.6094   20534534.9414   20534528.595
        53.0004         48.0004
 14  5 25  0  1  0.0000000  0 11G07G28G08G17G02G20G26G09G10G13G04
 -17843139.84148 -13891028.34147  21403512.6164   21403517.9244   21403512.344
        51.0004         46.0004
  -6710672.96147  -5231422.31647  22843921.0274   22843928.1604   22843921.553
        46.0004         42.0004
 -19644977.14248 -15297375.72648  20029101.2934   20029107.7114   20029101.507
        53.0004         49.0004
 -10923602.52447  -8463955.98947  23212212.8204   23212221.2284   23212212.954
        47.0004         42.0004
  -7636398.67147  -5939739.84947  22806866.6124   22806871.0974   22806865.975
        46.0004         42.0004
 -10716783.15546  -8298924.50945  23909652.0324   23909662.5174   23909652.523
        39.0004         35.0004
  -1757215.53947  -1357683.23746  24076041.9134   24076053.9014   24076041.987
        43.0004         38.0004
   -238759.57549   -184763.81048  20071746.5714   20071752.1004   20071746.437
        54.0004         50.0004
 -11613746.90247  -9037179.75446  23151617.5824   23151624.9614   23151618.300
        45.0004         41.0004
   2988962.96946   2384684.31445  25086761.2764   25086767.6614   25086760.935
        38.0004         33.0004
 -27533142.73048 -21400832.99948  20527520.1214   20527526.0764   20527519.815
        53.0004         48.0004
 14  5 25  0  1 30.0000000  0 11G07G28G08G17G02G20G26G09G10G13G04
 -17760994.21848 -13827018.77047  21419144.7184   21419149.6304   21419144.146
        51.0004         46.0004
  -6769304.88847  -5277109.44347  22832763.9324   22832771.1004   22832763.938
        46.0004         42.0004
 -19613431.92248 -15272795.00948  20035104.2764   20035110.5664   20035104.610
        53.0004         49.0004
 -10883748.66247  -8432901.01747  23219798.1334   23219805.1164   23219797.522
        47.0004         42.0004
  -7711267.49347  -5998079.08847  22792619.0774   22792625.3334   22792619.381
        47.0004         42.0004
 -10684707.93846  -8273930.80345  23915756.8514   23915765.6184   23915757.156
        39.0004         35.0004
  -1749892.93247  -1351977.26546  24077435.1724   24077445.2164   24077435.150
        43.0004         38.0004
   -214028.70449   -165492.97348  20076452.7264   20076457.8434   20076452.796
        54.0004         50.0004
 -11682783.93247  -9090974.72746  23138480.2504   23138488.5764   23138481.383
        45.0004         41.0004
   3044222.92746   2427744.16445  25097276.7234   25097282.0294   25097275.938
        38.0004         33.0004
 -27569441.95848 -21429118.06948  20520612.8824   20520618.9014   20520612.480
        53.0004         48.0004
 14  5 25  0  2  0.0000000  0 11G07G28G08G17G02G20G26G09G10G13G04
 -17678474.13948 -13762717.40847  21434847.9934   21434852.9484   21434847.158
        51.0004         46.0004
  -6827986.34547  -5322835.16547  22821597.2384   22821603.5644   22821597.364
        46.0004         42.0004
 -19581248.48748 -15247716.98148  20041228.6724   20041234.7064   20041229.058
        53.0004         49.0004
 -10844004.67747  -8401931.66147  23227361.1054   23227368.6754   23227360.339
        47.0004         43.0004
  -7785808.21947  -6056162.66047  22778433.8874   22778439.9434   22778435.403
        47.0004         42.0004
 -10652302.03546  -8248679.45745  23921928.1254   23921935.2554   23921924.201
        40.0004         35.0004
  -1742370.23347  -1346115.37446  24078866.8174   24078877.9134   24078867.027
        43.0004         38.0004
   -188719.60249   -145771.56748  20081268.8734   20081274.4374   20081268.775
        54.0004         50.0004
 -11751928.61947  -9144853.58846  23125321.8754   23125330.8184   23125323.142
        45.0004         41.0004
   3099221.60446   2470600.36545  25107745.2314   25107749.3244   25107742.391
        37.0004         33.0004
 -27605207.01148 -21456986.90248  20513806.7804   20513812.6124   20513806.407
        53.0004         48.0004
 14  5 25  0  2 30.0000000  0 11G07G28G08G17G02G20G26G09G10G13G04
 -17595582.39448 -13698126.43547  21450621.1264   21450627.6014   21450620.777
        51.0004         46.0004
  -6886714.89647  -5368597.58647  22810421.4884   22810428.2174   22810421.330
        46.0004         42.0004
 -19548427.79648 -15222142.38648  20047474.1654   20047480.1774   20047474.258
        53.0004         49.0004
 -10804372.09147  -8371049.10647  23234901.3614   23234909.9964   23234902.128
        47.0004         43.0004
  -7860018.75647  -6113988.95447  22764312.8654   22764318.0884   22764312.307
        47.0004         42.0004
 -10619564.77846  -8223169.91045  23928153.5404   23928162.3204   23928154.542
        40.0004         35.0004
  -1734649.28647  -1340098.98746  24080336.7754   24080346.7394   24080335.775
        43.0004         38.0004
   -162833.34749   -125600.43148  20086194.8584   20086200.6674   20086194.681
        54.0004         50.0004
 -11821178.61747  -9198814.50246  23112144.1234   23112151.9914   23112145.522
        46.0004         41.0004
                   2513252.81645                  25118162.9584   25118158.283
                        33.0004
 -27640436.45348 -21484438.37048  20507102.9114   20507108.9344   20507102.438
        53.0004         48.0004
 14  5 25  0  3  0.0000000  0 11G07G28G08G17G02G20G26G09G10G13G04
 -17512321.54348 -13633247.85747  21466465.1694   21466471.0404   21466464.741
        50.0004         46.0004
  -6945487.66847  -5414394.46247  22799236.8074   22799245.5364   22799237.185
        46.0004         42.0004
 -19514971.34448 -15196072.39848  20053840.7194   20053846.5204   20053841.000
        53.0004         49.0004
 -10764852.29447  -8340254.45147  23242423.4904   23242430.1954   23242422.335
        47.0004         42.0004
  -7933897.01847  -6171556.33147  22750253.3934   22750258.6664   22750254.827
        47.0004         42.0004
 -10586494.94546  -8197401.16945  23934447.4714   23934459.7104   23934447.402
        40.0004         35.0004
  -1726732.20647  -1333929.78146  24081842.2574   24081852.3304   24081842.514
        43.0004         38.0004
   -136371.41949   -104980.72148  20091230.2344   20091235.7994   20091230.403
        54.0004         50.0004
 -11890532.23347  -9252856.17746  23098946.0314   23098955.1964   23098948.212
        46.0004         41.0004
   3208434.16246   2555701.26445  25128521.1204   25128532.4394   25128524.728
        38.0004         33.0004
 -27675129.39148 -21511471.79048  20500501.0954   20500507.2284   20500500.874
        53.0004         48.0004
 14  5 25  0  3 30.0000000  0 11G07G28G08G17G02G20G26G09G10G13G04
 -17428694.86948 -13568084.21547  21482378.6154   21482384.7504   21482378.272
        50.0004         46.0004
  -7004302.31547  -5460223.97647  22788045.1044   22788051.6764   22788045.262
        46.0004         42.0004
 -19480880.77348 -15169508.29048  20060328.0084   20060333.8074   20060328.028
        53.0004         49.0004
 -10725447.33647  -8309549.26847  23249922.0264   23249928.6814   23249920.764
        47.0004         43.0004
  -8007441.30547  -6228863.45847  22736258.4864   22736263.5234   22736259.108
        47.0004         42.0004
 -10553092.49746  -8171373.28545  23940802.0334   23940810.5924   23940803.731
        40.0004         35.0004
  -1718621.35847  -1327609.57546  24083385.9094   24083397.5814   24083385.841
        43.0004         38.0004
   -109335.58749    -83913.81448  20096375.0464   20096380.9104   20096375.211
        54.0004         50.0004
 -11959987.47947  -9306977.04046  23085730.2694   23085738.1574   23085730.299
        46.0004         41.0004
                   2597945.24345                  25138846.5624   25138840.339
                        33.0004
 -27709285.07148 -21538086.56848  20494001.3974   20494007.6174   20494000.783
        53.0004         48.0004
 14  5 25  0  4  0.0000000  0 11G07G28G08G17G02G20G26G09G10G13G04
 -17344704.75748 -13502637.37447  21498361.5564   21498366.8554   21498361.095
        50.0004         46.0004
  -7063156.03047  -5506083.92347  22776845.2174   22776851.4044   22776845.717
        46.0004         42.0004
 -19446156.98648 -15142450.76548  20066935.8584   20066941.9694   20066935.900
        53.0004         49.0004
 -10686158.47647  -8278934.56247  23257398.0854   23257405.2284   23257397.253
        47.0004         43.0004
  -8080649.01947  -6285908.32447  22722328.1044   22722333.1164   22722328.121
        47.0004         42.0004
 -10519356.10046  -8145085.14845  23947223.7594   23947230.7344   23947223.199
        40.0004         35.0004
  -1710318.33847  -1321139.63546  24084966.6404   24084976.6664   24084965.519
        43.0004         38.0004
    -81726.77149    -62400.42448  20101628.8984   20101634.7924   20101629.015
        54.0004         50.0004
 -12029541.99347  -9361175.24646  23072494.3834   23072503.8284   23072494.623
        46.0004         41.0004
                   2639984.85545                  25149121.1004   25149107.522
                        32.0004
 -27742901.76748 -21564281.35848  20487604.2864   20487610.6844   20487604.168
        53.0004         48.0004
 14  5 25  0  4 30.0000000  0 11G07G28G08G17G02G20G26G09G10G13G04
 -17260354.25248 -13436909.70647  21514413.4914   21514419.2554   21514412.635
        50.0004         46.0004
  -7122046.48847  -5551972.51347  22765637.9944   22765643.6674   22765639.349
        46.0004         42.0004
 -19410801.29148 -15114900.84348  20073663.4794   20073669.7864   20073664.016
        53.0004         49.0004
 -10646987.69347  -8248411.85747  23264852.1894   23264859.1334   23264851.304
        47.0004         43.0004
  -8153518.66447  -6342689.76647  22708461.7364   22708466.5394   22708461.656
        47.0004         42.0004
 -10485285.20246  -8118536.35245  23953706.6564   23953714.1474   23953706.449
        39.0004         35.0004
  -1701825.38947  -1314521.67846  24086583.2624   24086593.4194   24086582.229
        43.0004         38.0004
    -53546.43449    -40441.69548  20106991.3674   20106997.1194   20106991.245
        54.0004         49.0004
 -12099193.79747  -9415449.25946  23059239.9764   23059247.8424   23059239.973
        46.0004         41.0004
                                                                  25159323.300

 -27775978.81448 -21590055.64148  20481309.9954   20481315.9304   20481309.596
        53.0004         48.0004
 14  5 25  0  5  0.0000000  0 11G07G28G08G17G02G20G26G09G10G13G04
 -17175647.33548 -13370904.31347  21530531.9004   21530538.1534   21530531.922
        50.0004         45.0004
  -7180972.19347  -5597888.55447  22754426.2394   22754433.2044   22754426.117
        46.0004         42.0004
 -19374816.34348 -15086860.59648  20080510.9614   20080517.2644   20080511.251
        53.0004         49.0004
 -10607937.66547  -8217983.24747  23272283.2914   23272289.6544   23272282.417
        47.0004         43.0004
  -8226049.34047  -6399207.06747  22694658.9154   22694664.7114   22694659.244
        47.0004         42.0004
 -10450880.85146  -8091727.76545  23960251.9924   23960260.5604   23960253.006
        39.0004         35.0004
  -1693145.71347  -1307758.24446  24088232.9834   24088244.9644   24088232.763
        43.0004         38.0004
    -24797.15949    -18039.63648  20112462.2164   20112468.1254   20112461.981
        54.0004         49.0004
 -12168942.14347  -9469798.50746  23045968.3474   23045975.0674   23045967.828
        46.0004         41.0004
  -1302550.19656   -959351.07955  25169487.0575   25169500.5315   25169489.191
        37.0004         32.0004
 -27808516.25248 -21615409.45048  20475118.1654   20475124.2954   20475117.932
        53.0004         48.0004
 14  5 25  0  5 30.0000000  0 11G07G28G08G17G02G20G26G09G10G13G04
 -17090585.37048 -13304622.26347  21546718.6024   21546724.5534   21546718.569
        50.0004         46.0004
  -7239929.15047  -5643828.95947  22743208.0954   22743213.9584   22743206.991
        46.0004         42.0004
 -19338202.48348 -15058330.28948  20087478.3494   20087484.8404   20087478.886
        53.0004         48.0004
 -10569008.77547  -8187649.02247  23279689.4064   23279699.3234   23279689.934
        47.0004         42.0004
  -8298237.67847  -6455457.61147  22680921.7004   22680927.5084   22680922.261
        47.0004         42.0004
 -10416140.67046  -8064657.46445  23966864.4464   23966873.7624   23966864.730
        40.0004         35.0004
  -1684280.06547  -1300849.89346  24089920.7414   24089930.5844   24089920.585
        43.0004         38.0004
      4520.85449      4805.59448  20118041.1774   20118046.7964   20118041.104
        54.0004         49.0004
 -12238783.30547  -9524220.07846  23032675.7264   23032685.3904   23032676.886
        46.0004         41.0004
                                                                  25179605.565

 -27840511.81448 -21640341.02048  20469029.8754   20469035.6814   20469029.457
        53.0004         48.0004
 14  5 25  0  6  0.0000000  0 11G07G28G08G17G02G20G26G09G10G13G04
 -17005172.29348 -13238066.61847  21562972.4294   21562977.9864   21562972.277
        50.0004         45.0004
  -7298915.91147  -5689792.57647  22731982.4754   22731987.4944   22731981.991
        46.0004         42.0004
 -19300961.76048 -15029311.51348  20094565.3384   20094571.6214   20094565.372
        53.0004         48.0004
 -10530203.31647  -8157410.99147  23287075.1364   23287082.5504   23287074.839
        47.0004         43.0004
  -8370082.75947  -6511440.68747  22667250.6374   22667255.1524   22667250.365
        47.0004         42.0004
 -10381064.87046  -8037325.65445  23973537.0794   23973549.1564   23973538.201
        40.0004         35.0004
  -1675231.45147  -1293798.96546  24091642.5904   24091653.9264   24091642.351
        43.0004         38.0004
     34405.12249     28092.06248  20123727.7174   20123733.5794   20123727.799
        54.0004         49.0004
 -12308716.39447  -9578713.28846  23019367.4504   23019377.2154   23019368.885
        46.0004         41.0004
  -1196492.52946   -876708.54045  25189674.3704   25189677.2694   25189671.586
        37.0004         32.0004
 -27871965.38348 -21664850.25348  20463044.1914   20463050.2774   20463043.706
        53.0004         48.0004
 14  5 25  0  6 30.0000000  0 11G07G28G08G17G02G20G26G09G10G13G04
 -16919409.09048 -13171238.15247  21579292.4144   21579298.9014   21579292.316
        50.0004         45.0004
  -7357927.67447  -5735775.68347  22720752.8864   22720758.4464   22720752.462
        47.0004         42.0004
 -19263093.92948 -14999804.08248  20101771.3634   20101777.3734   20101771.525
        53.0004         48.0004
 -10491520.96147  -8127268.87747  23294435.9854   23294443.8684   23294435.662
        47.0004         43.0004
  -8441580.73547  -6567153.28747  22653644.6324   22653649.6074   22653644.744
        47.0004         42.0004
 -10345651.18346  -8009730.52645  23980276.1464   23980288.4084   23980277.532
        39.0004         35.0004
  -1666000.16647  -1286605.70846  24093398.8084   24093410.7564   24093398.716
        43.0004         38.0004
     64855.82149     51819.90348  20129522.2034   20129527.9674   20129522.484
        54.0004         49.0004
 -12378737.46547  -9633275.05346  23006044.0944   23006052.9134   23006044.597
        46.0004         41.0004
  -1143858.36546   -835694.80845  25199683.9144   25199696.4134   25199687.315
        37.0004         32.0004
 -27902874.27948 -21688935.06948  20457162.6684   20457168.3004   20457162.408
        53.0004         48.0004
 14  5 25  0  7  0.0000000  0 10G07G28G08G17G02G20G26G09G10G04
 -16833302.47048 -13104142.08547  21595678.3714   21595683.9094   21595678.055
        50.0004         46.0004
  -7416965.99247  -5781779.47547  22709516.4464   22709524.2224   22709517.778
        47.0004         42.0004
 -19224604.48848 -14969812.28648  20109095.5344   20109101.4414   20109095.797
        53.0004         49.0004
 -10452967.28247  -8097227.04047  23301772.3174   23301779.9224   23301772.107
        47.0004         43.0004
  -8512733.76747  -6622597.09147  22640105.0604   22640109.4164   22640105.024
        47.0004         43.0004
 -10309902.86746  -7981874.68145  23987083.4394   23987090.0234   23987080.449
        39.0004         35.0004
  -1656592.21447  -1279274.77146  24095189.7754   24095199.5484   24095189.610
        43.0004         38.0004
     95867.64049     75984.98148  20135423.8874   20135429.8254   20135423.860
        54.0004         50.0004
 -12448848.33147  -9687906.79346  22992702.3574   22992710.4964   22992702.820
        46.0004         41.0004
 -27933241.42348 -21712597.74148  20451383.6674   20451389.7724   20451383.105
        53.0004         48.0004
 14  5 25  0  7 30.0000000  0 10G07G28G08G17G02G20G26G09G10G04
 -16746854.37848 -13036779.93847  21612128.6294   21612135.1144   21612128.231
        50.0004         45.0004
  -7476027.28647  -5827801.18347  22698278.2694   22698285.8684   22698278.334
        47.0004         42.0004
 -19185494.01448 -14939336.56548  20116537.8724   20116544.3294   20116538.182
        53.0004         48.0004
 -10414542.62147  -8067285.71647  23309084.5604   23309092.5434   23309083.605
        47.0004         42.0004
  -8583538.75447  -6677769.70247  22626629.6844   22626636.3524   22626630.599
        47.0004         43.0004
 -10273818.48946  -7953756.97345  23993947.2574   23993954.7454   23993946.666
        39.0004         35.0004
  -1647008.64147  -1271806.99046  24097012.4944   24097023.7344   24097013.120
        43.0004         38.0004
    127440.04749    100586.87848  20141432.0674   20141437.7454   20141431.698
        54.0004         50.0004
 -12519045.67247  -9742605.90346  22979344.1114   22979351.8614   22979344.438
        46.0004         41.0004
 -27963064.83848 -21735836.72748  20445708.6204   20445714.1874   20445708.465
        53.0004         49.0004
 14  5 25  0  8  0.0000000  0 10G07G28G08G17G02G20G26G09G10G04
 -16660064.36648 -12969151.35547  21628644.0884   21628649.9454   21628643.782
        50.0004         45.0004
  -7535105.62547  -5873836.15847  22687036.1014   22687041.7784   22687036.251
        47.0004         42.0004
 -19145760.83048 -14908375.61948  20124099.0414   20124105.1744   20124099.196
        53.0004         48.0004
 -10376245.81347  -8037444.03047  23316371.7954   23316380.4294   23316371.796
        47.0004         43.0004
  -8653990.59847  -6732667.14347  22613223.1184   22613229.1564   22613223.799
        47.0004         42.0004
 -10237394.15146  -7925374.33945  24000879.8114   24000886.0164   24000878.618
        39.0004         35.0004
  -1637248.35947  -1264201.52946  24098870.8714   24098881.1064   24098870.502
        43.0004         38.0004
    159574.32649    125626.60148  20147546.7724   20147552.2844   20147546.926
        54.0004         50.0004
 -12589324.21847  -9797368.29646  22965970.2034   22965977.7394   22965970.761
        46.0004         41.0004
 -27992340.58848 -21758648.96148  20440137.6874   20440143.4264   20440137.032
        53.0004         48.0004
 14  5 25  0  8 30.0000000  0 10G07G28G08G17G02G20G26G09G10G04
 -16572940.60948 -12901262.70547  21645223.6584   21645229.2754   21645223.306
        50.0004         45.0004
  -7594203.44447  -5919886.33147  22675790.0894   22675797.3894   22675790.455
        47.0004         42.0004
 -19105411.79548 -14876934.79048  20131777.0194   20131783.0114   20131777.251
        53.0004         48.0004
 -10338083.55547  -8007707.20247  23323634.6804   23323641.7954   23323633.848
        47.0004         42.0004
  -8724092.60847  -6787291.97447  22599884.0234   22599889.7404   22599883.322
        47.0004         42.0004
 -10200634.55746  -7896730.48345  24007874.8674   24007882.3614   24007874.707
        39.0004         35.0004
  -1627318.66847  -1256464.04546  24100761.7464   24100771.2674   24100760.020
        43.0004         38.0004
    192263.78549    151098.93448  20153767.4464   20153773.2794   20153767.475
        54.0004         50.0004
 -12659686.91147  -9852196.25146  22952579.8674   22952588.4454   22952581.227
        46.0004         41.0004
 -28021073.18848 -21781037.95948  20434669.4294   20434675.5764   20434669.511
        53.0004         48.0004
 14  5 25  0  9  0.0000000  0 10G07G28G08G17G02G20G26G09G10G04
 -16485480.76348 -12833112.17747  21661866.8444   21661872.1714   21661866.313
        50.0004         45.0004
  -7653313.11147  -5965945.71547  22664541.5104   22664548.3544   22664541.390
        47.0004         42.0004
 -19064443.47548 -14845011.40548  20139572.7774   20139578.9764   20139573.295
        53.0004         48.0004
 -10300051.91447  -7978072.14947  23330871.2204   23330878.8704   23330870.829
        47.0004         42.0004
  -8793837.92647  -6841638.87347  22586610.7144   22586616.8414   22586611.945
        47.0004         42.0004
 -10163534.14246  -7867821.04445  24014932.9924   24014940.8014   24014934.353
        39.0004         35.0004
  -1617216.57647  -1248592.20646  24102680.8334   24102692.2874   24102682.003
        43.0004         38.0004
    225512.05049    177006.70048  20160094.2164   20160099.9374   20160094.024
        54.0004         50.0004
 -12730126.49847  -9907084.12547  22939177.1874   22939184.8724   22939177.377
        46.0004         42.0004
 -28049256.46048 -21802998.90948  20429306.4874   20429312.5264   20429306.319
        53.0004         48.0004
 14  5 25  0  9 30.0000000  0 10G07G28G08G17G02G20G26G09G10G04
 -16397691.73248 -12764705.13647  21678572.0474   21678577.6944   21678571.639
        50.0004         45.0004
  -7712435.60047  -6012015.11847  22653291.1374   22653297.7824   22653290.775
        47.0004         42.0004
 -19022860.98848 -14812609.44548  20147485.7174   20147492.1424   20147486.049
        53.0004         48.0004
 -10262156.14347  -7948542.95847  23338082.6724   23338090.3444   23338082.119
        47.0004         42.0004
  -8863228.24147  -6895709.13947  22573407.1154   22573412.2144   22573407.312
        47.0004         43.0004
 -10126096.03446  -7838648.47345  24022058.6204   24022066.2134   24022057.936
        39.0004         35.0004
  -1606947.66347  -1240590.38846  24104635.3404   24104646.8114   24104636.437
        42.0004         38.0004
    259313.78849    203345.73648  20166526.6474   20166531.8634   20166526.867
        54.0004         50.0004
 -12800644.35947  -9962032.99246  22925757.0164   22925765.4464   22925757.716
        46.0004         41.0004
 -28076893.20248 -21824533.98548  20424047.2974   20424053.2454   20424046.994
        53.0004         49.0004
 14  5 25  0 10  0.0000000  0 10G07G28G08G17G02G20G26G09G10G04
 -16309574.82048 -12696042.62647  21695340.4124   21695346.4164   21695340.113
        50.0004         45.0004
  -7771567.27547  -6058091.65847  22642039.2804   22642045.9254   22642038.628
        47.0004         42.0004
 -18980665.25048 -14779729.63148  20155515.3004   20155521.4864   20155515.779
        53.0004         48.0004
 -10224397.29547  -7919120.46447  23345268.2234   23345275.0284   23345267.508
        47.0004         42.0004
  -8932260.87947  -6949500.68947  22560270.6774   22560275.5874   22560271.454
        47.0004         43.0004
 -10088318.83546  -7809211.65045  24029244.6614   24029256.8914   24029245.803
        39.0004         34.0004
  -1596513.36247  -1232459.70946  24106621.7404   24106633.5974   24106621.585
        42.0004         38.0004
    293667.97349    230115.26048  20173063.7004   20173069.3754   20173063.722
        54.0004         50.0004
 -12871237.67747 -10017040.65246  22912323.5814   22912330.9534   22912324.215
        46.0004         41.0004
 -28103981.87948 -21845642.00348  20418892.8424   20418898.7274   20418892.620
        53.0004         49.0004
 14  5 25  0 10 30.0000000  0 10G07G28G08G17G02G20G26G09G10G04
 -16221133.65648 -12627127.42547  21712169.4324   21712175.1414   21712169.836
        50.0004         45.0004
  -7830705.46147  -6104173.28847  22630784.2174   22630791.4194   22630785.125
        47.0004         42.0004
 -18937857.99748 -14746373.30848  20163661.5434   20163667.2674   20163661.946
        53.0004         48.0004
 -10186775.99747  -7889805.15447  23352426.7824   23352434.2014   23352426.585
        47.0004         42.0004
  -9000933.92148  -7003012.04547  22547202.6654   22547207.1154   22547201.921
        48.0004         43.0004
 -10050201.98446  -7779510.18145  24036499.2544   24036510.6784   24036500.412
        39.0004         34.0004
  -1585915.67347  -1224201.70046  24108638.4124   24108648.5834   24108638.706
        42.0004         38.0004
    328572.95949    257313.97848  20179706.0364   20179711.8324   20179706.026
        54.0004         50.0004
 -12941904.16547 -10072105.34446  22898876.2664   22898883.1874   22898876.651
        46.0004         41.0004
 -28130521.57048 -21866322.24248  20413842.1754   20413848.1004   20413841.795
        53.0004         49.0004
 14  5 25  0 11  0.0000000  0 10G07G28G08G17G02G20G26G09G10G04
 -16132371.61448 -12557962.19547  21729061.1514   21729066.4514   21729060.384
        50.0004         45.0004
  -7889847.99447  -6150258.31047  22619529.7304   22619536.6304   22619530.453
        47.0004         42.0004
 -18894441.92448 -14712542.58348  20171923.2224   20171929.3444   20171923.454
        53.0004         48.0004
 -10149294.59747  -7860598.86747  23359560.0494   23359566.2464   23359558.998
        47.0004         42.0004
  -9069246.61148  -7056242.59547  22534202.9794   22534208.2024   22534203.508
        48.0004         43.0004
 -10011745.78346  -7749544.27945  24043817.8314   24043825.9684   24043817.945
        39.0004         34.0004
  -1575157.57347  -1215818.69646  24110685.7574   24110697.7454   24110685.133
        42.0004         38.0004
    364026.19449    284939.90348  20186452.5264   20186458.1374   20186452.501
        54.0004         50.0004
 -13012642.07547 -10127225.67846  22885415.1014   22885422.1424   22885416.012
        46.0004         41.0004
 -28156512.64748 -21886574.98248  20408896.1474   20408901.9184   20408896.221
        53.0004         49.0004
 14  5 25  0 11 30.0000000  0 10G07G28G08G17G02G20G26G09G10G04
 -16043290.28548 -12488548.18047  21746012.7054   21746018.0764   21746012.087
        50.0004         45.0004
  -7948991.01147  -6196343.71447  22608274.7254   22608282.8934   22608275.950
        47.0004         42.0004
 -18850417.30848 -14678237.66948  20180300.7154   20180306.9434   20180301.243
        53.0004         48.0004
 -10111954.09647  -7831502.37747  23366664.5594   23366673.0094   23366664.531
        47.0004         42.0004
  -9137195.81348  -7109189.91147  22521273.1924   22521278.3574   22521273.084
        48.0004         43.0004
  -9972948.63446  -7719312.70645  24051201.1084   24051209.5654   24051200.930
        39.0004         34.0004
  -1564239.85847  -1207311.32346  24112763.6524   24112774.6414   24112763.393
        42.0004         38.0004
    400027.09549    312992.57748  20193303.1114   20193308.9594   20193303.090
        54.0004         50.0004
 -13083447.99647 -10182399.00347  22871940.9524   22871948.2974   22871942.043
        46.0004         42.0004
 -28181952.93648 -21906398.54248  20404055.5624   20404060.7264   20404055.000
        53.0004         49.0004
 14  5 25  0 12  0.0000000  0 10G07G28G08G17G02G20G26G09G10G04
 -15953893.67948 -12418888.48647  21763024.5404   21763030.4434   21763023.633
        50.0004         45.0004
  -8008132.89147  -6242428.23347  22597021.3804   22597028.7104   22597021.591
        47.0004         43.0004
 -18805786.75348 -14643460.59748  20188793.5424   20188799.7334   20188793.914
        53.0004         48.0004
 -10074756.49847  -7802517.22947  23373743.5454   23373751.3714   23373743.086
        47.0004         43.0004
  -9204780.10448  -7161852.89647  22508411.6084   22508417.0474   22508411.415
        48.0004         43.0004
  -9933810.90446  -7688815.73945  24058647.1034   24058659.5454   24058646.117
        39.0004         34.0004
  -1553165.43647  -1198681.82246  24114870.5374   24114880.6644   24114870.503
        42.0004         38.0004
    436573.42749    341470.26348  20200257.5864   20200263.4314   20200257.860
        54.0004         50.0004
 -13154320.48547 -10237624.19847  22858455.2634   22858462.5644   22858455.428
        46.0004         42.0004
 -28206842.60648 -21925793.04348  20399318.8634   20399324.4734   20399318.550
        53.0004         49.0004
 14  5 25  0 12 30.0000000  0 10G07G28G08G17G02G20G26G09G10G04
 -15864185.80648 -12348986.24747  21780094.8894   21780101.1384   21780094.690
        50.0004         45.0004
  -8067272.17247  -6288510.73347  22585767.7044   22585773.9584   22585767.838
        47.0004         43.0004
 -18760553.72948 -14608214.06248  20197401.0294   20197407.3064   20197401.711
        53.0004         48.0004
 -10037704.59647  -7773645.62247  23380794.7264   23380801.8054   23380794.160
        47.0004         43.0004
  -9271999.23048  -7214231.32847  22495619.6404   22495625.7254   22495620.552
        48.0004         43.0004
  -9894333.77646  -7658054.32245  24066161.0054   24066169.9864   24066160.041
        39.0004         34.0004
  -1541937.95947  -1189933.05646  24117006.3914   24117017.4384   24117007.223
        42.0004         38.0004
    473661.70749    370370.23948  20207315.0704   20207321.0444   20207315.350
        54.0004         50.0004
 -13225258.69847 -10292900.60847  22844955.1864   22844963.0424   22844955.682
        46.0004         42.0004
 -28231182.45548 -21944759.11948  20394687.2744   20394693.1194   20394686.805
        53.0004         49.0004
 14  5 25  0 13  0.0000000  0 10G07G28G08G17G02G20G26G09G10G04
 -15774167.72348 -12278842.28747  21797225.4514   21797230.0004   21797224.924
        50.0004         45.0004
  -8126404.28047  -6334587.64147  22574514.7424   22574521.6264   22574515.662
        47.0004         43.0004
 -18714717.90848 -14572497.82348  20206123.5084   20206129.4254   20206123.743
        53.0004         48.0004
 -10000797.75747  -7744887.03847  23387817.9544   23387825.6514   23387817.317
        47.0004         43.0004
  -9338849.67148  -7266322.47347  22482899.3204   22482903.2704   22482898.629
        48.0004         43.0004
  -9854514.64146  -7627026.38145  24073736.0494   24073748.9314   24073736.973
        39.0004         34.0004
  -1530557.43847  -1181065.02746  24119172.0764   24119184.1214   24119171.414
        42.0004         38.0004
    511292.21649    399692.74048  20214476.4654   20214481.7774   20214476.247
        54.0004         50.0004
 -13296258.73847 -10348225.20347  22831444.8104   22831451.2164   22831444.767
        46.0004         42.0004
 -28254969.90648 -21963294.74948  20390160.4804   20390166.3584   20390160.084
        53.0004         49.0004
 14  5 25  0 13 30.0000000  0 10G07G28G08G17G02G20G26G09G10G04
 -15683843.62048 -12208459.87647  21814413.9064   21814418.2004   21814412.699
        50.0004         45.0004
  -8185528.18147  -6380658.14547  22563264.4624   22563269.5784   22563264.224
        47.0004         43.0004
 -18668282.34248 -14536314.24348  20214959.9664   20214965.9484   20214960.274
        53.0004         48.0004
  -9964038.76447  -7716243.66147  23394811.9374   23394819.5974   23394811.969
        47.0004         42.0004
  -9405330.94248  -7318125.95747  22470248.1974   22470252.2824   22470247.994
        48.0004         43.0004
  -9814354.45946  -7595732.68245  24081379.3934   24081388.5514   24081380.329
        39.0004         34.0004
  -1519027.38047  -1172080.47646  24121366.0704   24121375.8304   24121366.747
        42.0004         38.0004
    549461.58349    429435.12648  20221739.6244   20221745.2684   20221739.473
        54.0004         50.0004
 -13367319.60147 -10403597.18447  22817921.4854   22817930.3044   22817922.747
        46.0004         42.0004
 -28278205.41748 -21981400.30248  20385738.8094   20385744.6264   20385738.447
        53.0004         49.0004
 14  5 25  0 14  0.0000000  0 11G07G28G08G17G02G20G26G09G10G30G04
 -15593214.84348 -12137840.04947  21831658.4814   21831664.2324   21831658.715
        50.0004         45.0004
  -8244638.70647  -6426718.22747  22552016.4174   22552022.3384   22552016.075
        47.0004         43.0004
 -18621247.62348 -14499663.79748  20223910.2324   20223916.2724   20223910.576
        53.0004         48.0004
  -9927427.11747  -7687715.10447  23401779.6284   23401785.9524   23401778.882
        47.0004         42.0004
  -9471439.69848  -7369639.16247  22457667.4374   22457672.5204   22457668.438
        48.0004         43.0004
  -9773851.17846                  24089086.9344                   24089087.066
        39.0004
  -1507348.42447  -1162979.90546  24123589.1494   24123599.5254   24123588.437
        42.0004         37.0004
    588169.47549    459597.14148  20229105.5074   20229110.9904   20229105.537
        54.0004         50.0004
 -13438437.16847 -10459013.34447  22804388.6044   22804395.7604   22804388.985
        46.0004         42.0004
    -76802.57349    -61919.91148  20472787.7724   20472795.1694   20472787.771
        54.0004         50.0004
 -28300887.19748 -21999074.37148  20381422.9024   20381428.3304   20381422.235
        53.0004         49.0004
 14  5 25  0 14 30.0000000  0 11G07G28G08G17G02G20G26G09G10G30G04
 -15502288.14648 -12066988.08247  21848962.3924   21848967.0714   21848961.475
        50.0004         45.0004
  -8303736.65847  -6472768.51947  22540769.9784   22540776.6364   22540769.530
        47.0004         43.0004
 -18573619.16648 -14462550.69448  20232973.4194   20232979.7784   20232973.946
        53.0004         48.0004
  -9890968.14547  -7659305.51247  23408716.6274   23408724.6814   23408716.604
        47.0004         42.0004
  -9537178.07648  -7420863.76247  22445157.9504   22445163.2104   22445158.548
        48.0004         43.0004
                                                                  24096859.854

  -1495526.37147  -1153767.82246  24125838.4584   24125849.9984   24125838.668
        42.0004         38.0004
    627410.17149    490174.33148  20236572.6724   20236578.5194   20236572.503
        54.0004         49.0004
 -13509612.88547 -10514474.81847  22790844.6154   22790852.8274   22790845.275
        46.0004         42.0004
    -36058.22049    -30171.04348  20480541.1364   20480548.5244   20480541.061
        54.0004         50.0004
 -28323018.56248 -22016319.54648  20377211.1744   20377217.1294   20377211.013
        53.0004         49.0004
 14  5 25  0 15  0.0000000  0 11G07G28G08G17G02G20G26G09G10G30G04
 -15411063.12448 -11995903.65147  21866320.7984   21866327.3724   21866320.988
        49.0004         45.0004
  -8362816.31147  -6518804.55847  22529527.8374   22529533.1154   22529527.260
        47.0004         43.0004
 -18525395.73448 -14424973.97248  20242150.3354   20242156.2244   20242150.581
        53.0004         48.0004
  -9854660.02147  -7631013.45147  23415626.3084   23415633.3584   23415626.088
        47.0004         42.0004
  -9602540.72748  -7471795.58447  22432719.2014   22432725.3714   22432719.969
        48.0004         44.0004
  -9691821.97246  -7500252.72045  24104694.7294   24104707.7714   24104697.036
        39.0004         34.0004
  -1483559.90647  -1144443.21946  24128115.5354   24128127.8814   24128115.378
        43.0004         38.0004
    667185.34949    521167.99848  20244141.7994   20244147.1784   20244141.774
        54.0004         50.0004
 -13580840.99247 -10569977.12747  22777289.5274   22777296.3634   22777290.188
        47.0004         42.0004
      5196.93849      1975.85448  20488391.6874   20488399.0444   20488391.706
        54.0004         50.0004
 -28344595.22748 -22033132.49148  20373104.9254   20373110.8244   20373104.621
        53.0004         49.0004
 14  5 25  0 15 30.0000000  0 11G07G28G08G17G02G20G26G09G10G30G04
 -15319544.68748 -11924590.59047  21883736.4814   21883742.9804   21883736.537
        49.0004         45.0004
  -8421877.06847  -6564825.87447  22518288.9964   22518294.4494   22518288.121
        47.0004         43.0004
 -18476581.53748 -14386936.91948  20251439.5814   20251445.2644   20251439.718
        53.0004         48.0004
  -9818506.27947  -7602841.72447  23422504.5874   23422514.4564   23422505.731
        46.0004         42.0004
  -9667528.15548  -7522435.03547  22420353.9534   22420358.2824   22420353.033
        48.0004         44.0004
  -9650294.13646  -7467893.32945  24112597.5544   24112608.0944   24112600.214
        39.0004         34.0004
  -1471453.37347  -1135009.47446  24130419.9664   24130430.1524   24130419.137
        43.0004         38.0004
    707490.80749    552574.86748  20251811.4444   20251817.3404   20251811.510
        54.0004         49.0004
 -13652121.43647 -10625520.20147  22763724.7154   22763733.5384   22763725.730
        46.0004         42.0004
     46959.12049     34517.83348  20496338.8004   20496346.0304   20496338.597
        54.0004         50.0004
 -28365618.80048 -22049514.44948  20369104.4854   20369110.2354   20369104.294
        53.0004         49.0004
 14  5 25  0 16  0.0000000  0 11G07G28G08G17G02G20G26G09G10G30G04
 -15227733.74848 -11853049.59947  21901207.7564   21901214.0584   21901207.621
        49.0004         45.0004
  -8480914.42747  -6610828.95847  22507053.0494   22507059.9004   22507053.907
        47.0004         43.0004
 -18427176.71248 -14348439.62948  20260840.5164   20260846.6354   20260841.009
        53.0004         48.0004
  -9782506.12147  -7574789.64647  23429356.1074   23429364.6044   23429356.502
        46.0004         42.0004
  -9732136.65848  -7572779.21547  22408058.7224   22408063.4774   22408058.796
        48.0004         44.0004
  -9608422.79646  -7435266.24645  24120566.7014   24120578.3224   24120566.677
        39.0004         34.0004
  -1459206.94947  -1125466.69946  24132748.9084   24132761.0614   24132749.154
        42.0004         38.0004
    748326.58749    584394.97548  20259582.3164   20259588.2084   20259582.229
        54.0004         50.0004
 -13723449.63047 -10681100.50147  22750151.3304   22750159.7034   22750152.564
        46.0004         42.0004
     89228.55749     67455.07648  20504382.4534   20504389.9374   20504382.558
        54.0004         50.0004
 -28386087.13548 -22065463.76448  20365209.2144   20365215.0034   20365209.042
        53.0004         49.0004
 14  5 25  0 16 30.0000000  0 11G07G28G08G17G02G20G26G09G10G30G04
 -15135636.22448 -11781285.28547  21918733.6714   21918739.1524   21918732.972
        49.0004         45.0004
  -8539928.01648  -6656813.52847  22495824.2334   22495829.5614   22495823.914
        48.0004         43.0004
 -18377185.76448 -14309485.62248  20270353.6624   20270359.7704   20270353.830
        53.0004         48.0004
  -9746663.64247  -7546860.43147  23436177.1924   23436184.9314   23436177.003
        46.0004         42.0004
  -9796367.16748  -7622828.84647  22395836.1084   22395840.1894   22395836.174
        48.0004         44.0004
  -9566210.07946  -7402373.19645  24128600.2014   24128608.4524   24128600.799
        39.0004         34.0004
  -1446825.50947  -1115818.72646  24135106.2654   24135116.5284   24135104.836
        43.0004         38.0004
    789688.22649    616624.84848  20267453.1184   20267458.8004   20267453.195
        54.0004         50.0004
 -13794825.93747 -10736718.28347  22736568.6824   22736577.7514   22736569.865
        47.0004         42.0004
    132000.95449    100784.23748  20512521.6604   20512529.2964   20512521.516
        54.0004         50.0004
 -28406002.29648 -22080982.02848  20361419.4624   20361425.4994   20361419.368
        53.0004         49.0004
 14  5 25  0 17  0.0000000  0 11G07G28G08G17G02G20G26G09G10G30G04
 -15043252.42148 -11709297.92047  21936314.8174   21936318.9514   21936313.383
        49.0004         45.0004
  -8598912.25348  -6702775.21147  22484598.6704   22484606.2634   22484599.489
        48.0004         43.0004
 -18326608.27048 -14270074.56748  20279978.3024   20279984.1944   20279978.680
        53.0004         48.0004
  -9710977.44947  -7519052.99547  23442968.4324   23442976.2594   23442967.933
        46.0004         42.0004
  -9860215.88548  -7672580.98247  22383685.4804   22383689.8684   22383685.462
        48.0004         44.0004
  -9523653.17946  -7369211.92745  24136697.5324   24136705.6564   24136698.958
        39.0004         34.0004
  -1434308.60347  -1106065.20046  24137488.3244   24137498.0284   24137488.151
        43.0004         38.0004
    831576.14549    649264.81148  20275424.0664   20275429.5854   20275424.122
        54.0004         49.0004
 -13866245.74547 -10792369.95547  22722978.6314   22722985.9884   22722979.687
        47.0004         42.0004
    175277.03449    134505.87948  20520757.0414   20520764.2814   20520756.963
        54.0004         50.0004
 -28425361.43548 -22096067.03248  20357735.7104   20357741.4754   20357735.316
        53.0004         49.0004
 14  5 25  0 17 30.0000000  0 11G07G28G08G17G02G20G26G09G10G30G04
 -14950589.66048 -11637093.17447  21953945.9524   21953952.4814   21953946.101
        49.0004         45.0004
  -8657868.98848  -6748715.46647  22473380.4964   22473387.8254   22473380.439
        48.0004         43.0004
 -18275450.65548 -14230211.46548  20289713.2104   20289719.0414   20289713.710
        53.0004         48.0004
  -9675453.53347  -7491372.02647  23449727.7514   23449736.2624   23449727.932
        46.0004         42.0004
  -9923685.20048  -7722037.48947  22371607.1904   22371612.0254   22371607.504
        48.0004         44.0004
  -9480756.15646  -7335785.64245  24144863.7434   24144872.3704   24144861.419
        39.0004         34.0004
  -1421662.76947  -1096211.19746  24139893.9844   24139904.3094   24139893.207
        43.0004         38.0004
    873983.82249    682309.77848  20283494.0954   20283499.5654   20283494.066
        54.0004         50.0004
 -13937710.87747 -10848056.96847  22709378.7554   22709387.5094   22709379.496
        47.0004         42.0004
    219050.72949    168615.27448  20529086.5204   20529094.0174   20529086.584
        54.0004         50.0004
 -28444168.56048 -22110721.89848  20354156.9854   20354162.5844   20354156.662
        53.0004         49.0004
 14  5 25  0 18  0.0000000  0 11G07G28G08G17G02G20G26G09G10G30G04
 -14857645.10348 -11564668.82747  21971633.2854   21971638.8314   21971633.296
        49.0004         45.0004
  -8716789.62848  -6794627.59447  22462167.4004   22462174.5764   22462168.244
        48.0004         43.0004
 -18223709.50148 -14189893.66248  20299559.6174   20299565.1374   20299559.648
        53.0004         48.0004
  -9640087.29147  -7463813.91447  23456458.8224   23456465.1434   23456458.076
        46.0004         42.0004
  -9986767.75048  -7771192.61947  22359604.2394   22359608.1584   22359603.806
        48.0004         44.0004
  -9437513.17046                  24153091.3994                   24153088.812
        39.0004
  -1408884.30147  -1086253.85846  24142324.5994   24142336.4304   24142325.859
        42.0004         38.0004
    916915.06149    715762.72048  20291663.5354   20291668.7804   20291663.621
        54.0004         49.0004
 -14009213.04747 -10903772.83247  22695772.5944   22695780.2444   22695773.362
        47.0004         42.0004
    263326.15249    203115.62548  20537512.0294   20537519.5804   20537512.058
        54.0004         50.0004
 -28462417.42848 -22124941.76048  20350683.9754   20350689.7474   20350683.628
        53.0004         49.0004
 14  5 25  0 18 30.0000000  0 11G07G28G08G17G02G20G26G09G10G30G04
 -14764427.33748 -11492031.60747  21989372.2434   21989378.2194   21989371.931
        49.0004         45.0004
  -8775676.95748  -6840513.74847  22450962.3324   22450969.4064   22450962.353
        48.0004         43.0004
 -18171392.46348 -14149127.11648  20309514.6374   20309520.8294   20309515.169
        53.0004         48.0004
  -9604885.79147  -7436384.16547  23463156.4224   23463164.0324   23463156.911
        46.0004         42.0004
 -10049467.68048  -7820049.59947  22347671.1754   22347675.8514   22347671.524
        48.0004         44.0004
  -9393929.40356                  24161383.5225                   24161382.243
        38.0004
  -1395981.19847  -1076199.38846  24144780.9084   24144791.5564   24144780.356
        43.0004         38.0004
    960362.02349    749617.52048  20299931.3844   20299936.9274   20299931.215
        54.0004         49.0004
 -14080755.66947 -10959520.21247  22682158.5054   22682165.9994   22682159.037
        47.0004         42.0004
    308095.71149    238001.01748  20546031.5394   20546038.7874   20546031.126
        54.0004         50.0004
 -28480113.44748 -22138730.82648  20347316.3164   20347322.2874   20347316.181
        53.0004         49.0004
 14  5 25  0 19  0.0000000  0 11G07G28G08G17G02G20G26G09G10G30G04
 -14670933.09948 -11419178.95247  22007163.4634   22007169.3334   22007163.260
        49.0004         44.0004
  -8834521.91448  -6886366.90447  22439763.6114   22439770.2674   22439764.378
        48.0004         43.0004
 -18118495.39548 -14107908.59848  20319580.9354   20319586.4044   20319580.948
        53.0004         48.0004
  -9569844.03947  -7409078.91047  23469825.0284   23469833.4884   23469824.657
        46.0004         42.0004
 -10111777.20148  -7868602.37147  22335814.2964   22335819.5474   22335814.823
        48.0004         44.0004
  -9349998.79546  -7233896.68845  24169744.1114   24169753.5534   24169743.866
        39.0004         34.0004
  -1382949.33147  -1066044.59346  24147262.0544   24147270.7224   24147260.902
        42.0004         38.0004
   1004328.67549    783877.27348  20308297.9644   20308303.1394   20308297.766
        54.0004         49.0004
 -14152330.31547 -11015292.55547  22668538.5074   22668545.8954   22668538.780
        47.0004         42.0004
    353363.87149    273274.92848  20554645.4914   20554652.9734   20554645.527
        54.0004         49.0004
 -28497250.06448 -22152084.00048  20344055.9884   20344061.0074   20344055.688
        53.0004         49.0004
 14  5 25  0 19 30.0000000  0 11G07G28G08G17G02G20G26G09G10G30G04
 -14577172.65448 -11346118.86747  22025005.9634   22025010.7894   22025005.354
        49.0004         44.0004
  -8893328.88948  -6932190.45747  22428574.1514   22428580.3874   22428573.688
        48.0004         43.0004
 -18065028.11848 -14066245.76148  20329754.9584   20329761.2674   20329755.460
        53.0004         48.0004
  -9534971.05647  -7381905.15447  23476460.2324   23476468.8184   23476460.438
        46.0004         42.0004
 -10173702.10048  -7916855.44047  22324030.7334   22324034.8554   22324031.234
        48.0004         44.0004
  -9305728.48246  -7199400.28945  24178167.6034   24178178.0194   24178167.567
        39.0004         34.0004
  -1369798.37747  -1055797.01246  24149763.4494   24149773.1384   24149762.735
        42.0004         38.0004
   1048805.68749    818534.70848  20316761.2904   20316766.9504   20316761.271
        54.0004         49.0004
 -14223941.98847 -11071093.74847  22654911.6494   22654919.1284   22654911.660
        47.0004         42.0004
    399121.38149    308930.15448  20563352.8384   20563360.4954   20563352.774
        54.0004         49.0004
 -28513834.41748 -22165006.84048  20340899.2934   20340905.7334   20340899.026
        53.0004         49.0004
 14  5 25  0 20  0.0000000  0 11G07G28G08G17G02G20G26G09G10G30G04
 -14483144.88148 -11272850.47147  22042898.9514   22042904.4324   22042898.190
        49.0004         44.0004
  -8952091.06648  -6977979.10547  22417390.5424   22417397.9154   22417391.641
        48.0004         43.0004
 -18010988.38948 -14024136.85448  20340038.7104   20340044.6354   20340039.028
        53.0004         48.0004
  -9500263.35247  -7354860.17547  23483065.2154   23483073.4514   23483065.644
        47.0004         42.0004
 -10235236.30748  -7964804.07247  22312321.0174   22312325.9204   22312321.040
        48.0004         44.0004
  -9261114.02246  -7164635.75545  24186658.3384   24186668.1884   24186656.883
        38.0004         34.0004
  -1356525.91347  -1045454.74146  24152288.1704   24152298.6774   24152289.227
        42.0004         38.0004
   1093795.38549    853591.63548  20325322.6514   20325327.8714   20325322.724
        54.0004         49.0004
 -14295583.55347 -11126918.23947  22641278.1194   22641285.1534   22641278.613
        47.0004         42.0004
    445370.94949    344968.80048  20572153.8394   20572161.3764   20572153.840
        54.0004         49.0004
 -28529861.95448 -22177495.79448  20337849.9194   20337855.5304   20337849.719
        53.0004         49.0004
 14  5 25  0 20 30.0000000  0 11G07G28G08G17G02G20G26G09G10G30G04
 -14388853.47448 -11199376.64947  22060842.2074   22060847.2274   22060841.178
        49.0004         44.0004
  -9010806.05848  -7023730.97947  22406217.3264   22406224.3214   22406218.384
        48.0004         43.0004
 -17956379.14848 -13981584.17648  20350430.2764   20350436.3614   20350430.577
        53.0004         48.0004
  -9465723.07647  -7327945.66747  23489638.6304   23489646.3424   23489638.354
        47.0004         42.0004
 -10296379.14748  -8012447.74247  22300686.2314   22300690.0724   22300686.435
        48.0004         44.0004
  -9216155.68946  -7129603.24445  24195209.0794   24195222.3254   24195212.538
        38.0004         34.0004
  -1343134.95647  -1035020.14746  24154837.6424   24154847.2604   24154836.581
        43.0004         38.0004
   1139294.73449    889045.69348  20333981.1084   20333986.4744   20333980.794
        54.0004         49.0004
 -14367253.44747 -11182764.80647  22627639.0414   22627646.6704   22627639.979
        47.0004         42.0004
    492109.85949    381388.75548  20581047.8294   20581055.2804   20581047.749
        54.0004         49.0004
 -28545333.17048 -22189551.25648  20334905.6704   20334911.5524   20334905.389
        53.0004         49.0004
 14  5 25  0 21  0.0000000  0 11G07G28G08G17G02G20G26G09G10G30G04
 -14294301.48348 -11125699.79547  22078834.0944   22078839.3844   22078834.296
        49.0004         44.0004
  -9069471.24548  -7069444.04647  22395055.2864   22395059.8484   22395054.815
        48.0004         43.0004
 -17901202.86248 -13938589.64548  20360929.9344   20360935.9834   20360930.337
        53.0004         48.0004
  -9431351.51847  -7301162.63647  23496179.9754   23496187.2954   23496179.316
        47.0004         42.0004
 -10357129.22548  -8059785.37447  22289125.1134   22289129.7864   22289125.962
        49.0004         44.0004
  -9170853.83746  -7094303.07845  24203832.9424   24203844.1264   24203833.675
        38.0004         34.0004
  -1329627.87547  -1024495.06046  24157407.2504   24157417.6234   24157407.358
        43.0004         38.0004
   1185301.18849    924894.89648  20342735.5294   20342741.1404   20342735.567
        54.0004         49.0004
 -14438949.43847 -11238631.70147  22613996.5164   22614002.1844   22613997.161
        47.0004         42.0004
    539335.99249    418188.36248  20590034.7594   20590042.5694   20590034.641
        54.0004         49.0004
 -28560248.00548 -22201173.17548  20332067.6804   20332072.9554   20332066.856
        53.0004         49.0004
 14  5 25  0 21 30.0000000  0 11G07G28G08G17G02G20G26G09G10G30G04
 -14199492.52148 -11051822.67547  22096875.6944   22096881.0424   22096875.482
        49.0004         44.0004
  -9128084.41248  -7115116.56947  22383900.1504   22383907.2224   22383901.081
        48.0004         43.0004
 -17845462.80848 -13895155.81448  20371536.9084   20371542.8574   20371537.293
        53.0004         48.0004
  -9397150.81247  -7274512.73447  23502687.7224   23502695.0594   23502687.550
        47.0004         42.0004
 -10417485.95548  -8106816.49347  22277639.5664   22277644.3054   22277639.989
        49.0004         44.0004
  -9125208.94746  -7058735.61845  24212520.2164   24212529.2664   24212518.169
        38.0004         34.0004
  -1316007.68147  -1013881.83146  24159999.1504   24160008.9314   24159998.442
        43.0004         38.0004
   1231811.78849    961136.94148  20351586.3444   20351591.6574   20351586.071
        54.0004         49.0004
 -14510670.06647 -11294517.80047  22600347.1754   22600354.9274   22600348.673
        47.0004         42.0004
    587046.60649    455365.48748  20599113.7074   20599121.3284   20599113.866
        54.0004         49.0004
 -28574607.33248 -22212362.22748  20329335.2264   20329340.3794   20329334.753
        53.0004         49.0004
 14  5 25  0 22  0.0000000  0 11G07G28G08G17G02G20G26G09G10G30G04
 -14104428.98548 -10977747.16147  22114964.2744   22114971.1164   22114964.977
        49.0004         44.0004
  -9186642.11548  -7160745.88347  22372758.0124   22372764.2734   22372758.188
        48.0004         43.0004
 -17789160.37248 -13851283.76348  20382250.7844   20382257.4224   20382251.144
        53.0004         48.0004
  -9363121.23847  -7247996.17647  23509162.9514   23509170.9444   23509162.802
        47.0004         42.0004
 -10477446.95448  -8153539.24347  22266229.8174   22266234.5484   22266229.812
        48.0004         44.0004
  -9079220.04946  -7022900.07945  24221272.9894   24221278.7794   24221270.115
        38.0004         34.0004
  -1302275.74247  -1003181.52946  24162612.5394   24162622.5754   24162611.561
        43.0004         38.0004
   1278825.23349    997770.81048  20360532.6584   20360538.3254   20360532.452
        54.0004         49.0004
 -14582412.02347 -11350420.51347  22586696.1294   22586703.3784   22586695.965
        47.0004         42.0004
    635240.62649    492919.28748  20608285.2004   20608292.1404   20608284.786
        54.0004         49.0004
 -28588409.92148 -22223117.45948  20326708.3654   20326714.2154   20326707.980
        53.0004         49.0004
 14  5 25  0 22 30.0000000  0 11G07G28G08G17G02G20G26G09G10G30G04
 -14009117.03848 -10903478.11547  22133103.5354   22133108.8834   22133102.427
        49.0004         44.0004
  -9245144.63548  -7206332.18947  22361625.1004   22361630.1754   22361625.087
        48.0004         43.0004
 -17732301.22348 -13806977.90948  20393070.8474   20393076.7694   20393071.065
        52.0004         48.0004
  -9329267.42847  -7221616.58247  23515605.2674   23515613.8774   23515604.799
        46.0004         42.0004
 -10537014.01448  -8199955.04547  22254894.5524   22254899.6974   22254894.423
        49.0004         44.0004
  -9032890.64946  -6986799.26045  24230087.5344   24230096.9064   24230086.906
        38.0004         33.0004
  -1288437.43747   -992398.36146  24165245.7074   24165255.3874   24165244.865
        43.0004         38.0004
   1326336.01149   1034792.21148  20369573.2544   20369578.9434   20369573.694
        54.0004         49.0004
 -14654175.94747 -11406340.34247  22573039.3454   22573047.2924   22573039.900
        47.0004         42.0004
    683912.93849    530845.78648  20617546.8154   20617554.3184   20617546.800
        54.0004         49.0004
 -28601659.10548 -22233441.46848  20324187.3784   20324192.9964   20324186.791
        53.0004         49.0004
 14  5 25  0 23  0.0000000  0 11G07G28G08G17G02G20G26G09G10G30G04
 -13913554.05348 -10829013.44247  22151288.9874   22151293.6724   22151287.671
        49.0004         44.0004
  -9303583.65348  -7251869.01047  22350504.2044   22350510.5994   22350504.333
        48.0004         43.0004
 -17674882.18248 -13762235.78048  20403997.2134   20404003.2964   20403997.724
        52.0004         48.0004
  -9295585.21447  -7195370.69946  23522014.6054   23522022.0734   23522014.402
        46.0004         41.0004
 -10596179.98748  -8246058.30747  22243634.3304   22243640.4324   22243635.675
        49.0004         44.0004
  -8986215.15346  -6950428.72745  24238967.8574   24238977.1164   24238969.096
        38.0004         33.0004
  -1274489.47747   -981529.74846  24167899.4434   24167909.2514   24167899.169
        43.0004         38.0004
   1374347.31049   1072203.63248  20378709.5044   20378715.3774   20378709.673
        54.0004         49.0004
 -14725953.71347 -11462270.97647  22559381.7574   22559387.5154   22559381.337
        47.0004         42.0004
    733067.08049    569147.73248  20626900.6864   20626907.9664   20626900.557
        54.0004         49.0004
 -28614349.13548 -22243329.77348  20321772.3934   20321777.8934   20321771.832
        53.0004         49.0004
 14  5 25  0 23 30.0000000  0 11G07G28G08G17G02G20G26G09G10G30G04
 -13817747.21948 -10754358.76447  22169518.9624   22169525.1974   22169518.560
        49.0004         44.0004
  -9361960.29848  -7297357.21847  22339395.1244   22339401.3814   22339395.643
        48.0004         43.0004
 -17616909.72848 -13717062.41848  20415028.9524   20415034.9154   20415029.381
        52.0004         48.0004
  -9262079.67447  -7169262.47146  23528389.3994   23528398.7574   23528389.768
        46.0004         41.0004
 -10654947.53848  -8291851.10047  22232452.1094   22232456.7784   22232452.288
        49.0004         44.0004
  -8939197.32346  -6913791.45445  24247916.4214   24247922.1724   24247916.365
        38.0004         33.0004
  -1260437.98347   -970580.43946  24170572.9564   24170583.2444   24170572.429
        43.0004         38.0004
   1422852.83449   1110000.15748  20387940.3744   20387945.8964   20387940.374
        54.0004         49.0004
 -14797747.01247 -11518213.70847  22545718.5234   22545725.5214   22545719.372
        47.0004         43.0004
    782697.06449    607820.46448  20636344.9554   20636352.0244   20636344.862
        54.0004         49.0004
 -28626483.92648 -22252785.42348  20319463.2674   20319468.6194   20319462.881
        53.0004         49.0004
 14  5 25  0 24  0.0000000  0 11G07G28G08G17G02G20G26G09G10G30G04
 -13721697.28748 -10679514.64647  22187796.2214   22187803.0604   22187796.831
        48.0004         44.0004
  -9420269.59048  -7342792.95847  22328299.8524   22328306.1284   22328299.693
        48.0004         43.0004
 -17558383.86648 -13671457.83348  20426166.2034   20426171.8264   20426166.616
        52.0004         48.0004
  -9228749.89347  -7143291.21246  23534733.3094   23534740.6634   23534732.469
        46.0004         41.0004
 -10713312.97348  -8337330.55947  22221344.9604   22221348.8404   22221345.301
        49.0004         44.0004
  -8891834.90346  -6876885.66445  24256926.9014   24256936.7314   24256928.033
        38.0004         33.0004
  -1246282.82847   -959550.37046  24173267.6984   24173278.1724   24173266.952
        43.0004         38.0004
   1471852.71349   1148181.89848  20397264.2524   20397269.8364   20397264.406
        54.0004         49.0004
 -14869551.17747 -11574164.90747  22532054.9384   22532062.2014   22532054.868
        47.0004         43.0004
    832803.20949    646864.23148  20645879.7084   20645887.2304   20645879.775
        54.0004         49.0004
 -28638061.23448 -22261806.67548  20317259.9144   20317265.4474   20317259.497
        53.0004         49.0004
 14  5 25  0 24 30.0000000  0 11G07G28G08G17G02G20G26G09G10G30G04
 -13625409.59448 -10604485.27547  22206119.5434   22206125.1014   22206119.511
        48.0004         44.0004
  -9478510.88548  -7388175.72147  22317216.5994   22317222.8794   22317217.039
        48.0004         43.0004
 -17499309.50548 -13625425.84848  20437407.7374   20437413.3754   20437407.950
        52.0004         48.0004
  -9195599.30747  -7117459.57446  23541041.2034   23541049.1434   23541041.195
        46.0004         41.0004
 -10771277.45148  -8382497.59847  22210315.5754   22210320.1034   22210315.605
        49.0004         44.0004
  -8844130.42146  -6839713.32745  24266009.5104   24266020.6644   24266006.370
        38.0004         33.0004
  -1232028.82747   -948443.27646  24175978.5794   24175988.6824   24175978.849
        43.0004         38.0004
   1521341.95549   1186744.95648  20406681.9374   20406687.4604   20406682.134
        54.0004         49.0004
 -14941365.86947 -11630124.30847  22518389.2474   22518396.1644   22518389.648
        47.0004         43.0004
    883380.99949    686275.50748  20655504.3534   20655511.4684   20655504.457
        54.0004         49.0004
 -28649083.66948 -22270395.55548  20315162.3894   20315168.0334   20315162.200
        53.0004         49.0004
 14  5 25  0 25  0.0000000  0 11G07G28G08G17G02G20G26G09G10G30G04
 -13528880.73148 -10529267.97947  22224489.5214   22224495.1384   22224488.497
        48.0004         44.0004
  -9536674.21748  -7433497.72847  22306148.0694   22306154.9454   22306148.575
        48.0004         44.0004
 -17439682.76948 -13578963.43648  20448754.2884   20448760.3384   20448754.614
        52.0004         48.0004
  -9162622.61547  -7091763.44746  23547317.1434   23547324.1414   23547316.591
        46.0004         41.0004
 -10828833.31148  -8427346.23447  22199361.9174   22199366.7984   22199362.600
        49.0004         44.0004
 -10371497.63046  -8029869.56245  24275149.7974   24275160.0414   24275150.213
        38.0004         33.0004
  -1217671.68047   -937255.79846  24178711.3214   24178720.5334   24178711.395
        43.0004         38.0004
   1571324.61749   1225692.49848  20416193.2164   20416198.7084   20416193.250
        54.0004         49.0004
 -15013182.32847 -11686085.09047  22504722.5494   22504729.4684   22504723.230
        47.0004         43.0004
    934434.70649    726057.63548  20665219.7034   20665226.7564   20665219.750
        54.0004         49.0004
 -28659544.67248 -22278546.96448  20313171.9004   20313177.3524   20313171.655
        53.0004         49.0004
 14  5 25  0 25 30.0000000  0 11G07G28G08G17G02G20G26G09G10G30G04
 -13432127.07548 -10453875.50347  22242900.8044   22242906.3754   22242899.836
        48.0004         44.0004
  -9594771.04048  -7478767.90447  22295092.9684   22295098.8684   22295093.283
        48.0004         44.0004
 -17379519.82048 -13532083.20148  20460202.6304   20460208.6014   20460203.291
        52.0004         48.0004
  -9129834.36947  -7066214.15546  23553556.4574   23553564.9114   23553555.842
        46.0004         41.0004
 -10885992.40648  -8471885.69847  22188485.4134   22188489.9434   22188485.555
        49.0004         44.0004
 -10323109.55846  -7992164.56645  24284359.5454   24284368.4824   24284359.118
        38.0004         33.0004
  -1203227.23847   -926000.29846  24181460.7684   24181468.7584   24181459.454
        43.0004         38.0004
   1621784.84549   1265012.17448  20425795.4804   20425801.1024   20425795.429
        54.0004         49.0004
 -15085011.80047 -11742056.01647  22491053.4844   22491060.3154   22491054.256
        47.0004         43.0004
    985948.70349    766198.42548  20675022.3784   20675029.6894   20675022.225
        54.0004         49.0004
 -28669458.14648 -22286271.72548  20311285.5004   20311291.0134   20311284.673
        53.0004         49.0004
 14  5 25  0 26  0.0000000  0 11G07G28G08G17G02G20G26G09G10G30G04
 -13335144.50848 -10378304.66947  22261356.1514   22261361.3394   22261355.551
        48.0004         44.0004
  -9652790.86848  -7523978.07647  22284051.9144   22284058.8114   22284052.105
        48.0004         44.0004
 -17318815.73248 -13484781.30048  20471754.2094   20471760.5144   20471754.723
        52.0004         48.0004
  -9097228.65447  -7040807.11446  23559760.7814   23559769.7744   23559760.635
        46.0004         41.0004
 -10942746.28748  -8516109.41347  22177685.0504   22177690.4374   22177686.077
        49.0004         44.0004
 -10274379.49046  -7954193.07245  24293632.0854   24293644.7554   24293632.504
        38.0004         33.0004
  -1188690.23947   -914672.69046  24184226.5504   24184235.1704   24184225.518
        43.0004         38.0004
   1672727.55849   1304707.80948  20435489.5924   20435494.9244   20435489.797
        54.0004         49.0004
 -15156844.02947 -11798029.08347  22477384.5964   22477391.9734   22477384.917
        47.0004         43.0004
   1037928.33749    806702.05148  20684913.9124   20684920.8344   20684913.882
        54.0004         49.0004
 -28678816.56548 -22293563.97748  20309504.7564   20309510.1444   20309504.362
        53.0004         49.0004
 14  5 25  0 26 30.0000000  0 11G07G28G08G17G02G20G26G09G10G30G04
 -13237932.58448 -10302555.11347  22279855.3654   22279859.1284   22279854.345
        48.0004         44.0004
  -9710727.58848  -7569123.49047  22273025.7104   22273033.1844   22273027.047
        48.0004         44.0004
 -17257569.51048 -13437056.96248  20483409.1524   20483415.1874   20483409.337
        52.0004         48.0004
  -9064803.18747  -7015540.52346  23565931.3164   23565938.7634   23565930.907
        46.0004         41.0004
 -10999090.09748  -8560013.59747  22166963.6114   22166967.6464   22166963.564
        49.0004         44.0004
 -10225303.77746  -7915952.26745  24302972.6444   24302976.6184   24302971.090
        37.0004         33.0004
  -1174059.45247   -903271.98546  24187009.7874   24187020.1394   24187010.082
        42.0004         38.0004
   1724153.96549   1344780.34548  20445275.8284   20445280.9964   20445275.615
        54.0004         49.0004
 -15228673.22248 -11853999.78847  22463716.1574   22463722.9394   22463716.425
        48.0004         43.0004
   1090375.06449    847569.63948  20694894.0984   20694901.2644   20694893.884
        54.0004         49.0004
 -28687616.59648 -22300421.12148  20307829.9014   20307835.3284   20307829.559
        53.0004         49.0004
 14  5 25  0 27  0.0000000  0 11G07G28G08G17G02G20G26G09G10G30G04
 -13140496.96148 -10226631.24947  22298396.3164   22298401.9574   22298395.591
        48.0004         43.0004
  -9768581.12548  -7614204.08647  22262017.5184   22262023.6814   22262017.926
        48.0004         44.0004
 -17195786.68248 -13388914.48748  20495166.1164   20495171.9574   20495166.645
        52.0004         48.0004
  -9032562.04847  -6990417.55946  23572067.2014   23572074.1354   23572066.235
        46.0004         41.0004
 -11055025.20848  -8603599.30447  22156318.7904   22156323.5704   22156319.609
        49.0004         44.0004
 -10175885.71046  -7877444.65945  24312374.4594   24312383.9814   24312374.854
        38.0004         33.0004
  -1159339.90747   -891802.11446  24189811.0874   24189820.7544   24189810.550
        43.0004         38.0004
   1776058.63149   1385225.55348  20455152.8804   20455158.3724   20455153.102
        54.0004         49.0004
 -15300499.86148 -11909968.50047  22450047.6874   22450055.1164   22450048.050
        48.0004         43.0004
   1143283.82749    888797.25848  20704962.3234   20704969.6504   20704962.372
        54.0004         49.0004
 -28695861.34949 -22306845.58248  20306261.0094   20306266.7114   20306260.710
        54.0004         49.0004
 14  5 25  0 27 30.0000000  0 11G07G28G08G17G02G20G26G09G10G30G04
 -13042840.63548 -10150535.40047  22316978.7104   22316985.1704   22316979.023
        48.0004         43.0004
  -9826348.06448  -7659217.21347  22251025.1534   22251030.8364   22251025.566
        48.0004         44.0004
 -17133469.53548 -13340355.66148  20507024.6574   20507030.0364   20507024.880
        52.0004         48.0004
  -9000505.98247  -6965438.79346  23578167.0204   23578173.4604   23578166.341
        46.0004         41.0004
 -11110550.30848  -8646865.52847  22145753.4384   22145757.7784   22145753.329
        49.0004         44.0004
 -10126125.07246  -7838670.09645  24321841.9904   24321850.8444   24321844.878
        38.0004         33.0004
  -1144533.62047   -880264.65546  24192629.4754   24192639.2334   24192629.125
        42.0004         38.0004
   1828439.22549   1426041.60948  20465120.6064   20465125.7964   20465120.554
        54.0004         49.0004
 -15372321.00448 -11965932.94047  22436379.7304   22436388.3104   22436381.048
        48.0004         43.0004
   1196652.65449    930383.37048  20715117.9144   20715125.2854   20715117.889
        54.0004         49.0004
 -28703550.76049 -22312837.31048  20304797.5744   20304803.0624   20304797.389
        54.0004         49.0004
 14  5 25  0 28  0.0000000  0 11G07G28G08G17G02G20G26G09G10G30G04
 -12944968.65148 -10074271.52047  22335603.2824   22335608.6814   22335603.371
        48.0004         43.0004
  -9884027.67748  -7704162.30047  22240049.2754   22240055.2124   22240049.031
        48.0004         43.0004
 -17070622.80648 -13291384.17548  20518983.8354   20518989.5634   20518984.368
        52.0004         48.0004
  -8968637.62547  -6940606.31146  23584230.6164   23584238.3464   23584230.706
        46.0004         41.0004
 -11165666.09248  -8689812.80547  22135264.6754   22135269.1654   22135264.860
        49.0004         44.0004
                  -7799630.10345                  24331388.8484   24331378.884
                        33.0004
  -1129644.85147   -868662.93546  24195462.4744   24195471.8934   24195461.351
        43.0004         38.0004
   1881291.42249   1467225.14848  20475178.1374   20475183.2514   20475178.112
        54.0004         49.0004
 -15444135.99248 -12021892.58547  22422713.9114   22422719.9594   22422715.110
        48.0004         43.0004
   1250477.42849    972324.76148  20725360.2764   20725367.6914   20725360.600
        54.0004         49.0004
 -28710687.11849 -22318398.08848  20303439.3044   20303445.6234   20303439.142
        54.0004         49.0004
 14  5 25  0 28 30.0000000  0 11G07G28G08G17G02G20G26G09G10G30G04
 -12846882.58148  -9997840.81447  22354268.9274   22354274.6394   22354268.528
        48.0004         43.0004
  -9941615.59748  -7749035.92747  22229090.7064   22229096.3964   22229090.115
        48.0004         44.0004
 -17007247.92748 -13242001.14648  20531043.9074   20531049.6634   20531044.000
        52.0004         48.0004
  -8936957.94447  -6915920.84847  23590258.8294   23590266.8944   23590258.794
        46.0004         42.0004
 -11220370.08348  -8732439.20247  22124854.4604   22124859.1344   22124855.414
        49.0004         45.0004
                  -7760323.86855                  24340988.2415   24340975.717
                        32.0004
  -1114674.52247   -856997.65346  24198310.6914   24198320.2854   24198310.832
        43.0004         38.0004
   1934613.92549   1508775.16048  20485324.9844   20485330.5344   20485324.751
        54.0004         49.0004
 -15515941.04548 -12077844.48947  22409049.9854   22409057.1844   22409050.859
        48.0004         43.0004
   1304757.23749   1014620.72648  20735689.7284   20735696.5984   20735689.568
        54.0004         49.0004
 -28717269.48149 -22323527.18748  20302187.0174   20302193.1044   20302186.721
        54.0004         49.0004
 14  5 25  0 29  0.0000000  0 11G07G28G08G17G02G20G26G09G10G30G04
 -12748582.93848  -9921243.70647  22372974.6744   22372980.7404   22372974.341
        48.0004         43.0004
  -9999106.74448  -7793834.15447  22218149.4654   22218156.5774   22218150.345
        48.0004         44.0004
 -16943345.00148 -13192206.64448  20543204.3424   20543210.1254   20543204.399
        52.0004         48.0004
  -8905464.78147  -6891380.73446  23596252.7954   23596260.0384   23596251.708
        46.0004         41.0004
 -11274658.50948  -8774741.78047  22114524.7304   22114528.6094   22114524.781
        49.0004         45.0004
                                                                  24350639.963

  -1099622.31247   -845268.57746  24201175.2034   24201185.4404   24201174.317
        43.0004         38.0004
   1988406.88349   1550691.75948  20495561.0814   20495567.1134   20495561.156
        54.0004         49.0004
 -15587731.43448 -12133784.96047  22395389.2694   22395395.7094   22395389.477
        48.0004         43.0004
   1359492.34049   1057271.46548  20746105.1994   20746112.6084   20746105.145
        54.0004         49.0004
 -28723295.38149 -22328222.67248  20301040.4194   20301045.4574   20301039.825
        54.0004         49.0004
 14  5 25  0 29 30.0000000  0 10G07G28G08G17G02G26G09G10G30G04
 -12650075.65448  -9844484.78747  22391719.9354   22391725.6044   22391719.704
        48.0004         43.0004
 -10056500.96948  -7838556.85347  22207227.8884   22207234.5074   22207228.557
        49.0004         44.0004
 -16878919.30348 -13142004.79348  20555463.6204   20555469.9824   20555464.189
        52.0004         48.0004
  -8874162.06647  -6866989.01846  23602209.5584   23602216.8564   23602208.996
        46.0004         41.0004
 -11328532.95148  -8816721.77847  22104272.7144   22104276.3274   22104272.391
        49.0004         45.0004
  -1084493.32447   -833479.64946  24204053.0044   24204063.6894   24204053.210
        43.0004         38.0004
   2042664.65449   1592970.55748  20505886.3074   20505891.7564   20505886.214
        54.0004         49.0004
 -15659507.10548 -12189713.96947  22381730.8834   22381738.2384   22381730.798
        48.0004         43.0004
   1414677.72249   1100273.07348  20756606.2784   20756613.9194   20756606.504
        54.0004         49.0004
 -28728767.99549 -22332487.02948  20299998.9574   20300004.3484   20299998.718
        54.0004         49.0004
 14  5 25  0 30  0.0000000  0 11G07G28G08G17G02G20G26G09G10G30G04
 -12551367.35248  -9767569.22347  22410503.5204   22410509.1784   22410503.132
        48.0004         43.0004
 -10113798.19248  -7883203.96847  22196324.7814   22196331.2444   22196325.353
        49.0004         44.0004
 -16813977.00048 -13091400.39747  20567821.5884   20567828.0854   20567822.265
        52.0004         47.0004
  -8843054.56047  -6842749.40246  23608128.9104   23608136.1284   23608128.543
        46.0004         41.0004
 -11381995.72448  -8858380.99847  22094098.9194   22094103.0894   22094098.647
        49.0004         45.0004
  -9872201.21446  -7640807.33345  24370166.3144   24370169.3784   24370164.201
        37.0004         32.0004
  -1069293.24647   -821635.33746  24206945.3664   24206955.5264   24206945.674
        43.0004         38.0004
   2097381.36849   1635606.96948  20516298.3494   20516304.0534   20516298.473
        54.0004         49.0004
 -15731268.97448 -12245632.21747  22368074.7094   22368081.7154   22368075.378
        48.0004         43.0004
   1470307.73849   1143621.14348  20767192.8264   20767200.1184   20767192.659
        54.0004         49.0004
 -28733691.04249 -22336323.15448  20299062.0524   20299067.3594   20299061.636
        54.0004         49.0004
 14  5 25  0 30 30.0000000  0 11G07G28G08G17G02G20G26G09G10G30G04
 -12452452.09748  -9690492.39847  22429326.3774   22429331.8154   22429325.988
        48.0004         43.0004
 -10170987.32848  -7927766.84747  22185441.8644   22185447.7474   22185442.111
        49.0004         44.0004
 -16748512.29948 -13040388.92747  20580279.3464   20580285.6644   20580279.591
        52.0004         47.0004
  -8812134.41347  -6818655.78246  23614012.4464   23614019.9704   23614012.209
        46.0004         41.0004
 -11435037.06548  -8899711.83147  22084004.7924   22084009.6004   22084005.176
        49.0004         45.0004
                  -7600435.40145                  24380032.9094   24380022.919
                        32.0004
  -1054015.49347   -809730.50746  24209852.9174   24209863.5984   24209852.929
        43.0004         38.0004
   2152563.05049   1678605.69348  20526798.8814   20526804.6234   20526799.393
        54.0004         49.0004
 -15803005.67548 -12301530.86847  22354423.9594   22354429.8374   22354424.118
        48.0004         43.0004
   1526388.80949   1187320.68748  20777864.4914   20777871.9154   20777864.480
        54.0004         49.0004
 -28738056.26049 -22339724.60048  20298231.1614   20298237.0624   20298231.182
        54.0004         49.0004
 14  5 25  0 31  0.0000000  0 11G07G28G08G17G02G20G26G09G10G30G04
 -12353342.26048  -9613263.95647  22448187.2634   22448191.2764   22448186.183
        48.0004         43.0004
 -10228074.48048  -7972250.27747  22174578.6424   22174584.1294   22174579.040
        49.0004         44.0004
 -16682537.11248 -12988979.67947  20592834.1754   20592840.3704   20592834.430
        52.0004         47.0004
  -8781411.98347  -6794716.23946  23619859.8874   23619866.2844   23619858.912
        46.0004         41.0004
 -11487664.61348  -8940720.23047  22073989.8374   22073994.4004   22073990.288
        49.0004         44.0004
  -9768243.22756                  24389950.3695                   24389946.050
        37.0004
  -1038671.53847   -797774.08246  24212772.4424   24212782.7284   24212772.542
        42.0004         38.0004
   2208198.13349   1721957.71848  20537386.0464   20537391.6204   20537386.172
        54.0004         49.0004
 -15874723.72248 -12357414.97547  22340775.2654   22340783.0674   22340776.558
        48.0004         43.0004
   1582909.57849   1231362.85548  20788619.9974   20788627.5754   20788619.905
        54.0004         49.0004
 -28741873.37148 -22342698.95648  20297504.9234   20297510.5404   20297504.763
        53.0004         49.0004
 14  5 25  0 31 30.0000000  0 11G07G28G08G17G02G20G26G09G10G30G04
 -12254035.19848  -9535881.83647  22467083.9244   22467089.3274   22467083.381
        48.0004         43.0004
 -10285051.19048  -8016647.64547  22163735.4924   22163743.2804   22163736.466
        49.0004         44.0004
 -16616048.55648 -12937170.40847  20605486.5144   20605492.1914   20605486.559
        52.0004         47.0004
  -8750882.54347  -6770927.06746  23625668.0724   23625676.5964   23625668.238
        46.0004         41.0004
 -11539871.73748  -8981401.02747  22064055.5574   22064058.5844   22064055.968
        49.0004         45.0004
                  -7518900.38945                  24399937.3834   24399934.876
                        32.0004
  -1023257.74247   -785763.22546  24215705.2964   24215714.5494   24215705.815
        42.0004         37.0004
   2264289.80549   1765665.52048  20548060.0574   20548065.4044   20548060.207
        54.0004         49.0004
 -15946414.80848 -12413278.08447  22327133.8614   22327140.5694   22327133.941
        48.0004         43.0004
   1639873.45549   1275750.30648  20799460.0944   20799467.3924   20799459.997
        54.0004         49.0004
 -28745136.80248 -22345241.86648  20296883.9294   20296889.3044   20296883.578
        53.0004         49.0004
 14  5 25  0 32  0.0000000  0 11G07G28G08G17G02G20G26G09G10G30G04
 -12154534.70048  -9458348.97547  22486018.2464   22486023.6364   22486017.973
        48.0004         43.0004
 -10341915.30248  -8060957.27247  22152914.5514   22152920.3804   22152915.643
        49.0004         44.0004
 -16549050.51348 -12884964.13447  20618235.3724   20618242.1364   20618236.013
        52.0004         47.0004
  -8720548.04647  -6747289.80646  23631441.5014   23631449.6064   23631440.884
        46.0004         41.0004
 -11591658.71948  -9021754.44247  22054201.2174   22054204.6944   22054201.424
        49.0004         45.0004
  -9662924.69146  -7477734.66845  24409984.4094   24409999.5194   24409988.544
        37.0004         32.0004
  -1007777.81947   -773700.84646  24218651.8844   24218660.2944   24218651.373
        42.0004         38.0004
   2320833.86949   1809725.83948  20558819.9534   20558825.6144   20558820.152
        54.0004         49.0004
 -16018077.76148 -12469119.26247  22313496.3274   22313504.4254   22313497.140
        48.0004         43.0004
   1697276.73649   1320480.14448  20810383.5864   20810390.8244   20810383.521
        54.0004         49.0004
 -28747848.45649 -22347354.82848  20296368.1944   20296373.5844   20296367.771
        54.0004         49.0004
 14  5 25  0 32 30.0000000  0 11G07G28G08G17G02G20G26G09G10G30G04
 -12054844.61448  -9380668.39947  22504988.8084   22504994.6514   22504988.421
        48.0004         43.0004
 -10398664.82048  -8105177.61647  22142116.4984   22142121.6404   22142116.269
        49.0004         44.0004
 -16481546.66648 -12832363.72347  20631081.2864   20631087.1324   20631081.634
        52.0004         47.0004
  -8690410.74747  -6723806.20646  23637175.6194   23637182.6874   23637175.749
        46.0004         41.0004
 -11643024.84148  -9061779.91147  22044425.0604   22044430.3024   22044426.473
        49.0004         45.0004
  -9609756.22846  -7436304.65845  24420105.9284   24420109.5714   24420106.234
        37.0004         32.0004
   -992234.39047   -761588.98546  24221609.6724   24221619.0644   24221608.836
        42.0004         38.0004
   2377827.38349   1854136.37648  20569665.7234   20569670.7074   20569665.288
        54.0004         49.0004
 -16089710.64348 -12524937.01047  22299864.9844   22299871.9184   22299865.731
        48.0004         43.0004
   1755116.61149   1365550.18548  20821390.0494   20821397.5704   20821389.950
        54.0004         49.0004
 -28750009.30049 -22349038.58348  20295956.6054   20295962.3584   20295956.293
        54.0004         49.0004
 14  5 25  0 33  0.0000000  0 11G07G28G08G17G02G20G26G09G10G30G04
 -11954968.91848  -9302843.17147  22523995.1634   22524000.2374   22523993.910
        48.0004         43.0004
 -10455297.75048  -8149307.09647  22131339.6194   22131345.4564   22131339.300
        49.0004         44.0004
 -16413540.60948 -12779371.97947  20644022.6874   20644028.5034   20644022.594
        52.0004         47.0004
  -8660472.14847  -6700477.43046  23642873.6534   23642880.2204   23642872.438
        46.0004         41.0004
 -11693970.04548  -9101477.39947  22034730.9334   22034735.4664   22034731.258
        49.0004         45.0004
                  -7394611.07845                  24430299.3854   24430287.769
                        33.0004
   -976630.69547   -749430.16046  24224578.7214   24224589.1204   24224578.397
        42.0004         37.0004
   2435266.85149   1898894.41448  20580596.0164   20580601.4324   20580596.178
        54.0004         49.0004
 -16161311.40648 -12580729.73547  22286239.6604   22286247.3414   22286240.319
        48.0004         43.0004
   1813389.87749   1410957.94148  20832478.9924   20832486.5214   20832478.762
        54.0004         49.0004
 -28751620.85449 -22350294.32248  20295650.1024   20295655.5124   20295649.978
        54.0004         49.0004
 14  5 25  0 33 30.0000000  0 11G07G28G08G17G02G20G26G09G10G30G04
 -11854904.92347  -9224871.22847  22543036.6504   22543042.3164   22543035.620
        47.0004         43.0004
 -10511805.07148  -8193338.71347  22120586.0264   22120592.1634   22120586.452
        49.0004         44.0004
 -16345028.90248 -12725986.22547  20657059.9184   20657065.5564   20657059.930
        52.0004         47.0004
  -8630727.42547  -6677299.72146  23648532.6484   23648540.7064   23648532.269
        46.0004         41.0004
 -11744487.44848  -9140841.52547  22025118.0724   22025122.7644   22025118.585
        49.0004         45.0004
                  -7352649.61155                  24440542.5245   24440534.600
                        31.0004
   -960962.94347   -737221.42546  24227560.5734   24227569.4144   24227559.389
        42.0004         38.0004
   2493155.49849   1944002.46248  20591611.7224   20591617.7904   20591611.861
        54.0004         49.0004
 -16232871.44548 -12636490.73647  22272622.2754   22272629.8794   22272623.064
        48.0004         43.0004
   1872100.16448   1456706.22748  20843651.3544   20843658.5644   20843651.188
        53.0004         49.0004
 -28752677.46349 -22351117.64048  20295449.3404   20295454.7914   20295448.755
        54.0004         49.0004
 14  5 25  0 34  0.0000000  0 10G07G28G08G17G02G26G09G10G30G04
 -11754658.22847  -9146756.91147  22562112.9064   22562117.0194   22562112.460
        47.0004         43.0004
 -10568186.43748  -8237272.18847  22109856.8594   22109863.8384   22109857.386
        49.0004         44.0004
 -16276017.33648 -12672210.97047  20670192.3674   20670198.1734   20670192.472
        52.0004         47.0004
  -8601180.24147  -6654275.94846  23654155.9454   23654163.4824   23654155.614
        46.0004         41.0004
 -11794578.59348  -9179873.52047  22015585.8234   22015589.8784   22015585.695
        49.0004         45.0004
   -945236.07847   -724966.62346  24230552.5874   24230562.1504   24230552.890
        42.0004         38.0004
   2551488.02749   1989456.39548  20602712.0854   20602717.4254   20602712.153
        54.0004         49.0004
 -16304391.16848 -12692220.29947  22259013.1254   22259019.6294   22259013.331
        48.0004         43.0004
   1931242.36448   1502791.06548  20854905.7274   20854912.7934   20854905.639
        53.0004         49.0004
 -28753182.48149 -22351511.14348  20295353.0584   20295358.3424   20295352.566
        54.0004         49.0004
 14  5 25  0 34 30.0000000  0 10G07G28G08G17G02G26G09G10G30G04
 -11654243.45847  -9068511.62647  22581220.7524   22581225.7384   22581220.215
        47.0004         43.0004
 -10624450.90448  -8281114.56747  22099150.6994   22099155.8254   22099150.626
        49.0004         44.0004
 -16206520.82248 -12618057.83347  20683416.8884   20683423.0144   20683417.208
        52.0004         47.0004
  -8571843.56547  -6631416.20546  23659738.4384   23659746.0544   23659738.056
        46.0004         41.0004
 -11844254.34548  -9218581.82147  22006132.4734   22006136.7114   22006133.264
        49.0004         45.0004
   -929464.35647   -712676.85446  24233553.5884   24233564.0454   24233552.954
        42.0004         37.0004
   2610249.62749   2035244.66448  20613894.1384   20613899.7014   20613894.054
        54.0004         49.0004
 -16375879.86048 -12747925.70147  22245409.1134   22245414.6804   22245409.358
        48.0004         44.0004
   1990802.05248   1549201.22548  20866239.7954   20866246.9694   20866239.499
        53.0004         49.0004
 -28753148.60749 -22351484.73648  20295359.3844   20295364.9004   20295359.094
        54.0004         49.0004
 14  5 25  0 35  0.0000000  0 10G07G28G08G17G02G26G09G10G30G04
 -11553651.04447  -8990127.93147  22600363.5634   22600369.1424   22600362.216
        47.0004         43.0004
 -10680583.09748  -8324853.88547  22088468.8844   22088474.5894   22088469.034
        49.0004         44.0004
 -16136529.66248 -12563519.25447  20696735.9834   20696741.7294   20696736.362
        52.0004         47.0004
  -8542705.41147  -6608711.16146  23665282.4954   23665291.1574   23665282.488
        46.0004         41.0004
 -11893501.34948  -9256956.04547  21996760.9504   21996765.3314   21996761.478
        50.0004         45.0004
   -913637.34747   -700344.00746  24236564.8514   24236573.8134   24236565.200
        42.0004         38.0004
   2669450.22649   2081375.01048  20625159.7184   20625164.8454   20625159.599
        54.0004         49.0004
 -16447322.21648 -12803594.99047  22231813.4144   22231820.1724   22231814.215
        48.0004         44.0004
   2050789.50348   1595944.70248  20877654.1664   20877662.1284   20877654.369
        53.0004         49.0004
 -28752563.74749 -22351028.98848  20295470.5334   20295476.2644   20295470.047
        54.0004         49.0004
 14  5 25  0 35 30.0000000  0 10G07G28G08G17G02G26G09G10G30G04
 -11452888.92747  -8911611.99247  22619537.6754   22619543.5714   22619536.923
        47.0004         43.0004
 -10736584.73648  -8368491.46347  22077811.7134   22077817.6014   22077812.091
        49.0004         44.0004
 -16066051.15148 -12508600.92047  20710147.7904   20710153.2574   20710147.561
        52.0004         47.0004
  -8513772.13747  -6586165.74446  23670788.9184   23670796.6034   23670788.581
        46.0004         41.0004
 -11942322.99548  -9294998.80647  21987471.4364   21987474.8134   21987472.084
        50.0004         45.0004
   -897761.68347   -687973.25446  24239585.4304   24239594.2554   24239585.820
        42.0004         38.0004
   2729082.54049   2127841.75748  20636507.4274   20636512.9114   20636507.431
        54.0004         49.0004
 -16518719.90848 -12859229.47147  22218227.0094   22218233.8574   22218227.668
        48.0004         44.0004
   2111197.80548   1643016.11748  20889149.9254   20889156.8134   20889149.874
        53.0004         49.0004
 -28751432.87049 -22350147.76948  20295685.6154   20295691.4544   20295685.435
        54.0004         49.0004
 14  5 25  0 36  0.0000000  0 10G07G28G08G17G02G26G09G10G30G04
 -11351958.13047  -8832964.61747  22638743.6624   22638749.4294   22638743.084
        47.0004         43.0004
 -10792450.55948  -8412023.22547  22067180.9374   22067187.0454   22067181.482
        49.0004         44.0004
 -15995086.42548 -12453303.72747  20723651.8494   20723657.6134   20723651.910
        52.0004         47.0004
  -8485042.20247  -6563778.77346  23676256.4044   23676263.4754   23676255.639
        45.0004         41.0004
 -11990716.32948  -9332707.82747  21978261.7284   21978266.3034   21978261.528
        50.0004         45.0004
   -881838.01747   -675565.08846  24242616.5474   24242626.6314   24242616.231
        42.0004         38.0004
   2789145.58949   2174644.14348  20647936.5224   20647942.1534   20647936.656
        54.0004         49.0004
 -16590068.49248 -12914825.69047  22204650.2784   22204656.8764   22204650.549
        48.0004         44.0004
   2172026.24748   1690414.91348  20900725.2774   20900732.5694   20900725.026
        53.0004         49.0004
 -28749755.08849 -22348840.39648  20296005.2344   20296010.8674   20296004.679
        54.0004         49.0004
 14  5 25  0 36 30.0000000  0 10G07G28G08G17G02G26G09G10G30G04
 -11250861.33347  -8754187.88747  22657982.2644   22657987.4904   22657981.091
        47.0004         43.0004
 -10848177.43248  -8455446.71247  22056576.9304   22056581.4844   22056576.778
        49.0004         44.0004
 -15923638.29048 -12397629.83947  20737247.5454   20737253.8354   20737248.019
        52.0004         47.0004
  -8456516.07347  -6541550.61046  23681684.6864   23681691.5084   23681684.304
        45.0004         41.0004
 -12038680.56848  -9370082.49247  21969135.0024   21969138.1074   21969135.363
        50.0004         45.0004
   -865868.11747   -663120.90646  24245654.8914   24245665.0974   24245654.917
        42.0004         38.0004
   2849637.05848   2221780.36248  20659447.9254   20659453.3734   20659447.863
        53.0004         49.0004
 -16661365.02548 -12970381.34847  22191082.2344   22191089.4404   22191082.743
        48.0004         44.0004
   2233272.76048   1738139.48148  20912380.0074   20912387.4154   20912380.084
        53.0004         49.0004
 -28747530.84849 -22347107.21248  20296428.4964   20296433.6024   20296427.793
        54.0004         49.0004
 14  5 25  0 37  0.0000000  0 10G07G28G08G17G02G26G09G10G30G04
 -11149602.10347  -8675284.58647  22677250.7124   22677257.2314   22677250.123
        47.0004         42.0004
 -10903763.20348  -8498760.25447  22045998.2324   22046004.1464   22045998.931
        49.0004         44.0004
 -15851710.56348 -12341582.24647  20750934.8624   20750940.5614   20750935.281
        52.0004         47.0004
  -8428195.90347  -6519482.93946  23687074.0624   23687080.8144   23687073.344
        45.0004         41.0004
 -12086215.21048  -9407122.40447  21960088.7994   21960093.6424   21960089.229
        50.0004         45.0004
   -849854.94647   -650642.98446  24248701.4624   24248711.7824   24248702.774
        42.0004         38.0004
   2910553.42548   2269247.67848  20671039.8144   20671044.9534   20671039.814
        53.0004         49.0004
 -16732607.45348 -13025894.85747  22177525.2314   22177532.3604   22177526.174
        48.0004         44.0004
   2294934.16448   1786187.33848  20924113.8384   20924121.1974   20924113.576
        53.0004         49.0004
 -28744761.16849 -22344949.00648  20296955.3254   20296960.6874   20296955.075
        54.0004         49.0004
 14  5 25  0 37 30.0000000  0 10G07G28G08G17G02G26G09G10G30G04
 -11048185.32947  -8596258.52947  22696549.5624   22696554.1154   22696549.169
        47.0004         42.0004
 -10959206.52748  -8541962.79447  22035448.1834   22035453.9234   22035448.295
        49.0004         44.0004
 -15779307.82648 -12285164.52447  20764713.0894   20764719.0144   20764713.251
        52.0004         47.0004
  -8400083.81147  -6497577.38846  23692422.8064   23692430.4404   23692422.440
        45.0004         41.0004
 -12133321.24848  -9443828.34147  21951124.6974   21951129.0554   21951125.360
        50.0004         45.0004
   -833802.45747   -638134.42946  24251757.2604   24251766.8184   24251757.130
        42.0004         38.0004
   2971890.04048   2317042.45148  20682711.8674   20682717.5534   20682711.763
        53.0004         49.0004
 -16803794.94348 -13081365.55347  22163979.2354   22163985.6224   22163979.435
        48.0004         44.0004
   2357006.20248   1834555.16948  20935925.6854   20935933.1534   20935925.654
        53.0004         48.0004
 -28741449.02948 -22342368.11148  20297585.4924   20297590.6974   20297585.122
        53.0004         49.0004
 14  5 25  0 38  0.0000000  0 10G07G28G08G17G02G26G09G10G30G04
 -10946612.70947  -8517111.03547  22715877.8704   22715883.3954   22715877.453
        47.0004         42.0004
 -11014503.16948  -8585051.05047  22024924.8294   22024931.3344   22024925.864
        49.0004         44.0004
 -15706431.52048 -12228377.77747  20778580.9054   20778586.4864   20778581.096
        52.0004         47.0004
  -8372180.16847  -6475834.27646  23697733.5704   23697740.7374   23697732.814
        45.0004         41.0004
 -12179996.42148  -9480198.54047  21942242.7924   21942247.1764   21942243.222
        50.0004         45.0004
   -817711.65047   -625596.03046  24254819.6144   24254827.6234   24254818.512
        42.0004         38.0004
   3033645.62048   2365163.69048  20694463.4494   20694468.9774   20694463.611
        53.0004         49.0004
 -16874923.57348 -13136790.38847  22150443.8884   22150450.8444   22150444.192
        49.0004         44.0004
   2419487.74648   1883242.09448  20947815.6814   20947822.7794   20947815.325
        53.0004         48.0004
 -28737593.59648 -22339363.86748  20298319.2574   20298324.8104   20298318.830
        53.0004         49.0004
 14  5 25  0 38 30.0000000  0 10G07G28G08G17G02G26G09G10G30G04
 -10844885.64247  -8437843.19347  22735235.7374   22735240.6164   22735235.192
        47.0004         42.0004
 -11069648.62748  -8628021.49447  22014431.0764   22014436.8604   22014431.835
        49.0004         44.0004
 -15633083.16648 -12171223.20647  20792538.4334   20792544.6744   20792538.932
        52.0004         47.0004
  -8344483.65947  -6454252.56146  23703003.6214   23703010.8904   23703003.173
        45.0004         41.0004
 -12226238.14648  -9516230.98847  21933442.7294   21933447.6144   21933443.931
        50.0004         45.0004
   -801582.88747   -613028.05746  24257888.3494   24257897.1684   24257888.493
        43.0004         38.0004
   3095818.97348   2413610.47148  20706294.2604   20706300.3144   20706294.608
        53.0004         49.0004
 -16945988.88348 -13192165.88347  22136920.2854   22136926.0754   22136920.481
        49.0004         44.0004
   2482377.98248   1932247.48848  20959783.1154   20959790.5474   20959783.095
        53.0004         48.0004
 -28733194.08048 -22335935.66748  20299156.2804   20299162.1394   20299155.920
        53.0004         49.0004
 14  5 25  0 39  0.0000000  0 10G07G28G08G17G02G26G09G10G30G04
 -10743008.52347  -8358458.41947  22754622.6624   22754629.2204   22754622.378
        47.0004         42.0004
 -11124641.18948  -8670872.80447  22003967.4644   22003971.7034   22003967.201
        49.0004         44.0004
 -15559267.28048 -12113704.32847  20806585.4464   20806590.8764   20806585.558
        51.0004         47.0004
  -8316996.68947  -6432834.12246  23708234.2374   23708241.6394   23708233.610
        45.0004         41.0004
 -12272047.04948  -9551926.17947  21924726.1754   21924730.2204   21924726.095
        50.0004         45.0004
   -785420.01647   -600433.47546  24260962.1794   24260972.7474   24260962.853
        43.0004         38.0004
   3158405.94748   2462379.54948  20718204.7034   20718209.7624   20718204.427
        53.0004         49.0004
 -17016989.65548 -13247491.08847  22123409.3904   22123416.4644   22123409.869
        49.0004         44.0004
   2545673.03248   1981568.31748  20971827.6724   20971835.0074   20971827.479
        53.0004         48.0004
 -28728252.69448 -22332085.22948  20300096.7504   20300102.0894   20300096.376
        53.0004         49.0004
 14  5 25  0 39 30.0000000  0 10G07G28G08G17G02G26G09G10G30G04
 -10640985.97247  -8278960.31847  22774036.8624   22774042.9314   22774037.055
        47.0004         42.0004
 -11179479.42448  -8713603.85547  21993531.4064   21993537.3524   21993531.910
        49.0004         45.0004
 -15484988.20448 -12055824.52447  20820720.1744   20820725.6314   20820720.411
        51.0004         47.0004
  -8289721.66447  -6411580.83446  23713424.3744   23713431.3094   23713423.704
        45.0004         41.0004
 -12317423.84048  -9587284.65147  21916090.8864   21916096.0724   21916091.386
        50.0004         45.0004
   -769226.51647   -587815.05246  24264045.4664   24264054.3634   24264045.524
        42.0004         38.0004
   3221402.25248   2511467.58848  20730192.4804   20730197.7724   20730192.725
        53.0004         49.0004
 -17087924.54148 -13302764.95547  22109910.9904   22109916.6404   22109911.172
        49.0004         44.0004
   2609368.87048   2031201.44648  20983948.8824   20983955.9824   20983948.770
        53.0004         49.0004
 -28722771.62548 -22327814.26648  20301139.6234   20301145.4704   20301139.327
        53.0004         49.0004
 14  5 25  0 40  0.0000000  0 10G07G28G08G17G02G26G09G10G30G04
 -10538818.00847  -8199348.92147  22793479.1094   22793484.8364   22793478.557
        47.0004         42.0004
 -11234157.81448  -8756210.35047  21983127.0784   21983132.2294   21983127.084
        49.0004         45.0004
 -15410246.69048 -11997584.37847  20834942.8704   20834948.7564   20834943.101
        51.0004         47.0004
  -8262656.53447  -6390491.09846  23718574.2144   23718581.7884   23718574.476
        45.0004         41.0004
 -12362365.10948  -9622303.76247  21907539.0994   21907543.3734   21907539.328
        50.0004         45.0004
   -753002.22247   -575172.62546  24267130.6124   24267140.7904   24267131.614
        42.0004         37.0004
   3284807.50848   2560874.29248  20742257.9694   20742263.5944   20742257.899
        53.0004         49.0004
 -17158788.21148 -13357983.33247  22096425.6414   22096430.9044   22096426.106
        49.0004         44.0004
   2673465.47248   2081146.86248  20996146.0324   20996153.6244   20996145.904
        53.0004         48.0004
 -28716749.40448 -22323121.62348  20302285.5534   20302291.0054   20302285.407
        53.0004         49.0004
 14  5 25  0 40 30.0000000  0 10G07G28G08G17G02G26G09G10G30G04
 -10436509.88347  -8119628.29947  22812947.5004   22812953.0284   22812947.108
        47.0004         42.0004
 -11288675.75648  -8798691.82247  21972752.1024   21972757.9434   21972752.369
        49.0004         45.0004
 -15335048.00848 -11938987.99647  20849252.4144   20849258.2704   20849252.978
        51.0004         47.0004
  -8235805.04247  -6369567.82646  23723683.9784   23723690.9624   23723683.681
        45.0004         41.0004
 -12406872.51548  -9656984.79647  21899070.0494   21899073.6134   21899069.984
        50.0004         45.0004
   -736751.69647   -562509.75646  24270224.9344   24270233.4314   24270224.874
        42.0004         38.0004
   3348616.38948   2610595.50748  20754400.0944   20754405.7924   20754400.632
        53.0004         49.0004
 -17229580.47748 -13413146.07947  22082953.8134   22082961.2114   22082954.638
        49.0004         44.0004
   2737957.89048   2131400.69548  21008418.1634   21008425.6474   21008418.209
        53.0004         48.0004
 -28710189.38948 -22318009.92048  20303533.7464   20303539.3914   20303533.752
        53.0004         49.0004
 14  5 25  0 41  0.0000000  0 10G07G28G08G17G02G26G09G10G30G04
 -10334062.50547  -8039799.17947  22832442.5674   22832448.5314   22832442.033
        47.0004         42.0004
 -11343027.91348  -8841044.11047  21962409.2334   21962415.1104   21962409.309
        49.0004         45.0004
 -15259392.81448 -11880035.89847  20863648.7844   20863654.7224   20863649.589
        51.0004         47.0004
  -8209165.41247  -6348809.67146  23728754.1494   23728760.9024   23728753.443
        46.0004         41.0004
 -12450942.73348  -9691325.16447  21890683.1254   21890687.4234   21890683.373
        50.0004         45.0004
   -720474.70747   -549826.25846  24273321.6424   24273331.1524   24273321.728
        42.0004         38.0004
   3412828.48748   2660630.91948  20766619.7764   20766625.0564   20766619.561
        53.0004         49.0004
 -17300296.10648 -13468249.10747  22069497.5314   22069504.6784   22069498.065
        49.0004         44.0004
   2802846.05548   2181962.90948  21020766.1624   21020773.4614   21020765.947
        53.0004         48.0004
 -28703089.82448 -22312477.78848  20304885.0174   20304890.4604   20304884.477
        53.0004         49.0004
 14  5 25  0 41 30.0000000  0 10G07G28G08G17G02G26G09G10G30G04
 -10231480.68847  -7959865.29447  22851963.1854   22851968.6074   22851963.037
        46.0004         42.0004
 -11397213.05948  -8883266.26447  21952098.1834   21952104.0854   21952098.343
        49.0004         45.0004
 -15183285.95348 -11820731.84447  20878131.9524   20878137.9664   20878132.373
        51.0004         47.0004
  -8182739.83547  -6328218.29746  23733782.7754   23733790.0904   23733781.998
        46.0004         41.0004
 -12494577.06848  -9725325.88547  21882380.0464   21882384.5674   21882380.262
        50.0004         45.0004
   -704175.13147   -537125.17646  24276423.3854   24276432.9394   24276423.980
        42.0004         38.0004
   3477439.39448   2710977.08848  20778914.8874   20778920.2534   20778914.650
        53.0004         49.0004
 -17370934.06748 -13523291.61347  22056055.9404   22056060.9364   22056056.068
        49.0004         44.0004
   2868125.66048   2232830.13348  21033188.4984   21033195.5954   21033188.257
        53.0004         48.0004
 -28695453.51648 -22306527.41848  20306338.3074   20306343.8024   20306337.948
        53.0004         49.0004
 14  5 25  0 42  0.0000000  0 10G07G28G08G17G02G26G09G10G30G04
 -10128766.69847  -7879828.40847  22871508.5404   22871514.1074   22871508.714
        46.0004         42.0004
 -11451227.52748  -8925355.41247  21941818.6394   21941826.0634   21941819.375
        49.0004         45.0004
 -15106729.80748 -11761077.70547  20892699.8774   20892705.6064   20892700.355
        51.0004         46.0004
  -8156529.03047  -6307794.27646  23738770.4754   23738777.4234   23738769.845
        46.0004         41.0004
 -12537773.77948  -9758985.60447  21874160.0784   21874163.8734   21874159.967
        50.0004         45.0004
   -687854.50747   -524407.68246  24279528.8094   24279539.9534   24279529.484
        42.0004         38.0004
   3542446.66648   2761632.11148  20791285.0874   20791290.2354   20791284.924
        53.0004         49.0004
 -17441490.77248 -13578270.81347  22042629.5104   22042635.3274   22042629.600
        49.0004         44.0004
   2933794.84448   2284000.92848  21045684.8844   21045692.3464   21045684.772
        53.0004         48.0004
 -28687280.76848 -22300159.03948  20307893.0794   20307898.9154   20307892.849
        53.0004         49.0004
 14  5 25  0 42 30.0000000  0 10G07G28G08G17G02G26G09G10G30G04
 -10025925.14147  -7799692.14147  22891078.2094   22891084.2734   22891078.571
        46.0004         42.0004
 -11505069.21748  -8967309.93547  21931573.5264   21931579.1684   21931573.978
        49.0004         45.0004
 -15029729.20348 -11701077.23547  20907352.8704   20907358.9474   20907353.227
        51.0004         46.0004
  -8130534.85247  -6287539.07346  23743717.1924   23743724.5534   23743716.486
        46.0004         41.0004
 -12580533.99148  -9792305.18347  21866022.7624   21866026.8874   21866023.108
        50.0004         45.0004
   -671516.41047   -511676.56146  24282637.5234   24282647.1094   24282637.741
        42.0004         37.0004
   3607845.90948   2812592.56048  20803730.0534   20803735.7924   20803730.266
        53.0004         49.0004
 -17511965.17848 -13633185.87847  22029217.8414   22029224.2894   22029218.980
        49.0004         44.0004
   2999849.51048   2335472.09348  21058254.3904   21058262.1934   21058254.260
        53.0004         48.0004
 -28678573.93848 -22293374.49548  20309550.3954   20309555.9134   20309549.808
        53.0004         49.0004
 14  5 25  0 43  0.0000000  0 10G07G28G08G17G02G26G09G10G30G04
  -9922956.53747  -7719456.86447  22910673.7054   22910679.2274   22910672.916
        46.0004         42.0004
 -11558733.80648  -9009126.45447  21921361.5114   21921367.2974   21921361.814
        49.0004         45.0004
 -14952285.10848 -11640731.18747  20922089.8074   20922095.9234   20922090.239
        51.0004         46.0004
  -8104756.28947  -6267451.87546  23748621.7764   23748628.9594   23748621.576
        46.0004         41.0004
 -12622855.07548  -9825282.59547  21857969.1224   21857973.2414   21857969.639
        50.0004         45.0004
   -655161.39547   -498932.26346  24285748.7394   24285758.7314   24285749.846
        42.0004         37.0004
   3673636.29348   2863857.80248  20816249.5364   20816255.1974   20816249.401
        53.0004         49.0004
 -17582352.37248 -13688032.99347  22015823.5124   22015830.1004   22015824.618
        49.0004         45.0004
   3066288.89248   2387243.04448  21070897.2534   21070905.0304   21070897.458
        53.0004         48.0004
 -28669332.50348 -22286173.37748  20311308.9284   20311314.4644   20311308.507
        53.0004         49.0004
 14  5 25  0 43 30.0000000  0 10G07G28G08G17G02G26G09G10G30G04
  -9819866.86847  -7639127.25747  22930291.8724   22930295.7864   22930290.270
        46.0004         42.0004
 -11612221.31948  -9050804.99147  21911183.1004   21911188.0884   21911183.443
        49.0004         45.0004
 -14874403.76948 -11580044.43547  20936910.0504   20936916.4784   20936910.593
        51.0004         46.0004
  -8079197.05047  -6247535.57646  23753485.1334   23753494.2834   23753485.592
        46.0004         41.0004
 -12664739.16048  -9857919.48947  21849999.1494   21850003.2444   21849999.497
        50.0004         46.0004
   -638794.50047   -486178.71846  24288865.0514   24288874.8174   24288864.876
        42.0004         37.0004
   3739811.88448   2915423.20348  20828842.3064   20828847.6934   20828842.315
        53.0004         49.0004
 -17652652.74948 -13742812.45547  22002446.3824   22002452.4814   22002446.709
        49.0004         45.0004
   3133107.41548   2439309.42548  21083612.9464   21083620.1214   21083612.302
        53.0004         48.0004
 -28659560.10448 -22278558.52248  20313168.7864   20313173.9334   20313168.005
        53.0004         49.0004
 14  5 25  0 44  0.0000000  0 10G07G28G08G17G02G26G09G10G30G04
  -9716652.53347  -7558700.50447  22949932.6374   22949937.4834   22949931.661
        46.0004         42.0004
 -11665521.71948  -9092337.72547  21901040.4074   21901046.4934   21901040.762
        50.0004         45.0004
 -14796081.67948 -11519014.23147  20951814.6664   20951820.6574   20951814.712
        51.0004         46.0004
  -8053851.25747  -6227785.60346  23758308.1854   23758316.4234   23758308.103
        46.0004         41.0004
 -12706178.91748  -9890210.14847  21842113.6814   21842117.4034   21842113.336
        50.0004         46.0004
   -622411.06447   -473412.27646  24291981.7004   24291990.7844   24291981.583
        42.0004         38.0004
   3806376.71648   2967291.91548  20841509.2444   20841514.9024   20841509.310
        53.0004         49.0004
 -17722856.62248 -13797516.71247  21989086.9014   21989093.4084   21989087.547
        49.0004         45.0004
   3200309.30548   2491674.53048  21096400.8294   21096408.0454   21096400.882
        53.0004         48.0004
 -28649251.16048 -22270525.58048  20315130.2564   20315135.8244   20315129.985
        53.0004         49.0004
 14  5 25  0 44 30.0000000  0 10G07G28G08G17G02G26G09G10G30G04
  -9613324.83947  -7478185.40447  22969593.7744   22969600.2774   22969594.154
        46.0004         42.0004
 -11718640.62748  -9133729.03447  21890932.2634   21890938.0844   21890932.073
        49.0004         45.0004
 -14717330.36048 -11457649.56947  20966800.1234   20966806.3934   20966800.687
        51.0004         46.0004
  -8028728.08747  -6208209.10246  23763090.0264   23763097.5174   23763089.771
        46.0004         41.0004
 -12747182.13348  -9922160.65547  21834310.4304   21834314.8864   21834310.764
        50.0004         46.0004
   -606021.84447   -460641.34346  24295100.3294   24295109.9254   24295100.653
        42.0004         38.0004
   3873319.26448   3019454.95148  20854248.0334   20854253.9784   20854248.038
        53.0004         48.0004
 -17792969.88648 -13852150.37947  21975744.4884   21975752.0544   21975744.910
        49.0004         45.0004
   3267883.38048   2544329.65948  21109259.8414   21109266.6964   21109259.519
        53.0004         48.0004
 -28638415.23148 -22262082.00348  20317192.4404   20317197.4614   20317191.936
        53.0004         49.0004
 14  5 25  0 45  0.0000000  0 10G07G28G08G17G02G26G09G10G30G04
  -9509880.81047  -7397579.69547  22989279.8714   22989284.5414   22989278.636
        46.0004         42.0004
 -11771569.13148  -9174971.98147  21880860.7574   21880866.6814   21880860.572
        49.0004         45.0004
 -14638147.01248 -11395948.26347  20981868.3484   20981873.9994   20981868.728
        51.0004         46.0004
  -8003822.21347  -6188801.89646  23767829.8074   23767836.9174   23767828.789
        46.0004         41.0004
 -12787742.35648  -9953765.97247  21826592.4444   21826595.8174   21826592.580
        50.0004         45.0004
   -589622.99647   -447862.90046  24298221.1764   24298229.7614   24298221.436
        42.0004         38.0004
   3940642.47748   3071914.61248  20867059.5534   20867064.6594   20867059.421
        53.0004         49.0004
 -17862983.72148 -13906706.57047  21962421.9144   21962428.0234   21962422.212
        49.0004         45.0004
   3335833.07048   2597277.47148  21122189.8474   21122197.2824   21122190.132
        53.0004         48.0004
 -28627047.43748 -22253223.97448  20319355.2964   20319360.9514   20319355.063
        53.0004         49.0004
 14  5 25  0 45 30.0000000  0 10G07G28G08G17G02G26G09G10G30G04
  -9406326.70847  -7316888.18346  23008984.8624   23008990.8774   23008984.469
        46.0004         41.0004
 -11824307.29748  -9216066.59747  21870824.3794   21870829.7944   21870824.702
        49.0004         45.0004
 -14558538.22748 -11333915.44347  20997017.4784   20997023.6134   20997017.680
        51.0004         46.0004
  -7979137.77747  -6169567.25746  23772525.7054   23772533.3324   23772525.592
        45.0004         41.0004
 -12827862.24048  -9985028.16647  21818957.2374   21818961.6334   21818958.065
        50.0004         45.0004
   -573220.09347   -435081.28446  24301341.8284   24301351.9544   24301342.391
        42.0004         38.0004
   4008340.06548   3124665.99448  20879941.6984   20879947.1514   20879941.709
        53.0004         48.0004
 -17932898.72148 -13961185.74647  21949116.2864   21949123.3324   21949117.592
        49.0004         45.0004
   3404152.36248   2650513.27948  21135191.0064   21135198.2734   21135190.736
        52.0004         48.0004
 -28615152.37949 -22243955.09348  20321618.8134   20321624.4724   20321618.610
        54.0004         49.0004
 14  5 25  0 46  0.0000000  0 10G07G28G08G17G02G26G09G10G30G04
  -9302664.08847  -7236112.12846  23028710.9694   23028716.2414   23028711.066
        46.0004         41.0004
 -11876851.07448  -9257009.76247  21860825.7974   21860830.7274   21860826.156
        50.0004         45.0004
 -14478505.75648 -11271552.48647  21012247.1344   21012252.9834   21012247.324
        51.0004         46.0004
  -7954673.80647  -6150504.40046  23777181.4464   23777189.3084   23777181.049
        45.0004         40.0004
 -12867539.84148 -10015945.72647  21811407.0544   21811410.7184   21811407.563
        50.0004         46.0004
   -556813.82847   -422297.05946  24304465.3404   24304473.4164   24304465.362
        42.0004         38.0004
   4076410.59548   3177707.97648  20892895.0984   20892900.6774   20892894.988
        53.0004         48.0004
 -18002710.59148 -14015584.56747  21935831.8804   21935838.9764   21935832.535
        49.0004         45.0004
   3472840.00648   2704036.11748  21148261.6024   21148269.2734   21148261.551
        52.0004         48.0004
 -28602729.83149 -22234275.18348  20323982.8384   20323987.8434   20323982.732
        54.0004         49.0004
 14  5 25  0 46 30.0000000  0 10G07G28G08G17G02G26G09G10G30G04
  -9198894.96747  -7155253.06646  23048457.6994   23048463.5724   23048457.567
        46.0004         41.0004
 -11929196.44748  -9297798.32047  21850864.4894   21850870.0354   21850864.997
        49.0004         45.0004
 -14398051.67948 -11208861.00247  21027557.2524   21027562.6874   21027557.629
        51.0004         46.0004
  -7930430.23847  -6131613.29546  23781794.6394   23781802.1634   23781794.167
        45.0004         41.0004
 -12906773.87148 -10046517.64447  21803941.4554   21803945.1814   21803941.201
        50.0004         46.0004
   -540405.46247   -409511.18746  24307585.4354   24307596.6864   24307586.099
        42.0004         38.0004
   4144852.07148   3231039.00548  20905918.8654   20905924.1514   20905919.055
        53.0004         48.0004
 -18072415.40448 -14069899.96647  21922567.8984   21922574.4294   21922568.277
        49.0004         45.0004
   3541894.24448   2757844.61348  21161402.2134   21161409.5254   21161402.321
        52.0004         48.0004
 -28589779.82749 -22224184.27148  20326447.2004   20326452.7864   20326446.888
        54.0004         49.0004
 14  5 25  0 47  0.0000000  0 10G07G28G08G17G02G26G09G10G30G04
  -9095026.76847  -7074316.80746  23068222.9794   23068228.6094   23068222.361
        46.0004         41.0004
 -11981344.48948  -9338433.10747  21840941.0654   21840947.5184   21840941.499
        49.0004         45.0004
 -14317183.83848 -11145847.10747  21042945.9914   21042951.6794   21042945.936
        51.0004         46.0004
  -7906412.24247  -6112897.95846  23786364.8694   23786373.8654   23786364.901
        45.0004         41.0004
 -12945568.00548 -10076746.79647  21796558.5984   21796562.6174   21796558.713
        50.0004         46.0004
   -524001.55747   -396728.79846  24310708.5834   24310716.0484   24310708.375
        42.0004         37.0004
   4213657.04248   3284653.27948  20919011.9104   20919017.8174   20919011.945
        53.0004         48.0004
 -18142014.89848 -14124133.29747  21909323.5394   21909329.9464   21909323.972
        49.0004         45.0004
   3611307.98448   2811933.24148  21174611.1794   21174618.4404   21174611.181
        52.0004         48.0004
 -28576308.26049 -22213686.94748  20329010.8974   20329016.2664   20329010.371
        54.0004         49.0004
 14  5 25  0 47 30.0000000  0 10G07G28G08G17G02G26G09G10G30G04
  -8991056.31147  -6993300.87346  23088007.7484   23088013.6764   23088007.315
        46.0004         41.0004
 -12033286.97048  -9378907.72147  21831056.2694   21831062.5694   21831056.998
        50.0004         45.0004
 -14235899.54748 -11082508.70547  21058413.8324   21058419.4234   21058414.119
        51.0004         46.0004
  -7882614.59047  -6094354.31246  23790894.7324   23790901.6564   23790893.364
        45.0004         41.0004
 -12983915.88548 -10106628.21947  21789261.8784   21789265.3514   21789261.793
        50.0004         46.0004
   -507598.59147   -383947.16146  24313829.9264   24313838.7514   24313829.754
        42.0004         37.0004
   4282828.28648   3338552.95648  20932174.6474   20932180.3584   20932174.904
        53.0004         48.0004
 -18211500.33348 -14178277.75547  21896100.0844   21896106.9754   21896100.791
        49.0004         45.0004
   3681084.32048   2866304.40948  21187889.9304   21187896.3784   21187889.526
        52.0004         48.0004
 -28562310.51049 -22202779.61348  20331674.4624   20331679.8954   20331674.151
        54.0004         49.0004
 14  5 25  0 48  0.0000000  0 10G07G28G08G17G02G26G09G10G30G04
  -8886989.28047  -6912209.68846  23107811.7164   23107816.9144   23107810.916
        46.0004         41.0004
 -12085023.15548  -9419221.58347  21821211.8994   21821217.1694   21821212.033
        50.0004         45.0004
 -14154204.83448 -11018850.49347  21073959.6104   21073965.4784   21073959.943
        51.0004         46.0004
  -7859040.62947  -6075984.96746  23795379.4354   23795387.4614   23795379.358
        45.0004         41.0004
 -13021819.80648 -10136163.69347  21782048.7964   21782052.2384   21782048.650
        50.0004         46.0004
   -491201.28547   -371169.90946  24316949.9514   24316959.8354   24316949.310
        42.0004         37.0004
   4352360.31348   3392733.76548  20945406.3384   20945412.0584   20945406.445
        53.0004         48.0004
 -18280871.36148 -14232333.06547  21882899.4574   21882907.0224   21882900.280
        49.0004         45.0004
   3751217.96548   2920954.00348  21201235.2884   21201242.5074   21201235.187
        52.0004         48.0004
 -28547790.31049 -22191465.17548  20334437.6684   20334442.7984   20334437.110
        54.0004         49.0004
 14  5 25  0 48 30.0000000  0 10G07G28G08G17G02G26G09G10G30G04
  -8782829.69247  -6831046.37846  23127632.0124   23127638.6414   23127631.739
        46.0004         41.0004
 -12136551.13048  -9459373.20647  21811406.5764   21811411.1994   21811406.208
        50.0004         45.0004
 -14072104.04348 -10954875.85647  21089583.3674   21089588.8324   21089583.204
        51.0004         46.0004
  -7835692.08047  -6057791.27146  23799822.7734   23799830.7254   23799822.679
        45.0004         41.0004
 -13059280.48548 -10165353.78047  21774920.0944   21774923.7674   21774920.115
        50.0004         46.0004
   -474812.73047   -358399.47846  24320068.0744   24320077.4214   24320068.264
        42.0004         38.0004
   4422249.05648   3447192.52848  20958706.0804   20958711.3814   20958705.812
        53.0004         48.0004
 -18350126.48848 -14286298.05747  21869720.7254   21869726.8404   21869721.623
        49.0004         45.0004
   3821705.16548   2975879.09248  21214648.8444   21214655.4534   21214648.732
        52.0004         48.0004
 -28532750.05848 -22179745.49848  20337299.5604   20337305.2974   20337299.126
        53.0004         49.0004
 14  5 25  0 49  0.0000000  0 10G07G28G08G17G02G26G09G10G30G04
  -8678579.49547  -6749812.46846  23147470.0564   23147475.5714   23147470.458
        46.0004         41.0004
 -12187867.13048  -9499359.65147  21801641.4544   21801646.8894   21801641.625
        50.0004         45.0004
 -13989599.69648 -10890586.75247  21105283.7174   21105288.8274   21105283.342
        50.0004         46.0004
  -7812568.82047  -6039773.12346  23804223.8334   23804230.7844   23804222.224
        45.0004         40.0004
 -13096296.32748 -10194197.25647  21767876.0904   21767880.0624   21767876.225
        50.0004         46.0004
   -458434.37447   -345637.00946  24323186.0964   24323193.0094   24323184.938
        42.0004         37.0004
   4492492.13948   3501927.40748  20972072.7304   20972078.0924   20972072.300
        53.0004         48.0004
 -18419262.03448 -14340169.88047  21856564.4154   21856571.3724   21856565.074
        50.0004         45.0004
   3892543.97448   3031078.16148  21228128.5254   21228136.2084   21228128.697
        52.0004         48.0004
 -28517190.38349 -22167621.07948  20340260.3704   20340266.1264   20340260.390
        54.0004         49.0004
 14  5 25  0 49 30.0000000  0 10G07G28G08G17G02G26G09G10G30G04
  -8574240.92647  -6668509.69246  23167324.8494   23167331.4614   23167324.956
        46.0004         41.0004
 -12238967.31148  -9539177.92147  21791917.1064   21791922.2234   21791916.901
        50.0004         45.0004
 -13906693.99848 -10825984.91847  21121059.3024   21121065.3344   21121059.608
        50.0004         46.0004
  -7789670.58547  -6021930.32346  23808580.6894   23808588.0884   23808580.283
        45.0004         41.0004
 -13132866.33248 -10222693.32247  21760916.7294   21760921.3194   21760917.207
        50.0004         46.0004
   -442067.58847   -332883.54046  24326300.4044   24326308.1924   24326299.976
        42.0004         38.0004
   4563087.50748   3556936.78948  20985506.4944   20985511.7384   20985506.590
        53.0004         48.0004
 -18488274.35048 -14393945.67547  21843432.7564   21843438.5554   21843432.688
        49.0004         45.0004
   3963732.46748   3086549.71248  21241675.0254   21241682.7284   21241675.321
        52.0004         48.0004
 -28501111.80248 -22155092.32048  20343320.2604   20343325.3864   20343319.802
        53.0004         49.0004
 14  5 25  0 50  0.0000000  0 10G07G28G08G17G02G26G09G10G30G04
  -8469818.28047  -6587141.39546  23187196.5894   23187202.3764   23187195.990
        45.0004         41.0004
 -12289850.43248  -9578827.06347  21782235.2614   21782239.9364   21782234.654
        50.0004         45.0004
 -13823391.72948 -10761074.06447  21136910.7874   21136917.2374   21136911.637
        50.0004         46.0004
  -7766999.34047  -6004264.39346  23812894.4404   23812902.0524   23812894.240
        45.0004         41.0004
 -13168991.57648 -10250842.81847  21754042.5214   21754046.8164   21754042.508
        50.0004         46.0004
   -425716.02047   -320141.94546  24329410.4314   24329419.2004   24329410.969
        42.0004         38.0004
   4634030.77548   3612217.26348  20999006.2074   20999012.2904   20999006.314
        53.0004         48.0004
 -18557161.78248 -14447624.15347  21830323.2594   21830330.3414   21830323.901
        49.0004         45.0004
   4035266.55948   3142290.56248  21255287.7684   21255295.1564   21255287.954
        52.0004         48.0004
 -28484517.20148 -22142161.46248  20346477.9644   20346483.2594   20346477.648
        53.0004         49.0004
 14  5 25  0 50 30.0000000  0 10G07G28G08G17G02G26G09G10G30G04
  -8365312.40247  -6505708.25446  23207083.0224   23207088.9354   23207082.342
        45.0004         41.0004
 -12340511.16448  -9618302.91647  21772594.3054   21772600.0104   21772593.893
        50.0004         45.0004
 -13739694.56148 -10695855.48647  21152837.9604   21152844.2574   21152838.275
        50.0004         46.0004
  -7744553.73947  -5986774.29946  23817166.5494   23817173.6644   23817165.449
        45.0004         41.0004
 -13204669.87948 -10278644.05447  21747252.9044   21747256.6714   21747253.470
        50.0004         46.0004
   -409379.88447   -307412.38646  24332520.8364   24332528.5604   24332519.967
        43.0004         38.0004
   4705320.38548   3667767.61548  21012572.9024   21012578.3544   21012572.659
        53.0004         48.0004
 -18625919.92848 -14501201.88847  21817239.0804   21817245.1794   21817239.651
        49.0004         45.0004
   4107145.17748   3198299.87448  21268965.8674   21268973.1654   21268965.825
        52.0004         48.0004
 -28467406.12448 -22128828.16448  20349734.0694   20349739.8874   20349733.727
        53.0004         49.0004
 14  5 25  0 51  0.0000000  0 10G07G28G08G17G02G26G09G10G30G04
  -8260727.97547  -6424213.90946  23226984.9694   23226990.5934   23226984.475
        45.0004         41.0004
 -12390948.10948  -9657604.39047  21762996.6404   21763001.5194   21762996.222
        50.0004         45.0004
 -13655607.09348 -10630332.78747  21168839.4104   21168845.9074   21168840.057
        50.0004         46.0004
  -7722336.10547  -5969461.83846  23821393.6354   23821401.6554   23821393.940
        46.0004         41.0004
 -13239902.61248 -10306098.08147  21740548.8304   21740551.6644   21740548.553
        50.0004         46.0004
   -393062.87247   -294697.69646  24335623.8944   24335634.1474   24335623.714
        43.0004         38.0004
   4776951.87148   3723584.36448  21026203.5384   21026209.0334   21026203.502
        53.0004         48.0004
 -18694547.49848 -14554677.87747  21804179.2324   21804186.6334   21804180.071
        50.0004         45.0004
   4179364.11448   3254574.37048  21282708.6734   21282716.2304   21282708.678
        52.0004         48.0004
 -28449781.51848 -22115094.70848  20353088.0194   20353093.5594   20353087.595
        53.0004         49.0004
 14  5 25  0 51 30.0000000  0 10G07G28G08G17G02G26G09G10G30G04
  -8156067.91847  -6342660.62446  23246901.4414   23246907.8414   23246900.642
        45.0004         41.0004
 -12441158.67348  -9696729.46947  21753441.9164   21753446.6324   21753441.604
        50.0004         45.0004
 -13571132.72148 -10564508.59847  21184914.1154   21184920.2414   21184914.597
        50.0004         46.0004
  -7700347.04747  -5952327.48446  23825578.4704   23825586.2904   23825578.193
        46.0004         41.0004
 -13274689.28148 -10333204.53647  21733929.0074   21733932.9554   21733929.518
        51.0004         46.0004
   -376767.16247   -281999.61246  24338725.7514   24338732.5024   24338725.717
        43.0004         38.0004
   4848922.31548   3779665.23148  21039899.4034   21039904.3024   21039899.212
        53.0004         48.0004
 -18763041.40548 -14608049.71647  21791145.6354   21791151.5074   21791145.895
        50.0004         45.0004
   4251920.61548   3311111.90048  21296516.2794   21296523.1044   21296515.727
        52.0004         48.0004
 -28431644.52848 -22100961.99548  20356539.2684   20356544.9654   20356539.051
        53.0004         49.0004
 14  5 25  0 52  0.0000000  0 10G07G28G08G17G02G26G09G10G30G04
  -8051333.74347  -6261049.59146  23266831.5144   23266836.8214   23266831.341
        45.0004         41.0004
 -12491138.53848  -9735674.77747  21743930.2334   21743935.6254   21743930.445
        50.0004         45.0004
 -13486273.66348 -10498384.65947  21201062.7094   21201068.5614   21201063.025
        50.0004         45.0004
  -7678586.13147  -5935370.91346  23829719.3644   23829726.6454   23829718.585
        45.0004         41.0004
 -13309028.50848 -10359962.33247  21727393.9994   21727398.0524   21727394.183
        51.0004         46.0004
   -360493.69847   -269318.89246  24341821.9864   24341830.3704   24341822.599
        43.0004         38.0004
   4921229.81248   3836008.73548  21053658.4804   21053664.5104   21053658.733
        53.0004         48.0004
 -18831397.78048 -14661314.39147  21778136.7744   21778143.6784   21778137.950
        50.0004         45.0004
   4324813.06448   3367911.21648  21310386.8484   21310394.0134   21310386.693
        52.0004         48.0004
 -28412995.79548 -22086430.51948  20360088.1874   20360093.9884   20360087.714
        53.0004         49.0004
 14  5 25  0 52 30.0000000  0 10G07G28G08G17G02G26G09G10G30G04
  -7946528.93147  -6179383.50046  23286774.5044   23286780.7814   23286774.694
        45.0004         40.0004
 -12540885.36048  -9774438.48847  21734463.8394   21734469.9124   21734463.782
        50.0004         45.0004
 -13401033.84548 -10431964.02247  21217283.4764   21217288.8964   21217283.498
        50.0004         45.0004
  -7657054.16447  -5918592.73346  23833817.0614   23833824.0404   23833816.157
        45.0004         41.0004
 -13342920.36048 -10386371.52747  21720944.9784   21720948.4434   21720945.201
        51.0004         46.0004
   -344245.21247   -256657.60146  24344914.3154   24344923.6244   24344913.125
        42.0004         38.0004
   4993870.71648   3892612.03748  21067481.8144   21067487.1854   21067481.927
        53.0004         48.0004
 -18899614.18448 -14714469.99047  21765156.7404   21765162.9524   21765157.081
        50.0004         45.0004
   4398038.14448   3424969.71648  21324321.3474   21324328.5774   21324321.183
        52.0004         48.0004
 -28393837.20548 -22071501.75248  20363733.8634   20363739.6294   20363733.570
        53.0004         49.0004
 14  5 25  0 53  0.0000000  0 10G07G28G08G17G02G26G09G10G30G04
  -7841658.03047  -6097665.91646  23306732.6284   23306736.6404   23306730.293
        45.0004         40.0004
 -12590397.80548  -9813019.58147  21725042.8554   21725047.1594   21725042.469
        50.0004         45.0004
 -13315418.35548 -10365250.64947  21233575.0184   21233581.1464   21233575.463
        50.0004         45.0004
  -7635753.51247  -5901994.81046  23837869.0534   23837878.5714   23837869.221
        45.0004         40.0004
 -13376366.11548 -10412433.11747  21714579.8044   21714583.6404   21714580.356
        51.0004         46.0004
   -328025.46147   -244018.71946  24347999.5684   24348008.7024   24348000.611
        42.0004         38.0004
   5066840.42248   3949471.54548  21081367.1814   21081373.2504   21081367.310
        53.0004         48.0004
 -18967689.45548 -14767515.62047  21752201.9414   21752208.0344   21752202.981
        50.0004         45.0004
   4471591.42148   3482283.95347  21338317.8534   21338325.4944   21338317.797
        52.0004         47.0004
 -28374172.07448 -22056178.28148  20367475.8484   20367481.2794   20367475.861
        53.0004         49.0004
 14  5 25  0 53 30.0000000  0 10G07G28G08G17G02G26G09G10G30G04
  -7736720.16447  -6015896.16146  23326700.8464   23326706.1314   23326699.667
        45.0004         40.0004
 -12639669.26448  -9851412.89147  21715665.0864   21715671.0444   21715665.876
        50.0004         45.0004
 -13229426.80248 -10298244.24447  21249938.6654   21249945.3554   21249939.321
        50.0004         45.0004
  -7614681.03847  -5885574.68446  23841880.0864   23841887.5444   23841879.052
        45.0004         41.0004
 -13409362.21348 -10438144.32247  21708301.1254   21708304.6274   21708301.494
        51.0004         46.0004
   -311832.89747   -231401.02046  24351080.9044   24351088.6414   24351081.020
        42.0004         37.0004
   5140139.55848   4006587.75748  21095315.7774   21095321.1814   21095315.845
        52.0004         48.0004
 -19035616.93348 -14820446.09147  21739275.8734   21739282.0304   21739276.771
        50.0004         45.0004
   4545473.78148   3539854.62147  21352377.1854   21352384.1414   21352376.887
        52.0004         47.0004
 -28353998.14448 -22040458.33748  20371315.2124   20371320.1524   20371314.785
        53.0004         49.0004
 14  5 25  0 54  0.0000000  0 10G07G28G08G17G02G26G09G10G30G04
  -7631722.38547  -5934079.72246  23346681.4644   23346686.3024   23346680.753
        45.0004         40.0004
 -12688700.78248  -9889619.21547  21706335.8324   21706340.2054   21706335.682
        50.0004         45.0004
 -13143066.58748 -10230950.57147  21266372.8384   21266378.8094   21266373.006
        50.0004         45.0004
  -7593841.16447  -5869335.81046  23845845.6414   23845853.5124   23845845.256
        45.0004         41.0004
 -13441912.12148 -10463507.84547  21702107.2764   21702110.8394   21702107.660
        51.0004         46.0004
   -295673.73747   -218809.33746  24354156.1284   24354164.5754   24354155.734
        42.0004         38.0004
   5213760.86748   4063955.01548  21109325.4384   21109330.9864   21109325.607
        52.0004         48.0004
 -19103398.05448 -14873262.51147  21726377.7824   21726384.6254   21726378.391
        50.0004         45.0004
   4619678.30948   3597676.33547  21366497.3664   21366504.7894   21366497.717
        52.0004         47.0004
 -28333320.94048 -22024346.23248  20375249.5444   20375254.9934   20375249.293
        53.0004         49.0004
 14  5 25  0 54 30.0000000  0 10G07G28G08G17G02G26G09G10G30G04
  -7526665.49347  -5852217.21246  23366672.9594   23366678.3034   23366672.081
        45.0004         40.0004
 -12737487.37248  -9927634.70847  21697052.0454   21697056.7304   21697051.530
        50.0004         45.0004
 -13056339.06848 -10163370.68547  21282876.0104   21282882.4584   21282876.663
        50.0004         45.0004
  -7573232.45747  -5853277.05246  23849767.7424   23849775.0234   23849766.957
        45.0004         41.0004
 -13474014.10148 -10488522.33547  21695998.2714   21696001.8734   21695998.294
        51.0004         46.0004
   -279548.01647   -206243.72546  24357224.5724   24357233.9044   24357225.013
        42.0004         38.0004
   5287703.14748   4121572.38048  21123396.5224   21123401.5804   21123396.131
        52.0004         48.0004
 -19171028.08048 -14925961.20147  21713507.9434   21713514.7154   21713508.577
        50.0004         45.0004
   4694204.13448   3655748.40047  21380679.7024   21380686.9764   21380679.484
        52.0004         47.0004
 -28312140.25548 -22007841.80448  20379280.2814   20379285.9054   20379279.868
        53.0004         49.0004
 14  5 25  0 55  0.0000000  0 10G07G28G08G17G02G26G09G10G30G04
  -7421551.44047  -5770310.16446  23386675.3564   23386681.0514   23386674.179
        45.0004         40.0004
 -12786025.55448  -9965456.62347  21687814.8244   21687820.3654   21687815.274
        50.0004         45.0004
 -12969247.04848 -10095506.77547  21299449.8764   21299455.7274   21299449.774
        50.0004         45.0004
  -7552854.72447  -5837398.28846  23853644.6954   23853651.7854   23853644.855
        45.0004         41.0004
 -13505667.58848 -10513187.34647  21689974.8194   21689978.5364   21689975.248
        51.0004         46.0004
   -263457.46447   -193705.51146  24360287.3734   24360295.2524   24360286.598
        42.0004         38.0004
   5361964.01148   4179437.98048  21137527.7064   21137533.1324   21137527.811
        52.0004         48.0004
 -19238503.21748 -14978539.19647  21700667.8914   21700674.0114   21700668.461
        50.0004         45.0004
   4769049.04848   3714069.11647  21394921.9944   21394929.7824   21394922.177
        52.0004         47.0004
 -28290457.21048 -21990945.93148  20383406.6994   20383411.5784   20383406.284
        53.0004         49.0004
 14  5 25  0 55 30.0000000  0 11G07G28G08G17G02G26G09G10G30G05G04
  -7316385.41347  -5688362.62246  23406687.1954   23406693.3224   23406687.343
        45.0004         40.0004
 -12834314.32448 -10003084.19847  21678625.8154   21678631.4044   21678626.347
        50.0004         45.0004
 -12881796.20948 -10027363.26347  21316090.7024   21316097.0204   21316091.378
        50.0004         45.0004
  -7532711.11847  -5821701.95946  23857477.8364   23857485.8084   23857478.111
        45.0004         41.0004
 -13536874.08348 -10537504.05447  21684036.0624   21684039.8774   21684036.662
        51.0004         46.0004
   -247406.14847   -181197.87146  24363341.3504   24363352.2524   24363340.433
        42.0004         38.0004
   5436538.23648   4237547.76348  21151718.2184   21151723.9024   21151718.380
        52.0004         48.0004
 -19305822.62148 -15030995.83547  21687857.6574   21687862.6624   21687857.994
        50.0004         46.0004
   4844208.20748   3772634.69747  21409224.9194   21409231.6324   21409224.745
        52.0004         47.0004
  -1382407.21847  -1028421.10046  24760060.4134   24760066.3664   24760059.313
        47.0004         37.0004
 -28268275.36548 -21973661.37548  20387627.6984   20387633.0164   20387627.163
        53.0004         49.0004
 14  5 25  0 56  0.0000000  0 11G07G28G08G17G02G26G09G10G30G05G04
  -7211168.94147  -5606375.77546  23426709.8164   23426715.4984   23426708.716
        44.0004         40.0004
 -12882349.42848 -10040514.11147  21669484.3514   21669490.7874   21669485.020
        50.0004         45.0004
 -12793988.01848  -9958941.30447  21332800.6484   21332806.0574   21332800.665
        50.0004         45.0004
  -7512800.21247  -5806186.95346  23861266.1874   23861274.0114   23861266.433
        45.0004         41.0004
 -13567632.03648 -10561471.24847  21678182.8564   21678186.8474   21678183.884
        51.0004         46.0004
   -231394.70747   -168721.29746  24366388.4244   24366396.9944   24366388.728
        42.0004         38.0004
   5511424.24448   4295900.49048  21165968.8984   21165974.4274   21165968.936
        52.0004         48.0004
 -19372982.05148 -15083327.82847  21675078.0384   21675083.4814   21675078.244
        50.0004         46.0004
   4919680.13148   3831443.99247  21423586.3424   21423593.4024   21423585.843
        52.0004         47.0004
  -1470979.67947  -1097438.39046  24743205.1544   24743210.5834   24743204.135
        44.0004         37.0004
 -28245594.82748 -21955988.23048  20391943.6394   20391948.7534   20391943.013
        53.0004         49.0004
 14  5 25  0 56 30.0000000  0 11G07G28G08G17G02G26G09G10G30G05G04
  -7105904.61147  -5524351.64146  23446739.4754   23446746.2084   23446740.480
        44.0004         40.0004
 -12930127.88148 -10077744.02647  21660393.1414   21660398.3294   21660393.544
        50.0004         45.0004
 -12705826.17948  -9890243.76647  21349576.7604   21349582.3464   21349577.288
        50.0004         45.0004
  -7493122.56747  -5790853.72046  23865011.8924   23865018.2994   23865011.457
        45.0004         41.0004
 -13597941.35348 -10585088.86847  21672415.3034   21672419.4354   21672415.565
        51.0004         46.0004
   -215425.36147   -156277.54746  24369426.0564   24369433.6994   24369425.321
        43.0004         38.0004
   5586618.92948   4354493.74148  21180277.7204   21180283.0624   21180277.841
        52.0004         48.0004
 -19439978.81548 -15135533.06247  21662329.1314   21662334.7694   21662328.969
        50.0004         46.0004
   4995462.00848   3890494.80247  21438007.3814   21438014.6264   21438007.505
        52.0004         47.0004
  -1559707.90047  -1166577.04546  24726319.0914   24726326.8524   24726319.372
        42.0004         37.0004
 -28222417.47348 -21937927.95648  20396353.7374   20396359.4074   20396353.682
        53.0004         49.0004
 14  5 25  0 57  0.0000000  0 11G07G28G08G17G02G26G09G10G30G05G04
  -7000593.79947  -5442291.27346  23466780.3934   23466785.4984   23466780.760
        44.0004         40.0004
 -12977645.29048 -10114770.52947  21651350.5764   21651356.2204   21651350.898
        50.0004         45.0004
 -12617312.75348  -9821272.27147  21366420.4864   21366426.1744   21366420.657
        50.0004         45.0004
  -7473677.22647  -5775701.49746  23868712.4894   23868718.7774   23868711.603
        45.0004         41.0004
 -13627800.60248 -10608355.77147  21666733.8654   21666736.8334   21666734.142
        51.0004         46.0004
   -199498.87847   -143867.18046  24372457.4684   24372466.6664   24372457.217
        43.0004         38.0004
   5662120.43948   4413326.07848  21194645.8344   21194650.8744   21194645.672
        52.0004         48.0004
 -19506808.55048 -15187608.14547  21649611.6304   21649617.3474   21649611.757
        50.0004         46.0004
   5071552.34848   3949785.97747  21452486.9914   21452494.0554   21452486.701
        52.0004         47.0004
  -1648588.82347  -1235834.68646  24709404.9264   24709413.1064   24709404.927
        42.0004         37.0004
 -28198743.62748 -21919480.80648  20400859.1854   20400864.1754   20400858.590
        53.0004         49.0004
 14  5 25  0 57 30.0000000  0 11G07G28G08G17G02G26G09G10G30G05G04
  -6895239.45747  -5360196.98246  23486829.2584   23486835.0344   23486828.833
        44.0004         40.0004
 -13024898.89848 -10151591.47447  21642359.1374   21642363.9184   21642358.736
        50.0004         45.0004
 -12528450.95248  -9752029.30547  21383330.5984   21383335.8244   21383330.721
        50.0004         45.0004
  -7454464.47347  -5760730.49046  23872368.3864   23872375.2744   23872368.054
        45.0004         41.0004
 -13657209.81248 -10631272.00347  21661137.1494   21661140.3244   21661137.640
        51.0004         46.0004
   -183617.03847   -131491.61146  24375480.0414   24375487.6944   24375479.466
        43.0004         38.0004
   5737925.70048   4472395.10747  21209070.6644   21209075.9544   21209070.729
        52.0004         47.0004
 -19573468.10448 -15239550.62447  21636926.6444   21636932.2554   21636927.047
        50.0004         46.0004
   5147948.40548   4009315.37847  21467024.2184   21467031.7504   21467023.797
        52.0004         47.0004
  -1737620.68647  -1305209.96646  24692463.9554   24692471.0974   24692463.364
        42.0004         37.0004
 -28174574.90048 -21900648.03548  20405458.0424   20405463.4444   20405457.874
        53.0004         49.0004
 14  5 25  0 58  0.0000000  0 11G07G28G08G17G02G26G09G10G30G05G04
  -6789846.77347  -5278072.82546  23506885.3814   23506889.8624   23506883.885
        44.0004         40.0004
 -13071888.10248 -10188206.39447  21633416.4524   21633422.3784   21633416.996
        50.0004         46.0004
 -12439246.63348  -9682519.44947  21400304.8114   21400311.5184   21400305.886
        50.0004         45.0004
  -7435487.51847  -5745943.22946  23875978.6704   23875985.8254   23875979.088
        45.0004         41.0004
 -13686171.60948 -10653839.60347  21655626.1274   21655629.5694   21655626.383
        51.0004         46.0004
   -167784.72347   -119154.61946  24378491.2344   24378500.4994   24378492.085
        42.0004         38.0004
   5814029.15448   4531696.50547  21223552.9304   21223558.0754   21223552.521
        52.0004         47.0004
 -19639957.06148 -15291360.16547  21624273.8364   21624280.0814   21624274.211
        50.0004         46.0004
   5224644.73448   4069078.74947  21481618.8744   21481626.1634   21481619.227
        52.0004         47.0004
  -1826804.37547  -1374703.54446  24675491.9804   24675498.9784   24675491.322
        42.0004         37.0004
 -28149915.50048 -21881432.91948  20410151.0004   20410155.9244   20410150.211
        53.0004         49.0004
 14  5 25  0 58 30.0000000  0 11G07G28G08G17G02G26G09G10G30G05G04
  -6684417.86047  -5195920.42446  23526947.1854   23526953.1034   23526946.138
        44.0004         40.0004
 -13118608.91448 -10224612.17847  21624526.1654   21624531.4224   21624526.612
        50.0004         46.0004
 -12349702.42648  -9612744.74147  21417344.6634   21417351.0504   21417344.857
        50.0004         45.0004
  -7416745.54947  -5731339.07246  23879545.0974   23879552.9744   23879545.304
        45.0004         40.0004
 -13714684.78648 -10676057.63547  21650199.7864   21650203.4394   21650200.088
        51.0004         46.0004
   -152002.91947   -106857.00046  24381496.8734   24381503.2634   24381495.337
        42.0004         38.0004
   5890428.86248   4591228.74247  21238091.2004   21238096.4394   21238091.399
        52.0004         47.0004
 -19706271.87248 -15343034.01047  21611654.2054   21611660.8494   21611654.927
        50.0004         45.0004
   5301639.51448   4129074.68247  21496271.0314   21496277.9954   21496270.414
        52.0004         47.0004
  -1916137.18847  -1444313.32546  24658491.9924   24658498.0794   24658491.525
        42.0004         37.0004
 -28124766.10748 -21861835.99548  20414936.6164   20414942.0454   20414936.256
        53.0004         49.0004
 14  5 25  0 59  0.0000000  0 11G07G28G08G17G02G26G09G10G30G05G04
  -6578954.36147  -5113741.09246  23547015.8404   23547021.5574   23547015.360
        44.0004         39.0004
 -13165057.90948 -10260806.15147  21615686.8424   21615692.3014   21615687.365
        50.0004         46.0004
 -12259821.08548  -9542707.33947  21434448.5964   21434454.8274   21434448.926
        50.0004         45.0004
  -7398238.30247  -5716917.81046  23883067.2494   23883073.7454   23883066.439
        45.0004         40.0004
 -13742748.38248 -10697925.33947  21644860.0544   21644863.5134   21644860.344
        51.0004         46.0004
   -136273.00947    -94599.80946  24384488.9784   24384497.0204   24384488.112
        42.0004         38.0004
   5967122.04548   4650989.66447  21252685.4534   21252690.7484   21252685.425
        52.0004         47.0004
 -19772409.05948 -15394569.45347  21599068.7054   21599074.5784   21599069.367
        50.0004         46.0004
   5378930.59348   4189301.49347  21510978.3604   21510986.0244   21510978.584
        51.0004         47.0004
  -2005616.29647  -1514037.10446  24641466.1614   24641472.0854   24641463.887
        42.0004         38.0004
 -28099128.00248 -21841858.25748  20419815.1554   20419820.7834   20419814.948
        53.0004         49.0004
 14  5 25  0 59 30.0000000  0 11G07G28G08G17G02G26G09G10G30G05G04
  -6473458.81547  -5031536.78046  23567092.0764   23567096.5714   23567090.991
        44.0004         39.0004
 -13211231.69248 -10296785.67447  21606900.2584   21606905.6794   21606900.818
        50.0004         46.0004
 -12169605.52548  -9472409.50947  21451616.2924   21451622.1444   21451616.408
        50.0004         45.0004
  -7379965.77247  -5702679.45746  23886544.9384   23886551.7564   23886543.845
        45.0004         40.0004
 -13770362.21248 -10719442.58047  21639605.0304   21639608.7424   21639605.160
        51.0004         46.0004
   -120596.52347    -82384.26246  24387471.7274   24387478.9334   24387471.689
        43.0004         38.0004
   6044106.18748   4710977.30547  21267334.7764   21267340.7704   21267335.104
        52.0004         47.0004
 -19838364.75948 -15445963.47347  21586518.0024   21586524.0074   21586518.573
        50.0004         46.0004
   5456515.59248   4249757.32947  21525742.4624   21525749.8734   21525742.363
        51.0004         47.0004
  -2095240.34047  -1583873.83646  24624410.9814   24624417.0924   24624410.172
        43.0004         38.0004
 -28073002.40848 -21821500.66148  20424786.8494   20424791.8934   20424786.695
        53.0004         49.0004
 14  5 25  1  0  0.0000000  0 11G07G28G08G17G02G26G09G10G30G05G04
  -6367937.53147  -4949312.43146  23587169.8124   23587176.3554   23587170.843
        44.0004         39.0004
 -13257130.79348 -10332551.16547  21598166.3814   21598172.0334   21598166.398
        50.0004         46.0004
 -12079062.74148  -9401856.70047  21468846.3054   21468852.3064   21468846.644
        50.0004         45.0004
  -7361931.94647  -5688627.10446  23889976.7254   23889983.6284   23889975.551
        45.0004         40.0004
 -13797529.98548 -10740612.25247  21634435.1884   21634438.3214   21634435.439
        51.0004         46.0004
   -104979.24047    -70214.83946  24390443.3564   24390450.4774   24390442.971
        43.0004         38.0004
   6121374.54048   4771186.41047  21282038.8914   21282044.0024   21282038.592
        52.0004         47.0004
 -19904139.92648 -15497216.81847  21574000.3974   21574007.6704   21574001.632
        50.0004         46.0004
   5534387.96948   4310437.10147  21540561.0964   21540568.5754   21540561.180
        51.0004         47.0004
  -2185011.09847  -1653824.88746  24607327.1884   24607334.0694   24607326.654
        43.0004         38.0004
 -28046394.69448 -21800767.38348  20429849.8994   20429855.4644   20429849.427
        53.0004         49.0004
 14  5 25  1  0 30.0000000  0 11G07G28G08G17G02G26G09G10G30G05G04
  -6262387.32247  -4867065.54546  23607257.3024   23607262.2264   23607256.363
        44.0004         39.0004
 -13302746.16648 -10368095.55747  21589486.0414   21589491.0564   21589486.149
        50.0004         46.0004
 -11988190.01848  -9331046.79747  21486138.9484   21486144.0424   21486139.312
        50.0004         45.0004
  -7344131.19647  -5674756.37246  23893363.8464   23893371.0684   23893362.907
        45.0004         40.0004
 -13824245.77548 -10761429.72247  21629350.9214   21629354.3524   21629351.114
        51.0004         46.0004
    -89417.15547    -58088.43246  24393405.3364   24393413.0424   24393405.353
        43.0004         38.0004
   6198930.10548   4831619.31947  21296797.1344   21296802.2454   21296796.789
        52.0004         47.0004
 -19969725.38748 -15548322.34647  21561520.3084   21561526.9334   21561521.528
        50.0004         46.0004
   5612550.96448   4371343.32847  21555435.1014   21555441.9734   21555435.242
        51.0004         47.0004
  -2274920.48847  -1723883.96946  24590217.6914   24590225.7894   24590218.230
        43.0004         38.0004
 -28019300.83448 -21779655.29248  20435005.6784   20435010.9994   20435005.408
        53.0004         49.0004
 14  5 25  1  1  0.0000000  0 11G07G28G08G17G02G26G09G10G30G05G04
  -6156816.24047  -4784802.39346  23627346.8034   23627352.5434   23627345.888
        44.0004         39.0004
 -13348080.78148 -10403421.18547  21580859.4384   21580864.1264   21580859.379
        50.0004         46.0004
 -11896996.44748  -9259986.88047  21503492.1384   21503498.0174   21503492.737
        49.0004         45.0004
  -7326569.20447  -5661071.68646  23896705.5334   23896712.4884   23896705.101
        45.0004         40.0004
 -13850515.05148 -10781899.27247  21624352.9814   21624355.7664   21624352.914
        51.0004         46.0004
    -73917.88447    -46010.96346  24396353.7244   24396362.1134   24396353.763
        43.0004         38.0004
   6276763.98948   4892269.09247  21311608.3814   21311613.8284   21311608.369
        52.0004         47.0004
 -20035124.24448 -15599282.46347  21549075.3954   21549081.7404   21549076.289
        50.0004         46.0004
   5690995.93748   4432469.28247  21570362.9424   21570369.3624   21570362.576
        51.0004         47.0004
  -2364972.19447  -1794053.97346  24573081.1714   24573087.8384   24573081.509
        43.0004         38.0004
 -27991728.21748 -21758170.14648  20440253.1674   20440258.4784   20440252.592
        53.0004         49.0004
 14  5 25  1  1 30.0000000  0 11G07G28G08G17G02G26G09G10G30G05G04
  -6051225.05647  -4702523.56646  23647439.0824   23647444.9584   23647439.232
        44.0004         39.0004
 -13393129.53048 -10438524.05447  21572286.5054   21572291.7924   21572286.594
        50.0004         46.0004
 -11805483.15948  -9188677.82547  21520906.0944   21520913.1674   21520906.541
        49.0004         45.0004
  -7309244.36247  -5647571.80046  23900002.9284   23900010.5444   23900002.184
        45.0004         40.0004
 -13876335.63648 -10802019.19047  21619439.0714   21619442.3794   21619439.028
        51.0004         46.0004
    -58481.26047    -33982.31946  24399291.1554   24399299.2674   24399291.293
        43.0004         38.0004
   6354875.26148   4953135.01447  21326472.4644   21326477.4274   21326472.433
        52.0004         47.0004
 -20100331.18748 -15650093.03647  21536667.5704   21536672.8604   21536667.742
        50.0004         46.0004
   5769722.43748   4493814.60047  21585344.1694   21585351.4044   21585344.116
        51.0004         47.0004
  -2455161.91147  -1864331.51346  24555919.0954   24555925.9044   24555918.950
        43.0004         38.0004
 -27963676.38548 -21736311.58448  20445590.8664   20445596.3044   20445590.407
        53.0004         49.0004
 14  5 25  1  2  0.0000000  0 11G07G28G08G17G02G26G09G10G30G05G04
  -5945615.72847  -4620230.60746  23667536.1854   23667541.9344   23667536.430
        44.0004         39.0004
 -13437888.29148 -10473400.96647  21563769.0734   21563774.8904   21563769.478
        50.0004         46.0004
 -11713652.56948  -9117121.53547  21538381.2474   21538387.0114   21538381.888
        49.0004         45.0004
  -7292156.11347  -5634256.26746  23903254.2534   23903262.3084   23903253.731
        45.0004         40.0004
 -13901707.04248 -10821789.09947  21614610.6084   21614614.4504   21614611.034
        51.0004         46.0004
    -43108.13847    -22003.14946  24402216.3364   24402224.6324   24402216.967
        43.0004         38.0004
   6433261.92648   5014215.52747  21341389.0754   21341394.2134   21341389.007
        52.0004         47.0004
 -20165342.14848 -15700750.90547  21524295.4684   21524301.8454   21524296.878
        50.0004         46.0004
   5848728.64148   4555377.87047  21600378.1984   21600385.2604   21600378.034
        51.0004         47.0004
  -2545487.52247  -1934714.94446  24538730.9264   24538737.3924   24538730.039
        43.0004         38.0004
 -27935146.34948 -21714080.39248  20451019.9564   20451025.5664   20451019.633
        53.0004         49.0004
 14  5 25  1  2 30.0000000  0 11G07G28G08G17G02G26G09G10G30G05G04
  -5839990.91347  -4537925.58046  23687636.5804   23687642.1154   23687636.083
        44.0004         39.0004
 -13482354.93348 -10508050.24247  21555307.2434   21555312.8204   21555307.381
        50.0004         46.0004
 -11621508.71448  -9045321.14447  21555916.3604   21555921.6704   21555916.008
        49.0004         45.0004
  -7275304.86047  -5621125.41046  23906460.5104   23906469.1014   23906460.597
        44.0004         40.0004
 -13926629.45548 -10841209.14847  21609867.5654   21609872.3814   21609868.989
        51.0004         46.0004
    -27801.36947    -10075.70146  24405130.5874   24405136.0804   24405129.487
        42.0004         38.0004
   6511920.21448   5075507.69647  21356357.0594   21356363.0894   21356357.079
        52.0004         47.0004
 -20230154.63248 -15751254.11447  21511962.6604   21511969.0194   21511963.021
        50.0004         46.0004
   5928010.95548   4617156.28447  21615465.7074   21615472.2054   21615465.423
        51.0004         47.0004
  -2635947.55447  -2005203.10946  24521516.5474   24521522.7064   24521515.996
        43.0004         38.0004
 -27906140.52048 -21691478.44948  20456539.4244   20456545.0994   20456539.200
        53.0004         49.0004
 14  5 25  1  3  0.0000000  0 11G07G28G08G17G02G26G09G10G30G05G04
  -5734354.21047  -4455611.28446  23707737.4774   23707743.7634   23707737.329
        44.0004         39.0004
 -13526526.84448 -10542469.86647  21546901.9224   21546906.6634   21546901.907
        50.0004         46.0004
 -11529056.01948  -8973280.08547  21573509.2464   21573514.8024   21573509.208
        49.0004         45.0004
  -7258691.82547  -5608180.17446  23909622.6404   23909629.0084   23909621.947
        44.0004         39.0004
 -13951103.90748 -10860280.14047  21605210.9224   21605214.1974   21605210.943
        51.0004         46.0004
    -12563.57847      1798.01446  24408028.7314   24408036.3814   24408028.730
        42.0004         38.0004
   6590846.17248   5137008.44647  21371375.6574   21371381.1584   21371375.976
        52.0004         47.0004
 -20294766.62548 -15801601.09447  21499666.8714   21499673.6244   21499667.820
        50.0004         46.0004
   6007565.76048   4679147.03947  21630604.0264   21630611.2854   21630604.079
        51.0004         47.0004
  -2726540.96147  -2075795.21546  24504276.6084   24504283.7764   24504276.095
        43.0004         38.0004
 -27876661.53848 -21668507.81948  20462149.1774   20462155.1184   20462148.830
        53.0004         49.0004
 14  5 25  1  3 30.0000000  0 11G07G28G08G17G02G26G09G10G30G05G04
  -5628708.32047  -4373289.85046  23727841.6074   23727848.7714   23727841.164
        44.0004         39.0004
 -13570401.13348 -10576657.57347  21538552.2344   21538557.9174   21538552.696
        50.0004         46.0004
 -11436297.82548  -8901000.98347  21591160.0374   21591166.0774   21591160.409
        49.0004         45.0004
  -7242317.23247  -5595420.75146  23912738.1904   23912745.3484   23912738.233
        44.0004         39.0004
 -13975130.84648 -10879002.41347  21600638.3914   21600641.8044   21600638.657
        51.0004         46.0004
      2603.25147     13616.42246  24410914.8974   24410922.6934   24410914.811
        43.0004         38.0004
   6670036.78848   5198715.42447  21386445.7564   21386451.2564   21386445.725
        52.0004         47.0004
 -20359175.11248 -15851789.50247  21487410.3324   21487417.0514   21487411.508
        50.0004         46.0004
   6087390.21848   4741347.91347  21645794.1334   21645801.6594   21645794.157
        51.0004         47.0004
  -2817266.00447  -2146489.90046  24487011.3824   24487018.9494   24487011.366
        42.0004         38.0004
 -27846711.36548 -21645170.02448  20467848.4954   20467854.0574   20467848.303
        53.0004         49.0004
 14  5 25  1  4  0.0000000  0 11G07G28G08G17G02G26G09G10G30G05G04
  -5523057.38047  -4290964.46546  23747947.2194   23747952.4244   23747946.047
        43.0004         39.0004
 -13613976.43448 -10610612.30347  21530260.5344   21530266.4634   21530260.948
        50.0004         46.0004
 -11343238.65448  -8828487.35847  21608869.1804   21608874.8854   21608869.283
        49.0004         45.0004
  -7226182.62047  -5582848.30046  23915807.3104   23915815.5734   23915808.168
        44.0004         39.0004
 -13998711.69948 -10897377.09347  21596151.3654   21596154.9104   21596152.151
        51.0004         46.0004
     17695.79347     25376.95546  24413787.1234   24413795.5774   24413786.837
        43.0004         38.0004
   6749487.69448   5260625.21947  21401564.5874   21401570.3844   21401564.473
        52.0004         47.0004
 -20423378.55148 -15901818.13047  21475192.8834   21475199.1444   21475194.085
        51.0004         46.0004
   6167480.11948   4803755.62347  21661034.9854   21661042.8234   21661034.925
        51.0004         47.0004
  -2908121.81147  -2217286.45946  24469723.4024   24469729.4494   24469722.084
        43.0004         38.0004
 -27816293.27348 -21621467.61948  20473636.9294   20473641.9984   20473636.505
        53.0004         49.0004
 14  5 25  1  4 30.0000000  0 11G07G28G08G17G02G26G09G10G30G05G04
  -5417399.35447  -4208633.57446  23768052.9204   23768059.5344   23768051.915
        44.0004         39.0004
 -13657245.32148 -10644328.26847  21522026.1284   21522032.3044   21522026.609
        50.0004         46.0004
 -11249877.20948  -8755738.18347  21626635.6834   21626640.3894   21626635.147
        49.0004         44.0004
  -7210283.45947  -5570459.33446  23918833.5784   23918841.1404   23918833.733
        44.0004         40.0004
 -14021841.54848 -10915400.34347  21591749.6634   21591753.4994   21591750.405
        51.0004         46.0004
     32716.87847     37081.78746  24416644.9104   24416652.5214   24416644.946
        43.0004         38.0004
   6829200.70148   5322739.25247  21416733.2044   21416738.7974   21416733.768
        52.0004         47.0004
 -20487368.86648 -15951680.69447  21463016.0564   21463022.3034   21463016.860
        51.0004         46.0004
   6247837.45648   4866371.72347  21676326.2374   21676334.8174   21676326.022
        51.0004         47.0004
  -2999102.03547  -2288179.96746  24452409.2264   24452416.6944   24452409.859
        43.0004         38.0004
 -27785404.43248 -21597398.39848  20479514.8874   20479520.4994   20479514.619
        53.0004         49.0004
 14  5 25  1  5  0.0000000  0 11G07G28G08G17G02G26G09G10G30G05G04
  -5311742.18947  -4126303.34846  23788159.0754   23788164.2764   23788158.412
        43.0004         39.0004
 -13700210.03148 -10677807.22147  21513850.3964   21513855.8914   21513850.871
        50.0004         46.0004
 -11156222.26748  -8682760.31947  21644455.8324   21644462.8054   21644457.185
        49.0004         44.0004
  -7194625.08547  -5558258.00346  23921813.9414   23921820.8034   23921813.333
        44.0004         40.0004
 -14044526.14948 -10933076.64747  21587432.8154   21587436.6824   21587432.916
        51.0004         46.0004
     47659.20447     48725.26046  24419488.6824   24419496.1044   24419489.134
        43.0004         38.0004
   6909167.24348   5385050.84647  21431950.1234   21431955.7024   21431950.235
        52.0004         47.0004
 -20551148.57248 -16001379.14847  21450879.5794   21450885.7574   21450880.304
        51.0004         46.0004
   6328454.03148   4929189.82247  21691667.0854   21691674.2874   21691667.437
        51.0004         47.0004
  -3090210.33647  -2359173.29046  24435072.6704   24435079.6634   24435071.997
        43.0004         38.0004
 -27754052.03148 -21572967.96448  20485481.0204   20485486.3174   20485480.667
        53.0004         49.0004
 14  5 25  1  5 30.0000000  0 11G07G28G08G17G02G26G09G10G30G05G04
  -5206086.55347  -4043974.31146  23808263.9974   23808269.5474   23808264.053
        43.0004         39.0004
 -13742866.36148 -10711045.87047  21505733.4164   21505738.4124   21505733.493
        50.0004         46.0004
 -11062276.06948  -8609555.50447  21662334.1594   21662339.3884   21662334.375
        49.0004         44.0004
  -7179206.82847  -5546243.76746  23924746.6424   23924755.9674   23924747.202
        44.0004         40.0004
 -14066764.56748 -10950405.27547  21583201.4484   21583204.5874   21583202.325
        51.0004         46.0004
     62522.17147     60306.88646  24422316.7094   24422325.2404   24422317.120
        43.0004         38.0004
   6989385.55248   5447558.62047  21447216.1304   21447220.7974   21447215.598
        51.0004         47.0004
 -20614713.51448 -16050910.25147  21438783.0974   21438789.5764   21438783.924
        51.0004         46.0004
   6409328.31148   4992208.72847  21707057.4984   21707064.5514   21707057.237
        51.0004         47.0004
  -3181442.91247  -2430263.44946  24417711.1454   24417717.7004   24417711.005
        43.0004         39.0004
 -27722236.77748 -21548176.86048  20491534.9414   20491540.6444   20491535.017
        53.0004         49.0004
 14  5 25  1  6  0.0000000  0 11G07G28G08G17G02G26G09G10G30G05G04
  -5100431.56747  -3961645.79046  23828370.6994   23828375.7544   23828369.811
        43.0004         39.0004
 -13785206.75748 -10744038.33647  21497675.9274   21497681.8604   21497676.569
        50.0004         46.0004
 -10968037.45148  -8536122.82847  21680266.9804   21680272.8594   21680267.300
        49.0004         44.0004
  -7164024.30447  -5534413.21646  23927637.0224   23927644.4784   23927636.180
        44.0004         40.0004
 -14088552.48848 -10967382.86847  21579055.5634   21579058.4404   21579055.164
        51.0004         46.0004
     77308.23447     71828.58646  24425131.0554   24425138.7854   24425130.351
        43.0004         38.0004
   7069856.91048   5510263.58147  21462528.9464   21462534.1724   21462528.838
        51.0004         47.0004
 -20678056.22948 -16100268.18547  21426729.8544   21426735.6474   21426730.463
        51.0004         46.0004
   6490461.82948   5055429.64347  21722496.3604   21722504.0804   21722495.935
        51.0004         47.0004
  -3272793.68847  -2501445.70746  24400327.3984   24400333.8924   24400326.845
        43.0004         39.0004
 -27689956.37348 -21523023.30148  20497678.0404   20497683.7884   20497677.677
        53.0004         49.0004
 14  5 25  1  6 30.0000000  0 11G07G28G08G17G02G26G09G10G30G05G04
  -4994786.39647  -3879324.91846  23848473.1594   23848479.3614   23848473.719
        43.0004         39.0004
 -13827235.32348 -10776787.82747  21489678.5244   21489682.9774   21489678.375
        50.0004         46.0004
 -10873516.83548  -8462470.41447  21698254.3544   21698259.0534   21698254.344
        49.0004         44.0004
  -7149084.84047  -5522772.07646  23930479.2404   23930487.6814   23930478.781
        44.0004         39.0004
 -14109897.14648 -10984015.05247  21574993.3704   21574997.2954   21574993.536
        51.0004         46.0004
     92008.38947     83283.35746  24427927.6544   24427934.9614   24427928.712
        43.0004         38.0004
   7150571.10148   5573157.75647  21477888.4734   21477893.9314   21477888.234
        52.0004         47.0004
 -20741180.59148 -16149455.97847  21414717.5624   21414723.6124   21414718.016
        51.0004         46.0004
   6571844.67148   5118844.83247  21737983.3524   21737990.4884   21737982.899
        51.0004         46.0004
  -3364268.19047  -2572724.37846  24382921.1434   24382927.2304   24382920.148
        44.0004         39.0004
 -27657219.74848 -21497514.24548  20503907.8984   20503913.2084   20503907.338
        53.0004         49.0004
 14  5 25  1  7  0.0000000  0 11G07G28G08G17G02G26G09G10G30G05G04
  -4889149.84347  -3797010.74446  23868575.7584   23868581.2614   23868575.323
        43.0004         39.0004
 -13868945.52348 -10809289.23047  21481741.8514   21481746.2694   21481741.484
        50.0004         46.0004
 -10778713.70848  -8388597.85047  21716294.4584   21716300.3864   21716294.831
        49.0004         44.0004
  -7134384.13947  -5511316.95946  23933276.4924   23933285.4794   23933276.449
        44.0004         39.0004
 -14130794.78648 -11000298.92547  21571016.7074   21571020.3804   21571017.218
        51.0004         46.0004
    106624.67247     94672.74446  24430709.5404   24430717.3384   24430709.259
        43.0004         38.0004
   7231528.99548   5636241.83147  21493293.8804   21493299.1704   21493294.037
        52.0004         47.0004
 -20804079.80348 -16198468.33047  21402748.2864   21402754.4164   21402749.242
        51.0004         46.0004
   6653477.96548   5182455.18547  21753517.0824   21753524.1344   21753516.961
        51.0004         46.0004
  -3455859.98847  -2644094.44246  24365491.3334   24365497.4104   24365490.332
        44.0004         39.0004
 -27624024.99648 -21471648.20348  20510223.9514   20510229.9454   20510223.945
        53.0004         49.0004
 14  5 25  1  7 30.0000000  0 11G07G28G08G17G02G26G09G10G30G05G04
  -4783522.34647  -3714703.64646  23888675.6864   23888681.9734   23888675.335
        43.0004         39.0004
 -13910332.70848 -10841538.94747  21473865.5064   21473870.5524   21473865.731
        50.0004         46.0004
 -10683629.71448  -8314506.44847  21734388.2114   21734394.6684   21734388.581
        49.0004         44.0004
  -7119920.71847  -5500046.73746  23936029.7654   23936036.6734   23936028.848
        44.0004         39.0004
 -14151244.19348 -11016233.52347  21567125.1244   21567128.5204   21567125.210
        51.0004         46.0004
    121156.98647    105996.72646  24433474.8144   24433482.6124   24433474.288
        43.0004         38.0004
   7312729.24848   5699514.75647  21508745.9594   21508751.5444   21508745.952
        52.0004         47.0004
 -20866749.11748 -16247301.54847  21390822.8354   21390828.5274   21390823.155
        51.0004         46.0004
   6735360.60948   5246259.83047  21769098.5724   21769106.8154   21769098.636
        51.0004         46.0004
  -3547565.46947  -2715553.10246  24348040.1374   24348046.4024   24348038.714
        44.0004         39.0004
 -27590372.32148 -21445425.34148  20516628.1244   20516633.3854   20516627.694
        53.0004         49.0004
 14  5 25  1  8  0.0000000  0 11G07G28G08G17G02G26G09G10G30G05G04
  -4677911.88247  -3632409.83046  23908773.9394   23908778.7814   23908772.351
        43.0004         39.0004
 -13951399.15548 -10873538.73047  21466050.4544   21466055.9964   21466050.724
        50.0004         46.0004
 -10588273.15048  -8240202.65047  21752534.4954   21752540.4744   21752534.466
        49.0004         44.0004
  -7105699.94647  -5488965.59546  23938735.7904   23938741.7734   23938734.851
        44.0004         40.0004
 -14171250.28348 -11031822.67247  21563317.7364   21563321.7714   21563318.817
        51.0004         46.0004
    135598.44947    117249.90346  24436222.2624   24436230.2454   24436222.176
        43.0004         38.0004
   7394163.93148   5762970.34747  21524242.6024   21524248.0154   21524242.337
        51.0004         47.0004
 -20929190.60648 -16295957.23247  21378940.1534   21378946.4484   21378941.125
        51.0004         46.0004
   6817484.78648   5310252.68447  21784726.9224   21784734.2514   21784726.628
        51.0004         46.0004
  -3639387.64447  -2787102.68846  24330567.5294   24330572.5584   24330566.103
        43.0004         38.0004
 -27556268.94848 -21418851.28948  20523117.6974   20523123.2994   20523117.541
        53.0004         48.0004
 14  5 25  1  8 30.0000000  0 11G07G28G08G17G02G26G09G10G30G05G04
  -4572318.00347  -3550128.93246  23928867.5884   23928872.4974   23928866.052
        43.0004         39.0004
 -13992138.75448 -10905283.83047  21458298.4204   21458302.7064   21458298.578
        50.0004         46.0004
 -10492644.93848  -8165687.16847  21770732.2054   21770737.1714   21770731.717
        49.0004         44.0004
  -7091718.71847  -5478071.10546  23941395.6874   23941403.3124   23941395.229
        44.0004         40.0004
 -14190810.80948 -11047064.62847  21559595.9344   21559599.5294   21559596.303
        51.0004         47.0004
    149949.70047    128432.78146  24438953.7634   24438960.6044   24438953.497
        43.0004         38.0004
   7475832.36948   5826608.09447  21539783.3674   21539789.2164   21539783.434
        51.0004         47.0004
 -20991398.58648 -16344430.95947  21367102.5444   21367108.7174   21367103.050
        51.0004         46.0004
   6899850.17048   5374433.48947  21800400.3094   21800407.3504   21800400.265
        51.0004         46.0004
  -3731322.27847  -2858739.91246  24313071.6694   24313078.3064   24313071.052
        43.0004         38.0004
 -27521714.42148 -21391925.68748  20529693.5734   20529699.3154   20529693.106
        53.0004         48.0004
 14  5 25  1  9  0.0000000  0 11G07G28G08G17G02G26G09G10G30G05G04
  -4466741.80647  -3467861.81646  23948956.7574   23948963.2694   23948957.004
        43.0004         39.0004
 -14032547.19948 -10936770.89847  21450609.2394   21450614.4954   21450609.090
        51.0004         46.0004
 -10396746.66248  -8090961.25547  21788981.1974   21788986.5444   21788981.098
        49.0004         44.0004
  -7077976.01647  -5467362.46446  23944011.5264   23944018.0424   23944011.099
        44.0004         40.0004
 -14209925.12048 -11061958.88747  21555958.5784   21555961.7274   21555959.176
        51.0004         46.0004
    164210.62847    139545.27846  24441668.4084   24441674.9254   24441666.868
        43.0004         38.0004
   7557733.30748   5890427.00147  21555368.8884   21555374.1034   21555368.767
        51.0004         47.0004
 -21053368.27148 -16392719.00347  21355310.1264   21355315.5874   21355310.742
        51.0004         47.0004
   6982455.64748   5438801.38347  21816119.1674   21816127.3424   21816119.402
        51.0004         46.0004
  -3823365.25347  -2930461.55546  24295556.5194   24295564.6374   24295555.149
        43.0004         38.0004
 -27486708.84948 -21364648.62148  20536354.9444   20536360.1984   20536354.618
        53.0004         48.0004
 14  5 25  1  9 30.0000000  0 11G07G28G08G17G02G26G09G10G30G05G04
  -4361189.86947  -3385613.60146  23969043.5344   23969049.1374   23969042.966
        43.0004         39.0004
 -14072625.76148 -10968000.90147  21442981.8324   21442987.0614   21442982.263
        50.0004         46.0004
 -10300585.93648  -8016030.83547  21807279.1264   21807285.8234   21807279.302
        49.0004         44.0004
  -7064476.05347  -5456842.98246  23946579.9904   23946587.7214   23946579.594
        44.0004         40.0004
 -14228597.15248 -11076508.50447  21552405.3324   21552408.9034   21552405.703
        51.0004         47.0004
    178375.30847    150582.78046  24444362.8254   24444369.6294   24444362.372
        43.0004         38.0004
   7639859.56248   5954421.48847  21570997.0504   21571002.2614   21570996.772
        51.0004         47.0004
 -21115100.77948 -16440822.23047  21343563.0384   21343568.6964   21343563.421
        51.0004         47.0004
   7065294.36148   5503351.01847  21831883.7364   21831890.7424   21831883.092
        51.0004         46.0004
  -3915518.68647  -3002269.26246  24278019.5604   24278025.3094   24278019.378
        43.0004         38.0004
 -27451258.49148 -21337024.96748  20543100.9014   20543106.2694   20543100.032
        53.0004         48.0004
 14  5 25  1 10  0.0000000  0 11G07G28G08G17G02G26G09G10G30G05G04
  -4255662.69447  -3303384.68646  23989124.3694   23989130.6004   23989123.768
        43.0004         38.0004
 -14112369.53248 -10998970.03647  21435419.2584   21435424.6714   21435419.224
        51.0004         46.0004
 -10204164.14948  -7940896.98447  21825626.9954   21825634.6154   21825627.738
        49.0004         44.0004
  -7051216.71147  -5446511.00446  23949103.0324   23949110.1574   23949102.438
        44.0004         40.0004
 -14246825.25448 -11090712.21247  21548936.5404   21548940.1674   21548937.468
        51.0004         47.0004
    192443.92447    161545.41746  24447039.7184   24447045.8804   24447040.387
        43.0004         38.0004
   7722210.03748   6018590.68847  21586667.4554   21586673.1134   21586667.654
        51.0004         47.0004
 -21176590.95648 -16488736.63147  21331861.9614   21331867.8224   21331862.116
        51.0004         47.0004
   7148365.43648   5568081.71147  21847691.2464   21847698.8544   21847690.989
        51.0004         46.0004
  -4007778.62547  -3074159.98446  24260462.4504   24260469.8164   24260463.147
        43.0004         39.0004
 -27415363.53148 -21309054.86548  20549931.5294   20549937.0264   20549931.114
        53.0004         48.0004
 14  5 25  1 10 30.0000000  0 11G07G28G08G17G02G26G09G10G30G05G04
  -4150160.01547  -3221174.85446  24009201.2394   24009206.6924   24009200.290
        43.0004         38.0004
 -14151772.70748 -11029673.76447  21427920.3344   21427925.7714   21427920.993
        51.0004         46.0004
 -10107481.66048  -7865559.99747  21844026.0424   21844031.9694   21844026.118
        48.0004         44.0004
  -7038194.85847  -5436364.06446  23951580.2924   23951587.5754   23951580.497
        44.0004         40.0004
 -14264607.26348 -11104568.30447  21545552.6964   21545556.3074   21545552.720
        51.0004         46.0004
    206417.38647    172433.91946  24449698.7794   24449706.1944   24449698.151
        43.0004         38.0004
   7804784.56848   6082934.48247  21602380.8844   21602386.2324   21602381.171
        51.0004         47.0004
 -21237833.18048 -16536457.81947  21320207.0304   21320213.7114   21320208.260
        51.0004         47.0004
   7231668.88548   5632993.47547  21863542.9624   21863550.5964   21863543.172
        51.0004         46.0004
  -4100140.24447  -3146129.94346  24242887.9204   24242893.2954   24242887.132
        43.0004         39.0004
 -27379023.31748 -21280737.82048  20556846.6404   20556852.3064   20556846.171
        53.0004         48.0004
 14  5 25  1 11  0.0000000  0 11G07G28G08G17G02G26G09G10G30G05G04
  -4044688.83547  -3138989.58046  24029271.2184   24029275.5874   24029271.059
        43.0004         38.0004
 -14190837.11748 -11060113.53247  21420486.9974   21420492.1044   21420487.266
        51.0004         46.0004
 -10010546.31348  -7790025.97447  21862471.5144   21862477.5244   21862472.073
        48.0004         44.0004
  -7025415.23547  -5426405.87946  23954012.6734   23954019.9724   23954012.184
        44.0004         40.0004
 -14281947.71848 -11118080.33247  21542253.3804   21542256.9344   21542253.639
        51.0004         47.0004
    220289.32647    183243.30946  24452337.7894   24452346.1584   24452338.154
        43.0004         38.0004
   7887575.44548   6147446.84847  21618136.1014   21618141.2754   21618135.620
        51.0004         47.0004
 -21298829.06748 -16583987.06547  21308600.4364   21308605.8504   21308601.089
        51.0004         47.0004
   7315197.27748   5698080.52247  21879438.2884   21879445.4144   21879438.018
        50.0004         46.0004
  -4192605.96547  -3218181.02046  24225291.7714   24225297.6044   24225291.160
        44.0004         39.0004
 -27342244.45448 -21252078.96648  20563845.4384   20563851.0014   20563845.140
        53.0004         48.0004
 14  5 25  1 11 30.0000000  0 11G07G28G08G17G02G26G09G10G30G05G04
  -3939251.53647  -3056830.69946  24049335.3984   24049341.1824   24049335.190
        43.0004         38.0004
 -14229559.77548 -11090287.00347  21413117.5964   21413123.6644   21413118.498
        51.0004         46.0004
  -9913361.48548  -7714297.55647  21880965.5244   21880971.1794   21880966.193
        48.0004         44.0004
  -7012877.89347  -5416636.49946  23956398.4824   23956406.1154   23956397.884
        44.0004         40.0004
 -14298847.11248 -11131248.67647  21539037.3174   21539040.4524   21539037.510
        51.0004         46.0004
    234058.06047    193972.26846  24454959.1644   24454966.4514   24454959.375
        43.0004         38.0004
   7970579.82848   6212125.58847  21633930.7994   21633936.1624   21633930.636
        51.0004         47.0004
 -21359575.13448 -16631321.64347  21297040.5794   21297046.8614   21297041.308
        51.0004         46.0004
   7398947.92848   5763340.75247  21895375.4974   21895382.7244   21895375.444
        50.0004         46.0004
  -4285173.21547  -3290311.20446  24207676.3034   24207683.6034   24207676.378
        44.0004         39.0004
 -27305028.76748 -21223079.72948  20570927.4414   20570933.1224   20570926.981
        53.0004         48.0004
 14  5 25  1 12  0.0000000  0 11G07G28G08G17G02G26G09G10G30G05G04
  -3833847.29147  -2974697.59146  24069392.4764   24069398.8114   24069393.292
        42.0004         38.0004
 -14267934.94148 -11120189.69747  21405815.8154   21405821.4594   21405816.200
        51.0004         46.0004
  -9815927.68448  -7638375.13147  21899506.6054   21899512.1914   21899507.103
        48.0004         44.0004
  -7000579.71247  -5407053.47646  23958738.6754   23958745.8844   23958738.552
        44.0004         40.0004
 -14315302.95748 -11144071.40047  21535906.1374   21535909.4714   21535906.187
        51.0004         47.0004
    247724.67147    204621.64846  24457558.6164   24457566.1544   24457558.549
        43.0004         39.0004
   8053797.56148   6276970.56847  21649766.8834   21649771.5874   21649766.716
        51.0004         47.0004
 -21420065.56048 -16678457.01547  21285529.4744   21285535.8404   21285530.363
        51.0004         46.0004
   7482920.97248   5828774.28247  21911355.0604   21911362.4104   21911354.951
        50.0004         46.0004
  -4377837.76247  -3362517.19346  24190042.6814   24190048.5594   24190042.569
        44.0004         39.0004
 -27267375.61548 -21193739.60948  20578092.6104   20578097.9454   20578091.905
        53.0004         48.0004
 14  5 25  1 12 30.0000000  0 11G07G28G08G17G02G26G09G10G30G05G04
  -3728481.04547  -2892594.09346  24089443.9174   24089449.6044   24089443.702
        42.0004         38.0004
 -14305962.04048 -11149821.17347  21398580.2474   21398585.1344   21398579.847
        51.0004         46.0004
  -9718250.43148  -7562262.99747  21918093.6674   21918100.2174   21918094.445
        48.0004         44.0004
  -6988522.82647  -5397658.46846  23961033.2034   23961040.9204   23961032.801
        44.0004         40.0004
 -14331318.14648 -11156550.75547  21532858.2534   21532861.4634   21532858.436
        51.0004         47.0004
    261285.07447    215188.29446  24460139.7434   24460147.2604   24460139.035
        43.0004         39.0004
   8137223.26148   6341977.59747  21665641.8264   21665646.9054   21665641.926
        51.0004         46.0004
 -21480299.60748 -16725392.62347  21274067.5914   21274073.6394   21274068.026
        51.0004         46.0004
   7567111.23248   5894377.06747  21927376.5494   21927383.5244   21927376.200
        50.0004         46.0004
  -4470599.32847  -3434798.78646  24172392.4724   24172397.9574   24172391.210
        44.0004         39.0004
 -27229289.70648 -21164062.28048  20585339.9694   20585345.3234   20585339.746
        53.0004         48.0004
 14  5 25  1 13  0.0000000  0 11G07G28G08G17G02G26G09G10G30G05G04
  -3623153.18347  -2810520.48846  24109487.9274   24109492.9734   24109486.338
        42.0004         38.0004
 -14343636.00948 -11179177.47447  21391411.0594   21391415.4934   21391410.628
        51.0004         46.0004
  -9620331.28448  -7485962.38647  21936727.0334   21936732.4354   21936727.582
        48.0004         43.0004
  -6976705.14947  -5388449.85546  23963283.0024   23963289.4034   23963281.620
        45.0004         40.0004
 -14346891.08948 -11168685.50147  21529894.4744   21529897.5854   21529895.188
        51.0004         47.0004
    274739.55447    225672.37646  24462699.7274   24462707.6904   24462700.131
        43.0004         39.0004
   8220856.13448   6407146.06147  21681556.4384   21681562.2184   21681556.850
        51.0004         46.0004
 -21540272.30348 -16772124.57247  21262654.8914   21262660.7704   21262655.793
        51.0004         47.0004
   7651517.97748   5960148.54047  21943437.8564   21943444.7244   21943437.675
        50.0004         46.0004
  -4563453.86347  -3507152.82346  24154721.6834   24154727.0144   24154721.100
        44.0004         39.0004
 -27190770.74848 -21134047.51048  20592669.6704   20592675.2204   20592669.541
        53.0004         48.0004
 14  5 25  1 13 30.0000000  0 11G07G28G08G17G02G26G09G10G30G05G04
  -3517868.78747  -2728480.76146  24129522.1174   24129528.3044   24129521.494
        42.0004         38.0004
 -14380956.48948 -11208258.33147  21384308.6064   21384313.8624   21384308.895
        51.0004         46.0004
  -9522175.83348  -7409477.62647  21955404.8434   21955411.2184   21955405.973
        48.0004         43.0004
  -6965129.42947  -5379429.77546  23965484.6964   23965492.2004   23965484.419
        45.0004         40.0004
 -14362024.39548 -11180477.67547  21527015.1994   21527018.1124   21527015.364
        51.0004         47.0004
    288084.00747    236070.73446  24465239.3084   24465245.9484   24465238.733
        43.0004         38.0004
   8304690.62648   6472471.63647  21697510.0554   21697515.3914   21697509.995
        51.0004         46.0004
 -21599983.26348 -16818652.58247  21251292.6494   21251298.5664   21251293.132
        51.0004         47.0004
   7736136.02848   6026084.67647  21959540.2824   21959548.4314   21959540.155
        50.0004         46.0004
  -4656401.52347  -3579579.42746  24137034.6554   24137039.0104   24137033.935
        44.0004         39.0004
 -27151823.49648 -21103699.00948  20600081.0744   20600087.0944   20600081.036
        53.0004         48.0004
 14  5 25  1 14  0.0000000  0 11G07G28G08G17G02G26G09G10G30G05G04
  -3412629.33147  -2646476.06646  24149548.6624   24149556.0684   24149548.291
        42.0004         37.0004
 -14417920.26648 -11237061.23947  21377274.9354   21377279.5514   21377274.612
        51.0004         46.0004
  -9423786.55348  -7332810.67147  21974128.7294   21974133.6694   21974128.679
        48.0004         43.0004
  -6953794.72347  -5370597.50346  23967641.5304   23967648.8474   23967641.340
        45.0004         40.0004
 -14376718.24848 -11191927.41347  21524219.3254   21524222.2964   21524219.373
        51.0004         47.0004
    301317.40247    246382.55546  24467755.6904   24467765.0574   24467757.295
        43.0004         39.0004
   8388724.51848   6537952.58547  21713501.2914   21713506.1184   21713501.258
        51.0004         46.0004
 -21659428.36348 -16864973.42647  21239980.2154   21239986.6274   21239981.292
        51.0004         47.0004
   7820963.32748   6092183.85647  21975682.2764   21975689.7634   21975682.526
        50.0004         46.0004
  -4749439.45147  -3652076.39446  24119328.9864   24119335.5034   24119329.465
        44.0004         39.0004
 -27112449.51148 -21073017.98548  20607573.7654   20607579.6254   20607573.449
        53.0004         48.0004
 14  5 25  1 14 30.0000000  0 11G07G28G08G17G02G26G09G10G30G05G04
  -3307436.77047  -2564507.90246  24169566.2694   24169572.0594   24169565.740
        42.0004         38.0004
 -14454523.86948 -11265583.50247  21370309.2684   21370313.6434   21370309.416
        51.0004         46.0004
  -9325166.73148  -7255964.06847  21992895.3194   21992900.3344   21992895.345
        48.0004         43.0004
  -6942700.00847  -5361952.23746  23969753.9094   23969760.8664   23969752.814
        45.0004         40.0004
 -14390972.26848 -11203034.43047  21521506.6864   21521510.4384   21521506.767
        51.0004         47.0004
    314438.22447    256606.64046  24470253.2074   24470261.0884   24470253.534
        43.0004         38.0004
   8472954.87948   6603586.62647  21729529.5204   21729535.1194   21729529.317
        51.0004         46.0004
 -21718604.08548 -16911084.35647  21228720.1394   21228725.3554   21228720.247
        51.0004         47.0004
   7905997.34048   6158444.11947  21991863.2214   21991871.4244   21991863.504
        50.0004         46.0004
  -4842565.40147  -3724641.94046  24101608.1974   24101614.4334   24101607.482
        44.0004         39.0004
 -27072650.54348 -21042005.80448  20615147.3254   20615152.9644   20615147.052
        53.0004         48.0004
 14  5 25  1 15  0.0000000  0 11G07G28G08G17G02G26G09G10G30G05G04
  -3202293.99447  -2482578.55346  24189573.9004   24189579.9694   24189573.344
        42.0004         38.0004
 -14490765.02548 -11293823.32647  21363412.6184   21363417.8544   21363412.774
        51.0004         46.0004
  -9226320.09648  -7178940.72647  22011704.0784   22011711.5894   22011705.024
        48.0004         43.0004
  -6931845.96647  -5353494.51346  23971818.3104   23971826.0684   23971817.904
        45.0004         40.0004
 -14404788.20348 -11213800.08547  21518877.1104   21518880.6154   21518877.585
        51.0004         47.0004
    327444.07047    266741.16046  24472729.7454   24472737.1434   24472729.393
        43.0004         39.0004
   8557378.18648   6669371.01447  21745595.0964   21745600.3274   21745594.979
        51.0004         46.0004
 -21777508.15748 -16956983.61747  21217511.1824   21217516.6724   21217511.574
        51.0004         47.0004
   7991234.58948   6224862.73947  22008083.9224   22008090.8594   22008083.573
        50.0004         46.0004
  -4935777.51347  -3797274.63146  24083870.6154   24083875.9314   24083869.508
        44.0004         39.0004
 -27032429.54148 -21010664.77348  20622801.3294   20622806.9344   20622800.956
        53.0004         48.0004
 14  5 25  1 15 30.0000000  0 11G07G28G08G17G02G26G09G10G30G05G04
  -3097202.75347  -2400689.35446  24209572.8984   24209577.9854   24209572.210
        42.0004         38.0004
 -14526640.36548 -11321778.10447  21356585.6444   21356590.6594   21356586.065
        51.0004         46.0004
  -9127249.70948  -7101743.02847  22030557.6684   22030563.8774   22030557.962
        48.0004         43.0004
  -6921232.41247  -5345224.18946  23973838.8894   23973845.5474   23973837.671
        45.0004         40.0004
 -14418165.84248 -11224224.20847  21516331.2024   21516334.8734   21516331.642
        51.0004         47.0004
    340333.77347    276785.15146  24475181.6454   24475189.1824   24475181.794
        43.0004         38.0004
   8641991.93148   6735303.80147  21761695.7374   21761701.7324   21761696.318
        51.0004         46.0004
 -21836137.20748 -17002668.57947  21206354.0024   21206359.7034   21206354.486
        51.0004         47.0004
   8076672.80948   6291437.96947  22024342.8574   22024349.4624   22024342.109
        50.0004         45.0004
  -5029073.31747  -3869972.54646  24066117.7494   24066121.9974   24066115.396
        44.0004         39.0004
 -26991788.30748 -20978996.28148  20630534.8314   20630540.3854   20630534.763
        53.0004         48.0004
 14  5 25  1 16  0.0000000  0 11G07G28G08G17G02G26G09G10G30G05G04
  -2992167.80947  -2318844.03046  24229560.3694   24229565.4154   24229559.096
        42.0004         37.0004
 -14562149.06848 -11349447.19047  21349828.5304   21349833.1484   21349828.737
        51.0004         46.0004
  -9027960.33848  -7024374.70047  22049451.7584   22049458.6554   22049452.313
        48.0004         43.0004
  -6910860.67347  -5337142.29746  23975812.2004   23975818.8454   23975811.123
        45.0004         40.0004
 -14431107.74148 -11234308.79847  21513868.9314   21513872.2884   21513869.221
        51.0004         47.0004
    353103.91147    286735.99546  24477610.9514   24477618.2734   24477610.486
        43.0004         38.0004
   8726791.60548   6801381.46647  21777833.6444   21777838.4494   21777832.872
        51.0004         46.0004
 -21894489.65548 -17048138.00247  21195249.8044   21195255.5694   21195250.625
        51.0004         47.0004
   8162307.51948   6358166.31147  22040638.0324   22040645.7644   22040637.629
        50.0004         45.0004
  -5122452.04847  -3942735.06746  24048346.3984   24048352.5714   24048346.353
        44.0004         40.0004
 -26950730.75848 -20947003.39248  20638348.1334   20638353.4874   20638347.741
        53.0004         48.0004
 14  5 25  1 16 30.0000000  0 11G07G28G08G17G02G26G09G10G30G05G04
  -2887188.93047  -2237042.38146  24249536.3044   24249541.5904   24249536.023
        42.0004         37.0004
 -14597286.02248 -11376826.59747  21343141.7794   21343146.8374   21343142.522
        51.0004         46.0004
  -8928453.08848  -6946836.59447  22068386.7354   22068393.5764   22068387.879
        48.0004         43.0004
  -6900728.49447  -5329247.07346  23977740.4224   23977746.6354   23977739.942
        45.0004         40.0004
 -14443612.07748 -11244052.42447  21511489.4044   21511492.6914   21511489.584
        51.0004         47.0004
    365755.03147    296594.09846  24480017.9404   24480027.1464   24480018.157
        43.0004         38.0004
   8811776.35548   6867603.34347  21794005.1574   21794010.4374   21794005.341
        51.0004         46.0004
 -21952560.31648 -17093387.85247  21184199.2294   21184205.0974   21184199.774
        51.0004         47.0004
   8248138.17248   6425047.33147  22056970.9714   22056979.2324   22056970.561
        50.0004         45.0004
  -5215909.34347  -4015558.81646  24030562.0084   24030568.3974   24030562.137
        44.0004         40.0004
 -26909256.86548 -20914686.07848  20646239.8194   20646245.7184   20646239.555
        53.0004         48.0004
 14  5 25  1 17  0.0000000  0 11G07G28G08G17G02G26G09G10G30G05G04
  -2782268.73047  -2155286.46646  24269503.3714   24269509.5674   24269502.167
        42.0004         37.0004
 -14632048.79248 -11403914.43747  21336527.2454   21336532.5224   21336527.210
        51.0004         46.0004
  -8828731.91148  -6869131.80047  22087363.5904   22087369.8964   22087363.983
        48.0004         43.0004
  -6890836.08647  -5321538.68146  23979622.3244   23979629.0214   23979621.990
        44.0004         40.0004
 -14455680.03548 -11253456.01647  21509192.9074   21509196.2754   21509193.411
        51.0004         47.0004
    378284.89847    306357.70246  24482403.1644   24482410.0594   24482403.695
        43.0004         38.0004
   8896942.56948   6933966.62047  21810212.4254   21810217.5394   21810211.691
        51.0004         46.0004
 -22010346.45448 -17138415.99347  21173203.0564   21173209.2594   21173203.411
        52.0004         47.0004
   8334161.47048   6492078.46247  22073340.7394   22073348.0464   22073340.504
        50.0004         45.0004
  -5309443.94347  -4088442.79546  24012764.0784   24012770.0704   24012762.944
        44.0004         40.0004
 -26867369.51248 -20882046.58748  20654211.0764   20654216.6874   20654210.818
        53.0004         48.0004
 14  5 25  1 17 30.0000000  0 11G07G28G08G17G02G26G09G10G30G05G04
  -2677411.02247  -2073579.25246  24289456.8514   24289461.8634   24289456.163
        42.0004         37.0004
 -14666436.32748 -11430709.88147  21329983.4764   21329988.1694   21329983.487
        51.0004         46.0004
  -8728801.22648  -6791263.74147  22106380.4804   22106387.8364   22106380.263
        48.0004         43.0004
  -6881184.34347  -5314017.83246  23981458.6134   23981466.2744   23981457.994
        44.0004         40.0004
 -14467313.32948 -11262520.91447  21506979.4474   21506982.8344   21506979.415
        51.0004         47.0004
    390690.46247    316024.44446  24484763.8494   24484770.7054   24484763.495
        43.0004         38.0004
   8982286.08248   7000468.05047  21826452.3744   21826457.8944   21826452.071
        51.0004         46.0004
 -22067846.77348 -17183221.41947  21162261.1374   21162267.2214   21162261.524
        52.0004         47.0004
   8420373.26648   6559256.47047  22089747.0894   22089753.8244   22089746.235
        50.0004         45.0004
  -5403054.23147  -4161385.73546  23994950.0114   23994955.8564   23994949.598
        44.0004         40.0004
 -26825072.23848 -20849087.68148  20662260.2484   20662265.5514   20662259.609
        53.0004         48.0004
 14  5 25  1 18  0.0000000  0 11G07G28G08G17G02G26G09G10G30G05G04
  -2572617.60147  -1991922.14146  24309397.9284   24309404.3574   24309397.693
        42.0004         37.0004
 -14700445.35148 -11457210.39147  21323511.6334   21323516.9504   21323511.685
        51.0004         46.0004
  -8628664.08148  -6713234.81647  22125434.4094   22125442.1194   22125435.974
        48.0004         43.0004
  -6871772.86647  -5306684.20946  23983250.3304   23983256.5314   23983249.546
        44.0004         40.0004
 -14478512.34548 -11271247.41047  21504847.7334   21504851.8294   21504848.316
        51.0004         47.0004
    402970.48947    325593.36746  24487100.2284   24487107.5004   24487100.188
        43.0004         39.0004
   9067804.19548   7067105.53247  21842725.9904   21842730.6824   21842725.722
        50.0004         46.0004
 -22125057.83048 -17227801.45047  21151373.9724   21151380.1714   21151374.715
        52.0004         47.0004
   8506771.19648   6626579.53047  22106188.0964   22106194.7754   22106187.025
        50.0004         45.0004
  -5496737.91047  -4234385.88646  23977122.4924   23977128.8724   23977121.738
        44.0004         40.0004
 -26782366.79648 -20815810.72448  20670386.5534   20670391.9004   20670386.364
        53.0004         48.0004
 14  5 25  1 18 30.0000000  0 11G07G28G08G17G02G26G09G10G30G05G04
  -2467892.17447  -1910318.00646  24329326.5094   24329332.3974   24329326.367
        42.0004         37.0004
 -14734073.74848 -11483414.30047  21317112.4554   21317117.8294   21317112.437
        51.0004         47.0004
  -8528324.57347  -6635048.19147  22144528.9044   22144536.3434   22144529.404
        47.0004         43.0004
  -6862602.17547  -5299538.20946  23984995.1834   23985002.5984   23984994.232
        44.0004         40.0004
 -14489278.63748 -11279636.72947  21502799.0794   21502802.9024   21502799.758
        51.0004         47.0004
    415122.46347    335062.51046  24489413.3094   24489422.1354   24489413.151
        43.0004         39.0004
   9153493.02448   7133876.04647  21859030.9004   21859037.1884   21859031.911
        50.0004         46.0004
 -22181977.28548 -17272154.26447  21140542.9514   21140548.8284   21140543.430
        52.0004         47.0004
   8593351.69448   6694044.84547  22122663.1314   22122670.6134   22122663.038
        50.0004         45.0004
  -5590493.87747  -4307442.37646  23959281.1744   23959287.7314   23959280.632
        44.0004         40.0004
 -26739256.39948 -20782218.21748  20678590.2604   20678595.5634   20678589.713
        53.0004         48.0004
 14  5 25  1 19  0.0000000  0 11G07G28G08G17G02G26G09G10G30G05G04
  -2363235.28247  -1828767.28446  24349243.0384   24349247.7934   24349242.199
        42.0004         37.0004
 -14767318.08548 -11509318.93947  21310785.7944   21310791.0574   21310786.066
        51.0004         46.0004
  -8427785.05047  -6556705.70447  22163661.1964   22163667.3204   22163661.836
        47.0004         43.0004
  -6853671.41047  -5292579.17646  23986694.2644   23986701.7494   23986693.968
        45.0004         40.0004
 -14499611.99348 -11287688.68247  21500832.7774   21500836.5114   21500833.127
        51.0004         47.0004
    427145.60347    344431.26046  24491700.6794   24491707.9764   24491701.043
        43.0004         39.0004
   9239350.41848   7200777.91047  21875370.7094   21875375.2924   21875370.062
        50.0004         46.0004
 -22238601.30748 -17316276.86047  21129767.2884   21129773.2164   21129768.091
        52.0004         47.0004
   8680112.76048   6761650.86547  22139172.6984   22139180.3824   22139173.109
        50.0004         45.0004
  -5684318.79947  -4380552.59846  23941426.4374   23941432.3134   23941426.596
        44.0004         40.0004
 -26695742.55748 -20748311.33448  20686870.9014   20686876.1004   20686870.400
        53.0004         48.0004
 14  5 25  1 19 30.0000000  0 11G07G28G08G17G02G26G09G10G30G05G04
  -2258648.97347  -1747271.55046  24369144.4604   24369148.9964   24369144.406
        42.0004         37.0004
 -14800174.99648 -11534921.69747  21304533.5514   21304538.4864   21304534.048
        51.0004         46.0004
  -8327048.31847  -6478209.56747  22182830.8024   22182837.4734   22182831.577
        47.0004         43.0004
  -6844979.48547  -5285806.26246  23988348.2144   23988355.2794   23988348.384
        45.0004         40.0004
 -14509512.68648 -11295403.50047  21498949.0224   21498953.0304   21498949.348
        51.0004         47.0004
    439038.81947    353698.77546  24493964.3454   24493972.7584   24493963.530
        43.0004         39.0004
   9325374.13448   7267809.37047  21891739.9234   21891744.6084   21891739.519
        50.0004         46.0004
 -22294926.03148 -17360166.24347  21119049.3724   21119054.8224   21119049.936
        52.0004         47.0004
   8767052.25548   6829395.91047  22155717.3344   22155724.6384   22155716.846
        50.0004         45.0004
  -5778209.54947  -4453714.12346  23923559.6214   23923566.4954   23923559.541
        44.0004         40.0004
 -26651827.15848 -20714091.55648  20695227.5974   20695233.1214   20695226.897
        53.0004         48.0004
 14  5 25  1 20  0.0000000  0 11G07G28G08G17G02G26G09G10G30G05G04
  -2154136.93247  -1665833.69546  24389032.4854   24389037.4604   24389032.358
        42.0004         37.0004
 -14832643.17248 -11560221.54347  21298355.0494   21298359.7404   21298355.206
        51.0004         46.0004
  -8226119.25147  -6399563.54547  22202036.3144   22202042.8974   22202037.546
        47.0004         43.0004
  -6836527.66847  -5279220.45246  23989957.2044   23989964.0984   23989956.391
        45.0004         41.0004
 -14518982.73648 -11302782.75547  21497146.1794   21497150.4304   21497146.943
        51.0004         47.0004
    450799.00747    362862.63646  24496201.7164   24496208.5054   24496201.676
        43.0004         38.0004
   9411559.58548   7334966.85747  21908140.2834   21908144.7244   21908140.228
        50.0004         46.0004
 -22350950.11648 -17403821.35547  21108387.9814   21108394.1674   21108388.737
        52.0004         47.0004
   8854165.95448   6897276.71047  22172294.2414   22172301.8354   22172294.192
        50.0004         45.0004
  -5872165.26947  -4526926.26646  23905680.6384   23905686.4824   23905680.158
        44.0004         40.0004
 -26607513.84248 -20679561.71348  20703660.3474   20703665.4794   20703659.852
        53.0004         48.0004
 14  5 25  1 20 30.0000000  0 11G07G28G08G17G02G26G09G10G30G05G04
  -2049700.26747  -1584454.57946  24408906.1574   24408911.2684   24408905.600
        42.0004         37.0004
 -14864718.55648 -11585215.31847  21292250.9674   21292256.6594   21292251.577
        51.0004         46.0004
  -8124999.58347  -6320769.01347  22221279.0064   22221285.5864   22221279.623
        47.0004         42.0004
  -6828314.29947  -5272820.43946  23991519.7534   23991526.5674   23991519.216
        45.0004         41.0004
 -14528021.60348 -11309826.01847  21495426.5554   21495430.0174   21495427.155
        51.0004         47.0004
    462425.89847    371922.61446  24498414.9174   24498421.8564   24498413.462
        43.0004         38.0004
   9497905.37648   7402249.28347  21924571.5834   21924576.0974   21924571.655
        50.0004         46.0004
 -22406668.96648 -17447238.62747  21097785.1474   21097791.1924   21097785.970
        52.0004         47.0004
   8941452.44848   6965292.14647  22188904.6524   22188912.1234   22188904.514
        50.0004         45.0004
  -5966182.29247  -4600186.19946  23887789.9274   23887795.8184   23887790.156
        44.0004         40.0004
 -26562803.71348 -20644722.65348  20712168.0824   20712173.3304   20712167.736
        53.0004         48.0004
 14  5 25  1 21  0.0000000  0 11G07G28G08G17G02G26G09G10G30G05G04
  -1945343.86347  -1503137.98746  24428764.9064   24428771.1244   24428763.694
        42.0004         37.0004
 -14896401.10548 -11609902.98347  21286222.4854   21286226.8154   21286222.224
        51.0004         46.0004
  -8023695.35847  -6241830.66647  22240557.0864   22240563.5204   22240557.341
        47.0004         42.0004
  -6820341.77047  -5266608.09446  23993036.5084   23993044.7254   23993036.622
        45.0004         41.0004
 -14536632.71848 -11316535.97347  21493788.2054   21493791.3154   21493788.394
        51.0004         47.0004
    473915.15347    380875.34646  24500601.5454   24500607.4844   24500599.989
        43.0004         38.0004
   9584405.74348   7469652.16747  21941031.9574   21941037.2754   21941031.673
        50.0004         45.0004
 -22462082.30448 -17490417.83647  21087240.4994   21087246.7424   21087241.098
        52.0004         47.0004
   9028906.29748   7033437.99147  22205546.0544   22205552.8074   22205546.385
        49.0004         45.0004
  -6060261.15947  -4673494.29846  23869886.6544   23869893.4354   23869887.521
        45.0004         40.0004
 -26517701.63148 -20609578.18848  20720750.9994   20720756.6654   20720750.347
        53.0004         48.0004
 14  5 25  1 21 30.0000000  0 11G07G28G08G17G02G26G09G10G30G05G04
  -1841066.95447  -1421883.35046  24448606.9614   24448612.9714   24448606.688
        42.0004         37.0004
 -14927685.43948 -11634280.35347  21280268.9454   21280273.9524   21280269.066
        51.0004         46.0004
  -7922207.17247  -6162748.96747  22259870.7844   22259874.9294   22259870.234
        47.0004         42.0004
  -6812606.75447  -5260580.82846  23994508.4794   23994516.3574   23994508.374
        45.0004         41.0004
 -14544814.16648 -11322911.11947  21492231.2894   21492234.9204   21492231.619
        51.0004         47.0004
    485267.83147    389721.66646  24502760.3194   24502768.8134   24502761.229
        43.0004         38.0004
   9671060.49348   7537175.34747  21957521.8984   21957526.4404   21957521.492
        50.0004         45.0004
 -22517184.57548 -17533354.65747  21076755.0744   21076760.5144   21076755.514
        52.0004         47.0004
   9116527.36548   7101714.14447  22222220.3704   22222227.6204   22222219.790
        49.0004         45.0004
  -6154397.24147  -4746846.98346  23851974.2314   23851979.6444   23851973.617
        45.0004         40.0004
 -26472207.52448 -20574128.24648  20729407.9034   20729413.2544   20729407.493
        53.0004         48.0004
 14  5 25  1 22  0.0000000  0 11G07G28G08G17G02G26G09G10G30G05G04
  -1736873.52647  -1340693.78046  24468434.6654   24468440.8054   24468434.232
        42.0004         37.0004
 -14958570.58448 -11658346.67647  21274391.6564   21274396.6994   21274391.861
        51.0004         46.0004
  -7820540.29247  -6083528.03947  22279216.4434   22279223.2484   22279217.045
        47.0004         42.0004
  -6805111.50147  -5254740.39046  23995935.6024   23995942.7104   23995935.162
        45.0004         41.0004
 -14552568.23848 -11328953.24447  21490755.1584   21490759.0074   21490755.787
        51.0004         47.0004
    496480.66947    398459.01746  24504894.4014   24504902.6004   24504894.653
        43.0004         38.0004
   9757864.99448   7604815.21447  21974039.9304   21974045.0194   21974040.187
        50.0004         45.0004
 -22571974.66148 -17576048.21447  21066328.5034   21066334.7124   21066329.322
        52.0004         47.0004
   9204311.22448   7170117.14447  22238925.2784   22238932.9394   22238924.918
        49.0004         45.0004
  -6248589.50347  -4820243.45346  23834049.8464   23834055.2434   23834049.007
        45.0004         41.0004
 -26426325.26148 -20538375.83948  20738139.0334   20738144.7674   20738138.762
        52.0004         48.0004
 14  5 25  1 22 30.0000000  0 11G07G28G08G17G02G26G09G10G30G05G04
  -1632764.48147  -1259569.97046  24488247.4834   24488252.7764   24488246.718
        42.0004         37.0004
 -14989052.71648 -11682098.96047  21268591.0264   21268596.0214   21268591.376
        51.0004         46.0004
  -7718696.36247  -6004169.13147  22298596.5024   22298603.4184   22298596.794
        47.0004         42.0004
  -6797853.80847  -5249085.07046  23997316.6904   23997323.6464   23997316.060
        45.0004         40.0004
 -14559894.78448 -11334662.23647  21489361.4934   21489364.6464   21489361.729
        51.0004         47.0004
    507553.44147    407087.22146  24507001.5594   24507008.6824   24507000.749
        43.0004         39.0004
   9844817.57748   7672570.47047  21990586.4824   21990591.4654   21990586.281
        50.0004         45.0004
 -22626447.92848 -17618494.90147  21055962.2694   21055968.9464   21055963.276
        52.0004         47.0004
   9292256.48748   7238645.91147  22255660.2644   22255667.2644   22255660.280
        49.0004         45.0004
  -6342834.16347  -4893680.76746  23816115.0744   23816121.1364   23816114.813
        45.0004         40.0004
 -26380055.88748 -20502321.79848  20746943.9824   20746949.8074   20746943.572
        52.0004         48.0004
 14  5 25  1 23  0.0000000  0 11G07G28G08G17G02G26G09G10G30G05G04
  -1528736.32447  -1178509.18346  24508042.8994   24508050.2044   24508042.482
        42.0004         37.0004
 -15019122.95648 -11705530.29647  21262868.4004   21262874.5854   21262869.440
        51.0004         46.0004
  -7616672.70847  -5924670.18547  22318011.0004   22318017.5894   22318011.103
        47.0004         42.0004
  -6790827.47747  -5243610.05546  23998653.5084   23998660.8004   23998652.935
        45.0004         41.0004
 -14566788.67148 -11340034.08747  21488049.7444   21488052.9554   21488049.783
        52.0004         47.0004
    518490.37847    415609.56646  24509083.4384   24509089.8414   24509084.306
        43.0004         39.0004
   9931921.17148   7740443.39647  22007161.1914   22007166.9874   22007161.917
        50.0004         45.0004
 -22680595.54848 -17660687.83747  21045659.2454   21045664.4044   21045659.384
        52.0004         47.0004
   9380366.24748   7307302.85747  22272427.8564   22272434.1274   22272426.859
        49.0004         45.0004
  -6437123.10147  -4967152.58046  23798173.0884   23798178.3514   23798172.115
        45.0004         40.0004
 -26333396.22548 -20465963.62848  20755822.8354   20755828.5384   20755822.572
        52.0004         48.0004
 14  5 25  1 23 30.0000000  0 11G07G28G08G17G02G26G09G10G30G05G04
  -1424807.76747  -1097526.02046  24527819.2754   24527826.2844   24527819.356
        42.0004         37.0004
 -15048795.83048 -11728651.98547  21257222.9124   21257227.4564   21257222.639
        51.0004         47.0004
  -7514489.08547  -5845046.59447  22337456.4974   22337461.9804   22337456.400
        47.0004         42.0004
  -6784048.40747  -5238327.68946  23999943.6424   23999950.5694   23999942.973
        45.0004         40.0004
 -14573267.38648 -11345082.42847  21486816.4734   21486820.0814   21486816.851
        52.0004         47.0004
    529273.25447    424011.86546  24511136.0724   24511142.0914   24511135.198
        43.0004         39.0004
  10019156.23948   7808418.76947  22023762.1374   22023767.0754   22023762.405
        50.0004         45.0004
 -22734431.05848 -17702637.56547  21035414.2194   21035420.2524   21035414.623
        52.0004         47.0004
   9468621.16848   7376072.91947  22289221.6914   22289229.1094   22289221.586
        49.0004         45.0004
  -6531470.57847  -5040670.01146  23780218.1824   23780224.3144   23780218.075
        45.0004         40.0004
 -26286364.98348 -20429315.92748  20764772.3744   20764778.4914   20764772.098
        52.0004         48.0004
 14  5 25  1 24  0.0000000  0 11G07G28G08G17G02G26G09G10G30G05G04
  -1320968.76147  -1016612.63446  24547578.5634   24547588.0384   24547579.700
        42.0004         37.0004
 -15078056.19248 -11751452.24347  21251654.3024   21251658.8764   21251654.592
        51.0004         47.0004
  -7412136.73147  -5765291.52347  22356932.6554   22356939.1474   22356933.029
        47.0004         42.0004
  -6777504.51047  -5233228.58946  24001189.0194   24001195.5994   24001188.568
        45.0004         41.0004
 -14579319.53748 -11349798.37747  21485665.0254   21485668.4204   21485665.561
        52.0004         47.0004
    539912.74247    432302.45646  24513159.2704   24513167.0044   24513158.918
        43.0004         39.0004
  10106531.83648   7876503.64347  22040388.9864   22040394.0174   22040388.983
        50.0004         45.0004
 -22787939.62348 -17744332.53547  21025231.5494   21025237.3534   21025232.146
        52.0004         47.0004
   9557030.68048   7444963.44347  22306045.4904   22306052.7314   22306045.043
        49.0004         45.0004
  -6625862.07147  -5114221.73846  23762256.5284   23762262.6644   23762255.869
        45.0004         40.0004
 -26238952.74448 -20392371.34248  20773794.6424   20773800.5544   20773794.626
        52.0004         48.0004
 14  5 25  1 24 30.0000000  0 11G07G28G08G17G02G26G09G10G30G05G04
  -1217224.63146   -935773.19346  24567322.3224   24567326.5954   24567321.510
        41.0004         37.0004
 -15106904.76048 -11773931.62347  21246164.6294   21246168.8684   21246164.897
        51.0004         47.0004
  -7309621.94947  -5685409.87547  22376440.4874   22376447.2444   22376441.000
        47.0004         42.0004
  -6771198.57847  -5228314.90846  24002388.0494   24002395.9664   24002388.099
        45.0004         41.0004
 -14584949.27448 -11354185.18147  21484593.9214   21484597.4104   21484593.923
        52.0004         47.0004
    550404.04947    440477.56446  24515155.9584   24515162.7894   24515155.049
        43.0004         39.0004
  10194041.97948   7944693.35247  22057041.4674   22057046.6444   22057041.956
        50.0004         45.0004
 -22841121.08648 -17785772.62147  21015111.7434   21015117.3174   21015112.390
        52.0004         47.0004
   9645588.85248   7513969.80547  22322897.7384   22322903.6284   22322897.250
        49.0004         45.0004
  -6720298.20347  -5187808.24946  23744286.5564   23744290.6174   23744284.865
        45.0004         40.0004
 -26191165.02648 -20355134.17048  20782888.5884   20782894.4014   20782888.260
        52.0004         48.0004
 14  5 25  1 25  0.0000000  0 11G07G28G08G17G02G26G09G10G30G05G04
  -1113577.66846   -855009.46046  24587044.6514   24587051.5344   24587044.182
        41.0004         37.0004
 -15135339.25248 -11796088.33847  21240753.8874   21240758.9014   21240753.565
        51.0004         47.0004
  -7206948.45447  -5605404.56547  22395979.2094   22395985.0144   22395979.339
        46.0004         42.0004
  -6765130.35447  -5223586.44746  24003544.1384   24003550.2214   24003543.317
        45.0004         41.0004
 -14590157.76248 -11358243.73647  21483602.8064   21483606.2234   21483603.539
        52.0004         47.0004
    560745.32447    448535.75746  24517123.4504   24517129.8164   24517124.067
        43.0004         39.0004
  10281683.41048   8012985.36247  22073718.9774   22073724.8924   22073719.325
        50.0004         45.0004
 -22893973.04148 -17826955.94747  21005054.9184   21005059.5614   21005054.818
        52.0004         47.0004
   9734292.57048   7583089.57547  22339776.5664   22339785.1954   22339776.976
        49.0004         44.0004
  -6814776.94347  -5261427.96946  23726307.2334   23726312.0244   23726306.552
        45.0004         40.0004
 -26143004.48248 -20317606.49548  20792053.2924   20792058.9124   20792052.859
        52.0004         48.0004
 14  5 25  1 25 30.0000000  0 11G07G28G08G17G02G26G09G10G30G05G04
  -1010029.28247   -774322.53746  24606749.3124   24606757.7714   24606749.125
        42.0004         37.0004
 -15163356.34948 -11817919.81547  21235421.8924   21235427.5484   21235422.674
        51.0004         47.0004
  -7104118.44047  -5525277.29147  22415547.6694   22415552.5404   22415547.480
        46.0004         42.0004
  -6759298.65147  -5219042.27546  24004653.6264   24004660.1974   24004652.762
        45.0004         41.0004
 -14594945.03548 -11361974.07147  21482691.6324   21482695.0974   21482691.710
        52.0004         47.0004
    570935.85047    456476.49546  24519062.1414   24519069.2114   24519061.798
        43.0004         38.0004
  10369454.10448   8081378.10347  22090421.5474   22090426.3404   22090421.562
        50.0004         45.0004
 -22946491.62848 -17867879.49747  20995060.4704   20995066.4964   20995060.999
        52.0004         47.0004
   9823139.99048   7652321.31847  22356684.7344   22356691.3224   22356683.781
        49.0004         44.0004
  -6909295.40347  -5335078.63946  23708320.5884   23708326.8184   23708321.050
        45.0004         41.0004
 -26094472.82548 -20279789.63948  20801288.4844   20801293.8734   20801288.366
        52.0004         48.0004
 14  5 25  1 26  0.0000000  0 11G07G28G08G17G02G26G09G10G30G05G04
   -906580.83846   -693713.49646  24626435.8454   24626442.4014   24626434.569
        41.0004         37.0004
 -15190952.55948 -11839423.33447  21230170.8464   21230175.8654   21230170.726
        51.0004         47.0004
  -7001134.12947  -5445029.78347  22435145.3504   22435149.5754   22435144.470
        46.0004         42.0004
  -6753702.48047  -5214681.63046  24005718.3154   24005724.6914   24005717.508
        45.0004         41.0004
 -14599311.16348 -11365376.23747  21481860.0594   21481864.2844   21481861.307
        52.0004         47.0004
    580975.15047    464299.39946  24520972.7124   24520980.6344   24520972.862
        43.0004         38.0004
  10457352.31048   8149870.20347  22107148.4604   22107153.7604   22107147.836
        50.0004         45.0004
 -22998672.70548 -17908540.06247  20985130.0474   20985136.8054   20985131.080
        52.0004         47.0004
   9912129.38748   7721663.69747  22373617.4114   22373625.5764   22373618.104
        49.0004         44.0004
  -7003849.78647  -5408757.30146  23690327.4354   23690333.0444   23690326.913
        45.0004         41.0004
 -26045571.37848 -20241684.63548  20810594.0054   20810600.0844   20810593.992
        52.0004         48.0004
 14  5 25  1 26 30.0000000  0 11G07G28G08G17G02G26G09G10G30G05G04
   -803238.48046   -613187.11246  24646100.7964   24646108.5624   24646100.754
        41.0004         37.0004
 -15218128.93248 -11860599.70447  21224999.4714   21225004.1024   21224999.505
        51.0004         47.0004
  -6898003.12647  -5364667.96247  22454769.4524   22454774.5154   22454769.790
        46.0004         42.0004
  -6748344.83147  -5210506.84446  24006738.0484   24006744.7644   24006737.530
        46.0004         41.0004
 -14603261.42348 -11368454.35347  21481109.4294   21481112.8754   21481109.540
        52.0004         47.0004
    590857.32547    471999.84646  24522853.5914   24522860.4524   24522853.889
        43.0004         38.0004
  10545370.84848   8218456.07447  22123897.7024   22123902.0364   22123897.242
        50.0004         45.0004
 -23050517.55148 -17948938.63047  20975264.4824   20975270.5264   20975265.515
        52.0004         47.0004
  10001253.78848   7791111.28347  22390579.0244   22390585.0154   22390578.160
        49.0004         44.0004
  -7098441.94947  -5482465.40146  23672327.6394   23672332.6404   23672326.314
        45.0004         41.0004
 -25996307.02548 -20203296.84348  20819968.9434   20819974.7094   20819968.500
        52.0004         48.0004
 14  5 25  1 27  0.0000000  0 11G07G28G08G17G02G26G09G10G30G05G04
   -699999.12747   -532740.99446  24665747.0974   24665753.4064   24665746.696
        42.0004         37.0004
 -15244878.11348 -11881443.19547  21219908.9504   21219914.1704   21219909.202
        51.0004         47.0004
  -6794723.47147  -5284190.32347  22474423.1644   22474429.1294   22474423.220
        46.0004         42.0004
  -6743220.17447  -5206513.61346  24007713.2794   24007719.7104   24007712.853
        46.0004         41.0004
 -14606791.41348 -11371204.98347  21480437.5674   21480441.2124   21480437.526
        52.0004         47.0004
    600586.14247    479580.79846  24524704.8364   24524712.3684   24524704.342
        43.0004         38.0004
  10633511.91648   8287137.41647  22140670.1794   22140675.5644   22140669.829
        50.0004         45.0004
 -23102018.35948 -17989069.11247  20965464.6814   20965470.4294   20965465.061
        52.0004         47.0004
  10090515.59848   7860665.93147  22407563.8634   22407572.6774   22407563.553
        49.0004         44.0004
  -7193064.17147  -5556196.92646  23654321.2904   23654326.1954   23654320.437
        45.0004         41.0004
 -25946677.09148 -20164624.18348  20829413.2094   20829418.4994   20829412.865
        52.0004         48.0004
 14  5 25  1 27 30.0000000  0 11G07G28G08G17G02G26G09G10G30G05G04
   -596870.02946   -452380.78846  24685372.4584   24685378.8104   24685371.462
        41.0004         36.0004
 -15271202.77748 -11901955.89147  21214899.4544   21214904.5014   21214900.150
        51.0004         47.0004
  -6691303.01347  -5203602.96247  22494102.7944   22494108.8474   22494103.707
        46.0004         42.0004
  -6738333.46147  -5202705.78446  24008642.7174   24008650.0354   24008642.819
        46.0004         41.0004
 -14609907.00448 -11373632.70647  21479844.1424   21479848.1214   21479844.685
        52.0004         47.0004
    610155.20947    487037.27446  24526524.8974   24526533.0384   24526524.534
        43.0004         39.0004
  10721767.73148   8355908.17747  22157464.8464   22157469.5644   22157464.530
        49.0004         45.0004
 -23153176.99848 -18028932.96147  20955729.1624   20955735.0584   20955730.116
        52.0004         47.0004
  10179907.28948   7930321.78247  22424575.5054   22424581.9164   22424574.708
        49.0004         44.0004
  -7287719.22547  -5629954.03046  23636308.6544   23636313.2574   23636308.532
        45.0004         41.0004
 -25896688.79848 -20125672.28548  20838926.1134   20838931.0094   20838925.349
        52.0004         48.0004
 14  5 25  1 28  0.0000000  0 11G07G28G08G17G02G26G09G10G30G05G04
   -493849.46146   -372105.17746  24704975.9044   24704981.6874   24704975.904
        41.0004         36.0004
 -15297096.51048 -11922132.80247  21209972.3494   21209977.0394   21209972.522
        51.0004         47.0004
  -6587741.60547  -5122905.77746  22513810.5414   22513815.1584   22513810.760
        46.0004         41.0004
  -6733680.40547  -5199080.02146  24009528.2324   24009535.6574   24009528.080
        46.0004         41.0004
 -14612605.73948 -11375735.60847  21479331.0194   21479334.4794   21479330.924
        52.0004         47.0004
    619566.57247    494370.87346  24528316.0964   24528324.0094   24528316.056
        43.0004         38.0004
  10810139.03648   8424768.93847  22174281.8644   22174286.3034   22174281.094
        49.0004         45.0004
 -23203986.80948 -18068525.00647  20946060.7874   20946066.3244   20946061.151
        52.0004         47.0004
  10269429.75048   8000079.53247  22441610.2194   22441617.3844   22441610.477
        49.0004         44.0004
  -7382401.07747  -5703732.02346  23618291.1704   23618296.1844   23618290.652
        45.0004         41.0004
 -25846341.33148 -20086440.50648  20848506.6234   20848512.1654   20848506.478
        52.0004         48.0004
 14  5 25  1 28 30.0000000  0 11G07G28G08G17G02G26G09G10G30G05G04
   -390941.24946   -291917.07646  24724558.6714   24724566.0394   24724558.683
        41.0004         36.0004
 -15322559.06148 -11941973.71947  21205126.7424   21205131.9644   21205127.025
        51.0004         47.0004
  -6484044.60547  -5042102.92946  22533541.8154   22533548.9224   22533543.256
        46.0004         41.0004
  -6729262.61147  -5195637.57346  24010368.8494   24010375.7404   24010368.855
        46.0004         41.0004
 -14614890.77748 -11377516.14947  21478896.2954   21478899.3204   21478896.333
        52.0004         47.0004
    628816.66647    501578.77746  24530076.9474   24530083.8634   24530077.556
        43.0004         38.0004
  10898620.81148   8493715.76247  22191118.3204   22191124.0544   22191118.496
        49.0004         45.0004
 -23254446.96648 -18107844.58347  20936457.6514   20936464.3194   20936458.840
        52.0004         47.0004
  10359078.07548   8069935.37147  22458669.7734   22458677.5574   22458669.701
        49.0004         44.0004
  -7477109.04447  -5777530.37246  23600268.9824   23600274.6054   23600268.224
        45.0004         41.0004
 -25795639.08248 -20046932.27347  20858154.5464   20858160.3704   20858154.513
        52.0004         47.0004
 14  5 25  1 29  0.0000000  0 11G07G28G08G17G02G26G09G10G30G05G04
   -288146.75946   -211817.58845  24744119.7004   24744128.4104   24744120.308
        40.0004         35.0004
 -15347587.27548 -11961476.20247  21200364.0704   21200368.9484   21200364.312
        51.0004         47.0004
  -6380213.64447  -4961195.70246  22553300.8974   22553307.0034   22553301.255
        46.0004         41.0004
  -6725078.35347  -5192377.09546  24011164.9814   24011172.1664   24011164.520
        46.0004         41.0004
 -14616761.87448 -11378974.13747  21478540.0134   21478543.0844   21478540.261
        52.0004         47.0004
    637905.19547    508660.79746  24531806.6854   24531813.9624   24531805.620
        43.0004         38.0004
  10987211.42048   8562747.39147  22207976.9014   22207982.5964   22207976.701
        49.0004         45.0004
 -23304553.34548 -18146888.49647  20926922.8554   20926928.4944   20926924.082
        52.0004         47.0004
  10448850.91548   8139888.22347  22475754.2234   22475760.4494   22475752.676
        49.0004         44.0004
  -7571839.90547  -5851346.55546  23582242.7484   23582246.6084   23582241.662
        45.0004         41.0004
 -25744583.36748 -20007148.62248  20867870.4854   20867876.2204   20867870.308
        52.0004         48.0004
 14  5 25  1 29 30.0000000  0 11G07G28G08G17G02G26G09G10G30G05G04
   -185468.90746   -131809.01745  24763659.6704   24763665.2954   24763658.961
        40.0004         35.0004
 -15372179.25248 -11980638.75347  21195684.1694   21195689.2164   21195684.571
        51.0004         47.0004
  -6276253.52347  -4880187.82546  22573085.0124   22573090.2654   22573084.372
        46.0004         41.0004
  -6721128.14947  -5189298.99646  24011916.2704   24011923.7424   24011916.246
        46.0004         41.0004
 -14618221.61748 -11380111.58447  21478262.4694   21478265.4414   21478262.915
        52.0004         47.0004
    646829.37747    515614.78046  24533503.8774   24533511.8854   24533503.149
        43.0004         38.0004
  11075906.56448   8631860.47847  22224854.5604   22224861.2564   22224854.991
        49.0004         44.0004
 -23354304.61448 -18185655.69247  20917455.9624   20917461.9014   20917456.445
        52.0004         47.0004
  10538744.05748   8209934.81447  22492858.0184   22492865.4854   22492858.870
        49.0004         44.0004
  -7666592.13247  -5925179.41146  23564210.5244   23564216.7034   23564210.943
        46.0004         41.0004
 -25693178.38748 -19967092.80448  20877652.7364   20877657.7844   20877652.160
        52.0004         48.0004
 14  5 25  1 30  0.0000000  0 11G07G28G08G17G02G26G09G10G30G05G04
    -82910.19246    -51893.29245  24783175.7554   24783182.8664   24783175.482
        40.0004         35.0004
 -15396332.78448 -11999459.66747  21191088.2864   21191092.8564   21191088.286
        51.0004         47.0004
  -6172167.35947  -4799081.74446  22592891.2864   22592897.3844   22592891.830
        46.0004         41.0004
  -6717411.86547  -5186403.16346  24012623.3124   24012631.6854   24012623.047
        46.0004         41.0004
 -14619271.03148 -11380929.30047  21478062.4824   21478066.1924   21478062.796
        52.0004         47.0004
    655587.74747    522439.54946  24535170.9304   24535177.7344   24535170.732
        43.0004         38.0004
  11164703.39748   8701052.80747  22241752.0484   22241757.9304   22241752.285
        49.0004         44.0004
 -23403697.59048 -18224143.70048  20908056.5654   20908062.7034   20908057.250
        52.0004         48.0004
  10628754.90248   8280073.13247  22509987.7204   22509995.4564   22509987.333
        49.0004         44.0004
  -7761363.22947  -5999026.96046  23546177.9424   23546182.0334   23546176.388
        46.0004         41.0004
 -25641426.46348 -19926766.64948  20887500.4394   20887506.5304   20887500.145
        52.0004         48.0004
 14  5 25  1 30 30.0000000  0 11G07G28G08G17G02G26G09G10G30G05G04
     19527.48746     27928.12145  24802669.8564   24802674.9254   24802668.661
        39.0004         34.0004
 -15420045.50348 -12017937.08147  21186575.9314   21186580.5944   21186575.947
        51.0004         47.0004
  -6067958.29547  -4717879.88546  22612721.3784   22612727.7674   22612722.322
        46.0004         41.0004
  -6713929.15847  -5183689.34446  24013286.4764   24013294.4004   24013286.113
        46.0004         41.0004
 -14619911.35448 -11381428.24547  21477940.4444   21477944.2374   21477940.507
        52.0004         47.0004
    664178.78947    529133.90846  24536805.1204   24536813.3134   24536806.472
        43.0004         39.0004
  11253598.90348   8770322.03147  22258668.8354   22258674.5744   22258668.978
        49.0004         44.0004
 -23452729.51148 -18262350.37348  20898726.3814   20898731.7784   20898727.024
        52.0004         48.0004
  10718880.67548   8350300.98747  22527138.0394   22527145.4624   22527137.742
        48.0004         44.0004
  -7856151.02247  -6072887.50946  23528139.3884   23528144.1204   23528138.951
        46.0004         41.0004
 -25589330.23648 -19886172.20048  20897414.2474   20897419.9664   20897413.838
        52.0004         48.0004
 14  5 25  1 31  0.0000000  0 11G07G28G08G17G02G26G09G10G30G05G04
    121843.46246    107654.70045  24822140.1154   24822142.8854   24822138.675
        39.0004         34.0004
 -15443313.88348 -12036068.26347  21182147.8824   21182152.8674   21182148.148
        51.0004         47.0004
  -5963628.30947  -4636583.79146  22632574.9704   22632581.6594   22632574.749
        46.0004         41.0004
  -6710677.92947  -5181155.89246  24013905.6434   24013913.0284   24013905.140
        46.0004         41.0004
 -14620142.07648 -11381608.02247  21477896.4234   21477900.3054   21477897.308
        52.0004         47.0004
    672602.32247    535697.75946  24538408.9574   24538416.3604   24538408.514
        43.0004         39.0004
  11342591.63148   8839667.00247  22275602.9184   22275609.0024   22275603.495
        49.0004         44.0004
 -23501396.13748 -18300272.39848  20889465.2014   20889471.3994   20889465.715
        52.0004         48.0004
  10809119.96248   8420617.30947  22544310.0134   22544317.5584   22544310.027
        48.0004         44.0004
  -7950951.45647  -6146757.91146  23510099.4274   23510105.2794   23510098.525
        46.0004         41.0004
 -25536890.91448 -19845310.41348  20907393.0654   20907399.0354   20907392.817
        52.0004         48.0004
 14  5 25  1 31 30.0000000  0 11G07G28G08G17G02G26G09G10G30G05G04
    224034.28046    187283.77645  24841584.1414   24841597.2244   24841585.623
        39.0004         34.0004
 -15466136.76248 -12053852.30447  21177805.1054   21177810.0824   21177805.027
        51.0004         47.0004
  -5859181.60147  -4555196.77346  22652451.0034   22652457.4924   22652450.601
        46.0004         41.0004
  -6707658.96147  -5178803.42246  24014480.4374   24014487.5724   24014479.789
        46.0004         41.0004
 -14619966.14748 -11381470.92347  21477930.3144   21477933.0354   21477930.638
        52.0004         47.0004
    680855.61747    542128.95746  24539978.6774   24539985.8424   24539978.514
        43.0004         38.0004
  11431677.49248   8909084.56347  22292556.4384   22292560.8114   22292555.763
        49.0004         44.0004
 -23549696.01048 -18337908.64948  20880273.9334   20880279.8374   20880275.006
        52.0004         48.0004
  10899468.84048   8491019.02647  22561503.5114   22561509.6514   22561502.488
        48.0004         44.0004
  -8045763.09147  -6220637.04446  23492057.0594   23492062.6324   23492056.558
        46.0004         41.0004
 -25484112.34548 -19804184.26648  20917436.6654   20917442.3124   20917436.133
        52.0004         48.0004
 14  5 25  1 32  0.0000000  0 11G07G28G08G17G02G26G09G10G30G05G04
    326098.01946    266813.78345  24861006.7894   24861014.6324   24861009.151
        39.0004         34.0004
 -15488511.67548 -12071287.28847  21173547.1674   21173551.8824   21173547.259
        51.0004         47.0004
  -5754621.29647  -4473721.22846  22672349.2674   22672353.3534   22672348.137
        46.0004         41.0004
  -6704871.64947  -5176631.45646  24015010.7594   24015017.7714   24015010.010
        46.0004         41.0004
 -14619384.42348 -11381017.62047  21478040.6184   21478044.4944   21478040.812
        52.0004         47.0004
    688937.54747    548426.61846  24541517.3574   24541523.6424   24541517.102
        43.0004         38.0004
  11520853.81348   8978572.58947  22309525.6564   22309531.7194   22309525.651
        49.0004         44.0004
 -23597625.87148 -18375256.57248  20871153.7944   20871159.3124   20871154.051
        52.0004         48.0004
  10989924.75448   8561504.14047  22578714.8314   22578723.3094   22578715.353
        48.0004         43.0004
  -8140583.77747  -6294523.23446  23474013.6214   23474018.5954   23474012.749
        46.0004         41.0004
 -25430997.06048 -19762795.75247  20927543.9204   20927549.7924   20927543.636
        52.0004         47.0004
 14  5 25  1 32 30.0000000  0 11G07G28G08G17G02G26G09G10G30G05G04
    428032.26746    346242.92545  24880407.2334   24880411.7684   24880404.750
        38.0004         34.0004
 -15510437.24948 -12088372.13447  21169374.8064   21169379.2054   21169375.087
        51.0004         47.0004
  -5649951.73447  -4392160.54646  22692265.2684   22692271.4254   22692266.507
        46.0004         41.0004
  -6702315.76047  -5174639.82346  24015496.5894   24015503.8544   24015496.247
        46.0004         41.0004
 -14618398.98448 -11380249.74147  21478228.2194   21478231.6524   21478228.613
        52.0004         47.0004
    696845.46447    554588.67946  24543021.5804   24543028.7174   24543022.365
        43.0004         38.0004
  11610116.86748   9048128.21747  22326512.2694   22326517.1014   22326512.094
        49.0004         44.0004
 -23645183.97948 -18412314.82548  20862103.0694   20862109.5044   20862104.070
        52.0004         48.0004
  11080484.05248   8632069.82547  22595947.7264   22595955.8604   22595948.242
        48.0004         43.0004
  -8235411.68947  -6368415.07646  23455968.5144   23455974.1104   23455967.351
        46.0004         41.0004
 -25377548.64248 -19721147.64148  20937714.8624   20937720.3864   20937714.641
        52.0004         48.0004
 14  5 25  1 33  0.0000000  0 11G07G28G08G17G02G26G09G10G30G05G04
  -4196424.11746  -3257229.75945  24899776.3144   24899784.9374   24899776.694
        39.0004         34.0004
 -15531910.12048 -12105104.22147  21165288.6194   21165293.6934   21165288.822
        51.0004         47.0004
  -5545174.75347  -4310516.15146  22712204.2804   22712211.3144   22712204.339
        45.0004         41.0004
  -6699989.71847  -5172827.29446  24015938.8914   24015946.7754   24015938.876
        46.0004         41.0004
 -14617009.93648 -11379167.35647  21478493.2194   21478496.2954   21478493.171
        52.0004         47.0004
    704579.34347    560615.14046  24544493.5164   24544500.9574   24544493.605
        43.0004         38.0004
  11699464.80748   9117749.97547  22343515.1164   22343518.3684   22343514.333
        49.0004         44.0004
 -23692366.37648 -18449080.30948  20853125.0034   20853130.6134   20853125.307
        52.0004         48.0004
  11171145.27348   8702714.91347  22613200.6074   22613207.8384   22613200.883
        48.0004         43.0004
  -8330243.22947  -6442309.73247  23437922.7404   23437927.9224   23437921.547
        46.0004         42.0004
 -25323768.39348 -19679240.96447  20947948.8024   20947954.5834   20947948.643
        52.0004         47.0004
 14  5 25  1 33 30.0000000  0 11G07G28G08G17G02G26G09G10G30G05G04
  -4094754.32846  -3178006.70045  24919126.6464   24919133.9874   24919124.647
        39.0004         34.0004
 -15552928.84948 -12121482.43747  21161288.2394   21161293.4544   21161288.738
        51.0004         47.0004
  -5440294.67147  -4228791.43546  22732161.2834   22732168.8264   22732162.475
        45.0004         41.0004
  -6697894.73447  -5171194.80646  24016338.1774   24016345.2124   24016337.581
        46.0004         41.0004
 -14615219.15048 -11377771.93147  21478833.8154   21478836.8814   21478833.967
        52.0004         47.0004
    712136.41747    566503.84346  24545930.8634   24545938.9104   24545930.718
        43.0004         38.0004
  11788893.78348   9187434.88647  22360532.2154   22360537.1624   22360531.884
        49.0004         44.0004
 -23739171.76348 -18485552.02348  20844218.5104   20844223.7804   20844218.755
        52.0004         48.0004
  11261904.45748   8773436.35447  22630471.8924   22630479.6954   22630471.638
        48.0004         43.0004
  -8425077.17847  -6516206.26447  23419875.8554   23419881.8274   23419875.565
        46.0004         42.0004
 -25269660.42848 -19637078.92847  20958245.4154   20958251.2344   20958245.236
        52.0004         47.0004
 14  5 25  1 34  0.0000000  0 11G07G28G08G17G02G26G09G10G30G05G04
  -3993217.89846  -3098887.56145  24938446.3254   24938452.5784   24938446.287
        38.0004         34.0004
 -15573488.94948 -12137503.27947  21157376.0234   21157381.1224   21157376.397
        51.0004         47.0004
  -5335312.38947  -4146987.08546  22752139.6334   22752145.7604   22752139.689
        45.0004         41.0004
  -6696027.78747  -5169740.03746  24016692.6124   24016700.4334   24016692.936
        46.0004         41.0004
 -14613026.27648 -11376063.19047  21479251.4294   21479254.3444   21479250.979
        52.0004         47.0004
    719517.84647    572255.65246  24547335.9264   24547343.0884   24547335.885
        43.0004         38.0004
  11878403.38748   9257182.62547  22377564.3994   22377569.4894   22377565.011
        49.0004         44.0004
 -23785594.50848 -18521725.57348  20835384.2504   20835389.8934   20835384.583
        52.0004         48.0004
  11352761.45448   8844234.00647  22647760.5814   22647769.2304   22647761.053
        48.0004         43.0004
  -8519908.20847  -6590100.51647  23401830.4484   23401835.7734   23401829.868
        46.0004         42.0004
 -25215224.68548 -19594661.47547  20968604.4704   20968609.9604   20968603.880
        52.0004         47.0004
 14  5 25  1 34 30.0000000  0 11G07G28G08G17G02G26G09G10G30G05G04
  -3891820.56546  -3019876.83545  24957741.5914   24957750.4524   24957741.212
        38.0004         33.0004
 -15593592.04548 -12153168.01847  21153550.4764   21153555.4064   21153551.013
        51.0004         47.0004
  -5230234.54047  -4065108.25546  22772135.5304   22772140.8174   22772135.432
        45.0004         41.0004
  -6694391.88747  -5168465.28146  24017004.9234   24017011.5134   24017003.999
        46.0004         41.0004
 -14610436.15448 -11374044.89847  21479743.7434   21479747.0834   21479744.166
        52.0004         47.0004
    726718.33847    577866.48746  24548706.6974   24548713.5084   24548707.040
        43.0004         38.0004
  11967986.87348   9326987.93647  22394612.2544   22394618.5174   22394612.305
        49.0004         44.0004
 -23831635.60048 -18557601.73548  20826622.5564   20826628.6524   20826623.312
        52.0004         48.0004
  11443709.65048   8915102.71547  22665067.6724   22665075.5194   22665068.187
        48.0004         43.0004
  -8614737.72747  -6663993.60147  23383784.9364   23383790.2044   23383784.586
        46.0004         42.0004
 -25160467.66548 -19551993.68247  20979024.1474   20979029.7014   20979023.876
        52.0004         47.0004
 14  5 25  1 35  0.0000000  0 11G07G28G08G17G02G26G09G10G30G05G04
  -3790561.69646  -2940974.00145  24977011.2564   24977019.7164   24977011.017
        39.0004         34.0004
 -15613233.10848 -12168472.72547  21149813.1214   21149818.3444   21149813.278
        51.0004         47.0004
  -5125061.61447  -3983155.33646  22792147.7214   22792155.7664   22792148.991
        45.0004         41.0004
  -6692983.35947  -5167367.69946  24017271.5714   24017279.7674   24017271.676
        45.0004         41.0004
 -14607447.09948 -11371715.75547  21480312.7244   21480316.2454   21480312.561
        52.0004         47.0004
    733739.25147    583337.39546  24550042.3494   24550050.2104   24550041.426
        43.0004         38.0004
  12057644.10948   9396850.71847  22411673.3394   22411679.2264   22411673.344
        48.0004         44.0004
 -23877289.64948 -18593176.30748  20817934.8444   20817940.5454   20817935.443
        52.0004         48.0004
  11534749.23348   8986042.64547  22682392.1724   22682400.3274   22682392.679
        48.0004         43.0004
  -8709560.51947  -6737881.44447  23365741.5134   23365746.4214   23365739.975
        46.0004         42.0004
 -25105389.25648 -19509075.45647  20989505.0554   20989510.6744   20989504.830
        52.0004         47.0004
 14  5 25  1 35 30.0000000  0 11G07G28G08G17G02G26G09G10G30G05G04
  -3689444.91046  -2862181.84845  24996254.3754   24996259.5964   24996253.434
        39.0004         34.0004
 -15632411.59648 -12183416.99747  21146163.6404   21146168.3374   21146163.714
        51.0004         47.0004
  -5019798.50047  -3901132.15846  22812179.8384   22812185.6314   22812180.160
        45.0004         41.0004
  -6691803.58047  -5166448.36146  24017496.9864   24017504.4154   24017496.578
        45.0004         41.0004
 -14604062.56248 -11369078.44247  21480956.7394   21480959.5504   21480957.042
        52.0004         47.0004
    740577.36147    588665.85646  24551342.2624   24551350.6394   24551342.644
        43.0004         38.0004
  12147370.32648   9466767.24147  22428747.3104   22428752.2044   22428747.950
        48.0004         44.0004
 -23922555.65948 -18628448.50748  20809321.2444   20809327.0054   20809321.891
        52.0004         48.0004
  11625875.58048   9057050.17547  22699733.2474   22699740.6364   22699733.380
        48.0004         43.0004
  -8804375.83147  -6811763.46147  23347698.0374   23347703.5004   23347697.604
        46.0004         42.0004
 -25049994.05148 -19465910.36847  21000046.6994   21000052.4504   21000046.317
        52.0004         47.0004
 14  5 25  1 36  0.0000000  0 11G07G28G08G17G02G26G09G10G30G05G04
  -3588469.28446  -2783499.67545  25015468.2554   25015476.2214   25015468.061
        39.0004         34.0004
 -15651122.47748 -12197996.89247  21142603.0824   21142607.7404   21142603.218
        51.0004         47.0004
  -4914445.26747  -3819038.76046  22832228.1604   22832233.8504   22832228.005
        45.0004         40.0004
  -6690848.62247  -5165704.20046  24017678.6664   24017685.8344   24017677.634
        45.0004         41.0004
 -14600280.65648 -11366131.49847  21481675.7874   21481678.9564   21481676.413
        52.0004         47.0004
    747234.37347    593853.20046  24552609.9644   24552617.1794   24552609.801
        43.0004         38.0004
  12237165.91948   9536737.82947  22445834.6874   22445840.9884   22445835.119
        48.0004         44.0004
 -23967427.89648 -18663413.87248  20800782.5644   20800788.1824   20800782.964
        52.0004         48.0004
  11717089.34048   9128125.82247  22717090.2634   22717098.4634   22717089.845
        48.0004         43.0004
  -8899177.90247  -6885635.16947  23329657.2154   23329662.9914   23329657.477
        46.0004         42.0004
 -24994281.61848 -19422498.09347  21010648.4434   21010653.8374   21010647.894
        52.0004         47.0004
 14  5 25  1 36 30.0000000  0 11G07G28G08G17G02G26G09G10G30G05G04
  -3487640.78846  -2704932.20445  25034657.5094   25034663.0964   25034656.295
        39.0004         34.0004
 -15669367.97148 -12212214.15047  21139130.7784   21139136.2814   21139131.028
        51.0004         47.0004
  -4809009.53047  -3736881.06746  22852291.1824   22852297.9664   22852291.826
        45.0004         41.0004
  -6690122.84347  -5165138.63546  24017816.6634   24017823.8284   24017816.449
        45.0004         40.0004
 -14596107.28648 -11362879.50747  21482470.8674   21482473.7224   21482470.508
        52.0004         47.0004
    753704.44347    598894.87246  24553842.2154   24553847.7444   24553841.972
        43.0004         38.0004
  12327023.61948   9606756.80547  22462934.1504   22462939.9794   22462934.617
        48.0004         43.0004
 -24011907.82548 -18698073.54148  20792317.8404   20792323.4274   20792318.389
        52.0004         48.0004
  11808383.09147   9199263.79647  22734462.4504   22734471.1124   22734462.600
        47.0004         43.0004
  -8993968.66147  -6959498.04547  23311619.3854   23311625.8214   23311618.834
        47.0004         42.0004
 -24938258.81148 -19378843.96947  21021309.2134   21021314.2054   21021308.923
        52.0004         47.0004
 14  5 25  1 37  0.0000000  0 11G07G28G08G17G02G26G09G10G30G05G04
  -3386959.01146  -2626479.06945  25053815.2564   25053823.4974   25053815.159
        40.0004         35.0004
 -15687143.65948 -12226065.32947  21135748.5124   21135753.6384   21135748.878
        51.0004         47.0004
  -4703492.03447  -3654659.66446  22872371.6964   22872377.9174   22872371.393
        45.0004         41.0004
  -6689622.81947  -5164748.98546  24017911.2234   24017917.5494   24017910.876
        45.0004         40.0004
 -14591541.20248 -11359321.51247  21483339.2844   21483342.4844   21483339.651
        52.0004         47.0004
    759988.54047    603791.61646  24555038.2294   24555043.5884   24555038.648
        43.0004         38.0004
  12416943.16148   9676823.96647  22480045.6554   22480051.3614   22480045.950
        48.0004         44.0004
 -24055990.71348 -18732423.82948  20783929.1344   20783934.8664   20783930.065
        52.0004         48.0004
  11899756.68247   9270463.98247  22751851.0524   22751858.6104   22751850.694
        47.0004         43.0004
  -9088743.44147  -7033348.47547  23293584.0824   23293590.0514   23293583.487
        46.0004         42.0004
 -24881926.26348 -19334948.47247  21032028.6944   21032034.4614   21032028.553
        52.0004         47.0004
 14  5 25  1 37 30.0000000  0 11G07G28G08G17G02G26G09G10G30G05G04
  -3286426.93646  -2548142.55645  25072947.8444   25072953.5764   25072945.501
        40.0004         35.0004
 -15704447.97948 -12239549.21147  21132455.3414   21132460.8224   21132455.750
        51.0004         47.0004
  -4597896.51947  -3572377.47046  22892465.8294   22892471.5184   22892465.738
        45.0004         40.0004
  -6689348.82647  -5164535.45746  24017963.0844   24017970.6514   24017963.230
        45.0004         40.0004
 -14586584.57848 -11355459.19747  21484282.4434   21484285.7664   21484282.599
        52.0004         47.0004
    766084.56447    608541.83246  24556198.3284   24556203.6534   24556197.133
        43.0004         38.0004
  12506920.93648   9746936.51147  22497167.7844   22497174.0124   22497168.132
        48.0004         44.0004
 -24099674.41348 -18766463.06448  20775616.3264   20775622.4874   20775616.689
        52.0004         48.0004
  11991206.66647   9341723.69147  22769253.0324   22769261.5444   22769253.675
        47.0004         43.0004
  -9183500.33747  -7107184.96647  23275552.3564   23275557.2554   23275552.175
        47.0004         42.0004
 -24825287.41748 -19290814.30747  21042807.0564   21042812.4904   21042806.745
        52.0004         47.0004
 14  5 25  1 38  0.0000000  0 11G07G28G08G17G02G26G09G10G30G05G04
  -3186044.55446  -2469922.68245  25092049.0304   25092055.0744   25092048.162
        40.0004         35.0004
 -15721277.16048 -12252662.84647  21129253.0454   21129257.7574   21129253.493
        52.0004         47.0004
  -4492223.90047  -3490035.19246  22912574.3834   22912579.6524   22912574.406
        45.0004         40.0004
  -6689297.95747  -5164495.79846  24017974.2864   24017980.0784   24017973.147
        45.0004         41.0004
 -14581237.08848 -11351292.31247  21485300.4634   21485303.1184   21485300.504
        52.0004         47.0004
    771993.04747    613145.89246  24557321.1804   24557327.0884   24557320.695
        43.0004         38.0004
  12596956.07348   9817093.75347  22514300.9854   22514305.8824   22514301.107
        48.0004         43.0004
 -24142954.30248 -18800187.63748  20767380.7164   20767386.6234   20767381.353
        52.0004         48.0004
  12082732.27847   9413042.33347  22786671.0524   22786677.6424   22786670.178
        47.0004         43.0004
  -9278234.78847  -7181003.96447  23257525.3454   23257529.9604   23257525.666
        47.0004         42.0004
 -24768343.07348 -19246442.10147  21053643.0914   21053648.9104   21053642.716
        52.0004         47.0004
 14  5 25  1 38 30.0000000  0 11G07G28G08G17G02G26G09G10G30G05G04
  -3085816.24846  -2391822.87345  25111120.4814   25111127.7174   25111121.020
        40.0004         35.0004
 -15737631.93248 -12265406.81547  21126140.6734   21126146.0684   21126140.840
        51.0004         47.0004
  -4386480.60847  -3407637.85046  22932696.7984   22932702.4834   22932696.908
        45.0004         40.0004
  -6689472.39847  -5164631.70046  24017940.4384   24017947.9784   24017939.475
        45.0004         41.0004
 -14575503.20048 -11346824.33547  21486390.8194   21486394.5034   21486391.297
        52.0004         47.0004
    777709.66547    617600.44846  24558408.7054   24558416.7714   24558408.630
        43.0004         38.0004
  12687042.64348   9887291.07547  22531442.8984   22531450.4184   22531443.734
        48.0004         44.0004
 -24185830.73848 -18833597.83248  20759221.3324   20759227.3674   20759221.892
        52.0004         48.0004
  12174327.95047   9484415.57247  22804100.8444   22804108.6144   22804100.358
        47.0004         43.0004
  -9372947.01947  -7254805.65147  23239502.8074   23239507.1334   23239501.367
        47.0004         42.0004
 -24711098.89948 -19201836.25847  21064535.8794   21064541.9404   21064535.652
        52.0004         47.0004
 14  5 25  1 39  0.0000000  0 11G07G28G08G17G02G26G09G10G30G05G04
  -2985741.44646  -2313842.68245  25130164.1304   25130173.3754   25130164.912
        40.0004         35.0004
 -15753507.57548 -12277777.44247  21123119.7924   21123124.8454   21123119.857
        51.0004         47.0004
  -4280666.65547  -3325185.44346  22952832.6484   22952838.7884   22952832.950
        45.0004         40.0004
  -6689869.26547  -5164940.92146  24017864.9914   24017872.5754   24017864.744
        45.0004         41.0004
 -14569381.69948 -11342054.32347  21487555.6684   21487559.2974   21487556.320
        52.0004         47.0004
    783235.98347    621906.71646  24559459.6624   24559467.3384   24559460.347
        43.0004         38.0004
  12777180.67648   9957528.50447  22548598.0304   22548602.1104   22548596.512
        48.0004         43.0004
 -24228298.18548 -18866689.33548  20751139.9614   20751145.8714   20751140.951
        52.0004         48.0004
  12265993.83247   9555843.52147  22821542.5054   22821550.9194   22821543.705
        47.0004         43.0004
  -9467631.39547  -7328585.64047  23221484.5884   23221489.3794   23221484.063
        47.0004         42.0004
 -24653554.58048 -19156996.53547  21075486.6574   21075492.4604   21075486.175
        52.0004         47.0004
 14  5 25  1 39 30.0000000  0 11G07G28G08G17G02G26G09G10G30G05G04
  -2885825.00446  -2235985.87545  25149177.4194   25149183.0964   25149178.611
        40.0004         35.0004
 -15768904.84348 -12289775.30647  21120189.3914   21120195.1624   21120189.751
        51.0004         47.0004
  -4174788.25947  -3242682.82046  22972980.5064   22972985.4094   22972980.912
        45.0004         40.0004
  -6690490.44247  -5165424.92046  24017747.0724   24017753.6174   24017745.985
        45.0004         40.0004
 -14562876.53448 -11336985.35347  21488794.5534   21488796.9034   21488794.343
        52.0004         47.0004
    788567.74147    626061.37046  24560475.4214   24560482.8454   24560475.288
        43.0004         38.0004
  12867364.52848  10027801.63247  22565757.9774   22565764.7844   22565758.334
        48.0004         43.0004
 -24270356.86648 -18899462.32448  20743136.5974   20743142.2074   20743137.512
        52.0004         48.0004
  12357724.44747   9627321.90047  22838999.6284   22839006.9234   22838999.612
        47.0004         42.0004
  -9562288.59047  -7402344.44147  23203471.5094   23203476.3974   23203471.592
        47.0004         42.0004
 -24595716.02448 -19111927.52747  21086492.3104   21086498.2724   21086492.660
        52.0004         47.0004
 14  5 25  1 40  0.0000000  0 11G07G28G08G17G02G26G09G10G30G05G04
  -2786066.69546  -2158252.31446  25168160.0094   25168170.9414   25168161.615
        40.0004         36.0004
 -15783820.14448 -12301397.60947  21117351.1794   21117356.5654   21117351.460
        51.0004         47.0004
  -4068846.83747  -3160131.09546  22993139.7064   22993145.6184   22993140.415
        45.0004         40.0004
  -6691333.41747  -5166081.75546  24017586.2114   24017593.6394   24017585.421
        45.0004         40.0004
 -14555987.66548 -11331617.39347  21490104.2434   21490108.2264   21490104.922
        52.0004         47.0004
    793705.31147    630064.72546  24561452.5324   24561459.7364   24561452.829
        43.0004         38.0004
  12957593.04648  10098109.56047  22582928.2324   22582933.8804   22582928.266
        48.0004         43.0004
 -24312002.70848 -18931913.61448  20735211.6884   20735217.8684   20735212.229
        53.0004         48.0004
  12449518.77347   9698849.93047  22856467.3704   22856474.4884   22856467.710
        47.0004         42.0004
  -9656914.55947  -7476078.90947  23185465.6244   23185469.8024   23185464.224
        47.0004         42.0004
 -24537584.14048 -19066629.96947  21097554.9904   21097560.0324   21097554.662
        52.0004         47.0004
 14  5 25  1 40 30.0000000  0 10G28G08G17G02G26G09G10G30G05G04
 -15798252.01348 -12312643.21047  21114604.8174   21114610.3944   21114605.264
        51.0004         47.0004
  -3962845.95247  -3077533.02546  23013309.5314   23013318.1044   23013311.840
        45.0004         40.0004
  -6692398.18247  -5166911.41246  24017384.2694   24017389.8064   24017383.497
        45.0004         40.0004
 -14548717.24548 -11325952.11347  21491488.1964   21491492.3824   21491488.630
        52.0004         47.0004
    798646.62747    633915.15546  24562392.5714   24562400.7204   24562393.163
        43.0004         38.0004
  13047862.93948  10168449.73147  22600105.8634   22600111.0744   22600105.640
        48.0004         43.0004
 -24353233.64648 -18964041.60348  20727365.6404   20727371.7584   20727366.361
        53.0004         48.0004
  12541373.51947   9770425.04047  22873947.7854   22873953.5434   22873947.357
        47.0004         42.0004
  -9751506.89447  -7549787.19147  23167464.3134   23167469.8384   23167463.501
        47.0004         42.0004
 -24479162.41048 -19021106.54347  21108672.5954   21108678.2074   21108671.965
        52.0004         47.0004
 14  5 25  1 41  0.0000000  0 10G28G08G17G02G26G09G10G30G05G04
 -15812198.75048 -12323510.79547  21111951.4584   21111955.6554   21111951.549
        51.0004         47.0004
  -3856788.89647  -2994891.18846  23033492.6674   23033498.0624   23033493.933
        44.0004         40.0004
  -6693684.13147  -5167913.42846  24017138.9604   24017146.2184   24017138.944
        45.0004         40.0004
 -14541066.79348 -11319990.70847  21492944.1514   21492947.4964   21492944.574
        52.0004         47.0004
    803390.32147    637611.56246  24563296.1934   24563302.3904   24563296.260
        43.0004         38.0004
  13138171.32748  10238819.90047  22617290.8864   22617295.6274   22617290.895
        48.0004         43.0004
 -24394047.06548 -18995844.25348  20719599.0254   20719605.2824   20719599.708
        53.0004         48.0004
  12633285.94947   9842045.09747  22891436.4704   22891444.7064   22891437.346
        47.0004         42.0004
  -9846063.53947  -7623467.65147  23149470.8574   23149475.7134   23149470.514
        47.0004         42.0004
 -24420453.57748 -18975359.40447  21119843.6394   21119849.8194   21119843.504
        51.0004         47.0004
 14  5 25  1 41 30.0000000  0 10G28G08G17G02G26G09G10G30G05G04
 -15825656.42448 -12333997.29247  21109390.2444   21109395.3534   21109390.590
        51.0004         47.0004
  -3750676.72347  -2912206.41946  23053685.9174   23053692.0494   23053686.257
        44.0004         40.0004
  -6695188.62047  -5169085.72946  24016852.3314   24016859.1144   24016852.132
        45.0004         40.0004
 -14533036.06648 -11313732.98647  21494472.2114   21494475.8004   21494472.551
        52.0004         47.0004
    807937.11347    641154.57246  24564161.2704   24564167.6984   24564160.229
        43.0004         38.0004
  13228517.54248  10309219.53447  22634484.1714   22634489.1154   22634483.179
        48.0004         43.0004
 -24434438.32748 -19027317.94948  20711912.7124   20711919.0414   20711913.565
        53.0004         48.0004
  12725255.44147   9913709.61947  22908938.4304   22908945.4204   22908937.903
        47.0004         42.0004
  -9940579.62747  -7697116.50247  23131484.8344   23131489.9084   23131484.509
        47.0004         42.0004
 -24361458.40048 -18929389.13947  21131070.4864   21131076.4454   21131070.130
        51.0004         47.0004
 14  5 25  1 42  0.0000000  0 10G28G08G17G02G26G09G10G30G05G04
 -15838624.93048 -12344102.61547  21106922.4084   21106926.9404   21106922.821
        52.0004         47.0004
  -3644514.22247  -2829482.42246  23073887.4964   23073893.3444   23073888.362
        44.0004         40.0004
  -6696912.72847  -5170429.16346  24016524.4234   24016531.1584   24016524.121
        45.0004         40.0004
 -14524628.15248 -11307181.35147  21496071.7154   21496075.4024   21496072.251
        52.0004         47.0004
    812283.93647    644541.75246  24564989.3924   24564995.5374   24564987.864
        43.0004         38.0004
  13318896.97548  10379645.06947  22651683.1324   22651687.9544   22651682.100
        48.0004         43.0004
 -24474406.58348 -19058462.03548  20704307.5394   20704313.1724   20704307.983
        53.0004         48.0004
  12817277.65147   9985415.22447  22926450.5974   22926456.2224   22926449.452
        47.0004         42.0004
 -10035054.27447  -7770733.07347  23113507.5554   23113512.3654   23113506.296
        47.0004         42.0004
 -24302181.73048 -18883199.52947  21142350.8364   21142356.4254   21142350.227
        51.0004         47.0004
 14  5 25  1 42 30.0000000  0 10G28G08G17G02G26G09G10G30G05G04
 -15851102.46548 -12353825.36147  21104548.1504   21104552.4204   21104548.113
        51.0004         47.0004
  -3538304.84947  -2746721.90646  23094099.9484   23094105.0964   23094099.192
        44.0004         40.0004
  -6698855.75847  -5171943.18246  24016154.8574   24016161.5154   24016154.673
        45.0004         40.0004
 -14515845.32248 -11300337.57947  21497743.3684   21497746.1504   21497743.815
        52.0004         47.0004
    816429.03047    647771.74246  24565777.1254   24565784.2924   24565776.821
        43.0004         38.0004
  13409306.33248  10450093.91647  22668886.7794   22668893.1374   22668886.285
        48.0004         43.0004
 -24513949.75748 -19089274.88148  20696782.4624   20696787.9394   20696783.032
        53.0004         48.0004
  12909349.48647  10057159.49247  22943970.6914   22943977.7454   22943970.194
        47.0004         42.0004
 -10129484.73847  -7844315.20647  23095537.4214   23095542.6304   23095537.233
        47.0004         42.0004
 -24242626.47548 -18836792.84747  21153683.1174   21153689.3934   21153683.063
        51.0004         47.0004
 14  5 25  1 43  0.0000000  0 10G28G08G17G02G26G09G10G30G05G04
 -15863086.82548 -12363163.82547  21102267.1674   21102271.9544   21102267.700
        51.0004         47.0004
  -3432050.91647  -2663926.66946  23114317.9614   23114324.5954   23114318.448
        44.0004         40.0004
  -6701016.16247  -5173626.58346  24015743.1624   24015750.4634   24015743.428
        45.0004         40.0004
 -14506688.52048 -11293202.39747  21499485.3994   21499489.0884   21499486.269
        52.0004         47.0004
    820371.69147    650843.97446  24566527.0964   24566533.5334   24566527.875
        43.0004         38.0004
  13499743.45848  10520564.39047  22686095.7304   22686101.2624   22686096.012
        48.0004         43.0004
 -24553064.77648 -19119754.10548  20689339.0134   20689344.9734   20689339.737
        53.0004         48.0004
  13001468.91447  10128940.84147  22961499.8764   22961506.5344   22961500.375
        47.0004         42.0004
 -10223868.50747  -7917860.95747  23077576.8164   23077582.4834   23077576.773
        47.0004         43.0004
 -24182794.71248 -18790170.70247  21165069.6994   21165074.5474   21165068.993
        51.0004         47.0004
 14  5 25  1 43 30.0000000  0 11G28G08G17G02G24G26G09G10G30G05G04
 -15874581.38748 -12372120.62247  21100079.8294   21100085.0524   21100080.409
        52.0004         47.0004
  -3325760.49747  -2581103.00946  23134546.3824   23134551.6114   23134545.200
        44.0004         40.0004
  -6703399.03647  -5175483.34846  24015291.2014   24015296.9534   24015290.210
        45.0004         40.0004
 -14497164.27248 -11285780.89447  21501298.7064   21501301.5444   21501298.747
        51.0004         47.0004
   -574832.40747   -412727.26446  24624876.0884   24624888.4524   24624875.660
        47.0004         36.0004
    824105.61247    653753.55446  24567238.4254   24567244.5504   24567238.497
        43.0004         38.0004
  13590200.69848  10591050.54647  22703309.4244   22703315.1404   22703309.374
        48.0004         43.0004
 -24591754.26748 -19149901.74548  20681976.4624   20681982.3964   20681977.468
        53.0004         48.0004
  13093628.20747  10200753.25247  22979037.9244   22979045.5074   22979037.922
        47.0004         42.0004
 -10318207.68847  -7991371.98047  23059624.8624   23059629.8954   23059624.174
        47.0004         43.0004
 -24122694.57348 -18743339.42747  21176506.0514   21176511.4044   21176505.455
        51.0004         47.0004
 14  5 25  1 44  0.0000000  0 11G28G08G17G02G24G26G09G10G30G05G04
 -15885578.49948 -12380689.79647  21097987.1894   21097992.4484   21097987.678
        52.0004         47.0004
  -3219431.14847  -2498249.00146  23154778.4454   23154785.3554   23154779.479
        44.0004         39.0004
  -6705997.42447  -5177508.04146  24014795.3474   24014802.3894   24014795.347
        45.0004         40.0004
 -14487268.60948 -11278069.97947  21503181.4914   21503184.7154   21503181.535
        51.0004         47.0004
   -640846.08047   -464166.38546  24612315.7584   24612324.4304   24612314.038
        43.0004         37.0004
    827635.13747    656503.86246  24567909.8364   24567917.0374   24567909.766
        43.0004         38.0004
  13680681.01548  10661554.68047  22720527.6184   22720532.2674   22720527.073
        48.0004         43.0004
 -24630009.94748 -19179711.35048  20674696.5554   20674703.0794   20674697.389
        53.0004         48.0004
  13185830.48647  10272599.16547  22996582.6704   22996590.5654   22996583.043
        47.0004         42.0004
 -10412494.38347  -8064842.09147  23041682.6064   23041687.6934   23041681.929
        47.0004         43.0004
 -24062323.05648 -18696296.70147  21187994.6684   21188000.0404   21187994.038
        51.0004         47.0004
 14  5 25  1 44 30.0000000  0 11G28G08G17G02G24G26G09G10G30G05G04
 -15896074.85948 -12388868.77847  21095989.9944   21095995.1384   21095990.263
        52.0004         47.0004
  -3113064.10547  -2415365.63046  23175019.8834   23175025.4054   23175020.290
        44.0004         39.0004
  -6708809.04447  -5179698.87246  24014260.9724   24014267.1024   24014260.516
        45.0004         40.0004
 -14477001.65148 -11270069.73947  21505135.1084   21505138.2504   21505135.138
        52.0004         47.0004
   -706533.12947   -515350.99046  24599814.7394   24599826.5894   24599813.154
        42.0004         37.0004
    830960.87047    659095.38146  24568542.7714   24568549.4804   24568541.929
        43.0004         38.0004
  13771183.10048  10732075.78447  22737748.5324   22737753.8684   22737749.432
        48.0004         43.0004
 -24667827.82648 -19209179.81648  20667500.2274   20667506.2474   20667501.145
        53.0004         48.0004
  13278074.79347  10344477.82847  23014137.2294   23014143.2074   23014136.154
        47.0004         42.0004
 -10506724.16247  -8138267.84747  23023750.9514   23023756.3074   23023750.944
        47.0004         43.0004
 -24001681.29948 -18649043.38947  21199533.8594   21199539.9984   21199533.519
        51.0004         47.0004
 14  5 25  1 45  0.0000000  0 11G28G08G17G02G24G26G09G10G30G05G04
 -15906070.19648 -12396657.34647  21094088.1964   21094092.6254   21094087.952
        51.0004         47.0004
  -3006664.05247  -2332456.54046  23195268.6464   23195273.5354   23195267.905
        44.0004         39.0004
  -6711834.30947  -5182056.19046  24013684.6694   24013691.3254   24013684.491
        45.0004         40.0004
 -14466366.53248 -11261782.61447  21507159.2334   21507162.1134   21507159.326
        52.0004         47.0004
   -771893.64746   -566281.16946  24587375.0244   24587388.8154   24587375.406
        41.0004         37.0004
    834079.78847    661525.73446  24569136.4694   24569141.4644   24569135.823
        43.0004         38.0004
  13861702.81448  10802610.61347  22754974.6834   22754980.9464   22754974.270
        48.0004         43.0004
 -24705206.63148 -19238306.14748  20660387.4594   20660392.9164   20660388.119
        53.0004         48.0004
  13370357.07647  10416386.07447  23031696.8044   23031704.5114   23031697.110
        46.0004         42.0004
 -10600895.51647  -8211648.08547  23005831.0224   23005836.0804   23005830.283
        47.0004         43.0004
 -23940773.62548 -18601582.87047  21211124.0014   21211130.2664   21211123.770
        51.0004         46.0004
 14  5 25  1 45 30.0000000  0 11G28G08G17G02G24G26G09G10G30G05G04
 -15915562.63448 -12404054.04847  21092281.8004   21092286.7134   21092281.867
        51.0004         47.0004
  -2900233.79947  -2249523.90446  23215519.8904   23215525.5984   23215520.780
        44.0004         39.0004
  -6715072.39047  -5184579.34646  24013068.1024   24013075.5794   24013068.392
        45.0004         40.0004
 -14455364.71048 -11253209.75547  21509252.5644   21509256.2944   21509253.049
        52.0004         47.0004
   -836926.83646   -616956.28946  24575000.6454   24575012.9934   24575000.732
        41.0004         37.0004
    836990.86847    663794.13846  24569689.7004   24569695.7464   24569689.460
        43.0004         38.0004
  13952237.84548  10873157.38647  22772202.2284   22772208.8314   22772202.495
        48.0004         43.0004
 -24742143.83848 -19267088.37248  20653358.5504   20653364.2514   20653359.168
        53.0004         48.0004
  13462674.80547  10488321.94547  23049264.2244   23049272.0604   23049264.605
        46.0004         42.0004
 -10695005.93447  -8284980.83947  22987922.5524   22987927.1494   22987921.464
        47.0004         43.0004
 -23879602.66948 -18553917.19947  21222764.6714   21222770.2354   21222764.423
        51.0004         47.0004
 14  5 25  1 46  0.0000000  0 11G28G08G17G02G24G26G09G10G30G05G04
 -15924548.90148 -12411056.32747  21090571.1114   21090576.3334   21090571.875
        51.0004         47.0004
  -2793774.78647  -2166568.85746  23235778.7524   23235784.6524   23235779.135
        44.0004         39.0004
  -6718521.33047  -5187266.80546  24012411.8534   24012419.3474   24012411.677
        45.0004         40.0004
 -14443996.57048 -11244351.45247  21511416.0994   21511418.6894   21511416.151
        52.0004         47.0004
   -901630.50746   -667374.64046  24562686.8174   24562699.6954   24562687.429
        41.0004         37.0004
    839694.39147    665900.79346  24570203.5184   24570211.5694   24570203.819
        43.0004         38.0004
  14042786.71748  10943714.93547  22789433.4064   22789439.7674   22789433.190
        48.0004         43.0004
 -24778635.77848 -19295523.64048  20646414.7734   20646420.2414   20646414.985
        53.0004         48.0004
  13555026.82247  10560284.53747  23066838.3954   23066846.1984   23066838.473
        46.0004         42.0004
 -10789051.46048  -8358263.04247  22970026.4514   22970030.7394   22970025.911
        48.0004         43.0004
 -23818169.99048 -18506047.59347  21234454.9334   21234460.8284   21234454.765
        51.0004         47.0004
 14  5 25  1 46 30.0000000  0 11G28G08G17G02G24G26G09G10G30G05G04
 -15933033.39048 -12417667.61747  21088957.0614   21088961.9244   21088957.186
        51.0004         47.0004
  -2687295.75647  -2083598.22046  23256041.1644   23256047.4764   23256041.474
        44.0004         39.0004
  -6722185.75247  -5190122.19046  24011714.6764   24011722.1574   24011714.216
        45.0004         40.0004
 -14432269.59248 -11235213.53647  21513647.7174   21513650.4854   21513647.912
        52.0004         47.0004
   -966008.90846   -717539.52846  24550438.2144   24550450.7974   24550436.747
        41.0004         37.0004
    842183.26047    667840.19546  24570677.3394   24570684.9814   24570677.600
        43.0004         38.0004
  14133340.86048  11014276.59647  22806665.4024   22806670.6884   22806665.263
        48.0004         43.0004
 -24814685.57948 -19323614.38148  20639554.0544   20639559.7094   20639554.909
        53.0004         48.0004
  13647404.75747  10632267.32647  23084417.8764   23084424.7564   23084417.544
        46.0004         42.0004
 -10883034.95648  -8431496.89947  22952141.8314   22952145.7614   22952140.939
        48.0004         43.0004
 -23756483.98948 -18457980.59247  21246193.4914   21246198.8364   21246192.999
        51.0004         46.0004
 14  5 25  1 47  0.0000000  0 11G28G08G17G02G24G26G09G10G30G05G04
 -15941007.63948 -12423881.30847  21087439.5234   21087444.4154   21087439.751
        51.0004         47.0004
  -2580793.00147  -2000609.09246  23276308.4534   23276313.2534   23276308.786
        44.0004         40.0004
  -6726058.24147  -5193139.69646  24010978.3434   24010985.4424   24010977.375
        44.0004         40.0004
 -14420178.84548 -11225792.16447  21515948.0524   21515951.4434   21515948.641
        52.0004         47.0004
  -1030055.19146   -767445.64146  24538251.8754   24538261.2394   24538249.628
        41.0004         37.0004
    844462.64547    669616.34546  24571111.4374   24571117.7534   24571111.204
        43.0004         38.0004
  14223904.14747  11084845.37447  22823898.8384   22823905.3414   22823898.796
        47.0004         43.0004
 -24850284.64848 -19351353.90348  20632780.1284   20632786.1744   20632780.538
        53.0004         48.0004
  13739812.54947  10704273.37147  23102002.7314   23102009.7454   23102002.191
        46.0004         42.0004
 -10976947.32348  -8504675.33947  22934270.9774   22934274.6644   22934269.918
        48.0004         43.0004
 -23694540.98248 -18409713.31547  21257980.9354   21257986.2964   21257980.392
        51.0004         46.0004
 14  5 25  1 47 30.0000000  0 11G28G08G17G02G24G26G09G10G30G05G04
 -15948475.16548 -12429700.15747  21086018.6844   21086023.1354   21086018.924
        51.0004         47.0004
  -2474274.87247  -1917607.98246  23296578.2764   23296584.4624   23296578.202
        44.0004         39.0004
  -6730143.32547  -5196322.87046  24010200.7854   24010207.4814   24010200.248
        44.0004         40.0004
 -14407731.34348 -11216092.80947  21518317.2464   21518319.9694   21518317.506
        52.0004         47.0004
  -1093773.05446   -817095.84546  24526123.8354   24526136.8204   24526123.834
        41.0004         37.0004
    846526.42047    671224.50246  24571504.1634   24571510.4524   24571504.154
        43.0004         38.0004
  14314468.73347  11155415.17147  22841132.7994   22841138.9754   22841133.184
        47.0004         43.0004
 -24885435.77148 -19378744.37748  20626090.8314   20626096.4124   20626091.470
        53.0004         48.0004
  13832242.49047  10776296.67847  23119591.4504   23119598.6114   23119591.031
        46.0004         42.0004
 -11070791.20548  -8577800.41147  22916413.0084   22916417.7164   22916412.188
        48.0004         43.0004
 -23632349.10948 -18361252.12547  21269815.9534   21269821.1314   21269815.174
        51.0004         46.0004
 14  5 25  1 48  0.0000000  0 11G28G08G17G02G24G26G09G10G30G05G04
 -15955431.50148 -12435120.66847  21084695.0594   21084699.5814   21084695.205
        51.0004         47.0004
  -2367741.48047  -1834594.98746  23316850.7944   23316856.3644   23316851.074
        44.0004         39.0004
  -6734436.74547  -5199668.38446  24009384.2764   24009390.4804   24009383.310
        44.0004         40.0004
 -14394925.76948 -11206114.42647  21520752.9594   21520756.6444   21520753.989
        52.0004         47.0004
  -1157158.95047   -866487.37846  24514063.1004   24514072.7804   24514061.495
        42.0004         37.0004
    848376.26947    672665.95946  24571856.4444   24571862.3274   24571855.747
        43.0004         38.0004
  14405035.09947  11225986.36047  22858367.2114   22858372.2434   22858367.262
        47.0004         43.0004
 -24920133.42348 -19405781.49748  20619488.3124   20619493.7144   20619488.624
        53.0004         48.0004
  13924695.02747  10848337.58947  23137184.4744   23137191.7454   23137184.544
        46.0004         42.0004
 -11164560.94948  -8650867.70947  22898568.3914   22898573.4794   22898568.327
        48.0004         43.0004
 -23569907.87948 -18312596.63947  21281697.6514   21281703.2424   21281697.579
        51.0004         46.0004
 14  5 25  1 48 30.0000000  0 11G28G08G17G02G24G26G09G10G30G05G04
 -15961875.43748 -12440141.91747  21083468.4004   21083473.5104   21083468.880
        51.0004         47.0004
  -2261195.95447  -1751572.53446  23337124.4124   23337132.5264   23337125.348
        44.0004         39.0004
  -6738938.49247  -5203176.21946  24008527.0524   24008533.7914   24008526.863
        44.0004         40.0004
 -14381764.48748 -11195858.86047  21523258.2254   21523261.4584   21523258.480
        52.0004         47.0004
  -1220212.29047   -915619.75446  24502065.4414   24502075.3374   24502063.239
        42.0004         37.0004
    850010.57247    673939.45946  24572167.0724   24572173.6774   24572167.014
        43.0004         38.0004
  14495599.89347  11296556.30547  22875601.2624   22875606.0474   22875601.253
        47.0004         43.0004
 -24954375.60048 -19432463.70248  20612972.0534   20612977.8214   20612972.667
        53.0004         48.0004
  14017167.17047  10920393.77947  23154781.6614   23154788.7784   23154780.967
        46.0004         42.0004
 -11258254.03748  -8723875.28247  22880739.0034   22880744.5104   22880739.017
        48.0004         43.0004
 -23507220.85848 -18263749.62347  21293626.8874   21293632.6644   21293626.470
        51.0004         46.0004
 14  5 25  1 49  0.0000000  0 11G28G08G17G02G24G26G09G10G30G05G04
 -15967805.37448 -12444762.63647  21082340.0994   21082345.0624   21082340.392
        51.0004         47.0004
  -2154641.02647  -1668542.75946  23357402.1704   23357407.5014   23357402.190
        44.0004         39.0004
  -6743647.22847  -5206845.34746  24007630.8044   24007637.4304   24007630.470
        44.0004         40.0004
 -14368248.71648 -11185327.08047  21525829.4084   21525833.7024   21525830.206
        51.0004         47.0004
  -1282931.80347   -964492.02246  24490128.6564   24490139.6434   24490127.599
        42.0004         37.0004
    851428.44047    675044.30946  24572435.8424   24572443.8374   24572436.207
        43.0004         38.0004
  14586160.69447  11367123.15147  22892834.2774   22892840.1554   22892834.537
        47.0004         43.0004
 -24988159.65148 -19458788.92548  20606543.0184   20606548.8194   20606543.752
        53.0004         48.0004
  14109656.64847  10992463.47446  23172381.7844   23172389.4044   23172381.407
        46.0004         41.0004
 -11351867.50048  -8796820.80247  22862925.9514   22862930.4244   22862925.036
        48.0004         43.0004
 -23444290.51148 -18214713.00047  21305602.1494   21305607.7324   21305601.362
        51.0004         46.0004
 14  5 25  1 49 30.0000000  0 11G28G08G17G02G24G26G09G10G30G05G04
 -15973222.80948 -12448984.01047  21081309.1594   21081314.1234   21081309.230
        51.0004         47.0004
  -2048083.00047  -1585510.57346  23377680.3154   23377685.9484   23377679.340
        44.0004         39.0004
  -6748565.33047  -5210677.62646  24006694.5464   24006701.7454   24006694.549
        44.0004         40.0004
 -14354383.95548 -11174523.36347  21528468.3794   21528471.6834   21528468.790
        51.0004         47.0004
  -1345319.98647  -1013106.13246  24478255.8884   24478267.5034   24478256.458
        42.0004         37.0004
    852625.29147    675976.94346  24572664.2554   24572671.2404   24572664.477
        43.0004         38.0004
  14676711.56647  11437682.26547  22910066.2524   22910071.1054   22910065.580
        47.0004         42.0004
 -25021486.68748 -19484758.03448  20600201.4374   20600207.1324   20600201.910
        53.0004         48.0004
  14202157.59347  11064542.10646  23189984.4264   23189991.2264   23189983.754
        46.0004         41.0004
 -11445401.66048  -8869704.53647  22845126.2374   22845131.1464   22845126.150
        48.0004         43.0004
 -23381123.06248 -18165491.62647  21317622.8444   21317627.4614   21317622.075
        51.0004         46.0004
 14  5 25  1 50  0.0000000  0 11G28G08G17G02G24G26G09G10G30G05G04
 -15978121.50448 -12452801.16947  21080377.1224   21080381.5624   21080377.303
        51.0004         47.0004
  -1941519.98447  -1502474.49046  23397958.4664   23397963.9944   23397957.798
        44.0004         39.0004
  -6753687.24147  -5214668.71946  24005720.4534   24005726.9934   24005719.823
        44.0004         40.0004
 -14340167.07348 -11163445.25347  21531173.4214   21531177.0644   21531173.931
        51.0004         47.0004
  -1407371.32447  -1061457.73646  24466446.7914   24466458.9114   24466448.108
        42.0004         37.0004
    853604.86647    676740.26546  24572851.2704   24572858.1904   24572850.884
        43.0004         38.0004
  14767254.88247  11508235.49547  22927294.8494   22927300.9604   22927295.025
        47.0004         42.0004
 -25054349.60848 -19510365.49348  20593947.5684   20593953.1914   20593948.187
        53.0004         48.0004
  14294672.22547  11136631.40846  23207588.3964   23207596.0654   23207588.520
        46.0004         41.0004
 -11538849.79048  -8942521.22547  22827344.6244   22827348.4254   22827343.244
        48.0004         43.0004
 -23317716.52048 -18116083.93847  21329688.4944   21329693.7524   21329687.850
        51.0004         46.0004
 14  5 25  1 50 30.0000000  0 11G28G08G17G02G24G26G09G10G30G05G04
 -15982501.67048 -12456214.28147  21079543.4114   21079548.0894   21079543.467
        51.0004         47.0004
  -1834956.34747  -1419437.93546  23418236.6184   23418242.5924   23418236.610
        44.0004         39.0004
  -6759013.59047  -5218819.11346  24004706.8434   24004713.5514   24004705.697
        44.0004         39.0004
 -14325601.45848 -11152095.40747  21533945.5844   21533949.1324   21533945.970
        51.0004         47.0004
  -1469086.76047  -1109547.62346  24454703.4624   24454715.6764   24454704.009
        42.0004         37.0004
    854364.28847    677332.03746  24572995.6874   24573003.2014   24572995.686
        43.0004         38.0004
  14857786.38847  11578779.50447  22944522.9274   22944529.0924   22944522.675
        47.0004         42.0004
 -25086747.84748 -19535610.86248  20587782.6264   20587788.1704   20587783.263
        53.0004         48.0004
  14387196.44447  11208728.17146  23225196.0024   23225202.9934   23225195.500
        46.0004         41.0004
 -11632210.43648  -9015269.74147  22809578.7844   22809581.6364   22809577.313
        48.0004         43.0004
 -23254075.20148 -18066493.31147  21341798.3604   21341804.9304   21341798.179
        51.0004         46.0004
 14  5 25  1 51  0.0000000  0 11G28G08G17G02G24G26G09G10G30G05G04
 -15986363.35948 -12459223.38547  21078808.2474   21078812.8954   21078808.819
        51.0004         47.0004
  -1728396.76647  -1336404.51646  23438515.0014   23438520.4064   23438514.041
        44.0004         39.0004
  -6764545.02947  -5223129.30746  24003654.8974   24003661.5094   24003653.473
        44.0004         39.0004
 -14310690.57248 -11140476.52347  21536782.6594   21536786.2054   21536783.092
        51.0004         47.0004
  -1530466.79146  -1157376.15546  24443024.2584   24443035.5784   24443023.484
        41.0004         37.0004
    854901.09147    677750.35146  24573097.9924   24573104.3374   24573097.462
        43.0004         38.0004
  14948301.98947  11649311.13247  22961748.4554   22961754.3434   22961747.352
        47.0004         42.0004
 -25118680.55248 -19560493.48048  20581705.5844   20581711.4064   20581706.410
        53.0004         48.0004
  14479726.20247  11280829.26546  23242803.6644   23242810.9504   23242803.288
        46.0004         41.0004
 -11725482.20848  -9087949.01247  22791828.6304   22791833.3504   22791828.481
        48.0004         43.0004
 -23190203.67948 -18016723.30747  21353952.7164   21353958.4924   21353952.849
        51.0004         46.0004
 14  5 25  1 51 30.0000000  0 11G28G08G17G02G24G26G09G10G30G05G04
 -15989703.20448 -12461825.85947  21078173.1204   21078177.9414   21078173.005
        51.0004         47.0004
  -1621842.16947  -1253375.00246  23458790.7684   23458796.6344   23458790.862
        43.0004         39.0004
  -6770278.54547  -5227596.96246  24002562.2184   24002569.4824   24002562.465
        44.0004         39.0004
 -14295434.37548 -11128588.56747  21539686.3074   21539689.7344   21539686.785
        51.0004         47.0004
  -1591508.60647  -1204941.14146  24431409.4534   24431420.8214   24431407.530
        42.0004         37.0004
    855215.80547    677995.62046  24573156.8134   24573163.7634   24573156.754
        43.0004         38.0004
  15038800.72547  11719829.61047  22978968.5464   22978973.8794   22978969.020
        47.0004         42.0004
 -25150143.73548 -19585010.23348  20575718.5074   20575724.0344   20575719.651
        53.0004         48.0004
  14572260.80247  11352934.11546  23260411.9084   23260420.0244   23260412.090
        46.0004         41.0004
 -11818660.83148  -9160555.69347  22774097.9724   22774101.9374   22774097.302
        48.0004         43.0004
 -23126102.78948 -17966774.56847  21366150.7914   21366156.9754   21366150.755
        51.0004         46.0004
 14  5 25  1 52  0.0000000  0 11G28G08G17G02G24G26G09G10G30G05G04
 -15992520.06848 -12464020.81647  21077637.1184   21077641.6224   21077637.317
        51.0004         47.0004
  -1515295.85447  -1170351.93446  23479065.3184   23479071.9134   23479066.073
        43.0004         39.0004
  -6776213.74847  -5232221.78346  24001433.5414   24001441.6034   24001433.727
        44.0004         40.0004
 -14279835.23348 -11116433.38247  21542654.2954   21542657.6914   21542654.677
        51.0004         47.0004
  -1652212.06147  -1252242.47846  24419856.5464   24419869.1214   24419855.402
        42.0004         37.0004
    855306.77947    678066.53546  24573174.6264   24573181.6944   24573174.839
        43.0004         38.0004
  15129279.49447  11790332.54347  22996186.6834   22996191.8204   22996186.362
        47.0004         42.0004
 -25181135.63448 -19609159.75248  20569821.2914   20569826.5534   20569821.594
        53.0004         48.0004
  14664797.16847  11425040.34846  23278021.2334   23278028.6954   23278020.921
        46.0004         41.0004
 -11911744.07348  -9233088.05847  22756383.9804   22756388.5864   22756383.965
        48.0004         43.0004
 -23061776.02648 -17916649.82547  21378391.5074   21378397.6344   21378391.716
        51.0004         46.0004
 14  5 25  1 52 30.0000000  0 11G28G08G17G02G24G26G09G10G30G05G04
 -15994814.06648 -12465808.33547  21077200.3934   21077205.1484   21077200.729
        51.0004         47.0004
  -1408761.72247  -1087338.36146  23499338.9214   23499345.1704   23499338.821
        43.0004         39.0004
  -6782350.85547  -5237003.93246  24000266.1784   24000273.2124   24000265.128
        44.0004         40.0004
 -14263896.23048 -11104013.36547  21545687.5474   21545691.1504   21545688.045
        51.0004         47.0004
  -1712577.50847  -1299280.42846  24408368.4454   24408380.1964   24408368.144
        42.0004         37.0004
    855171.80947    677961.39246  24573149.6814   24573156.0904   24573149.957
        43.0004         38.0004
  15219734.31047  11860816.79847  23013399.4104   23013405.2494   23013399.040
        47.0004         42.0004
 -25211655.24148 -19632941.24748  20564013.5914   20564019.1204   20564013.855
        53.0004         48.0004
  14757331.78547  11497145.22746  23295630.3574   23295638.2264   23295630.054
        45.0004         41.0004
 -12004730.35448  -9305544.87047  22738689.4154   22738693.7524   22738689.210
        48.0004         43.0004
 -22997227.24848 -17866352.07947  21390675.7594   21390681.6634   21390675.051
        51.0004         46.0004
 14  5 25  1 53  0.0000000  0 11G28G08G17G02G24G26G09G10G30G05G04
 -15996581.35448 -12467185.44347  21076864.3924   21076868.6014   21076864.404
        51.0004         47.0004
  -1302240.49747  -1004334.85446  23519609.6584   23519614.8214   23519608.620
        43.0004         39.0004
  -6788686.29247  -5241940.62946  23999060.6654   23999067.4104   23999059.860
        44.0004         40.0004
 -14247616.79248 -11091328.06547  21548785.5224   21548789.9124   21548785.494
        51.0004         47.0004
  -1772602.05247  -1346052.75446  24396946.3774   24396957.9854   24396946.387
        42.0004         37.0004
    854812.28947    677681.27346  24573081.3064   24573087.5224   24573080.712
        43.0004         38.0004
  15310165.35547  11931282.54047  23030607.8434   23030613.3414   23030607.709
        47.0004         42.0004
 -25241697.80148 -19656351.02048  20558296.6904   20558302.3254   20558297.296
        53.0004         48.0004
  14849864.55947  11569248.66446  23313238.4354   23313246.5774   23313238.510
        45.0004         41.0004
 -12097614.30748  -9377921.93747  22721013.9704   22721019.1244   22721013.968
        48.0004         44.0004
 -22932456.96948 -17815881.73647  21403000.6594   21403006.6154   21403000.237
        51.0004         46.0004
 14  5 25  1 53 30.0000000  0 11G28G08G17G02G24G26G09G10G30G05G04
 -15997822.60548 -12468152.64247  21076628.2104   21076632.4044   21076628.158
        51.0004         47.0004
  -1195736.98247   -921345.15446  23539875.9784   23539881.7204   23539875.500
        43.0004         39.0004
  -6795221.51247  -5247032.98746  23997816.4504   23997823.1164   23997816.197
        44.0004         40.0004
 -14231000.93348 -11078380.63647  21551947.4464   21551950.7284   21551947.809
        52.0004         47.0004
  -1832286.66047  -1392560.19746  24385589.2874   24385600.9294   24385588.004
        42.0004         37.0004
    854224.93047    677223.62846  24572968.2884   24572975.1984   24572968.384
        43.0004         38.0004
  15400568.01347  12001726.14847  23047811.6954   23047816.5424   23047810.798
        47.0004         42.0004
 -25271263.25248 -19679389.02448  20552670.2964   20552676.2474   20552670.890
        53.0004         48.0004
  14942390.94147  11641347.11946  23330845.9164   23330852.8984   23330845.683
        45.0004         41.0004
 -12190395.55948  -9450218.97947  22703358.3214   22703363.8794   22703358.371
        48.0004         44.0004
 -22867470.12348 -17765242.64447  21415367.2304   21415372.6984   21415366.615
        51.0004         46.0004
 14  5 25  1 54  0.0000000  0 11G28G08G17G02G24G26G09G10G30G05G04
 -15998536.42248 -12468708.85847  21076492.2444   21076496.4834   21076492.335
        51.0004         47.0004
  -1089253.97247   -838371.42446  23560138.5864   23560144.6954   23560139.217
        43.0004         39.0004
  -6801955.29247  -5252280.07346  23996534.9344   23996541.5964   23996534.870
        45.0004         40.0004
 -14214050.40448 -11065172.42647  21555173.1884   21555176.1264   21555173.243
        51.0004         47.0004
  -1891630.53047  -1438802.14446  24374296.9294   24374308.7594   24374296.725
        42.0004         37.0004
    853408.80247    676587.71046  24572812.9974   24572820.0004   24572813.478
        43.0004         38.0004
  15490939.66247  12072145.59947  23065008.1924   23065013.8524   23065007.691
        47.0004         42.0004
 -25300349.39848 -19702053.53848  20547135.5724   20547141.4154   20547135.971
        53.0004         48.0004
  15034908.55747  11713438.72646  23348451.7374   23348459.1724   23348451.289
        45.0004         41.0004
 -12283071.07548  -9522433.62547  22685722.4064   22685728.2774   22685722.841
        48.0004         43.0004
 -22802269.35948 -17714436.86547  21427774.5674   21427780.5944   21427774.371
        51.0004         46.0004
 14  5 25  1 54 30.0000000  0 11G28G08G17G02G24G26G09G10G30G05G04
 -15998719.63748 -12468851.61547  21076457.5364   21076461.6344   21076457.585
        51.0004         47.0004
   -982791.95747   -755414.04146  23580397.6754   23580404.9774   23580397.758
        43.0004         39.0004
  -6808884.44547  -5257679.41146  23995217.1184   23995223.7914   23995216.219
        44.0004         40.0004
 -14196764.79048 -11051703.10647  21558462.1904   21558465.5504   21558462.779
        51.0004         47.0004
  -1950631.15747  -1484776.62346  24363069.6874   24363080.4384   24363068.251
        42.0004         37.0004
    852365.06747    675774.43946  24572616.0154   24572621.3684   24572614.481
        42.0004         38.0004
  15581280.10347  12142540.72847  23082198.8104   23082205.5534   23082198.756
        47.0004         42.0004
 -25328951.84848 -19724341.14648  20541692.6334   20541698.2784   20541693.186
        53.0004         48.0004
  15127417.16247  11785523.33746  23366055.3524   23366062.5024   23366055.379
        45.0004         41.0004
 -12375636.01748  -9594562.12047  22668108.7004   22668112.5584   22668107.857
        48.0004         44.0004
 -22736855.34448 -17663464.90547  21440222.2594   21440228.9914   21440222.103
        51.0004         46.0004
 14  5 25  1 55  0.0000000  0 11G28G08G17G02G24G26G09G10G30G05G04
 -15998373.02948 -12468581.51947  21076522.7554   21076528.3374   21076523.422
        51.0004         47.0004
   -876356.32647   -672477.23246  23600651.4614   23600657.9484   23600651.686
        43.0004         38.0004
  -6816010.33347  -5263232.03946  23993860.7524   23993866.7944   23993860.038
        44.0004         40.0004
 -14179148.80848 -11037976.35747  21561814.5984   21561818.4274   21561814.950
        51.0004         47.0004
  -2009289.79447  -1530484.61746  24351906.1514   24351918.0744   24351905.854
        42.0004         37.0004
    851090.12447    674781.00846  24572372.7564   24572380.0544   24572372.245
        42.0004         38.0004
  15671583.99947  12212907.38647  23099383.6224   23099389.1134   23099383.456
        47.0004         42.0004
 -25357071.18748 -19746252.30848  20536341.4664   20536347.1484   20536342.166
        53.0004         48.0004
  15219911.68647  11857596.94946  23383656.2354   23383663.4144   23383656.314
        45.0004         41.0004
 -12468090.13148  -9666604.25847  22650515.0214   22650519.2204   22650515.009
        48.0004         44.0004
 -22671233.43848 -17612330.95947  21452709.7574   21452715.6954   21452709.672
        50.0004         46.0004
 14  5 25  1 55 30.0000000  0 11G28G08G17G02G24G26G09G10G30G05G04
 -15997493.64348 -12467896.27247  21076690.8544   21076695.5074   21076690.763
        51.0004         47.0004
   -769948.02847   -589561.71946  23620900.1764   23620908.6474   23620900.827
        43.0004         39.0004
  -6823329.80247  -5268935.52146  23992466.9464   23992475.0424   23992467.325
        44.0004         40.0004
 -14161202.54248 -11023992.24747  21565229.6484   21565232.7294   21565230.005
        51.0004         47.0004
  -2067604.54147  -1575924.67046  24340810.4304   24340821.2414   24340809.874
        42.0004         37.0004
    849584.79147    673608.03746  24572086.3594   24572091.7614   24572085.963
        42.0004         38.0004
  15761850.55847  12283244.93647  23116560.9034   23116565.4364   23116560.579
        46.0004         42.0004
 -25384703.41248 -19767783.89448  20531083.1834   20531088.5734   20531083.985
        53.0004         48.0004
  15312391.67947  11929659.24846  23401254.4354   23401262.8234   23401254.453
        45.0004         41.0004
 -12560428.53548  -9738556.22447  22632943.7204   22632947.5714   22632943.519
        48.0004         44.0004
 -22605404.77848 -17561035.90747  21465236.7654   21465242.2124   21465236.546
        51.0004         46.0004
 14  5 25  1 56  0.0000000  0 11G28G08G17G02G24G26G09G10G30G05G04
 -15996082.11048 -12466796.36447  21076959.5374   21076964.1324   21076959.244
        51.0004         47.0004
   -663571.51847   -506670.98746  23641144.0884   23641150.3814   23641143.992
        43.0004         39.0004
  -6830844.23747  -5274790.91546  23991037.8994   23991044.3744   23991037.564
        44.0004         40.0004
 -14142929.71448 -11009753.67047  21568706.6704   21568709.9354   21568707.092
        51.0004         47.0004
  -2125576.08047  -1621097.26446  24329777.4794   24329789.6454   24329776.852
        42.0004         37.0004
    847846.34447    672253.43346  24571754.7464   24571760.9004   24571755.198
        42.0004         38.0004
  15852075.84347  12353550.32647  23133729.8564   23133735.7764   23133730.091
        46.0004         42.0004
 -25411848.05148 -19788935.55348  20525917.8934   20525923.7384   20525918.555
        53.0004         48.0004
  15404852.90047  12001706.91346  23418849.8954   23418857.0434   23418849.332
        45.0004         40.0004
 -12652650.33648  -9810417.32147  22615394.3334   22615398.5724   22615393.708
        48.0004         44.0004
 -22539373.70548 -17509583.13547  21477801.7654   21477807.7614   21477801.634
        51.0004         46.0004
 14  5 25  1 56 30.0000000  0 11G28G08G17G02G24G26G09G10G30G05G04
 -15994134.26748 -12465278.54647  21077329.5804   21077334.5734   21077330.127
        51.0004         47.0004
   -557226.62247   -423804.87746  23661380.1464   23661387.3004   23661380.772
        43.0004         39.0004
  -6838549.05847  -5280794.67546  23989571.3444   23989578.2414   23989570.828
        44.0004         40.0004
 -14124329.32248 -10995259.85147  21572246.2454   21572248.6974   21572246.725
        51.0004         47.0004
  -2183200.94947  -1665999.72846  24318813.5904   24318824.8514   24318811.760
        42.0004         37.0004
    845876.56147    670718.54846  24571380.5844   24571385.4954   24571379.560
        42.0004         38.0004
  15942260.15847  12423823.79847  23150892.3354   23150896.9614   23150891.403
        46.0004         42.0004
 -25438500.10348 -19809703.37148  20520845.9944   20520851.6014   20520846.710
        53.0004         48.0004
  15497295.80747  12073740.31546  23436441.0854   23436448.7834   23436441.039
        45.0004         40.0004
 -12744749.91748  -9882183.19947  22597868.8964   22597873.0134   22597867.673
        48.0004         44.0004
 -22473140.09348 -17457972.54047  21490405.7194   21490412.2524   21490405.451
        50.0004         46.0004
 14  5 25  1 57  0.0000000  0 11G28G08G17G02G24G26G09G10G30G05G04
 -15991652.88148 -12463344.98747  21077801.4804   21077807.3864   21077801.924
        51.0004         47.0004
   -450920.28147   -340968.81546  23681609.6194   23681616.2624   23681609.987
        43.0004         38.0004
  -6846447.50047  -5286949.29946  23988068.4054   23988075.4574   23988067.955
        44.0004         40.0004
 -14105407.31148 -10980515.41847  21575846.8814   21575850.5684   21575847.361
        51.0004         47.0004
  -2240482.40847  -1710634.59946  24307912.3654   24307922.8424   24307911.879
        42.0004         37.0004
    843670.45847    668999.53446  24570960.2614   24570965.6604   24570959.924
        42.0004         38.0004
  16032396.82547  12494060.13346  23168043.0744   23168050.3284   23168043.219
        46.0004         41.0004
 -25464661.75648 -19830089.06248  20515867.3974   20515873.6324   20515868.485
        53.0004         48.0004
  15589714.00047  12145754.45846  23454027.9134   23454034.7654   23454027.909
        45.0004         40.0004
 -12836728.76248  -9953854.99047  22580365.3694   22580368.5764   22580364.697
        49.0004         44.0004
 -22406711.23748 -17406209.80347  21503046.9064   21503052.8054   21503046.288
        50.0004         46.0004
 14  5 25  1 57 30.0000000  0 11G28G08G17G02G24G26G09G10G30G05G04
 -15988634.19248 -12460992.74347  21078375.8834   21078381.4354   21078376.628
        51.0004         47.0004
   -344652.25547   -258162.60546  23701831.3134   23701837.8864   23701831.731
        43.0004         38.0004
  -6854535.39747  -5293251.55846  23986530.1614   23986536.5944   23986529.004
        44.0004         40.0004
 -14086163.06448 -10965519.90147  21579508.9524   21579511.9434   21579509.515
        51.0004         47.0004
  -2297417.41047  -1754999.49446  24297076.1764   24297089.5424   24297076.342
        42.0004         37.0004
    841229.68747    667097.66146  24570496.5384   24570501.6904   24570495.749
        42.0004         38.0004
  16122486.21047  12564259.64246  23185186.8274   23185192.2454   23185186.902
        46.0004         41.0004
 -25490328.12348 -19850088.81248  20510983.4894   20510989.1774   20510984.002
        53.0004         48.0004
  15682107.82947  12217749.61846  23471608.7834   23471617.4584   23471609.603
        45.0004         40.0004
 -12928581.13148 -10025428.21547  22562886.5204   22562890.9694   22562885.981
        49.0004         44.0004
 -22340086.96148 -17354294.78847  21515725.5214   21515731.7394   21515724.443
        50.0004         45.0004
 14  5 25  1 58  0.0000000  0 11G28G08G17G02G24G26G09G10G30G05G04
 -15985076.17948 -12458220.24947  21079053.2164   21079058.3594   21079053.483
        51.0004         47.0004
   -238424.43147   -175387.73046  23722045.0414   23722053.9084   23722046.622
        43.0004         38.0004
  -6862811.09147  -5299700.15446  23984954.2464   23984962.4224   23984954.097
        45.0004         40.0004
 -14066597.54948 -10950274.04547  21583232.0614   21583235.8624   21583232.432
        51.0004         47.0004
  -2354004.64247  -1799093.40346  24286310.0264   24286320.4404   24286309.298
        42.0004         38.0004
    838554.27747    665012.95246  24569985.8654   24569992.7034   24569986.406
        42.0004         37.0004
  16212526.71747  12634421.04747  23202321.5734   23202328.0684   23202322.166
        46.0004         42.0004
 -25515496.16648 -19869700.26148  20506193.9254   20506199.9594   20506194.937
        53.0004         48.0004
  15774475.70747  12289724.55546  23489186.5974   23489194.7614   23489186.509
        45.0004         40.0004
 -13020303.45048 -10096900.12047  22545432.2154   22545436.3954   22545431.540
        49.0004         44.0004
 -22273269.12948 -17302228.95747  21528439.9844   21528445.7704   21528439.735
        50.0004         46.0004
