     2.11           OBSERVATION DATA    G (GPS)             RINEX VERSION / TYPE
teqc  2008Oct2      gpsops              20090108 00:09:26UTCPGM / RUN BY / DATE
    30.0000                                                 INTERVAL
     1     1                                                WAVELENGTH FACT L1/2
     7    L1    L2    P1    P2    C1    S1    S2            # / TYPES OF OBSERV
Linux 2.4.20-8|Pentium IV|gcc -static|Linux|486/DX+         COMMENT
     2.10           OBSERVATION DATA    GPS                 COMMENT
soc2rnx ver 1.20    gpsops               8-Jan-2009 00:09:21COMMENT
S1, if present, is the SNR for the C/A data stream on L1.   COMMENT
 SNR is mapped to RINEX snr flag value [1,4-9]              COMMENT
    SNR:   >316  >100  >31.6  >10  >3.2    >0 bad=0         COMMENT
L1 & L2:      9     8     7     6     5     4     1         COMMENT
                                                            COMMENT
This data is provided as a public service by NASA/JPL.      COMMENT
No warranty is expressed or implied regarding suitability   COMMENT
for use.  For further information, contact:                 COMMENT
Dave Stowers, NASA/JPL m/s 238-600                          COMMENT
4800 Oak Grove Drive, Pasadena CA 91109 USA                 COMMENT
                                                            COMMENT
Forced Modulo Decimation to 30 seconds                      COMMENT
  2009     1     7     0     0    0.0000000     GPS         TIME OF FIRST OBS
GGN                 JPL                                     OBSERVER / AGENCY
CR519992104         ASH701945B_M    SCIT                    ANT # / TYPE
   -33801.4662 -6377516.5323   -82154.3508                  APPROX POSITION XYZ
        0.0083        0.0000        0.0000                  ANTENNA: DELTA H/E/N
ZR220013847         ASHTECH UZ-12       CQ00                REC # / TYPE / VERS
GLPS                                                        MARKER NAME
42005M002                                                   MARKER NUMBER
                                                            END OF HEADER
 09  1  7  0  0  0.0000000  0 11G24G12G22G 9G30G18G14G31G 5G29G21
 112203696.69247  87431427.97947  21351673.6834   21351677.6404   21351673.4894
        53.000          47.000
 128027709.52447  99761832.44547  24362875.9244   24362881.3294   24362875.7004
        42.000          38.000
 128156209.00947  99861978.92947  24387315.6654   24387317.3374   24387315.6024
        44.000          37.000
 113218368.66047  88222108.93247  21544734.3824   21544739.1034   21544735.0084
        52.000          46.000
 123937612.65147  96574744.32347  23584556.9844   23584560.3984   23584555.9204
        46.000          40.000
 124838791.22247  97276966.97347  23756040.4574   23756042.2894   23756040.6334
        45.000          39.000
 116049148.23147  90427890.15847  22083432.3544   22083437.6664   22083434.2034
        50.000          44.000
 131984426.48347 102844991.87947  25115812.7074   25115819.4524   25115812.3644
        40.000          36.000
 125445322.22647  97749588.73947  23871460.3564   23871466.8824   23871460.3424
        45.000          39.000
 112084799.89847  87338795.48447  21329033.8074   21329037.2624   21329033.8844
        53.000          48.000
 111924151.77847  87213617.14147  21298463.6144   21298465.4464   21298464.1024
        53.000          47.000
 09  1  7  0  0 30.0000000  0 11G24G12G22G 9G30G18G14G31G 5G29G21
 112200623.77947  87429033.51547  21351088.6374   21351093.0524   21351088.7154
        53.000          47.000
 128034033.76947  99766760.50247  24364079.9704   24364085.2764   24364080.0214
        43.000          38.000
 128150796.61347  99857761.54347  24386285.8364   24386286.4204   24386285.8554
        43.000          37.000
 113243486.92247  88241681.64147  21549514.6854   21549518.2054   21549514.7524
        52.000          46.000
 123929484.47347  96568410.71647  23583010.1814   23583014.7234   23583009.7174
        47.000          40.000
 124833250.75347  97272649.74047  23754986.0044   23754988.2214   23754986.6524
        46.000          39.000
 116021575.02647  90406404.60947  22078185.8054   22078189.7814   22078186.1894
        50.000          44.000
 131884081.51047 102766801.12747  25096717.6334   25096723.4794   25096716.9144
        39.000          35.000
 125437047.29447  97743140.78847  23869885.5774   23869891.7854   23869885.8204
        46.000          39.000
 112148351.12247  87388315.91547  21341127.6414   21341130.9904   21341127.3944
        53.000          48.000
 111847832.20247  87154147.35347  21283940.8384   21283943.0914   21283941.1054
        53.000          47.000
 09  1  7  0  1  0.0000000  0 11G24G12G22G 9G30G18G14G31G 5G29G21
 112197978.66747  87426972.40547  21350585.1364   21350589.6974   21350585.0984
        53.000          47.000
 128040229.59947  99771588.47947  24365259.1004   24365264.9884   24365258.8784
        44.000          39.000
 128145223.41247  99853418.83347  24385224.8404   24385226.7664   24385224.8334
        42.000          37.000
 113269136.17647  88261668.10747  21554395.3484   21554399.2054   21554395.2564
        52.000          46.000
 123921144.03947  96561911.71047  23581423.0444   23581427.9474   23581422.8874
        47.000          40.000
 124827490.06747  97268160.91247  23753889.8614   23753891.7324   23753890.3914
        45.000          39.000
 115994479.89747  90385291.58947  22073030.0644   22073033.6984   22073030.0624
        50.000          44.000
 131783613.45947 102688514.49847  25077600.4714   25077605.2444   25077598.2164
        40.000          35.000
 125428636.00247  97736586.57747  23868284.8394   23868291.1364   23868285.2684
        46.000          39.000
 112212160.11747  87438037.20747  21353270.1864   21353273.4914   21353270.0264
        53.000          48.000
 111771760.80347  87094870.95647  21269465.1514   21269467.0744   21269465.6474
        53.000          47.000
 09  1  7  0  1 30.0000000  0 11G24G12G22G 9G30G18G14G31G 5G29G21
 112195761.96247  87425245.11747  21350163.2314   21350167.9674   21350163.4054
        53.000          47.000
 128046297.46147  99776316.76447  24366414.3894   24366419.2384   24366413.9224
        44.000          39.000
 128139487.30847  99848949.18447  24384132.6574   24384134.7414   24384132.9234
        42.000          37.000
 113295315.91247  88282067.92947  21559377.4064   21559380.9314   21559377.3924
        52.000          46.000
 123912591.28347  96555247.22847  23579795.9174   23579800.1174   23579795.9334
        47.000          40.000
 124821508.28147  97263499.80047  23752751.8274   23752753.4974   23752752.4744
        46.000          39.000
 115967861.62647  90364550.16347  22067964.8764   22067968.4754   22067965.0904
        50.000          44.000
 131683023.55447 102610132.83047  25058459.0114   25058463.4064   25058456.6264
        39.000          35.000
 125420088.82747  97729926.49747  23866658.2694   23866664.3194   23866658.9424
        45.000          39.000
 112276223.37847  87487956.62847  21365460.8434   21365464.1714   21365460.5474
        53.000          47.000
 111695940.02547  87035789.84147  21255036.9164   21255038.7754   21255037.1514
        53.000          47.000
 09  1  7  0  2  0.0000000  0 11G24G12G22G 9G30G18G14G31G 5G29G21
 112193975.31547  87423852.94047  21349823.2694   21349827.7934   21349823.4254
        53.000          47.000
 128052239.28447  99780946.80147  24367545.0124   24367549.9574   24367545.0344
        43.000          39.000
 128133587.55947  99844352.05847  24383010.8694   24383012.5244   24383010.4914
        43.000          37.000
 113322026.56747  88302881.45047  21564460.3874   21564463.4974   21564460.5044
        52.000          46.000
 123903827.18647  96548418.07147  23578128.3084   23578132.4024   23578128.3374
        47.000          40.000
 124815305.57147  97258666.53447  23751571.4464   23751573.3794   23751571.9004
        45.000          39.000
 115941720.48447  90344180.53447  22062990.2784   22062993.7024   22062990.2934
        50.000          44.000
 131582314.20947 102531658.10947  25039294.3344   25039298.7984   25039292.0154
        40.000          35.000
 125411407.42147  97723161.80447  23865006.6534   23865012.0274   23865006.9194
        45.000          39.000
 112340538.29147  87538072.13847  21377699.5424   21377703.0254   21377699.1984
        53.000          47.000
 111620373.27947  86976906.67847  21240656.9884   21240658.9334   21240657.2744
        53.000          47.000
 09  1  7  0  2 30.0000000  0 11G24G12G22G 9G30G18G14G31G 5G29G21
 112192620.31347  87422797.11047  21349565.3534   21349569.9154   21349565.4904
        53.000          47.000
 128058056.09647  99785479.43647  24368651.7704   24368656.3454   24368651.3634
        43.000          39.000
 128127523.35647  99839626.78047  24381856.8224   24381858.5414   24381856.6504
        43.000          38.000
 113349268.65647  88324109.07847  21569644.2084   21569647.9494   21569644.1734
        52.000          46.000
 123894852.45947  96541424.79247  23576419.8374   23576424.3994   23576420.3114
        47.000          40.000
 124808881.79647  97253661.01747  23750348.9754   23750350.8574   23750349.3714
        46.000          39.000
 115916056.31547  90324182.57947  22058106.1444   22058109.8074   22058106.2304
        50.000          44.000
 131481487.73347 102453092.13047  25020107.2054   25020112.6694   25020105.5474
        40.000          36.000
 125402593.56147  97716293.92147  23863328.7994   23863334.6574   23863329.7614
        46.000          39.000
 112405102.45447  87588381.87747  21389985.9904   21389989.1074   21389985.7684
        53.000          48.000
 111545063.73347  86918223.93247  21226326.1574   21226328.0634   21226326.5334
        53.000          47.000
 09  1  7  0  3  0.0000000  0 11G24G12G22G 9G30G18G14G31G 5G29G21
 112191698.52947  87422078.84847  21349390.0924   21349394.3924   21349390.1994
        53.000          47.000
 128063749.81147  99789916.17347  24369735.2294   24369739.9094   24369734.4584
        43.000          38.000
 128121294.13447  99834772.89547  24380671.6694   24380672.7654   24380671.9924
        43.000          37.000
 113377042.59247  88345751.13247  21574929.5724   21574932.7384   21574929.6434
        52.000          46.000
 123885668.03447  96534268.10747  23574672.4834   23574676.4154   23574672.1634
        47.000          40.000
 124802237.61047  97248483.75847  23749084.5054   23749086.1974   23749085.2214
        46.000          39.000
 115890869.24347  90304556.39747  22053313.1154   22053317.1314   22053313.4034
        50.000          44.000
 131380546.46347 102374436.69347  25000898.9444   25000903.8364   25000896.6424
        40.000          36.000
 125393648.91647  97709324.12847  23861626.5514   23861632.8134   23861626.8964
        45.000          39.000
 112469913.39547  87638883.90747  21402319.2164   21402322.3714   21402318.9624
        53.000          47.000
 111470015.26347  86859744.62547  21212044.9074   21212046.7924   21212045.3164
        54.000          47.000
 09  1  7  0  3 30.0000000  0 11G24G12G22G 9G30G18G14G31G 5G29G21
 112191211.38147  87421699.26647  21349297.6544   21349301.7474   21349297.7524
        53.000          47.000
 128069322.15147  99794258.31347  24370795.1814   24370800.7964   24370794.8094
        45.000          39.000
 128114897.97247  99829788.94147  24379453.5874   24379455.5084   24379454.3804
        43.000          37.000
 113405348.46947  88367807.67847  21580315.9174   21580319.2224   21580316.1614
        53.000          46.000
 123876274.32847  96526948.35247  23572884.6704   23572889.1494   23572883.9484
        47.000          40.000
 124795372.43047  97243134.30947  23747778.2154   23747780.0764   23747778.6944
        46.000          39.000
 115866158.96947  90285301.75847  22048611.0384   22048614.5214   22048611.4324
        50.000          44.000
 131279492.36847 102295693.33547  24981668.4144   24981673.9794   24981666.7924
        40.000          36.000
 125384574.82547  97702253.44647  23859899.6894   23859905.6214   23859900.3374
        45.000          39.000
 112534968.14347  87689575.91747  21414698.6594   21414701.8274   21414698.3164
        53.000          47.000
 111395230.98647  86801471.18247  21197814.0504   21197815.7344   21197814.5584
        54.000          47.000
 09  1  7  0  4  0.0000000  0 11G24G12G22G 9G30G18G14G31G 5G29G21
 112191157.62847  87421657.39047  21349287.2524   21349291.5674   21349287.3714
        54.000          47.000
 128074771.50047  99798504.60847  24371832.8794   24371837.5304   24371832.9514
        44.000          39.000
 128108331.48747  99824672.26547  24378205.2394   24378205.6974   24378204.9194
        44.000          38.000
 113434183.68947  88390276.70947  21585803.1954   21585806.7254   21585803.3484
        52.000          46.000
 123866669.41547  96519464.02347  23571056.9714   23571061.5514   23571056.0574
        47.000          41.000
 124788283.52947  97237610.48747  23746429.1944   23746431.0914   23746429.5604
        46.000          39.000
 115841922.51247  90266416.32247  22043998.7504   22044002.6124   22043999.1714
        50.000          44.000
 131178325.19247 102216861.84447  24962417.6684   24962422.5194   24962416.3884
        42.000          36.000
 125375370.35147  97695081.16847  23858148.0414   23858153.9484   23858148.5994
        45.000          39.000
 112600261.61847  87740453.95147  21427123.3774   21427126.6024   21427123.1074
        53.000          47.000
 111320711.32847  86743403.92847  21183633.2294   21183635.0924   21183633.5964
        54.000          47.000
 09  1  7  0  4 30.0000000  0 11G24G12G22G 9G30G18G14G31G 5G29G21
 112191544.14647  87421958.59047  21349360.7004   21349364.9724   21349360.8944
        54.000          47.000
 128080105.40947  99802660.95847  24372848.0754   24372852.2414   24372847.7004
        44.000          39.000
 128101599.30547  99819426.49047  24376923.1284   24376924.4684   24376923.2974
        43.000          37.000
 113463554.52047  88413163.09947  21591391.8734   21591395.4214   21591391.9664
        52.000          46.000
 123856859.81647  96511820.20347  23569190.6344   23569194.8474   23569190.1694
        48.000          41.000
 124780976.65047  97231916.82547  23745038.9394   23745040.8824   23745039.4154
        46.000          39.000
 115818165.50447  90247904.47947  22039478.0104   22039481.7554   22039478.2584
        50.000          44.000
 131077052.71347 102137948.29647  24943145.7384   24943150.7964   24943145.2894
        41.000          36.000
 125366042.58947  97687812.81447  23856373.2704   23856379.3094   23856373.7474
        45.000          39.000
 112665796.87047  87791520.37347  21439594.3044   21439597.6254   21439594.2434
        52.000          47.000
 111246465.33947  86685549.93247  21169504.6214   21169506.6794   21169505.0784
        53.000          47.000
 09  1  7  0  5  0.0000000  0 11G24G12G22G 9G30G18G14G31G 5G29G21
 112192365.85347  87422598.89347  21349517.1814   21349521.3704   21349517.4204
        53.000          47.000
 128085319.26847  99806723.75347  24373839.5774   24373844.5764   24373839.4524
        43.000          38.000
 128094694.27947  99814045.97847  24375609.2004   24375610.3384   24375609.0264
        43.000          37.000
 113493454.75447  88436462.00547  21597081.6604   21597085.2834   21597081.6444
        52.000          46.000
 123846839.78547  96504012.41547  23567283.7664   23567288.3824   23567283.6604
        48.000          41.000
 124773445.33547  97226048.29747  23743605.5954   23743607.8964   23743605.9744
        47.000          39.000
 115794881.04147  90229760.85847  22035047.0134   22035050.4804   22035047.3834
        50.000          44.000
 130975671.03247 102058949.64647  24923853.5184   24923858.1514   24923853.3104
        42.000          36.000
 125356586.65447  97680444.60147  23854574.0334   23854579.7454   23854574.8424
        46.000          39.000
 112731564.99947  87842768.26147  21452109.6154   21452112.8324   21452109.0014
        52.000          47.000
 111172489.89347  86627906.74547  21155427.5904   21155429.4594   21155428.0194
        54.000          47.000
 09  1  7  0  5 30.0000000  0 11G24G12G22G 9G30G18G14G31G 5G29G21
 112193627.81047  87423582.25147  21349757.2854   21349761.4184   21349757.3894
        53.000          47.000
 128090417.73347  99810696.63647  24374809.8384   24374814.7054   24374809.4504
        44.000          38.000
 128087618.98647  99808532.81847  24374263.3354   24374264.8254   24374263.1884
        43.000          37.000
 113523888.14547  88460176.35847  21602872.8804   21602876.3454   21602872.9434
        52.000          46.000
 123836614.00847  96496044.29547  23565337.5874   23565342.8024   23565337.4034
        47.000          41.000
 124765693.45947  97220007.90247  23742130.4144   23742132.5344   23742130.7824
        46.000          39.000
 115772072.56647  90211988.13647  22030706.6384   22030710.1604   22030706.8524
        51.000          44.000
 130874185.89547 101979870.40147  24904541.4574   24904545.2374   24904541.2234
        42.000          36.000
 125347007.88347  97672980.66147  23852751.3654   23852757.0904   23852751.8114
        45.000          39.000
 112797566.51647  87894198.00647  21464669.2334   21464672.5854   21464669.0574
        52.000          47.000
 111098791.86947  86570479.73747  21141403.1544   21141405.3974   21141403.4894
        53.000          47.000
 09  1  7  0  6  0.0000000  0 11G24G12G22G 9G30G18G14G31G 5G29G21
 112195327.86347  87424906.97747  21350080.7824   21350084.9714   21350080.9614
        53.000          47.000
 128095399.22647  99814578.37047  24375758.2354   24375762.4064   24375757.8234
        44.000          38.000
 128080369.40947  99802883.82947  24372883.4934   24372884.4234   24372883.5104
        44.000          38.000
 113554851.47247  88484303.65047  21608765.2724   21608768.5034   21608765.1724
        52.000          46.000
 123826179.72947  96487913.71347  23563352.2194   23563356.9464   23563352.0784
        47.000          41.000
 124757717.42247  97213792.82547  23740612.3744   23740614.5784   23740612.6514
        46.000          39.000
 115749736.41547  90194583.44647  22026456.1484   22026459.4514   22026456.3274
        50.000          44.000
 130772595.96447 101900709.52147  24885208.8804   24885214.0994   24885208.7514
        41.000          37.000
 125337304.42347  97665419.56247  23850904.3104   23850910.5894   23850904.9334
        45.000          39.000
 112863795.54747  87945805.03847  21477272.3384   21477275.7784   21477272.2624
        52.000          47.000
 111025371.09447  86513268.76347  21127431.6574   21127433.8664   21127431.9794
        54.000          47.000
 09  1  7  0  6 30.0000000  0 11G24G12G22G 9G30G18G14G31G 5G29G21
 112197471.74047  87426577.54747  21350488.5924   21350493.0194   21350488.6894
        53.000          47.000
 128100269.84547  99818373.70847  24376684.4724   24376689.5604   24376684.4184
        44.000          38.000
 128072948.56947  99797101.41547  24371471.7074   24371471.8544   24371472.0694
        45.000          38.000
 113586348.92047  88508847.14647  21614758.8174   21614762.4684   21614759.0004
        52.000          46.000
 123815542.19447  96479624.75847  23561328.0074   23561332.5634   23561328.4594
        47.000          41.000
 124749521.83147  97207406.67447  23739052.9594   23739055.0124   23739053.0994
        46.000          39.000
 115727876.39747  90177549.77347  22022295.7994   22022299.5104   22022296.0844
        50.000          44.000
 130670908.46747 101821472.62847  24865858.7424   24865862.8314   24865858.4504
        42.000          36.000
 125327482.32547  97657766.00747  23849035.3764   23849040.9034   23849035.5074
        45.000          39.000
 112930253.75647  87997590.64847  21489918.9974   21489922.4124   21489918.5384
        52.000          47.000
 110952235.34747  86456279.88447  21113514.4654   21113516.4824   21113514.8334
        54.000          47.000
 09  1  7  0  7  0.0000000  0 11G24G12G22G 9G30G18G14G31G 5G29G21
 112200057.43947  87428592.38747  21350980.6554   21350984.7754   21350980.9074
        53.000          47.000
 128105027.08647  99822080.71447  24377589.9314   24377594.4624   24377589.8114
        44.000          38.000
 128065352.08347  99791182.13247  24370025.5774   24370027.0404   24370025.7194
        43.000          38.000
 113618377.43147  88533804.45947  21620853.8684   21620857.0554   21620853.8654
        52.000          46.000
 123804698.63047  96471175.25747  23559264.4404   23559269.2224   23559264.1584
        47.000          41.000
 124741103.09547  97200846.63147  23737450.6264   23737453.2624   23737451.2314
        46.000          39.000
 115706489.10647  90160884.44247  22018225.9644   22018229.7544   22018226.1024
        50.000          44.000
 130569121.93447 101742158.60547  24846489.2534   24846493.9114   24846488.5234
        41.000          36.000
 125317539.61647  97650018.48247  23847143.1794   23847149.5684   23847143.9784
        45.000          39.000
 112996934.99547  88049550.04847  21502607.9384   21502611.5164   21502607.6504
        52.000          47.000
 110879384.35947  86399512.89247  21099651.5174   21099653.2484   21099651.8994
        54.000          47.000
 09  1  7  0  7 30.0000000  0 11G24G12G22G 9G30G18G14G31G 5G29G21
 112203085.15647  87430951.66447  21351556.9314   21351560.9864   21351557.0424
        53.000          47.000
 128109672.34647  99825700.46547  24378473.4574   24378478.4484   24378473.0054
        43.000          38.000
 128057578.19447  99785124.61147  24368546.0474   24368547.8824   24368546.1644
        44.000          38.000
 113650936.01047  88559174.80847  21627049.5674   21627052.8134   21627049.6144
        52.000          46.000
 123793648.76247  96462565.00647  23557161.5754   23557166.4034   23557161.1224
        47.000          41.000
 124732460.67647  97194112.30747  23735806.3494   23735808.6704   23735806.8704
        46.000          39.000
 115685573.24347  90144586.46147  22014245.7764   22014249.2774   22014245.9044
        50.000          44.000
 130467237.34647 101662768.17447  24827101.0064   24827105.1424   24827099.8094
        43.000          36.000
 125307477.11347  97642177.61947  23845228.0024   23845234.2524   23845228.8814
        45.000          39.000
 113063835.84947  88101680.57047  21515338.7634   21515342.1574   21515338.7614
        52.000          47.000
 110806820.54847  86342969.67847  21085843.0764   21085844.6794   21085843.5174
        54.000          47.000
 09  1  7  0  8  0.0000000  0 11G24G12G22G 9G30G18G14G31G 5G29G21
 112206558.86347  87433658.45947  21352217.8054   21352221.8924   21352217.9084
        53.000          47.000
 128114209.59047  99829236.05147  24379336.7904   24379342.0084   24379336.6974
        42.000          38.000
 128049628.33547  99778929.96347  24367034.0344   24367034.8614   24367033.6944
        45.000          38.000
 113684027.52647  88584960.43447  21633346.7634   21633349.7294   21633346.8114
        52.000          46.000
 123782396.58547  96453797.11447  23555020.2814   23555024.9914   23555020.2904
        47.000          41.000
 124723597.14547  97187205.67147  23734119.3464   23734121.5924   23734119.5914
        46.000          39.000
 115665130.99047  90128657.51647  22010355.6354   22010359.1514   22010355.8884
        50.000          44.000
 130365260.39347 101583305.75347  24807695.3814   24807699.6854   24807694.2974
        41.000          36.000
 125297299.18447  97634246.80247  23843291.8674   23843297.4504   23843291.6144
        45.000          39.000
 113130956.49547  88153982.36047  21528111.1914   21528114.7854   21528110.9814
        52.000          47.000
 110734549.96347  86286654.95247  21072090.4234   21072092.1584   21072090.7344
        54.000          47.000
 09  1  7  0  8 30.0000000  0 11G24G12G22G 9G30G18G14G31G 5G29G21
 112210477.63547  87436712.05847  21352963.5414   21352967.6724   21352963.7074
        53.000          47.000
 128118638.45947  99832687.18747  24380179.8074   24380184.3914   24380179.5424
        43.000          38.000
 128041499.93047  99772596.18547  24365486.5394   24365487.8874   24365487.1754
        45.000          38.000
 113717649.78847  88611159.62947  21639744.5434   21639748.0284   21639744.6544
        52.000          46.000
 123770940.64947  96444870.44547  23552840.2464   23552845.1744   23552839.9844
        47.000          41.000
 124714510.57447  97180125.23947  23732390.2614   23732392.4314   23732390.8704
        46.000          39.000
 115645159.84847  90113095.67147  22006555.5454   22006558.8864   22006555.6534
        50.000          44.000
 130263191.14347 101503771.45647  24788271.8614   24788275.9244   24788271.3814
        41.000          36.000
 125287005.34947  97626225.66947  23841332.9004   23841338.5974   23841333.2374
        45.000          39.000
 113198291.97347  88206451.54947  21540924.6384   21540928.3254   21540924.2084
        52.000          47.000
 110662573.88847  86230569.71947  21058393.7124   21058395.6384   21058394.1994
        54.000          47.000
 09  1  7  0  9  0.0000000  0 11G24G12G22G 9G30G18G14G31G 5G29G21
 112214843.80447  87440114.28347  21353794.4844   21353798.6304   21353794.4854
        53.000          47.000
 128122961.75447  99836056.07547  24381002.5264   24381006.6984   24381002.5214
        43.000          38.000
 128033193.09947  99766123.38147  24363905.8424   24363907.0304   24363906.0874
        44.000          38.000
 113751803.68147  88637773.07247  21646244.0344   21646247.2714   21646243.9654
        52.000          46.000
 123759282.79347  96435786.43447  23550622.0724   23550626.8754   23550621.5194
        46.000          41.000
 124705201.98747  97172871.81947  23730619.0064   23730621.1344   23730619.7434
        46.000          39.000
 115625660.38247  90097901.36447  22002844.6134   22002848.1474   22002844.8104
        50.000          44.000
 130161033.01847 101424167.94047  24768831.5214   24768836.0024   24768831.4714
        40.000          36.000
 125276598.34047  97618116.36347  23839352.5154   23839357.7854   23839353.3144
        46.000          39.000
 113265840.65847  88259086.87147  21553778.7824   21553782.5184   21553778.6404
        52.000          47.000
 110590896.62647  86174717.33047  21044753.8944   21044756.0754   21044754.2164
        54.000          47.000
 09  1  7  0  9 30.0000000  0 12G24G12G22G 9G30G18G14G31G 5G29G21G 6
 112219659.16547  87443866.52847  21354710.8664   21354715.0964   21354711.0234
        53.000          47.000
 128127181.38847  99839344.15047  24381805.0354   24381810.0254   24381804.4554
        44.000          38.000
 128024707.08447  99759510.95047  24362290.6574   24362292.2224   24362290.7344
        44.000          38.000
 113786489.67447  88664801.14247  21652844.5954   21652847.6004   21652844.4724
        52.000          46.000
 123747424.31447  96426546.10547  23548365.0454   23548370.1274   23548364.8174
        47.000          41.000
 124695672.12847  97165445.98247  23728805.6554   23728808.0224   23728806.2484
        46.000          39.000
 115606632.38847  90083074.43147  21999223.5564   21999227.1504   21999223.7134
        50.000          44.000
 130058788.53447 101344497.12147  24749374.9074   24749380.0484   24749374.8214
        41.000          37.000
 125266080.17247  97609920.42147  23837351.5244   23837356.4634   23837351.7454
        45.000          39.000
 113333600.35347  88311886.62147  21566672.9794   21566676.7044   21566672.7754
        52.000          47.000
 110519521.62647  86119100.46647  21031171.5184   21031173.6924   21031171.9954
        54.000          47.000
 143399152.59157  93947373.97357  25385027.9065   25385033.1965   25385027.7995
        41.000          35.000
 09  1  7  0 10  0.0000000  0 12G24G12G22G 9G30G18G14G31G 5G29G21G 6
 112224921.88047  87447967.36247  21355712.2374   21355716.5744   21355712.3304
        53.000          47.000
 128131296.50447  99842550.83447  24382587.8914   24382593.1884   24382587.7354
        42.000          38.000
 128016038.17247  99752755.99247  24360641.3864   24360642.3784   24360641.2564
        44.000          38.000
 113821705.04647  88692241.71447  21659545.6584   21659548.8654   21659545.8004
        52.000          46.000
 123735363.21447  96417147.88347  23546070.1364   23546074.7484   23546069.9954
        47.000          41.000
 124685917.89347  97157845.29247  23726949.0244   23726951.5754   23726949.7164
        46.000          39.000
 115588072.67747  90068612.39647  21995691.9354   21995695.3064   21995692.4274
        50.000          44.000
 129956457.55747 101264758.92847  24729901.8154   24729906.4754   24729901.3604
        42.000          37.000
 125255449.57747  97601636.89347  23835328.4704   23835333.1854   23835328.4324
        46.000          39.000
 113401565.90747  88364846.78147  21579606.3764   21579610.0494   21579605.8454
        52.000          47.000
 110448449.32947  86063719.46847  21017647.0424   21017648.9684   21017647.4354
        54.000          47.000
 143329801.82847  93893334.39947  25371830.5834   25371835.8304   25371831.7114
        41.000          35.000
 09  1  7  0 10 30.0000000  0 12G24G12G22G 9G30G18G14G31G 5G29G21G 6
 112230634.77547  87452418.98447  21356799.0564   21356803.7964   21356799.1444
        53.000          47.000
 128135309.73247  99845678.08347  24383351.8784   24383356.5534   24383351.3744
        43.000          38.000
 128007187.27947  99745859.24247  24358956.7254   24358957.8734   24358956.9574
        43.000          37.000
 113857451.29547  88720095.95647  21666347.8774   21666351.3324   21666347.8844
        51.000          46.000
 123723102.05047  96407593.76047  23543736.7184   23543741.7164   23543736.7044
        47.000          41.000
 124675941.50347  97150071.50347  23725050.8694   23725052.9604   23725051.4544
        46.000          39.000
 115569982.77947  90054516.43147  21992249.4284   21992252.9644   21992249.5114
        50.000          44.000
 129854043.89547 101184956.28647  24710412.6864   24710417.3564   24710412.5564
        41.000          37.000
 125244710.22747  97593268.62647  23833284.4224   23833289.7734   23833284.6624
        46.000          39.000
 113469735.86947  88417966.21447  21592578.8654   21592582.5174   21592578.7294
        52.000          47.000
 110377684.96947  86008578.41847  21004181.1324   21004182.9684   21004181.5424
        54.000          47.000
 143260718.37447  93839503.12047  25358684.6114   25358690.7734   25358685.6814
        40.000          35.000
 09  1  7  0 11  0.0000000  0 12G24G12G22G 9G30G18G14G31G 5G29G21G 6
 112236798.49847  87457221.89747  21357972.0674   21357976.6624   21357972.1404
        53.000          47.000
 128139222.54447  99848727.10947  24384096.4624   24384101.2224   24384096.3894
        44.000          38.000
 127998153.29147  99738819.78947  24357237.8544   24357238.6434   24357238.0634
        44.000          38.000
 113893728.02347  88748363.56347  21673251.0324   21673254.2914   21673250.9924
        52.000          46.000
 123710641.56247  96397884.35447  23541365.3924   23541370.2244   23541364.7174
        46.000          40.000
 124665742.52947  97142124.27347  23723110.4464   23723111.7844   23723110.8724
        47.000          39.000
 115552361.71047  90040785.79147  21988896.0014   21988899.5994   21988896.3634
        50.000          44.000
 129751549.50347 101105090.74847  24690908.1604   24690912.9574   24690908.0874
        39.000          36.000
 125233863.12347  97584816.38647  23831220.1534   23831225.5114   23831220.9694
        45.000          39.000
 113538107.14247  88471242.51047  21605589.4904   21605593.1224   21605589.4134
        52.000          47.000
 110307231.01247  85953679.24647  20990774.2164   20990776.0444   20990774.5774
        54.000          48.000
 143191902.93747  93785880.66447  25345590.4574   25345594.5314   25345590.1874
        40.000          35.000
 09  1  7  0 11 30.0000000  0 12G24G12G22G 9G30G18G14G31G 5G29G21G 6
 112243413.76247  87462376.66547  21359230.9904   21359235.7114   21359231.1384
        53.000          47.000
 128143036.52547  99851699.13647  24384822.0604   24384827.0084   24384821.4174
        43.000          39.000
 127988934.98147  99731636.74347  24355483.4344   24355484.5354   24355483.1844
        44.000          38.000
 113930534.45347  88777043.92047  21680255.0364   21680258.3224   21680255.1704
        52.000          45.000
 123697981.95547  96388019.75247  23538956.4364   23538961.1454   23538955.9714
        46.000          41.000
 124655320.93947  97134003.58147  23721127.2514   23721128.9854   23721127.5964
        47.000          39.000
 115535208.33347  90027419.58647  21985631.9914   21985635.5514   21985632.1984
        50.000          44.000
 129648976.46947 101025163.91647  24671389.5094   24671393.3954   24671388.7424
        41.000          36.000
 125222909.84347  97576281.41247  23829135.8334   23829141.5394   23829136.5164
        44.000          39.000
 113606677.13847  88524673.65347  21618637.6994   21618641.4524   21618637.3524
        52.000          47.000
 110237090.66947  85899024.44847  20977427.0434   20977428.6794   20977427.6154
        54.000          48.000
 143123356.20547  93732467.60747  25332545.4074   25332550.0984   25332545.7744
        40.000          34.000
 09  1  7  0 12  0.0000000  0 12G24G12G22G 9G30G18G14G31G 5G29G21G 6
 112250482.50247  87467884.78947  21360576.0304   21360580.6944   21360576.2134
        53.000          47.000
 128146753.96747  99854595.91447  24385529.4024   24385534.0554   24385529.4024
        44.000          39.000
 127979532.11847  99724309.86747  24353694.3064   24353695.4644   24353694.3274
        45.000          38.000
 113967871.16047  88806137.48847  21687359.7964   21687363.2054   21687359.8634
        52.000          46.000
 123685125.07447  96378001.41947  23536509.9534   23536514.4754   23536509.8104
        47.000          41.000
 124644677.69947  97125710.17847  23719101.7554   23719103.6684   23719102.0274
        46.000          39.000
 115518522.82947  90014417.95547  21982456.4584   21982460.0944   21982456.7474
        50.000          44.000
 129546327.98347 100945178.26647  24651856.3804   24651859.8994   24651854.9714
        41.000          36.000
 125211852.64747  97567665.47747  23827031.8874   23827036.7114   23827031.7874
        45.000          39.000
 113675443.90847  88578258.12847  21631723.7684   21631727.4924   21631723.3644
        52.000          47.000
 110167267.83647  85844617.05847  20964140.0594   20964141.8394   20964140.4174
        54.000          48.000
 143055080.21247  93679265.48847  25319552.9954   25319558.5504   25319553.7614
        40.000          35.000
 09  1  7  0 12 30.0000000  0 12G24G12G22G 9G30G18G14G31G 5G29G21G 6
 112258004.02347  87473745.72847  21362007.5414   21362011.7834   21362007.7164
        53.000          47.000
 128150374.63947  99857417.29047  24386218.4924   24386223.1034   24386218.0194
        43.000          39.000
 127969941.88847  99716837.02147  24351869.5464   24351870.5314   24351869.6514
        44.000          38.000
 114005736.31547  88835642.83147  21694565.2894   21694568.8454   21694565.2454
        52.000          45.000
 123672070.13847  96367828.77247  23534025.5564   23534030.5314   23534025.7404
        47.000          41.000
 124633811.18147  97117242.77047  23717033.6984   23717035.9444   23717034.0004
        46.000          39.000
 115502302.83247  90001779.05247  21979370.2884   21979373.5344   21979370.5584
        50.000          44.000
 129443604.64747 100865134.28247  24632308.0714   24632311.9784   24632307.6734
        41.000          36.000
 125200691.56047  97558968.58947  23824907.6804   23824912.8154   23824908.3344
        45.000          39.000
 113744402.87747  88631992.36747  21644846.1244   21644849.6894   21644845.8004
        52.000          46.000
 110097763.97447  85790458.22647  20950913.6184   20950915.7034   20950913.9394
        54.000          48.000
 142987074.38547  93626273.88747  25306612.5864   25306617.8814   25306612.9764
        41.000          35.000
 09  1  7  0 13  0.0000000  0 12G24G12G22G 9G30G18G14G31G 5G29G21G 6
 112265980.27147  87479961.00047  21363525.2004   21363529.7084   21363525.3814
        53.000          47.000
 128153901.33247  99860165.43647  24386889.3744   24386893.6544   24386888.9694
        44.000          38.000
 127960164.74647  99709218.48347  24350008.5754   24350010.3974   24350008.6484
        44.000          38.000
 114044130.61547  88865560.50047  21701871.4564   21701874.6704   21701871.4314
        52.000          45.000
 123658819.12147  96357503.34747  23531503.8694   23531508.8504   23531503.7434
        47.000          40.000
 124622722.55047  97108602.29747  23714923.5424   23714925.9674   23714924.2334
        46.000          39.000
 115486548.74247  89989503.19047  21976372.1744   21976375.4434   21976372.3144
        50.000          44.000
 129340809.83747 100785034.59247  24612747.0334   24612750.5224   24612746.4684
        41.000          36.000
 125189429.24647  97550192.81647  23822764.7884   23822769.7784   23822765.1024
        45.000          39.000
 113813552.30047  88685875.01147  21658004.6984   21658008.5004   21658004.5234
        52.000          46.000
 110028583.36447  85736551.27447  20937749.1344   20937750.9654   20937749.5854
        54.000          48.000
 142919340.42147  93573494.15447  25293722.6294   25293728.2724   25293723.1004
        41.000          35.000
 09  1  7  0 13 30.0000000  0 12G24G12G22G 9G30G18G14G31G 5G29G21G 6
 112274412.51847  87486531.59247  21365129.6974   21365134.1174   21365129.8894
        53.000          47.000
 128157335.91247  99862841.82847  24387543.1874   24387547.2734   24387543.2784
        44.000          38.000
 127950199.98747  99701453.77247  24348112.7524   24348113.6664   24348112.8284
        45.000          39.000
 114083053.71747  88895890.22747  21709278.3484   21709281.7284   21709278.3034
        51.000          45.000
 123645373.28047  96347026.09647  23528945.0414   23528950.0604   23528944.5544
        47.000          41.000
 124611412.12247  97099789.01947  23712771.1474   23712773.3924   23712771.7954
        46.000          39.000
 115471260.26947  89977590.15247  21973463.0914   21973466.2074   21973463.3594
        51.000          44.000
 129237946.39747 100704881.40147  24593172.7544   24593176.6064   24593172.6574
        42.000          37.000
 125178067.74747  97541339.74547  23820602.9764   23820607.4314   23820603.3074
        45.000          39.000
 113882889.81747  88739904.22647  21671199.2254   21671202.9314   21671199.0214
        51.000          46.000
 109959729.64147  85682899.03747  20924646.7004   20924648.5654   20924647.0794
        54.000          48.000
 142851880.03347  93520927.57247  25280886.1704   25280891.0184   25280886.0054
        40.000          35.000
 09  1  7  0 14  0.0000000  0 12G24G12G22G 9G30G18G14G31G 5G29G21G 6
 112283302.11847  87493458.56547  21366821.2734   21366825.8774   21366821.3714
        53.000          47.000
 128160680.51047  99865448.07347  24388179.3284   24388183.6294   24388179.5124
        44.000          38.000
 127940047.08047  99693542.47847  24346180.3864   24346181.5484   24346180.6434
        45.000          39.000
 114122505.71347  88926632.08147  21716785.8214   21716789.2104   21716785.7804
        52.000          45.000
 123631733.72047  96336397.91447  23526349.9864   23526354.2234   23526349.7254
        47.000          40.000
 124599880.26147  97090803.18847  23710576.6904   23710578.4144   23710577.2994
        46.000          39.000
 115456436.82247  89966039.45847  21970642.0104   21970645.4864   21970642.0114
        50.000          44.000
 129135016.76047 100624676.60247  24573586.6114   24573589.7244   24573585.7294
        43.000          37.000
 125166608.97947  97532410.87847  23818421.4684   23818427.3384   23818422.4304
        45.000          39.000
 113952413.08947  88794078.18147  21684429.1804   21684432.9324   21684429.3464
        52.000          46.000
 109891206.22347  85629504.18247  20911607.0524   20911608.9354   20911607.4434
        54.000          48.000
 142784694.46247  93468575.14447  25268101.0204   25268106.4224   25268100.8534
        42.000          36.000
 09  1  7  0 14 30.0000000  0 12G24G12G22G 9G30G18G14G31G 5G29G21G 6
 112292646.54147  87500739.94647  21368599.6554   21368603.8864   21368599.6964
        53.000          47.000
 128163933.13647  99867982.64847  24388798.5114   24388802.6764   24388798.6704
        44.000          38.000
 127929701.76847  99685481.24247  24344211.5414   24344213.0564   24344211.8604
        45.000          39.000
 114162483.05847  88957783.29747  21724393.2764   21724396.6834   21724393.1934
        52.000          46.000
 123617898.15047  96325616.98947  23523717.2244   23523721.1944   23523716.8264
        47.000          40.000
 124588124.07147  97081642.54747  23708339.6864   23708341.4144   23708340.4344
        46.000          39.000
 115442074.42447  89954848.03447  21967909.1404   21967912.1574   21967909.6184
        50.000          44.000
 129032019.97647 100544419.47647  24553987.2634   24553989.7994   24553986.2584
        43.000          37.000
 125155051.35747  97523404.97647  23816222.5524   23816227.3174   23816222.9254
        45.000          39.000
 114022116.05347  88848392.16047  21697693.3924   21697697.1654   21697693.1984
        51.000          46.000
 109823012.55047  85576366.26647  20898630.4394   20898632.1994   20898630.7894
        54.000          48.000
 142717781.28347  93416434.99847  25255368.0124   25255374.1384   25255367.8114
        42.000          36.000
 09  1  7  0 15  0.0000000  0 12G24G12G22G 9G30G18G14G31G 5G29G21G 6
 112302450.36247  87508379.28947  21370465.1334   21370469.6424   21370465.3034
        53.000          47.000
 128167099.33847  99870449.89647  24389400.7964   24389405.2934   24389400.5814
        44.000          38.000
 127919167.04347  99677272.40447  24342206.9044   24342208.4164   24342207.1684
        44.000          38.000
 114202989.54947  88989346.83347  21732101.3504   21732104.9724   21732101.4434
        52.000          46.000
 123603871.30847  96314687.00647  23521047.5694   23521051.9104   23521047.5964
        47.000          41.000
 124576147.35347  97072310.07547  23706060.8524   23706062.2994   23706061.2734
        46.000          39.000
 115428176.03547  89944018.16047  21965264.2264   21965267.3734   21965264.2644
        50.000          45.000
 128928962.46347 100464115.02447  24534375.6614   24534378.2864   24534375.6934
        43.000          37.000
 125143400.28147  97514326.25547  23814005.1214   23814010.5064   23814005.8534
        45.000          39.000
 114091999.58047  88902846.83147  21710991.9624   21710995.4214   21710991.9244
        52.000          46.000
 109755155.84647  85523490.92747  20885717.7244   20885719.4994   20885718.1094
        54.000          48.000
 142651145.33347  93364510.85147  25242687.3684   25242692.8784   25242687.7864
        42.000          36.000
 09  1  7  0 15 30.0000000  0 12G24G12G22G 9G30G18G14G31G 5G29G21G 6
 112312707.15147  87516371.60647  21372416.9334   21372421.5394   21372416.9894
        53.000          47.000
 128170173.13447  99872845.13847  24389985.5594   24389990.0124   24389985.5004
        43.000          38.000
 127908434.65447  99668909.53747  24340164.3504   24340165.9564   24340164.4474
        44.000          38.000
 114244016.84147  89021316.19647  21739908.7124   21739911.9154   21739908.8644
        52.000          45.000
 123589646.63947  96303602.87147  23518340.9604   23518345.4024   23518340.3654
        47.000          41.000
 124563942.93647  97062800.15347  23703738.2764   23703739.9274   23703738.5954
        46.000          39.000
 115414733.17547  89933543.25647  21962706.1034   21962709.4554   21962706.3364
        50.000          44.000
 128825838.82547 100383759.01147  24514751.5424   24514754.4814   24514751.7004
        43.000          37.000
 125131649.85347  97505170.11547  23811769.2824   23811774.6314   23811770.0414
        45.000          39.000
 114162053.61247  88957434.37247  21724322.7984   21724326.0424   21724322.5844
        51.000          46.000
 109687631.97747  85470874.94447  20872868.1654   20872870.1134   20872868.5374
        54.000          48.000
 142584780.03047  93312797.60347  25230058.1984   25230064.2924   25230058.7444
        41.000          36.000
 09  1  7  0 16  0.0000000  0 12G24G12G22G 9G30G18G14G31G 5G29G21G 6
 112323430.28547  87524727.29947  21374457.7814   21374461.7914   21374457.8254
        53.000          47.000
 128173168.85447  99875179.54547  24390555.1314   24390559.9704   24390555.0184
        43.000          38.000
 127897515.86647  99660401.44847  24338086.7414   24338088.2134   24338086.5244
        43.000          38.000
 114285576.73047  89053700.56647  21747817.6854   21747820.5244   21747817.8694
        52.000          46.000
 123575237.39047  96292374.91747  23515598.8484   23515603.2004   23515598.1484
        47.000          40.000
 124551523.23047  97053122.49947  23701374.7404   23701376.2734   23701375.1014
        46.000          39.000
 115401757.62747  89923432.49247  21960236.8464   21960239.8674   21960236.9664
        50.000          44.000
 128722663.88747 100303363.02447  24495117.2854   24495121.6824   24495117.8454
        41.000          37.000
 125119814.23347  97495947.59247  23809517.3544   23809522.5344   23809517.6404
        44.000          39.000
 114232287.86447  89012162.34447  21737687.8354   21737691.2844   21737687.2874
        52.000          46.000
 109620455.95847  85418530.00247  20860084.9744   20860086.9204   20860085.4404
        54.000          48.000
 142518698.64347  93261305.60947  25217483.3934   25217488.8064   25217483.7264
        41.000          36.000
 09  1  7  0 16 30.0000000  0 12G24G12G22G 9G30G18G14G31G 5G29G21G 6
 112334612.54847  87533440.76347  21376585.5064   21376589.7804   21376585.7844
        53.000          47.000
 128176079.93447  99877448.01347  24391109.7674   24391113.6954   24391109.2384
        42.000          38.000
 127886402.12247  99651741.43147  24335971.3314   24335972.9404   24335971.8824
        44.000          38.000
 114327660.69947  89086493.30447  21755825.4634   21755828.7414   21755825.6054
        51.000          45.000
 123560636.56047  96280997.68347  23512820.0254   23512824.7474   23512819.8074
        47.000          40.000
 124538880.94647  97043271.39647  23698968.7774   23698970.5864   23698969.2624
        46.000          39.000
 115389240.75247  89913679.14247  21957854.8794   21957857.9784   21957855.0804
        51.000          44.000
 128619432.42147 100222922.99447  24475472.8424   24475476.6774   24475472.7074
        42.000          37.000
 125107887.30747  97486653.91947  23807247.2364   23807252.8964   23807247.2204
        45.000          39.000
 114302691.57847  89067022.36047  21751085.2234   21751088.9394   21751084.9964
        52.000          46.000
 109553623.36347  85366452.66947  20847367.1174   20847369.0884   20847367.5994
        54.000          48.000
 142452894.33047  93210029.52747  25204961.3014   25204966.1374   25204961.6734
        41.000          36.000
 09  1  7  0 17  0.0000000  0 12G24G12G22G 9G30G18G14G31G 5G29G21G 6
 112346256.56047  87542514.02247  21378801.3294   21378805.5164   21378801.5674
        53.000          47.000
 128178910.30247  99879653.57647  24391648.1044   24391652.6194   24391647.6584
        42.000          37.000
 127875094.67547  99642930.49047  24333819.9994   24333821.0624   24333820.1064
        44.000          38.000
 114370270.51947  89119695.79047  21763933.9154   21763936.8504   21763934.0634
        52.000          45.000
 123545847.09547  96269473.47147  23510006.1254   23510010.2254   23510005.7834
        47.000          40.000
 124526017.77547  97033248.16747  23696521.4664   23696522.5194   23696521.7704
        46.000          39.000
 115377183.56547  89904283.97947  21955560.5694   21955563.6904   21955560.7114
        51.000          44.000
 128516148.76647 100142442.27047  24455818.9014   24455822.5874   24455818.0514
        43.000          38.000
 125095872.88447  97477292.05447  23804961.2134   23804966.4634   23804961.5444
        46.000          39.000
 114373264.22547  89122014.01947  21764514.9694   21764518.4164   21764514.7554
        52.000          46.000
 109487139.38947  85314646.98947  20834715.5964   20834717.5474   20834715.9194
        54.000          48.000
 142387370.04847  93158971.66147  25192492.5364   25192497.5404   25192492.6694
        41.000          36.000
 09  1  7  0 17 30.0000000  0 12G24G12G22G 9G30G18G14G31G 5G29G21G 6
 112358362.06247  87551946.89047  21381104.6704   21381108.9724   21381104.9894
        53.000          47.000
 128181660.60647  99881796.74847  24392171.4524   24392175.3844   24392171.1234
        43.000          37.000
 127863591.62747  99633967.12747  24331630.7354   24331632.2164   24331630.5554
        44.000          38.000
 114413404.54847  89153306.74347  21772142.1484   21772145.2094   21772142.3904
        52.000          45.000
 123530869.08647  96257802.34647  23507155.6714   23507160.0414   23507155.4374
        47.000          40.000
 124512933.20647  97023052.42747  23694031.3144   23694032.6864   23694031.9374
        47.000          39.000
 115365584.14947  89895245.53447  21953353.2174   21953356.1814   21953353.7244
        50.000          44.000
 128412814.49047 100061922.08947  24436155.1884   24436158.7104   24436153.8934
        43.000          38.000
 125083771.47047  97467862.39347  23802657.9334   23802663.3674   23802659.0974
        45.000          39.000
 114444001.88547  89177134.27147  21777975.5554   21777979.1784   21777975.2024
        51.000          46.000
 109421006.01847  85263114.50747  20822130.9974   20822132.7534   20822131.4904
        54.000          48.000
 142322125.70447  93108131.91547  25180077.2264   25180082.3444   25180077.1294
        41.000          36.000
 09  1  7  0 18  0.0000000  0 12G24G12G22G 9G30G18G14G31G 5G29G21G 6
 112370928.55847  87561738.97347  21383496.1624   21383500.2204   21383496.3404
        53.000          47.000
 128184330.86747  99883877.53247  24392680.3444   24392684.1184   24392679.4934
        42.000          38.000
 127851890.98747  99624849.76447  24329404.4254   24329405.5884   24329404.5254
        44.000          38.000
 114457060.78747  89187324.62047  21780449.2034   21780452.8644   21780449.3424
        52.000          45.000
 123515702.24047  96245984.07747  23504269.3414   23504273.9534   23504269.0214
        47.000          40.000
 124499626.21147  97012683.35647  23691499.3264   23691500.8904   23691499.7734
        47.000          39.000
 115354440.24347  89886562.02447  21951232.5064   21951235.7954   21951232.5894
        50.000          45.000
 128309430.34847  99981363.05547  24416481.5614   24416485.8344   24416480.8984
        42.000          37.000
 125071583.57047  97458365.34347  23800339.1504   23800344.2274   23800339.4984
        45.000          39.000
 114514900.63047  89232380.04247  21791467.0094   21791470.9624   21791466.8064
        51.000          46.000
 109355225.03547  85211856.61447  20809613.2984   20809615.1394   20809613.6434
        54.000          48.000
 142257160.76847  93057509.91947  25167714.1974   25167719.5134   25167714.5434
        41.000          36.000
 09  1  7  0 18 30.0000000  0 12G24G12G22G 9G30G18G14G31G 5G29G21G 6
 112383959.93047  87571893.29347  21385975.8924   21385980.1394   21385975.9924
        53.000          47.000
 128186925.81347  99885899.65547  24393173.4024   24393177.6504   24393173.1744
        43.000          37.000
 127839994.56347  99615579.88447  24327141.2114   24327141.7214   24327141.0544
        44.000          38.000
 114501241.53847  89221751.20647  21788856.9644   21788859.8064   21788857.0504
        52.000          45.000
 123500350.35147  96234021.62447  23501348.5354   23501352.6824   23501348.0984
        47.000          40.000
 124486099.76247  97002143.30047  23688925.1764   23688926.9774   23688925.5804
        47.000          39.000
 115343753.81847  89878234.99047  21949199.1184   21949202.1154   21949199.2324
        50.000          45.000
 128206001.74047  99900769.36447  24396799.9834   24396803.7554   24396799.1374
        42.000          38.000
 125059313.71147  97448804.43547  23798004.0804   23798009.2594   23798004.4284
        44.000          39.000
 114585960.60447  89287751.43847  21804989.4114   21804993.2364   21804989.3854
        51.000          46.000
 109289802.37347  85160877.92947  20797163.9084   20797165.6184   20797164.3204
        55.000          48.000
 142192478.92147  93007108.47947  25155406.7334   25155411.5604   25155406.2164
        41.000          36.000
 09  1  7  0 19  0.0000000  0 12G24G12G22G 9G30G18G14G31G 5G29G21G 6
 112397454.35147  87582408.43947  21388543.9174   21388548.1764   21388544.0944
        53.000          47.000
 128189445.11147  99887862.82847  24393653.2214   24393656.6024   24393652.6754
        44.000          38.000
 127827899.45647  99606155.15647  24324839.0984   24324840.3004   24324839.4614
        44.000          38.000
 114545944.24747  89256584.50847  21797363.6484   21797366.5824   21797363.9434
        52.000          45.000
 123484812.12947  96221913.95747  23498391.3734   23498395.7254   23498390.8294
        47.000          40.000
 124472352.07847  96991430.83047  23686308.7504   23686310.4354   23686309.3204
        46.000          39.000
 115333521.72247  89870261.97547  21947251.5774   21947255.0524   21947251.7224
        50.000          44.000
 128102529.14047  99820141.40247  24377109.4414   24377113.6214   24377108.8774
        43.000          38.000
 125046961.55147  97439179.40747  23795653.4124   23795658.5764   23795654.1574
        45.000          39.000
 114657176.93147  89343244.67747  21818541.6414   21818545.1314   21818541.0844
        51.000          46.000
 109224738.78347  85110179.04347  20784782.7454   20784784.3554   20784783.1264
        55.000          48.000
 142128079.01747  92956926.75047  25143151.2354   25143156.7644   25143151.6834
        40.000          35.000
 09  1  7  0 19 30.0000000  0 12G24G12G22G 9G30G18G14G31G 5G29G21G 6
 112411413.13247  87593285.41147  21391200.1864   21391204.4374   21391200.3554
        53.000          47.000
 128191890.83147  99889768.64847  24394118.5554   24394122.3034   24394118.0084
        44.000          38.000
 127815605.59047  99596575.56147  24322499.4664   24322500.1884   24322499.8584
        43.000          38.000
 114591168.79847  89291824.44847  21805969.5184   21805972.5364   21805969.6474
        52.000          45.000
 123469089.17447  96209662.36447  23495399.2144   23495403.4274   23495398.6584
        46.000          40.000
 124458384.02947  96980546.67047  23683650.8584   23683652.5364   23683651.1674
        46.000          39.000
 115323743.36147  89862642.52647  21945391.0594   21945394.0204   21945391.4494
        51.000          45.000
 127999015.69147  99739481.61547  24357411.6254   24357415.5984   24357411.0754
        43.000          37.000
 125034529.39047  97429492.03447  23793287.8044   23793292.5954   23793287.8614
        45.000          39.000
 114728547.49647  89398858.09947  21832123.1864   21832126.4374   21832122.9114
        51.000          46.000
 109160038.06747  85059762.91347  20772470.4974   20772472.0814   20772470.8634
        55.000          48.000
 142063962.43347  92906965.78747  25130950.6574   25130954.8254   25130950.1054
        41.000          35.000
 09  1  7  0 20  0.0000000  0 12G24G12G22G 9G30G18G14G31G 5G29G21G 6
 112425837.86547  87604525.46947  21393945.1604   21393949.4034   21393945.3274
        53.000          47.000
 128194265.67947  99891619.24047  24394570.1454   24394573.6264   24394569.7084
        43.000          38.000
 127803112.30547  99586840.60047  24320121.8174   24320123.2644   24320121.7374
        44.000          38.000
 114636915.09847  89327470.94447  21814674.6844   21814677.5544   21814674.8344
        52.000          45.000
 123453183.30147  96197268.22847  23492372.6414   23492376.4074   23492372.0914
        47.000          40.000
 124444196.65047  96969491.58947  23680951.3214   23680952.7504   23680951.5064
        46.000          39.000
 115314418.84447  89855376.70347  21943616.4184   21943619.6164   21943616.5714
        51.000          44.000
 127895464.50647  99658792.41547  24337705.9774   24337710.3874   24337705.9914
        42.000          37.000
 125022019.96547  97419744.46547  23790907.5354   23790912.1044   23790908.2314
        45.000          39.000
 114800070.72647  89454590.48547  21845733.3434   21845736.8304   21845732.9044
        52.000          46.000
 109095704.21147  85009632.64547  20760228.0724   20760229.7564   20760228.4764
        54.000          48.000
 142000130.91047  92857226.97847  25118802.8104   25118809.0324   25118803.3514
        40.000          35.000
 09  1  7  0 20 30.0000000  0 12G24G12G22G 9G30G18G14G31G 5G29G21G 6
 112440727.47947  87616127.77047  21396778.5634   21396782.6934   21396778.7614
        53.000          47.000
 128196569.65347  99893414.64547  24395007.3404   24395012.1634   24395007.2554
        43.000          38.000
 127790418.23047  99576949.15047  24317706.1254   24317707.3404   24317706.2474
        44.000          38.000
 114683180.92747  89363522.26547  21823478.6934   21823481.6344   21823478.7864
        52.000          45.000
 123437094.03047  96184731.19247  23489310.5664   23489314.6724   23489310.4084
        47.000          40.000
 124429788.72047  96958264.66947  23678209.4554   23678211.4054   23678209.8284
        46.000          39.000
 115305545.45447  89848462.42247  21941927.9314   21941930.8784   21941928.3674
        50.000          44.000
 127791876.52947  99578074.57747  24317994.3164   24317998.2674   24317993.6184
        43.000          37.000
 125009433.08747  97409936.52947  23788512.4054   23788517.1214   23788512.5834
        45.000          39.000
 114871741.62147  89510437.92347  21859372.0134   21859375.4264   21859371.9864
        52.000          46.000
 109031738.88647  84959789.55147  20748055.9114   20748057.7014   20748056.2894
        54.000          48.000
 141936583.63747  92807709.62147  25106711.1004   25106715.8664   25106711.1254
        39.000          35.000
 09  1  7  0 21  0.0000000  0 12G24G12G22G 9G30G18G14G31G 5G29G21G 6
 112456082.77947  87628092.94347  21399700.4044   21399704.6324   21399700.5974
        53.000          47.000
 128198804.73147  99895156.35347  24395433.1534   24395437.9914   24395432.2924
        44.000          38.000
 127777522.66647  99566900.68447  24315252.8674   24315253.9124   24315252.5954
        44.000          38.000
 114729966.01247  89399978.19547  21832381.3114   21832384.4114   21832381.5384
        51.000          45.000
 123420822.91447  96172052.44847  23486214.4194   23486218.6894   23486214.1784
        47.000          40.000
 124415160.88747  96946866.38347  23675425.7294   23675427.6384   23675426.1814
        46.000          39.000
 115297122.36347  89841899.02347  21940324.9084   21940327.8754   21940325.0504
        51.000          44.000
 127688254.45547  99497330.15547  24298275.7964   24298279.8194   24298275.2734
        42.000          37.000
 124996770.95747  97400069.97347  23786102.3994   23786107.6474   23786103.2944
        45.000          39.000
 114943558.22747  89566398.90747  21873038.1874   21873041.6394   21873038.1764
        51.000          46.000
 108968145.16247  84910236.00947  20735954.3384   20735956.1534   20735954.6204
        55.000          48.000
 141873321.56947  92758414.50047  25094672.0814   25094676.8244   25094672.7174
        40.000          35.000
 09  1  7  0 21 30.0000000  0 12G24G12G22G 9G30G18G14G31G 5G29G21G 6
 112471905.33247  87640422.21447  21402711.5134   21402715.5764   21402711.6004
        53.000          47.000
 128200973.22847  99896846.15647  24395845.8494   24395850.7714   24395845.6244
        44.000          38.000
 127764425.38247  99556695.03947  24312760.4114   24312760.8284   24312760.7944
        46.000          38.000
 114777270.09847  89436838.54847  21841382.9344   21841386.1324   21841383.1174
        51.000          45.000
 123404371.87947  96159233.53447  23483083.6794   23483087.6634   23483083.5614
        47.000          40.000
 124400314.03647  96935297.42047  23672600.5164   23672602.7684   23672601.0644
        46.000          39.000
 115289149.13847  89835686.16647  21938807.7044   21938810.3664   21938807.9744
        50.000          44.000
 127584601.32047  99416561.50947  24278550.8494   24278555.0804   24278550.7024
        43.000          37.000
 124984036.08247  97390146.73047  23783679.1444   23783683.7344   23783680.0004
        45.000          39.000
 115015518.41147  89622471.77847  21886731.6444   21886735.1894   21886731.0104
        51.000          46.000
 108904926.87847  84860975.01247  20723924.3244   20723925.9824   20723924.7574
        55.000          48.000
 141810346.23447  92709342.85447  25082688.1144   25082693.7684   25082688.7354
        41.000          35.000
 09  1  7  0 22  0.0000000  0 12G24G12G22G 9G30G18G14G31G 5G29G21G 6
 112488195.28447  87653115.68747  21405811.2154   21405815.4424   21405811.3514
        53.000          47.000
 128203076.73647  99898485.33047  24396246.0584   24396250.5054   24396245.8044
        43.000          38.000
 127751125.40747  99546331.47947  24310229.6584   24310229.9664   24310229.9484
        45.000          38.000
 114825092.11547  89474102.47447  21850482.8494   21850486.5624   21850482.9394
        51.000          45.000
 123387741.48047  96146274.82947  23479918.9984   23479923.4854   23479918.7574
        47.000          40.000
 124385248.36147  96923557.96147  23669733.2004   23669735.0404   23669733.6724
        46.000          39.000
 115281625.03047  89829823.25947  21937375.8404   21937378.6554   21937376.2334
        50.000          44.000
 127480919.86047  99335770.82247  24258820.7434   24258825.5894   24258820.3034
        42.000          37.000
 124971230.25347  97380168.19147  23781242.4954   23781247.3744   23781242.8224
        46.000          39.000
 115087619.44147  89678654.39847  21900451.9984   21900455.6154   21900451.7784
        51.000          46.000
 108842086.95747  84812008.85147  20711966.2494   20711968.1184   20711966.6034
        55.000          48.000
 141747658.37247  92660495.19147  25070759.0384   25070764.4364   25070759.4584
        41.000          35.000
 09  1  7  0 22 30.0000000  0 12G24G12G22G 9G30G18G14G31G 5G29G21G 6
 112504952.32347  87666173.12347  21409000.0944   21409004.2954   21409000.3254
        53.000          47.000
 128205115.93447  99900074.36547  24396634.1174   24396638.3354   24396633.1924
        43.000          38.000
 127737621.17247  99535808.73447  24307659.4204   24307660.3534   24307660.0124
        44.000          39.000
 114873430.25947  89511768.58947  21859681.7554   21859684.9044   21859681.9504
        51.000          45.000
 123370931.81947  96133176.43647  23476720.2864   23476724.6974   23476719.5514
        47.000          40.000
 124369963.62547  96911647.79747  23666824.4434   23666826.5034   23666824.9744
        46.000          39.000
 115274547.30347  89824308.18247  21936028.9044   21936031.7854   21936029.2174
        50.000          44.000
 127377211.27547  99254958.98247  24239085.3964   24239089.9604   24239084.7954
        43.000          38.000
 124958353.98147  97370134.77847  23778791.8744   23778797.6094   23778792.3274
        45.000          39.000
 115159857.43747  89734943.74247  21914198.5114   21914202.1264   21914198.3524
        51.000          46.000
 108779627.11047  84763338.85147  20700080.4274   20700082.4384   20700080.7264
        54.000          48.000
 141685257.65247  92611871.24147  25058884.9584   25058889.6004   25058885.3154
        41.000          36.000
 09  1  7  0 23  0.0000000  0 12G24G12G22G 9G30G18G14G31G 5G29G21G 6
 112522177.47747  87679595.32747  21412278.0514   21412282.1604   21412278.2124
        53.000          47.000
 128207093.47147  99901615.37747  24397009.8644   24397014.3524   24397009.8194
        44.000          38.000
 127723912.46947  99525126.66747  24305050.9634   24305051.9394   24305050.9274
        46.000          39.000
 114922284.53547  89549836.88347  21868978.5104   21868981.7274   21868978.5554
        51.000          45.000
 123353944.69147  96119939.77247  23473487.4894   23473491.9994   23473487.1454
        47.000          41.000
 124354460.09847  96899567.15647  23663874.6554   23663876.2234   23663875.0404
        46.000          39.000
 115267915.60547  89819140.66747  21934767.0244   21934770.0614   21934767.2024
        51.000          44.000
 127273479.11047  99174128.77847  24219345.9804   24219350.4644   24219344.6364
        43.000          38.000
 124945409.86547  97360048.48847  23776328.7724   23776333.8824   23776329.0474
        45.000          39.000
 115232230.26747  89791338.15847  21927970.5574   21927974.1104   21927970.0024
        51.000          46.000
 108717551.19047  84714968.00647  20688268.0084   20688269.5924   20688268.4674
        54.000          48.000
 121623156.42357 112563483.11357  25047065.5215   25047070.1205   25047065.7455
        40.000          35.000
 09  1  7  0 23 30.0000000  0 12G24G12G22G 9G30G18G14G31G 5G29G21G 6
 112539872.66647  87693383.79247  21415645.3634   21415649.3254   21415645.5554
        53.000          47.000
 128209012.11647  99903110.51147  24397375.3154   24397379.4364   24397374.9764
        43.000          38.000
 127710000.08647  99514285.88847  24302403.4614   24302403.9154   24302403.8694
        45.000          39.000
 114971655.44647  89588307.74747  21878373.4444   21878376.7554   21878373.5984
        51.000          45.000
 123336782.43147  96106566.63347  23470221.6124   23470226.2924   23470221.3004
        47.000          40.000
 124338739.73747  96887317.55447  23660883.0614   23660885.1014   23660883.2034
        46.000          39.000
 115261730.00847  89814320.75847  21933589.9434   21933592.9464   21933590.0624
        51.000          44.000
 127169726.55047  99093282.68747  24199602.5254   24199606.8084   24199601.4524
        43.000          38.000
 124932400.91047  97349911.67247  23773853.1194   23773858.5524   23773853.3534
        45.000          39.000
 115304736.68347  89847836.66247  21941767.9484   21941771.6454   21941767.5714
        51.000          46.000
 108655863.61847  84666899.78447  20676529.0414   20676530.9684   20676529.4444
        54.000          48.000
 121561334.69947 112515310.31747  25035300.9454   25035306.0594   25035301.1934
        41.000          35.000
 09  1  7  0 24  0.0000000  0 12G24G12G22G 9G30G18G14G31G 5G29G21G 6
 112558035.12447  87707536.35847  21419101.1314   21419105.5114   21419101.2994
        53.000          47.000
 128210870.36247  99904558.56447  24397728.7974   24397733.5844   24397728.7134
        43.000          38.000
 127695879.95147  99503283.21347  24299715.9214   24299717.0234   24299716.0494
        45.000          38.000
 115021538.43047  89627177.63647  21887865.9524   21887869.0924   21887866.0454
        51.000          45.000
 123319442.98347  96093055.43047  23466921.9684   23466926.7074   23466921.7674
        46.000          41.000
 124322799.84947  96874896.87447  23657849.9044   23657852.0324   23657850.1514
        46.000          39.000
 115255986.04747  89809844.98447  21932497.1124   21932499.7164   21932497.2024
        51.000          45.000
 127065953.31747  99012420.48347  24179854.8734   24179859.4724   24179855.0914
        43.000          38.000
 124919325.72347  97339723.24947  23771364.9934   23771370.3204   23771365.3574
        46.000          39.000
 115377370.86347  89904434.72047  21955589.9284   21955593.6764   21955589.9044
        51.000          46.000
 108594564.03747  84619133.88747  20664864.1624   20664865.9964   20664864.4634
        55.000          48.000
 121499801.06447 112467362.02347  25023591.7934   25023597.3214   25023592.0454
        41.000          35.000
 09  1  7  0 24 30.0000000  0 12G24G12G22G 9G30G18G14G31G 5G29G21G 6
 112576668.20247  87722055.64047  21422647.0544   21422651.2604   21422647.1924
        53.000          47.000
 128212673.02847  99905963.31647  24398072.1024   24398076.1804   24398071.3344
        44.000          38.000
 127681553.92047  99492120.11747  24296990.2194   24296990.9824   24296990.2574
        45.000          39.000
 115071935.88147  89666448.41247  21897456.3424   21897459.2084   21897456.5044
        51.000          45.000
 123301930.53147  96079409.41147  23463589.4644   23463594.0554   23463589.0604
        46.000          41.000
 124306643.53347  96862307.55347  23654775.4234   23654777.3864   23654775.8984
        46.000          39.000
 115250685.85247  89805714.99547  21931488.3684   21931491.2894   21931488.8114
        51.000          45.000
 126962164.95147  98931546.49347  24160104.6464   24160109.4084   24160105.2464
        43.000          38.000
 124906188.95047  97329486.83047  23768865.2144   23768870.3594   23768865.6464
        45.000          39.000
 115450133.08547  89961132.55547  21969436.1554   21969439.8274   21969435.6214
        51.000          46.000
 108533658.38247  84571674.95147  20653274.0374   20653275.8204   20653274.4004
        54.000          48.000
 121438559.16047 112419641.03947  25011937.6084   25011943.1794   25011937.8164
        42.000          35.000
 09  1  7  0 25  0.0000000  0 12G24G12G22G 9G30G18G14G31G 5G29G21G 6
 112595771.95347  87736941.68347  21426282.4004   21426286.7344   21426282.3984
        53.000          47.000
 128214421.19347  99907325.59147  24398404.6574   24398408.9964   24398404.0094
        44.000          38.000
 127667021.66647  99480796.33247  24294224.8794   24294225.9894   24294224.9374
        45.000          39.000
 115122846.35647  89706118.94347  21907144.0974   21907146.8264   21907144.3114
        51.000          45.000
 123284245.68947  96065629.05147  23460223.9564   23460228.5834   23460223.4314
        47.000          41.000
 124290270.84847  96849549.63247  23651659.5134   23651661.4814   23651660.2024
        46.000          39.000
 115245827.48547  89801929.29047  21930563.6264   21930566.9894   21930563.7394
        51.000          45.000
 126858363.27647  98850662.12747  24140351.6674   24140356.4564   24140351.6524
        43.000          39.000
 124892992.22547  97319203.69847  23766354.0144   23766359.2634   23766354.2034
        45.000          39.000
 115523020.02947  90017927.57747  21983306.1284   21983309.8054   21983305.7924
        51.000          46.000
 108473149.23547  84524524.96847  20641759.9024   20641761.2864   20641760.2414
        55.000          49.000
 121377609.25947 112372147.58147  25000339.4984   25000345.1254   25000339.4434
        42.000          35.000
 09  1  7  0 25 30.0000000  0 12G24G12G22G 9G30G18G14G31G 5G29G21G 6
 112615343.89347  87752192.55247  21430006.8644   21430011.1174   21430006.9344
        53.000          47.000
 128216114.05847  99908644.76247  24398726.9944   24398730.4704   24398726.6784
        43.000          38.000
 127652279.63247  99469309.04947  24291419.0104   24291420.6154   24291419.0294
        44.000          38.000
 115174266.22947  89746186.41547  21916928.9024   21916931.9254   21916929.1344
        51.000          44.000
 123266386.83947  96051713.11947  23456825.7594   23456830.3074   23456825.4094
        47.000          41.000
 124273679.61147  96836621.41247  23648502.5534   23648503.9304   23648502.8184
        46.000          39.000
 115241406.85847  89798484.68647  21929722.3194   21929725.5274   21929722.5724
        50.000          45.000
 126754548.14547  98769767.27347  24120596.6344   24120601.0124   24120595.0974
        43.000          38.000
 124879734.40147  97308872.96247  23763830.8394   23763835.7204   23763831.1804
        45.000          39.000
 115596026.26247  90074815.55547  21997198.7504   21997202.3114   21997198.6044
        51.000          46.000
 108413036.81347  84477684.13247  20630320.8924   20630322.4114   20630321.2544
        55.000          49.000
 121316949.19847 112324879.99147  24988795.8284   24988800.9684   24988796.2144
        40.000          36.000
 09  1  7  0 26  0.0000000  0 12G24G12G22G 9G30G18G14G31G 5G29G21G 6
 112635388.60647  87767811.81047  21433821.1704   21433825.5004   21433821.3024
        53.000          47.000
 128217757.19947  99909925.19747  24399039.1424   24399043.7254   24399039.2024
        42.000          38.000
 127637330.64547  99457660.51947  24288574.8004   24288575.7494   24288575.0044
        45.000          38.000
 115226198.23547  89786652.94747  21926811.0824   21926813.9984   21926811.3414
        51.000          44.000
 123248358.76247  96037665.29647  23453395.3394   23453399.9684   23453395.4624
        47.000          41.000
 124256873.86047  96823526.05747  23645304.6334   23645306.2554   23645305.1824
        46.000          40.000
 115237426.79647  89795383.38147  21928964.9794   21928967.8564   21928965.1114
        51.000          44.000
 126650726.33647  98688867.20147  24100839.8594   24100844.3214   24100838.3284
        42.000          38.000
 124866421.28247  97298499.14047  23761297.1534   23761302.6214   23761297.7854
        45.000          39.000
 115669152.98047  90131797.41847  22011114.2154   22011118.0224   22011114.0584
        51.000          46.000
 108353327.78547  84431157.63147  20618958.5264   20618960.1464   20618958.7694
        55.000          49.000
 121256583.40447 112277841.69547  24977308.7784   24977313.5754   24977308.1594
        40.000          35.000
 09  1  7  0 26 30.0000000  0 12G24G12G22G 9G30G18G14G31G 5G29G21G 6
 112655903.33447  87783797.31247  21437725.1434   21437729.4514   21437725.2714
        53.000          47.000
 128219349.20347  99911165.77347  24399342.5334   24399346.7644   24399341.8094
        43.000          38.000
 127622171.16847  99445847.97747  24285689.6784   24285690.2554   24285689.8064
        44.000          38.000
 115278638.20947  89827515.29347  21936789.9784   21936793.2454   21936790.2784
        51.000          44.000
 123230159.83147  96023484.34747  23449931.6884   23449936.5144   23449931.6164
        47.000          41.000
 124239851.21947  96810261.68647  23642065.3974   23642066.8224   23642065.9094
        47.000          39.000
 115233882.89147  89792621.93247  21928290.6794   21928293.5064   21928290.8894
        51.000          45.000
 126546897.20847  98607961.42947  24081081.8184   24081085.9914   24081081.5574
        44.000          39.000
 124853051.69547  97288081.30947  23758753.4734   23758758.6264   23758753.6724
        46.000          39.000
 115742394.80347  90188868.97147  22025051.5414   22025055.4894   22025051.3374
        50.000          46.000
 108294022.38447  84384945.63747  20607673.1364   20607674.6814   20607673.6464
        55.000          49.000
 121196509.79447 112231031.07247  24965876.3464   24965883.0744   24965876.4954
        41.000          35.000
 09  1  7  0 27  0.0000000  0 12G24G12G22G 9G30G18G14G31G 5G29G21G 6
 112676889.44147  87800150.12947  21441718.7544   21441722.8294   21441718.9014
        53.000          46.000
 128220893.18347  99912368.92447  24399636.3584   24399640.3234   24399636.3514
        43.000          39.000
 127606802.07347  99433872.11247  24282765.7044   24282765.6444   24282765.6864
        45.000          38.000
 115331586.48047  89868773.71347  21946865.6174   21946868.8624   21946865.7994
        50.000          44.000
 123211792.50247  96009172.16947  23446436.4464   23446441.0034   23446435.7144
        46.000          41.000
 124222613.28947  96796829.55147  23638784.9954   23638786.7484   23638785.2384
        46.000          39.000
 115230775.02047  89790200.25147  21927699.2094   21927701.9954   21927699.4244
        50.000          45.000
 126443064.44047  98527052.82847  24061323.4644   24061326.9724   24061323.9394
        44.000          39.000
 124839628.80747  97277621.95647  23756199.0224   23756204.3034   23756199.7314
        45.000          39.000
 115815750.09247  90246028.93147  22039010.6644   22039014.5964   22039010.5484
        51.000          46.000
 108235124.47847  84339051.17747  20596465.0054   20596466.8944   20596465.3674
        54.000          49.000
 121136730.11847 112184449.45647  24954501.9774   24954506.4454   24954501.2944
        40.000          36.000
 09  1  7  0 27 30.0000000  0 12G24G12G22G 9G30G18G14G31G 5G29G21G 6
 112698346.36447  87816869.81347  21445801.8144   21445805.9344   21445802.0444
        53.000          46.000
 128222389.89647  99913535.25047  24399920.8434   24399924.8844   24399920.4334
        43.000          38.000
 127591221.62447  99421731.52147  24279800.0844   24279800.9964   24279800.1954
        44.000          38.000
 115385041.29647  89910426.84047  21957037.6434   21957040.5064   21957037.5164
        50.000          44.000
 123193257.19547  95994729.09047  23442909.4804   23442913.8014   23442909.0864
        47.000          41.000
 124205159.89647  96783229.51547  23635463.6684   23635465.3664   23635464.3734
        46.000          39.000
 115228101.23647  89788116.82147  21927190.3904   21927193.4624   21927190.4824
        50.000          45.000
 126339229.83047  98446142.78347  24041564.6534   24041568.1204   24041565.1914
        45.000          39.000
 124826153.49647  97267121.75347  23753634.7654   23753640.2854   23753635.3584
        45.000          39.000
 115889215.18147  90303274.46347  22052990.5004   22052994.3754   22052989.9924
        51.000          45.000
 108176636.20447  84293475.90947  20585335.2024   20585337.1684   20585335.6154
        55.000          49.000
 121077244.09847 112138096.71647  24943181.7414   24943186.8204   24943181.2664
        40.000          36.000
 09  1  7  0 28  0.0000000  0 12G24G12G22G 9G30G18G14G31G 5G29G21G 6
 112720276.56947  87833958.29547  21449974.6864   21449978.8494   21449974.7974
        52.000          46.000
 128223843.54647  99914668.05247  24400197.4174   24400201.1324   24400197.2364
        44.000          38.000
 127575431.69347  99409427.71047  24276796.0264   24276795.9634   24276796.0714
        44.000          38.000
 115439003.35347  89952475.22347  21967306.5184   21967309.4324   21967306.4964
        50.000          44.000
 123174556.94847  95980157.48847  23439350.9674   23439355.2034   23439350.8814
        47.000          41.000
 124187493.20347  96769463.27547  23632101.6874   23632103.5144   23632102.4954
        46.000          39.000
 115225862.00147  89786371.99447  21926764.0684   21926767.2204   21926764.3294
        51.000          45.000
 126235398.19647  98365235.05947  24021806.0894   24021809.5794   24021806.6364
        44.000          39.000
 124812629.68147  97256583.76447  23751061.0514   23751066.3614   23751061.6764
        45.000          39.000
 115962789.61147  90360605.18547  22066991.2604   22066995.2044   22066990.9434
        51.000          45.000
 108118562.83847  84248223.94547  20574284.1884   20574286.0664   20574284.5744
        55.000          49.000
 121018054.37247 112091974.82047  24931918.0394   24931923.2734   24931918.0994
        39.000          36.000
 09  1  7  0 28 30.0000000  0 12G24G12G22G 9G30G18G14G31G 5G29G21G 6
 112742678.42547  87851414.29147  21454237.7404   21454241.9424   21454237.8814
        52.000          46.000
 128225253.78847  99915767.00147  24400466.0574   24400469.8804   24400465.7174
        44.000          38.000
 127559429.06447  99396958.18747  24273750.9774   24273751.3354   24273750.7624
        44.000          38.000
 115493469.95147  89994916.75347  21977671.0054   21977674.4344   21977671.0074
        50.000          44.000
 123155691.07947  95965456.83747  23435760.4484   23435765.4474   23435760.2224
        47.000          41.000
 124169612.14347  96755530.00047  23628698.8074   23628700.6674   23628699.1804
        46.000          39.000
 115224053.95147  89784963.16647  21926420.1094   21926422.8754   21926420.4464
        50.000          45.000
 126131570.16347  98284330.13747  24002048.2924   24002051.7564   24002047.9844
        45.000          39.000
 124799057.41647  97246008.00747  23748478.6494   23748483.5254   23748478.8154
        46.000          39.000
 116036468.86747  90418017.58647  22081012.2134   22081015.8814   22081011.9734
        51.000          45.000
 108060905.22747  84203295.94747  20563312.2074   20563314.1134   20563312.4874
        55.000          49.000
 120959159.66247 112046082.83847  24920710.4494   24920715.8184   24920710.4184
        39.000          35.000
 09  1  7  0 29  0.0000000  0 12G24G12G22G 9G30G18G14G31G 5G29G21G 6
 112765551.88047  87869237.76747  21458590.2084   21458594.6524   21458590.1364
        53.000          46.000
 128226622.08947  99916833.28347  24400726.1554   24400729.7174   24400725.9814
        43.000          38.000
 127543212.95047  99384322.27247  24270664.2484   24270665.7974   24270664.3034
        44.000          38.000
 115548439.44947  90037750.14347  21988131.3524   21988134.5364   21988131.4574
        50.000          44.000
 123136660.59647  95950627.89047  23432139.4184   23432144.1644   23432138.7924
        47.000          41.000
 124151516.84747  96741429.79247  23625255.4344   23625257.6874   23625255.7944
        47.000          39.000
 115222675.74747  89783889.26847  21926157.6764   21926160.9304   21926157.8494
        51.000          45.000
 126027748.17047  98203429.91947  23982291.8054   23982295.1504   23982291.2114
        44.000          39.000
 124785438.21147  97235395.68647  23745886.8344   23745891.8684   23745887.7444
        45.000          39.000
 116110250.17147  90475509.50347  22095052.4354   22095055.8104   22095052.2734
        50.000          45.000
 108003665.80747  84158693.81547  20552420.0374   20552421.8574   20552420.4814
        55.000          49.000
 120900560.25347 112000420.95247  24909559.3504   24909565.1814   24909559.9704
        40.000          35.000
 09  1  7  0 29 30.0000000  0 12G24G12G22G 9G30G18G14G31G 5G29G21G 6
 112788898.60347  87887430.02347  21463033.2674   21463037.5094   21463033.4664
        53.000          46.000
 128227952.05547  99917869.68547  24400979.0614   24400982.6624   24400979.2514
        44.000          38.000
 127526784.67647  99371521.03547  24267538.7024   24267538.8744   24267538.3814
        44.000          38.000
 115603912.20347  90080975.68947  21998687.7714   21998690.3664   21998687.9294
        51.000          44.000
 123117468.47147  95935672.98847  23428487.2394   23428491.7524   23428486.7744
        47.000          41.000
 124133208.83347  96727163.83247  23621771.5974   23621773.5214   23621772.0624
        46.000          39.000
 115221727.03947  89783150.04847  21925977.5474   21925980.3654   21925977.8684
        51.000          45.000
 125923936.03847  98122537.39747  23962536.6574   23962540.2974   23962536.7704
        45.000          39.000
 124771775.35847  97224749.35847  23743286.7894   23743291.7834   23743287.0914
        45.000          39.000
 116184132.10547  90533079.84147  22109111.4974   22109115.1754   22109111.1684
        51.000          45.000
 107946849.05847  84114421.03447  20541607.8584   20541609.8624   20541608.3514
        54.000          49.000
 120842258.19047 111954990.75447  24898465.5954   24898471.2754   24898465.6944
        40.000          35.000
 09  1  7  0 30  0.0000000  0 12G24G12G22G 9G30G18G14G31G 5G29G21G 6
 112812717.13747  87905989.92147  21467565.7834   21467570.0544   21467565.9124
        53.000          46.000
 128229243.19447  99918875.82447  24401224.8014   24401228.7754   24401224.7004
        44.000          38.000
 127510141.68147  99358552.52047  24264371.1594   24264371.9714   24264371.3184
        43.000          38.000
 115659885.10147  90124590.95647  22009338.9424   22009341.6784   22009339.0004
        51.000          44.000
 123098114.04747  95920591.61247  23424804.3894   23424808.9714   23424804.6624
        47.000          41.000
 124114687.24247  96712731.43247  23618247.4644   23618248.9744   23618247.6324
        46.000          39.000
 115221204.96847  89782743.27547  21925877.8664   21925880.7984   21925878.0824
        51.000          45.000
 125820134.93747  98041653.46847  23942783.4574   23942787.4864   23942783.4254
        44.000          39.000
 124758069.15747  97214069.26447  23740678.4814   23740683.5014   23740678.9964
        46.000          39.000
 116258110.31447  90590725.18847  22123189.1934   22123192.7954   22123189.1154
        51.000          45.000
 107890456.08947  84070478.46847  20530876.7284   20530878.6454   20530877.0804
        54.000          49.000
 120784252.28747 111909791.28647  24887427.5624   24887432.7034   24887427.2574
        42.000          35.000
 09  1  7  0 30 30.0000000  0 12G24G12G22G 9G30G18G14G31G 5G29G21G 6
 112837010.34847  87924919.69647  21472188.5884   21472192.7984   21472188.7584
        52.000          46.000
 128230500.23147  99919855.42947  24401463.9384   24401468.0384   24401463.4764
        44.000          39.000
 127493286.33847  99345418.52247  24261163.2074   24261165.2284   24261163.5524
        43.000          37.000
 115716359.88647  90168597.30647  22020085.6584   22020088.6784   22020085.9844
        51.000          44.000
 123078601.14647  95905386.76047  23421091.2634   23421095.8314   23421091.2694
        47.000          41.000
 124095955.81447  96698135.53247  23614682.6984   23614684.4904   23614683.1904
        46.000          40.000
 115221110.67447  89782669.83447  21925860.1684   21925862.8894   21925860.3884
        51.000          45.000
 125716349.62647  97960781.84147  23923033.9054   23923037.9954   23923032.7584
        44.000          39.000
 124744324.08547  97203358.86947  23738063.1994   23738068.1064   23738063.7684
        45.000          39.000
 116332184.73947  90648445.52147  22137285.2084   22137288.6414   22137285.1834
        51.000          45.000
 107834492.41947  84026870.42147  20520227.0624   20520229.0724   20520227.4174
        54.000          49.000
 120726545.65847 111864825.05347  24876445.5004   24876451.0024   24876446.1704
        41.000          35.000
 09  1  7  0 31  0.0000000  0 12G24G12G22G 9G30G18G14G31G 5G29G21G 6
 112861775.29347  87944217.06447  21476901.2414   21476905.5684   21476901.3914
        53.000          46.000
 128231721.75847  99920807.38947  24401696.2284   24401699.6964   24401696.0144
        43.000          38.000
 127476215.23847  99332116.39647  24257915.1954   24257915.8434   24257915.0594
        43.000          38.000
 115773332.15947  90212991.30647  22030927.2184   22030929.9574   22030927.4734
        50.000          44.000
 123058927.99747  95890057.05447  23417347.3694   23417351.9964   23417347.1984
        47.000          41.000
 124077011.23247  96683373.52747  23611077.4304   23611079.3514   23611077.8004
        46.000          40.000
 115221439.47547  89782926.08847  21925922.5454   21925925.2764   21925922.7054
        51.000          45.000
 125612580.18247  97879922.57147  23903286.9364   23903290.8994   23903286.0214
        44.000          39.000
 124730539.03247  97192617.32447  23735439.7094   23735444.7984   23735440.1684
        45.000          39.000
 116406349.80447  90706236.48947  22151398.1874   22151401.4644   22151397.6794
        50.000          45.000
 107778957.65047  83983596.58747  20509659.1344   20509661.0284   20509659.4464
        54.000          49.000
 120669135.84547 111820090.07947  24865521.3064   24865526.6044   24865521.6524
        41.000          34.000
 09  1  7  0 31 30.0000000  0 12G24G12G22G 9G30G18G14G31G 5G29G21G 6
 112887013.14047  87963882.92847  21481703.9644   21481708.1054   21481704.0094
        52.000          46.000
 128232910.89047  99921734.08447  24401922.7944   24401926.2594   24401922.0944
        43.000          38.000
 127458928.06347  99318645.92147  24254625.2274   24254626.2294   24254625.0414
        43.000          38.000
 115830801.57847  90257772.68847  22041863.2144   22041866.1064   22041863.3234
        50.000          44.000
 123039096.99647  95874604.30547  23413573.8934   23413578.1754   23413573.3054
        47.000          41.000
 124057855.46047  96668446.95847  23607432.5404   23607434.1074   23607432.6324
        46.000          40.000
 115222191.19847  89783511.89047  21926065.5764   21926068.6084   21926065.8094
        51.000          45.000
 125508830.47647  97799078.67747  23883544.5404   23883547.9554   23883543.7984
        45.000          39.000
 124716716.93047  97181846.92047  23732809.0354   23732814.2204   23732809.5064
        45.000          39.000
 116480604.05947  90764096.94947  22165528.2594   22165531.9464   22165527.9514
        51.000          45.000
 107723856.17047  83940660.37047  20499174.1044   20499175.6114   20499174.5014
        54.000          49.000
 120612024.35547 111775587.58147  24854653.5294   24854658.7584   24854653.8384
        42.000          35.000
 09  1  7  0 32  0.0000000  0 12G24G12G22G 9G30G18G14G31G 5G29G21G 6
 112912725.33347  87983918.41347  21486596.4984   21486601.0564   21486596.5874
        52.000          46.000
 128234070.72547  99922637.95747  24402142.7484   24402146.9684   24402142.3104
        43.000          38.000
 127441426.50347  99305008.37647  24251295.0334   24251296.0134   24251294.7364
        43.000          38.000
 115888768.54147  90302941.76147  22052893.8284   22052896.8464   22052894.0634
        51.000          44.000
 123019110.99247  95859030.80547  23409770.9814   23409774.7124   23409770.7584
        47.000          41.000
 124038490.53647  96653357.43547  23603747.4284   23603749.1134   23603747.8284
        46.000          39.000
 115223365.79747  89784427.20547  21926289.0074   21926292.1044   21926289.3984
        51.000          45.000
 125405104.36947  97718253.19447  23863806.0174   23863809.7664   23863805.8344
        45.000          40.000
 124702861.14547  97171050.26547  23730172.1554   23730177.3304   23730172.7174
        44.000          39.000
 116554946.14547  90822025.84647  22179675.2194   22179678.6854   22179674.8964
        51.000          45.000
 107669191.73547  83898064.71647  20488771.5874   20488773.4174   20488771.9434
        55.000          49.000
 120555213.12547 111731319.07547  24843843.0214   24843848.2994   24843842.3864
        41.000          35.000
 09  1  7  0 32 30.0000000  0 12G24G12G22G 9G30G18G14G31G 5G29G21G 6
 112938908.39947  88004320.80847  21491578.9404   21491583.2334   21491578.9684
        52.000          46.000
 128235199.59147  99923517.66247  24402357.3144   24402361.7864   24402357.4264
        43.000          38.000
 127423706.40747  99291200.54247  24247922.6574   24247923.5894   24247922.8454
        42.000          37.000
 115947227.92447  90348494.55447  22064018.4744   22064021.0364   22064018.5434
        50.000          44.000
 122998967.52647  95843334.61647  23405937.7874   23405941.5364   23405937.5814
        47.000          41.000
 124018913.62947  96638102.70747  23600021.8944   23600023.7474   23600022.3384
        46.000          39.000
 115224957.85747  89785667.81747  21926591.8934   21926594.9694   21926592.0594
        51.000          45.000
 125301400.89747  97637445.33147  23844071.9484   23844075.1914   23844071.6664
        45.000          40.000
 124688969.99047  97160226.07247  23727528.5744   23727533.5724   23727529.3864
        45.000          39.000
 116629370.04347  90880018.50547  22193837.7244   22193840.9264   22193837.4244
        50.000          45.000
 107614963.94047  83855809.29647  20478452.5224   20478454.1644   20478452.9614
        55.000          49.000
 120498699.05247 111687282.10047  24833088.5854   24833093.3824   24833088.6024
        42.000          35.000
 09  1  7  0 33  0.0000000  0 12G24G12G22G 9G30G18G14G31G 5G29G21G 6
 112965566.24747  88025093.15847  21496651.7834   21496655.8914   21496652.0254
        52.000          46.000
 128236303.22347  99924377.72947  24402567.4084   24402571.4914   24402567.7154
        44.000          38.000
 127405770.63047  99277224.65147  24244509.5734   24244510.2874   24244509.7674
        44.000          37.000
 116006182.39847  90394433.12847  22075236.9174   22075239.6104   22075237.1614
        50.000          44.000
 122978671.74147  95827519.72947  23402075.3834   23402079.7854   23402075.0054
        47.000          41.000
 123999129.07247  96622686.17247  23596257.1484   23596258.8284   23596257.4684
        46.000          39.000
 115226970.04747  89787235.81347  21926974.8664   21926977.7594   21926975.1924
        51.000          45.000
 125197726.43247  97556660.07447  23824343.4154   23824347.0504   23824342.5084
        45.000          40.000
 124675049.32847  97149378.86447  23724880.0774   23724885.0124   23724880.7844
        45.000          39.000
 116703877.05547  90938075.92547  22208015.6794   22208018.9934   22208015.4714
        51.000          45.000
 107561179.11247  83813899.04947  20468217.4194   20468219.1244   20468217.8094
        54.000          49.000
 120442486.36947 111643480.00647  24822391.8564   24822396.5854   24822391.8124
        41.000          35.000
 09  1  7  0 33 30.0000000  0 12G24G12G22G 9G30G18G14G31G 5G29G21G 6
 112992697.38047  88046234.30647  21501814.6464   21501818.9934   21501814.8914
        53.000          46.000
 128237381.76947  99925218.27447  24402772.7114   24402776.7714   24402772.2004
        43.000          38.000
 127387617.11747  99263079.09847  24241055.4204   24241055.6204   24241055.7444
        44.000          38.000
 116065629.09547  90440755.26347  22086549.2874   22086552.0194   22086549.4354
        50.000          44.000
 122958223.59847  95811586.14147  23398184.0024   23398188.5264   23398183.6824
        47.000          41.000
 123979135.96247  96607107.12847  23592452.2064   23592454.5204   23592452.6794
        46.000          39.000
 115229398.97147  89789128.53147  21927437.0384   21927440.0364   21927437.0924
        51.000          45.000
 125094082.46547  97475898.59547  23804620.5154   23804624.3534   23804619.8174
        45.000          40.000
 124661099.43847  97138508.90347  23722225.5814   23722230.5114   23722226.2724
        46.000          39.000
 116778463.09047  90996194.91247  22222209.1484   22222212.2474   22222208.7254
        50.000          45.000
 107507838.66747  83772335.07447  20458066.9074   20458068.7974   20458067.2734
        54.000          49.000
 120386574.06447 111599911.96747  24811751.5274   24811757.0314   24811751.7404
        42.000          35.000
 09  1  7  0 34  0.0000000  0 12G24G12G22G 9G30G18G14G31G 5G29G21G 6
 113020301.11747  88067743.71547  21507067.5994   21507071.6894   21507067.5814
        52.000          46.000
 128238436.07547  99926039.89047  24402973.0734   24402977.1694   24402972.4414
        43.000          38.000
 127369244.92747  99248763.14847  24237558.8714   24237559.4264   24237559.4424
        43.000          38.000
 116125565.93547  90487459.31447  22097954.9424   22097957.8794   22097954.7974
        50.000          44.000
 122937623.51047  95795534.14647  23394263.8694   23394268.1594   23394263.7384
        47.000          41.000
 123958933.65347  96591365.08147  23588608.1434   23588609.9084   23588608.4254
        46.000          40.000
 115232242.53247  89791344.35547  21927977.8314   21927980.7084   21927977.9294
        50.000          45.000
 124990470.73047  97395162.22847  23784903.7114   23784907.8314   23784903.2344
        45.000          40.000
 124647121.54747  97127617.11347  23719566.0984   23719570.3114   23719566.6534
        45.000          39.000
 116853124.38747  91054372.54147  22236416.5164   22236419.7484   22236416.3904
        50.000          45.000
 107454944.22547  83731118.63047  20448001.5254   20448003.2924   20448001.8164
        54.000          49.000
 120330961.95547 111556577.85947  24801169.7634   24801174.3344   24801169.6624
        42.000          35.000
 09  1  7  0 34 30.0000000  0 12G24G12G22G 9G30G18G14G31G 5G29G21G 6
 113048379.64247  88089623.09447  21512410.5754   21512414.8104   21512410.6464
        52.000          46.000
 128239470.74447  99926846.23447  24403170.2334   24403173.7994   24403170.0984
        44.000          38.000
 127350655.53847  99234277.93747  24234021.9124   24234022.2924   24234021.4304
        43.000          37.000
 116185993.61847  90534545.84147  22109453.6614   22109456.7954   22109453.9014
        50.000          44.000
 122916874.79547  95779366.33447  23390315.7334   23390319.7904   23390315.2064
        47.000          41.000
 123938525.38347  96575462.54447  23584724.6344   23584726.5494   23584724.9124
        47.000          40.000
 115235501.34947  89793883.75547  21928597.9834   21928600.8624   21928598.3654
        50.000          45.000
 124886896.36247  97314454.97347  23765194.1624   23765198.2964   23765193.4644
        45.000          40.000
 124633119.78547  97116706.72347  23716900.6674   23716905.5974   23716901.2464
        45.000          39.000
 116927860.75147  91112608.66847  22250638.6374   22250641.7314   22250638.3654
        50.000          45.000
 107402501.17447  83690253.92247  20438021.9024   20438023.6984   20438022.3284
        54.000          49.000
 120275652.37247 111513479.50847  24790643.1904   24790649.9664   24790644.1254
        40.000          35.000
 09  1  7  0 35  0.0000000  0 12G24G12G22G 9G30G18G14G31G 5G29G21G 6
 113076928.42347  88111868.91047  21517843.2254   21517847.5214   21517843.3264
        52.000          46.000
 128240482.39147  99927634.61847  24403362.9504   24403366.2704   24403363.3184
        43.000          38.000
 127331844.29447  99219619.85847  24230442.2814   24230442.9084   24230441.4364
        43.000          38.000
 116246906.17647  90582010.19847  22121045.1784   22121048.0914   22121045.4264
        50.000          44.000
 122895974.57147  95763080.46547  23386338.3154   23386342.1764   23386337.6694
        47.000          41.000
 123917907.26147  96559396.48347  23580801.5604   23580803.2124   23580801.8624
        47.000          40.000
 115239168.82547  89796741.59047  21929295.9084   21929298.5184   21929296.0594
        51.000          45.000
 124783357.15447  97233775.12347  23745491.0644   23745495.3054   23745490.4414
        45.000          40.000
 124619091.48947  97105775.66647  23714231.4394   23714236.4514   23714231.9174
        46.000          40.000
 117002665.05447  91170897.74247  22264873.2714   22264876.4394   22264873.1124
        50.000          45.000
 107350507.44347  83649739.33147  20428127.9854   20428129.7134   20428128.4034
        55.000          49.000
 120220641.14547 111470613.64047  24780175.2504   24780181.2124   24780175.5974
        40.000          35.000
 09  1  7  0 35 30.0000000  0 12G24G12G22G 9G30G18G14G31G 5G29G21G 6
 113105953.18047  88134485.61147  21523366.5834   21523370.7334   21523366.8114
        52.000          46.000
 128241478.86647  99928411.18347  24403552.3884   24403555.6964   24403552.4714
        43.000          38.000
 127312816.27047  99204792.88347  24226820.6864   24226821.8804   24226820.0004
        43.000          37.000
 116308307.91247  90629855.73147  22132729.3904   22132732.1504   22132729.4844
        50.000          44.000
 122874929.99647  95746682.11947  23382333.3874   23382337.5004   23382333.2204
        48.000          41.000
 123897085.65247  96543171.86847  23576838.9574   23576840.9494   23576839.2314
        47.000          40.000
 115243249.46047  89799921.36347  21930072.3884   21930075.4214   21930072.5474
        51.000          45.000
 124679861.54247  97153129.24147  23725796.7094   23725801.0264   23725796.4684
        45.000          40.000
 124605044.44247  97094829.99447  23711558.4444   23711563.4574   23711559.2944
        45.000          40.000
 117077540.69247  91229242.40147  22279121.6034   22279125.1794   22279121.1804
        50.000          45.000
 107298971.70647  83609581.62247  20418321.0204   20418322.7144   20418321.4344
        55.000          49.000
 120165934.48947 111427985.08747  24769765.6064   24769770.0514   24769765.3734
        41.000          36.000
 09  1  7  0 36  0.0000000  0 12G24G12G22G 9G30G18G14G31G 5G29G21G 6
 113135444.96047  88157466.22147  21528978.6654   21528982.8664   21528978.8404
        52.000          46.000
 128242453.28747  99929170.58647  24403737.7764   24403741.1074   24403737.3024
        44.000          38.000
 127293562.47147  99189789.93847  24223156.8494   24223158.0594   24223157.0154
        44.000          38.000
 116370188.34147  90678074.26247  22144504.6244   22144507.5784   22144504.6144
        50.000          44.000
 122853733.80547  95730165.62947  23378300.0704   23378304.1564   23378300.2634
        48.000          41.000
 123876052.38247  96526782.32647  23572836.2884   23572838.3574   23572836.8194
        47.000          40.000
 115247732.70947  89803414.87347  21930925.5634   21930928.3834   21930926.0454
        51.000          45.000
 124576403.63647  97072512.74247  23706109.5604   23706113.2374   23706109.3414
        46.000          40.000
 124590971.73447  97083864.32647  23708880.7424   23708884.9544   23708881.2284
        45.000          40.000
 117152476.20147  91287633.71647  22293381.4914   22293384.7594   22293380.9904
        50.000          45.000
 107247888.17047  83569776.27347  20408600.0684   20408601.9324   20408600.4594
        55.000          49.000
 120111524.15047 111385587.43747  24759411.7394   24759417.0874   24759412.0204
        42.000          36.000
 09  1  7  0 36 30.0000000  0 12G24G12G22G 9G30G18G14G31G 5G29G21G 6
 113165413.48247  88180818.32447  21534681.3834   21534685.6304   21534681.5894
        52.000          46.000
 128243417.27547  99929921.85347  24403921.3564   24403924.3824   24403920.8054
        44.000          39.000
 127274092.97547  99174618.95047  24219452.3094   24219452.7974   24219452.2014
        44.000          38.000
 116432555.92547  90726672.40147  22156373.0594   22156375.7964   22156373.1894
        50.000          44.000
 122832397.17247  95713539.73247  23374239.4554   23374244.2004   23374239.1794
        47.000          41.000
 123854818.10347  96510236.16347  23568795.6634   23568797.1574   23568796.3084
        47.000          40.000
 115252626.41747  89807228.20947  21931856.5134   21931859.5924   21931856.6704
        50.000          45.000
 124472995.85147  96991935.28947  23686431.6044   23686435.4274   23686431.3434
        46.000          40.000
 124576885.13647  97072887.85047  23706199.4704   23706204.9554   23706199.7034
        45.000          39.000
 117227478.48447  91346077.05447  22307653.9874   22307657.1294   22307653.7714
        50.000          45.000
 107197268.64547  83530332.48947  20398967.6134   20398969.3514   20398967.8984
        55.000          49.000
 120057419.76847 111343428.23047  24749115.8834   24749121.4794   24749115.9624
        42.000          36.000
 09  1  7  0 37  0.0000000  0 12G24G12G22G 9G30G18G14G31G 5G29G21G 6
 113195856.70347  88204540.32547  21540474.4604   21540478.8984   21540474.7164
        52.000          46.000
 128244370.75847  99930664.93347  24404103.0384   24404106.1844   24404102.4694
        44.000          39.000
 127254403.79747  99159276.76447  24215705.1874   24215706.7364   24215705.4044
        43.000          37.000
 116495407.04747  90775647.32247  22168333.1814   22168336.1544   22168333.3694
        50.000          44.000
 122810919.23347  95696803.72647  23370152.8224   23370156.8854   23370152.3994
        47.000          41.000
 123833381.48047  96493532.31847  23564716.5964   23564718.0514   23564716.8104
        47.000          40.000
 115257927.17647  89811358.74247  21932865.3104   21932868.1874   21932865.5754
        51.000          45.000
 124369639.19047  96911397.66947  23666763.5774   23666766.9814   23666763.3034
        46.000          41.000
 124562784.63247  97061900.53647  23703516.5984   23703521.4894   23703517.0914
        46.000          40.000
 117302543.09347  91404568.95347  22321938.4144   22321941.6804   22321938.0554
        50.000          45.000
 107147113.77247  83491250.77847  20389423.3844   20389425.0614   20389423.7044
        55.000          49.000
 120003620.23847 111301506.55947  24738878.8704   24738883.1624   24738878.2844
        43.000          37.000
 09  1  7  0 37 30.0000000  0 12G24G12G22G 9G30G18G14G31G 5G29G21G 6
 113226771.25947  88228629.59147  21546357.3344   21546361.6454   21546357.4204
        52.000          46.000
 128245312.31247  99931398.71647  24404282.0624   24404285.0444   24404281.6714
        44.000          39.000
 127234491.94047  99143761.08347  24211916.2194   24211916.4654   24211916.1704
        44.000          37.000
 116558737.18447  90824995.50047  22180384.6594   22180387.1054   22180384.8654
        50.000          44.000
 122789298.20947  95679956.24847  23366038.8324   23366042.1434   23366038.6164
        48.000          41.000
 123811740.13747  96476668.95647  23560598.2644   23560600.0994   23560598.7554
        48.000          40.000
 115263630.32547  89815802.81047  21933950.3204   21933953.1294   21933950.6214
        51.000          45.000
 124266332.97447  96830899.34847  23647104.9114   23647108.3864   23647104.6244
        46.000          41.000
 124548669.12847  97050901.52447  23700830.0934   23700835.1144   23700830.6674
        45.000          39.000
 117377664.61347  91463105.20747  22336233.4484   22336236.9254   22336233.0234
        50.000          45.000
 107097423.66347  83452531.21847  20379967.7394   20379969.3994   20379968.1734
        55.000          49.000
 119950122.55547 111259820.07347  24728698.2214   24728702.3174   24728698.1454
        41.000          36.000
 09  1  7  0 38  0.0000000  0 12G24G12G22G 9G30G18G14G31G 5G29G21G 6
 113258159.41147  88253087.90047  21552330.3594   21552334.5534   21552330.5204
        52.000          46.000
 128246246.45147  99932126.73547  24404459.1024   24404462.3394   24404459.3064
        44.000          39.000
 127214359.68947  99128073.67947  24208084.8444   24208085.8774   24208085.0494
        43.000          37.000
 116622547.27947  90874717.68747  22192527.1544   22192529.5424   22192527.1894
        50.000          44.000
 122767537.90047  95663000.23947  23361897.6004   23361901.2674   23361897.2324
        48.000          41.000
 123789896.72647  96459648.13747  23556441.7274   23556443.4094   23556442.1774
        48.000          40.000
 115269736.15447  89820560.66047  21935112.3484   21935115.4034   21935112.4464
        50.000          45.000
 124163082.30747  96750444.31747  23627456.7394   23627460.1874   23627456.4704
        46.000          41.000
 124534542.88247  97039894.13747  23698142.1614   23698147.0384   23698142.8804
        46.000          40.000
 117452842.73847  91521685.57447  22350539.3654   22350542.6754   22350539.0384
        50.000          45.000
 107048203.08347  83414177.52647  20370601.2644   20370603.0094   20370601.5844
        55.000          49.000
 119896929.22747 111218370.76647  24718575.1914   24718581.1334   24718575.3754
        42.000          36.000
 09  1  7  0 38 30.0000000  0 12G24G12G22G 9G30G18G14G31G 5G29G21G 6
 113290020.89247  88277915.03547  21558393.4614   21558397.7864   21558393.7134
        53.000          46.000
 128247174.52947  99932850.02847  24404636.0674   24404639.9664   24404635.7824
        43.000          39.000
 127194006.36447  99112213.96447  24204211.8484   24204212.7804   24204211.7514
        44.000          37.000
 116686835.22747  90924812.21047  22204760.5114   22204763.6384   22204760.7734
        50.000          43.000
 122745639.72547  95645936.81747  23357730.3054   23357734.4634   23357730.0344
        48.000          41.000
 123767852.13347  96442470.55147  23552246.6234   23552248.2904   23552247.1304
        47.000          40.000
 115276242.79647  89825630.83847  21936350.4944   21936353.2104   21936350.8614
        51.000          45.000
 124059889.87647  96670034.65347  23607819.5674   23607823.3214   23607819.6024
        46.000          40.000
 124520407.78847  97028879.86647  23695452.5664   23695457.2474   23695453.1374
        46.000          40.000
 117528075.03147  91580308.12547  22364855.3374   22364858.9074   22364855.1604
        50.000          45.000
 106999454.56947  83376191.67147  20361324.7494   20361326.4454   20361325.0804
        54.000          49.000
 119844040.48047 111177158.78147  24708510.8424   24708516.0294   24708510.9174
        42.000          36.000
 09  1  7  0 39  0.0000000  0 12G24G12G22G 9G30G18G14G31G 5G29G21G 6
 113322352.35447  88303108.39047  21564546.1604   21564550.2274   21564546.3034
        53.000          46.000
 128248095.21347  99933567.57847  24404811.0874   24404814.1074   24404810.9384
        45.000          38.000
 127173428.49547  99096179.28547  24200296.3404   24200296.7344   24200296.4994
        43.000          38.000
 116751596.66447  90975275.67947  22217084.2524   22217087.2724   22217084.3594
        49.000          43.000
 122723602.06547  95628764.70247  23353536.6154   23353540.6384   23353536.3714
        48.000          41.000
 123745604.10947  96425134.43747  23548012.5454   23548014.4094   23548012.9184
        47.000          40.000
 115283145.61047  89831009.69947  21937663.8654   21937666.7004   21937664.0924
        50.000          45.000
 123956755.14947  96589669.94747  23588193.3864   23588197.4064   23588193.1574
        45.000          40.000
 124506262.69947  97017857.80547  23692760.4724   23692765.4094   23692761.0294
        45.000          39.000
 117603355.68547  91638968.37747  22379181.2204   22379184.1084   22379180.9624
        50.000          44.000
 106951177.45147  83338573.14147  20352138.0394   20352139.6334   20352138.4704
        55.000          49.000
 119791453.53547 111136181.97247  24698503.9904   24698509.2064   24698503.5024
        43.000          36.000
 09  1  7  0 39 30.0000000  0 12G24G12G22G 9G30G18G14G31G 5G29G21G 6
 113355157.47847  88328670.83347  21570788.6354   21570792.7554   21570788.8704
        53.000          46.000
 128249014.37047  99934283.90547  24404985.4244   24404988.9114   24404985.6014
        44.000          38.000
 127152629.39247  99079972.21747  24196337.5074   24196338.9704   24196337.9284
        43.000          37.000
 116816833.89747  91026109.90347  22229498.3914   22229501.1184   22229498.4294
        49.000          43.000
 122701429.96347  95611487.81347  23349317.7474   23349321.2634   23349317.3924
        48.000          41.000
 123723157.20247  96407643.36347  23543741.1714   23543743.1564   23543741.7384
        47.000          40.000
 115290446.48747  89836698.75147  21939053.3084   21939056.0564   21939053.5564
        50.000          45.000
 123853684.98747  96509355.53947  23568579.5334   23568583.7424   23568578.5034
        45.000          40.000
 124492113.37447  97006832.45247  23690067.7854   23690072.6474   23690068.2344
        45.000          39.000
 117678685.84447  91697667.18947  22393515.6044   22393519.1974   22393515.3954
        50.000          44.000
 106903378.13247  83301326.92747  20343042.0054   20343043.7234   20343042.3284
        55.000          49.000
 119739172.38847 111095443.47047  24688555.4244   24688560.8914   24688555.2054
        42.000          37.000
 09  1  7  0 40  0.0000000  0 12G24G12G22G 9G30G18G14G31G 5G29G21G 6
 113388434.57247  88354601.04847  21577121.1924   21577125.1134   21577121.4024
        52.000          46.000
 128249932.67947  99934999.57247  24405160.3034   24405163.5744   24405159.7274
        43.000          38.000
 127131607.45547  99063591.51447  24192337.4674   24192338.1754   24192337.5364
        44.000          38.000
 116882543.70347  91077312.37647  22242002.6474   22242005.5424   22242002.8164
        50.000          43.000
 122679123.51747  95594106.26347  23345072.7074   23345076.8154   23345072.2674
        48.000          41.000
 123700510.64847  96389996.69647  23539431.8464   23539433.3814   23539432.2754
        47.000          40.000
 115298142.38847  89842695.60347  21940517.6814   21940520.5974   21940517.7844
        51.000          45.000
 123750680.59047  96429092.36947  23548978.9234   23548982.5634   23548977.7474
        45.000          40.000
 124477960.52847  96995804.36547  23687374.1804   23687379.3144   23687374.5384
        45.000          39.000
 117754061.58847  91756401.52947  22407859.2564   22407862.7224   22407859.1224
        50.000          44.000
 106856057.57647  83264453.76647  20334037.3444   20334038.9474   20334037.7284
        55.000          49.000
 119687196.04247 111054942.47147  24678664.5084   24678669.5984   24678664.6084
        41.000          37.000
 09  1  7  0 40 30.0000000  0 12G24G12G22G 9G30G18G14G31G 5G29G21G 6
 113422181.25347  88380897.17547  21583542.7504   21583546.8554   21583542.9664
        53.000          46.000
 128250849.69747  99935714.22847  24405334.9384   24405337.8834   24405334.8214
        44.000          38.000
 127110360.54347  99047035.49347  24188295.3624   24188295.3304   24188295.0344
        44.000          38.000
 116948722.11547  91128880.00547  22254596.1614   22254598.6824   22254596.2664
        49.000          43.000
 122656682.20047  95576619.60547  23340801.9494   23340806.0564   23340801.4434
        47.000          41.000
 123677663.24947  96372193.53147  23535084.0154   23535085.4034   23535084.4074
        48.000          40.000
 115306229.38447  89848997.20947  21942056.6354   21942059.3804   21942056.9574
        51.000          45.000
 123647742.83347  96348881.13647  23529390.3454   23529394.1644   23529389.7564
        45.000          41.000
 124463804.11547  96984773.46447  23684680.7314   23684685.6854   23684681.1254
        46.000          40.000
 117829478.53347  91815167.97847  22422210.4784   22422213.8284   22422210.0914
        49.000          44.000
 106809216.55947  83227954.27947  20325123.6224   20325125.3974   20325123.9594
        54.000          49.000
 119635522.68447 111014677.56847  24668831.3584   24668835.9064   24668830.8734
        42.000          36.000
 09  1  7  0 41  0.0000000  0 12G24G12G22G 9G30G18G14G31G 5G29G21G 6
 113456400.84647  88407561.80147  21590054.4324   21590058.6224   21590054.5544
        53.000          46.000
 128251770.99347  99936432.21147  24405510.2934   24405513.0984   24405509.8594
        44.000          38.000
 127088891.38147  99030306.30647  24184208.6044   24184210.0594   24184209.4464
        44.000          38.000
 117015371.45647  91180814.57547  22267278.7314   22267281.8724   22267278.6804
        49.000          43.000
 122634111.35347  95559032.03447  23336507.0124   23336510.8594   23336506.9264
        48.000          41.000
 123654619.56447  96354237.42347  23530699.1394   23530700.3434   23530699.7594
        48.000          40.000
 115314709.25647  89855604.93747  21943670.2184   21943672.9794   21943670.4444
        50.000          45.000
 123544878.00247  96268726.73847  23509815.7974   23509819.6274   23509815.2174
        45.000          40.000
 124449649.75647  96973744.17347  23681986.7254   23681991.7684   23681987.3684
        45.000          39.000
 117904937.86047  91873967.45247  22436569.7984   22436573.2144   22436569.2064
        50.000          44.000
 106762861.55047  83191833.49547  20316302.6344   20316304.3194   20316303.0534
        54.000          49.000
 119584155.90647 110974651.53447  24659056.5234   24659061.5174   24659056.2234
        42.000          37.000
 09  1  7  0 41 30.0000000  0 12G24G12G22G 9G30G18G14G31G 5G29G21G 6
 113491090.30247  88434592.55047  21596655.8574   21596659.9104   21596655.9484
        52.000          46.000
 128252695.92347  99937153.03947  24405686.8664   24405688.7144   24405686.0414
        44.000          38.000
 127067197.04247  99013401.67247  24180081.1214   24180081.3004   24180081.4204
        44.000          38.000
 117082487.35547  91233112.69647  22280050.8564   22280053.6114   22280050.8674
        50.000          43.000
 122611409.52147  95541342.39047  23332186.8544   23332190.5004   23332186.6574
        48.000          41.000
 123631377.46347  96336126.71047  23526276.6074   23526277.7884   23526277.0034
        47.000          39.000
 115323577.70247  89862515.46047  21945357.8934   21945360.4944   21945357.9474
        51.000          45.000
 123442086.16747  96188629.22247  23490255.3484   23490259.1974   23490254.3744
        45.000          40.000
 124435496.67647  96962715.88047  23679293.7454   23679298.6094   23679293.9884
        46.000          39.000
 117980434.25947  91932795.80447  22450936.4444   22450939.5444   22450936.4624
        50.000          44.000
 106716992.20547  83156091.15647  20307573.8464   20307575.6924   20307574.1694
        54.000          49.000
 119533093.27247 110934862.51547  24649339.4344   24649344.5254   24649339.3664
        41.000          37.000
 09  1  7  0 42  0.0000000  0 12G24G12G22G 9G30G18G14G31G 5G29G21G 6
 113526249.60147  88461989.41647  21603346.3294   21603350.3334   21603346.4954
        52.000          46.000
 128253626.51547  99937878.29047  24405863.0584   24405866.0534   24405862.8384
        44.000          38.000
 127045278.14647  98996322.05047  24175909.8694   24175910.6194   24175910.3024
        44.000          38.000
 117150068.48747  91285773.34247  22292910.9854   22292914.1184   22292911.2464
        49.000          43.000
 122588578.54647  95523552.12747  23327842.2444   23327846.2074   23327841.9884
        47.000          41.000
 123607938.34647  96317862.48047  23521815.8614   23521817.8564   23521816.4514
        47.000          39.000
 115332832.90847  89869727.34647  21947119.2334   21947121.8894   21947119.3614
        51.000          45.000
 123339370.70247  96108591.23647  23470709.2324   23470712.7664   23470708.7824
        46.000          41.000
 124421347.37647  96951690.53747  23676600.9434   23676605.7554   23676601.7544
        45.000          39.000
 118055965.57647  91991651.37847  22465309.7624   22465312.4834   22465309.8214
        50.000          44.000
 106671610.98547  83120729.17147  20298938.1694   20298939.8504   20298938.5154
        54.000          49.000
 119482335.36947 110895310.92747  24639680.6304   24639686.0674   24639680.6804
        42.000          37.000
 09  1  7  0 42 30.0000000  0 12G24G12G22G 9G30G18G14G31G 5G29G21G 6
 113561881.19547  88489754.31547  21610126.8204   21610130.8144   21610126.8574
        52.000          46.000
 128254567.03447  99938611.24647  24406042.0344   24406045.3294   24406041.9064
        43.000          38.000
 127023136.81447  98979069.06447  24171696.0764   24171697.0844   24171696.0714
        44.000          38.000
 117218115.50647  91338796.99747  22305859.5104   22305863.0454   22305859.6294
        49.000          43.000
 122565622.42347  95505664.33447  23323473.4224   23323478.0524   23323472.9554
        47.000          41.000
 123584305.35347  96299447.16447  23517318.5594   23517320.2904   23517319.0034
        47.000          39.000
 115342475.36047  89877240.97947  21948954.0294   21948956.8574   21948954.2794
        51.000          45.000
 123236736.96447  96028616.96147  23451178.9594   23451182.4084   23451178.8684
        46.000          41.000
 124407206.36847  96940671.65147  23673909.6464   23673914.6674   23673909.9124
        45.000          39.000
 118131531.96547  92050534.29047  22479689.5084   22479692.7044   22479689.2234
        49.000          44.000
 106626723.20547  83085751.68547  20290396.3644   20290398.0754   20290396.7804
        55.000          49.000
 119431884.99547 110855998.99447  24630079.7324   24630086.0434   24630080.1944
        42.000          37.000
 09  1  7  0 43  0.0000000  0 12G24G12G22G 9G30G18G14G31G 5G29G21G 6
 113597980.75647  88517883.85747  21616996.2574   21617000.6404   21616996.4744
        52.000          46.000
 128255516.09647  99939350.91147  24406222.3444   24406224.7934   24406222.1484
        43.000          38.000
 127000768.60847  98961639.34247  24167440.3524   24167440.3714   24167439.8514
        44.000          37.000
 117286622.58147  91392179.16047  22318896.7614   22318899.4374   22318896.7424
        50.000          43.000
 122542539.25247  95487677.55547  23319080.9054   23319085.0604   23319080.8964
        48.000          41.000
 123560475.72647  96280878.63047  23512784.2774   23512785.9944   23512784.4504
        47.000          39.000
 115352499.79747  89885052.25947  21950861.7294   21950864.1184   21950862.0384
        50.000          45.000
 123134183.77247  95948705.46047  23431663.5184   23431666.8604   23431663.5784
        47.000          41.000
 124393071.98947  96929657.93247  23671220.0014   23671224.5714   23671220.5684
        45.000          39.000
 118207127.24547  92109439.70647  22494074.2994   22494078.2374   22494073.8354
        49.000          44.000
 106582327.66447  83051157.75847  20281948.2064   20281949.8214   20281948.6534
        55.000          49.000
 119381738.43547 110816923.75447  24620536.6814   24620542.7324   24620537.0614
        41.000          36.000
 09  1  7  0 43 30.0000000  0 12G24G12G22G 9G30G18G14G31G 5G29G21G 6
 113634549.74447  88546379.18547  21623954.8754   21623959.4904   21623955.0184
        52.000          46.000
 128256477.08547  99940099.83547  24406405.1544   24406408.1854   24406404.4764
        43.000          38.000
 126978175.26747  98944034.19747  24163140.7234   24163140.6974   24163140.5884
        44.000          37.000
 117355589.93247  91445919.98447  22332020.5784   22332023.3494   22332020.7544
        50.000          43.000
 122519332.33947  95469594.34447  23314664.9364   23314669.0244   23314665.0034
        47.000          41.000
 123536452.28247  96262159.06647  23508212.7454   23508214.2144   23508213.1334
        47.000          40.000
 115362906.19447  89893161.16647  21952841.7754   21952844.3614   21952841.8914
        51.000          45.000
 123031716.07147  95868860.58047  23412164.6324   23412167.7424   23412164.5994
        46.000          41.000
 124378948.00947  96918652.30347  23668532.4824   23668536.9814   23668533.2824
        46.000          39.000
 118282750.84947  92168367.18847  22508465.4594   22508468.6564   22508465.0684
        50.000          44.000
 106538428.61347  83016950.70447  20273594.4654   20273596.0984   20273594.8034
        54.000          49.000
 119331897.69347 110778086.83647  24611053.4594   24611058.5944   24611053.2954
        42.000          37.000
 09  1  7  0 44  0.0000000  0 12G24G12G22G 9G30G18G14G31G 5G29G21G 6
 113671586.91347  88575239.33347  21631002.8384   21631007.2464   21631003.0514
        52.000          46.000
 128257451.13247  99940858.93447  24406590.5554   24406593.5674   24406590.2734
        43.000          38.000
 126955355.90847  98926252.88647  24158797.8254   24158798.2844   24158798.0144
        44.000          37.000
 117425015.10347  91500017.53647  22345231.6654   22345234.4764   22345231.6884
        50.000          43.000
 122496002.25847  95451415.15547  23310225.7414   23310229.0864   23310224.9624
        48.000          41.000
 123512234.76147  96243288.28947  23503603.9954   23503605.5214   23503604.2994
        48.000          40.000
 115373691.64447  89901565.44147  21954894.0234   21954896.8124   21954894.5024
        51.000          45.000
 122929335.28147  95789083.44547  23392682.0224   23392685.3614   23392682.0504
        47.000          41.000
 124364835.67947  96907655.75147  23665847.0574   23665851.8174   23665847.4714
        46.000          39.000
 118358399.35147  92227314.06947  22522861.1034   22522864.2294   22522860.5734
        50.000          44.000
 106495027.48147  82983131.64847  20265335.3074   20265337.2464   20265335.6524
        55.000          49.000
 119282362.11347 110739487.70747  24601626.5074   24601632.3274   24601627.0444
        40.000          36.000
 09  1  7  0 44 30.0000000  0 12G24G12G22G 9G30G18G14G31G 5G29G21G 6
 113709093.40247  88604465.18647  21638140.1444   21638144.5264   21638140.2544
        52.000          46.000
 128258442.15147  99941631.27747  24406778.2814   24406782.3764   24406777.9244
        42.000          38.000
 126932311.88247  98908296.51247  24154413.2284   24154413.2994   24154413.1084
        44.000          38.000
 117494897.61747  91554471.46547  22358530.0154   22358532.8264   22358530.2104
        49.000          43.000
 122472552.10347  95433142.40747  23305762.8264   23305766.2074   23305762.6894
        47.000          41.000
 123487825.94847  96224268.41747  23498959.5334   23498960.9184   23498959.8964
        48.000          40.000
 115384855.74847  89910264.76947  21957018.6124   21957021.1344   21957018.8374
        51.000          45.000
 122827046.06447  95709377.67247  23373216.8234   23373220.3424   23373216.5754
        46.000          41.000
 124350738.69747  96896671.14547  23663164.4974   23663168.9594   23663164.8794
        46.000          39.000
 118434071.85647  92286279.65847  22537260.8074   22537264.2374   22537260.8254
        49.000          44.000
 106452128.46947  82949703.84747  20257172.0584   20257173.7684   20257172.4464
        55.000          49.000
 119233133.35347 110701127.66747  24592258.1874   24592264.2064   24592258.4954
        41.000          36.000
 09  1  7  0 45  0.0000000  0 12G24G12G22G 9G30G18G14G31G 5G29G21G 6
 113747067.96447  88634055.77447  21645366.5294   21645370.8804   21645366.5804
        52.000          46.000
 128259450.50147  99942417.12347  24406970.3334   24406974.1354   24406969.8514
        43.000          38.000
 126909042.24147  98890164.36247  24149984.3784   24149985.0034   24149984.6874
        44.000          38.000
 117565235.33347  91609280.08047  22371914.4174   22371917.4404   22371914.4434
        49.000          43.000
 122448982.96847  95414776.94047  23301277.8084   23301281.2864   23301277.5624
        47.000          41.000
 123463225.90047  96205099.54147  23494278.0634   23494279.7084   23494278.3744
        47.000          40.000
 115396396.00747  89919257.20547  21959214.3564   21959217.2384   21959214.6924
        50.000          45.000
 122724850.77647  95629745.11147  23353769.6184   23353773.4184   23353769.2434
        46.000          41.000
 124336658.42847  96885699.58247  23660485.2264   23660489.4804   23660485.5164
        45.000          39.000
 118509765.36947  92345261.60747  22551664.8964   22551668.5774   22551664.7824
        49.000          44.000
 106409733.22347  82916668.59547  20249104.4524   20249106.1644   20249104.7274
        55.000          49.000
 119184210.86147 110663006.27747  24582949.5854   24582954.7354   24582949.3954
        42.000          37.000
 09  1  7  0 45 30.0000000  0 12G24G12G22G 9G30G18G14G31G 5G29G21G 6
 113785509.10347  88664009.92347  21652681.5284   21652685.8694   21652681.7264
        52.000          46.000
 128260477.26347  99943217.31347  24407165.8064   24407169.5344   24407165.3924
        44.000          38.000
 126885545.43047  98871855.17947  24145513.4804   24145514.5304   24145513.3254
        44.000          38.000
 117636025.22647  91664441.05947  22385385.4924   22385388.2264   22385385.4084
        49.000          43.000
 122425295.08447  95396318.94447  23296770.0404   23296773.3804   23296769.6654
        47.000          41.000
 123438434.48947  96185781.57147  23489560.5814   23489562.1684   23489560.9204
        47.000          40.000
 115408309.07447  89928540.14247  21961481.4734   21961484.0404   21961481.6144
        51.000          44.000
 122622751.05947  95550187.02547  23334340.8674   23334344.2724   23334340.7064
        46.000          41.000
 124322595.63147  96874741.60447  23657808.5964   23657813.1044   23657809.3384
        46.000          39.000
 118585476.24147  92404257.09147  22566072.4164   22566075.8284   22566072.0904
        49.000          44.000
 106367843.03747  82884026.89347  20241133.1334   20241134.9594   20241133.5104
        54.000          49.000
 119135593.41147 110625122.56747  24573697.8024   24573703.2494   24573697.9094
        42.000          37.000
 09  1  7  0 46  0.0000000  0 12G24G12G22G 9G30G18G14G31G 5G29G21G 6
 113824416.05047  88694327.04247  21660085.3134   21660089.5974   21660085.4484
        52.000          46.000
 128261524.35847  99944033.34447  24407365.1184   24407368.5544   24407364.7024
        44.000          39.000
 126861821.28747  98853368.87547  24140999.0934   24141000.0844   24140999.1194
        44.000          38.000
 117707265.08647  91719952.65947  22398942.2854   22398944.5094   22398942.3664
        50.000          43.000
 122401489.99447  95377769.59047  23292239.5384   23292243.4324   23292239.1794
        47.000          41.000
 123413452.37447  96166315.00447  23484806.3174   23484807.8464   23484806.7664
        47.000          40.000
 115420593.09847  89938112.13347  21963818.9504   21963821.3944   21963819.2334
        51.000          45.000
 122520749.49447  95470705.43047  23314930.1574   23314933.8424   23314929.8834
        46.000          41.000
 124308552.34147  96863798.83547  23655136.6864   23655140.6754   23655137.2924
        46.000          39.000
 118661201.92747  92463264.11547  22580482.5094   22580485.8984   22580482.3594
        49.000          44.000
 106326459.98247  82851780.36547  20233257.9334   20233259.9834   20233258.2584
        54.000          49.000
 119087281.09947 110587476.65847  24564504.0534   24564509.8994   24564503.9044
        42.000          37.000
 09  1  7  0 46 30.0000000  0 12G24G12G22G 9G30G18G14G31G 5G29G21G 6
 113863790.89447  88725008.75747  21667578.2484   21667582.1284   21667578.3134
        52.000          46.000
 128262596.52447  99944868.90647  24407569.0364   24407572.2544   24407568.8544
        44.000          38.000
 126837871.85247  98834707.00747  24136441.2434   24136442.3594   24136441.1714
        44.000          38.000
 117778955.89247  91775815.64347  22412584.2264   22412587.0054   22412584.2854
        49.000          43.000
 122377571.91347  95359132.21447  23287688.0674   23287692.2774   23287687.9604
        47.000          41.000
 123388283.22847  96146702.68347  23480016.9714   23480018.1694   23480017.2884
        47.000          40.000
 115433248.83747  89947973.77147  21966227.2464   21966230.2414   21966227.5304
        50.000          44.000
 122418851.52047  95391304.54947  23295539.9424   23295543.3794   23295539.4364
        47.000          41.000
 124294533.28547  96852874.94147  23652468.9814   23652473.1154   23652469.6384
        46.000          39.000
 118736942.96947  92522283.11047  22594895.3394   22594898.9824   22594895.3064
        49.000          44.000
 106285589.04747  82819932.88447  20225480.5684   20225482.2944   20225480.9004
        54.000          49.000
 119039276.58547 110550070.56347  24555369.3354   24555374.0874   24555369.4584
        43.000          37.000
 09  1  7  0 47  0.0000000  0 12G24G12G22G 9G30G18G14G31G 5G29G21G 6
 113903630.20347  88756052.38947  21675159.4204   21675163.3234   21675159.4954
        52.000          46.000
 128263692.27547  99945722.82147  24407777.3584   24407780.3234   24407776.9774
        44.000          38.000
 126813694.48747  98815867.50547  24131840.5244   24131841.0814   24131839.7594
        44.000          38.000
 117851092.44747  91832025.96847  22426310.9984   22426314.1154   22426311.1544
        49.000          43.000
 122353539.61047  95340405.81347  23283114.6974   23283118.7894   23283114.2864
        47.000          41.000
 123362924.76247  96126942.84447  23475191.1874   23475192.6434   23475191.8594
        47.000          40.000
 115446271.14747  89958121.05147  21968705.1674   21968707.6744   21968705.4384
        51.000          45.000
 122317057.10347  95311984.36747  23276168.9394   23276172.2504   23276168.4254
        47.000          41.000
 124280537.59047  96841969.26947  23649805.2274   23649809.4894   23649805.8664
        45.000          39.000
 118812693.73447  92581309.69147  22609310.1404   22609313.6204   22609310.1194
        49.000          44.000
 106245229.66747  82788484.02047  20217800.4694   20217802.1094   20217800.8754
        54.000          49.000
 118991576.98047 110512902.09347  24546292.3344   24546297.4844   24546292.3064
        43.000          37.000
 09  1  7  0 47 30.0000000  0 12G24G12G22G 9G30G18G14G31G 5G29G21G 6
 113943935.89247  88787459.42847  21682829.2164   21682833.3684   21682829.3344
        52.000          45.000
 128264816.16747  99946598.63747  24407991.3444   24407994.1484   24407991.3934
        44.000          38.000
 126789291.27547  98796852.05547  24127197.2514   24127197.4784   24127196.5094
        45.000          39.000
 117923675.29847  91888584.03347  22440123.2194   22440126.0714   22440122.8014
        49.000          42.000
 122329397.17147  95321593.59547  23278521.0894   23278524.7794   23278520.9514
        48.000          41.000
 123337380.63347  96107038.32347  23470330.0214   23470332.3324   23470330.5484
        47.000          40.000
 115459660.22347  89968554.12547  21971253.2624   21971255.5344   21971253.6254
        51.000          45.000
 122215371.50847  95232748.97047  23256818.8174   23256822.0174   23256818.4894
        47.000          41.000
 124266569.65447  96831085.23247  23647147.4144   23647151.7794   23647147.9224
        46.000          39.000
 118888454.33747  92640343.93747  22623726.9864   22623730.6174   22623726.9954
        49.000          44.000
 106205386.46047  82757437.36947  20210218.5514   20210220.1264   20210218.9114
        54.000          49.000
 118944184.70647 110475973.10447  24537273.8044   24537278.6474   24537273.7354
        42.000          37.000
 09  1  7  0 48  0.0000000  0 12G24G12G22G 9G30G18G14G31G 5G29G21G 6
 113984706.00547  88819228.36147  21690587.4004   21690591.6214   21690587.5004
        52.000          45.000
 128265968.58847  99947496.72047  24408210.5934   24408213.1994   24408210.5224
        43.000          38.000
 126764660.66847  98777659.40147  24122510.2184   24122510.5354   24122510.4524
        45.000          39.000
 117996701.18947  91945487.33547  22454019.5264   22454022.1904   22454019.6224
        49.000          42.000
 122305144.75347  95302695.67747  23273905.9654   23273909.3934   23273905.6264
        48.000          41.000
 123311650.29647  96086988.71747  23465434.2624   23465435.5724   23465434.5894
        48.000          40.000
 115473412.80247  89979270.45147  21973870.2794   21973872.6354   21973870.5364
        51.000          44.000
 122113796.08647  95153599.42647  23237489.4884   23237492.6494   23237488.9724
        47.000          42.000
 124252630.19247  96820223.37747  23644494.4474   23644499.3894   23644494.9184
        46.000          39.000
 118964220.71847  92699382.67147  22638144.8764   22638148.7184   22638144.3454
        49.000          44.000
 106166060.57547  82726793.82447  20202735.1764   20202736.8584   20202735.5564
        54.000          49.000
 118897098.15347 110439282.33647  24528313.3314   24528318.6994   24528313.1874
        42.000          37.000
 09  1  7  0 48 30.0000000  0 12G24G12G22G 9G30G18G14G31G 5G29G21G 6
 114025941.27547  88851359.75747  21698434.3824   21698438.2174   21698434.6544
        52.000          45.000
 128267153.27747  99948419.93847  24408436.3634   24408438.4324   24408435.8804
        43.000          38.000
 126739804.02747  98758290.60947  24117779.8654   24117780.4414   24117779.9824
        45.000          39.000
 118070169.94547  92002735.73247  22468000.4584   22468003.0294   22468000.5204
        49.000          43.000
 122280785.00047  95283714.12447  23269270.0274   23269273.8654   23269269.4674
        48.000          41.000
 123285736.28747  96066796.00147  23460502.6474   23460504.2934   23460502.8994
        47.000          40.000
 115487528.39847  89990269.64847  21976556.2874   21976558.9934   21976556.3314
        51.000          45.000
 122012335.24147  95074539.16147  23218181.6774   23218185.4234   23218181.3374
        47.000          42.000
 124238722.79047  96809386.50747  23641848.0424   23641852.2844   23641848.5414
        45.000          39.000
 119039992.12747  92758425.34247  22652563.8154   22652567.0674   22652563.5254
        49.000          44.000
 106127255.71547  82696556.27847  20195350.7724   20195352.5324   20195351.2064
        55.000          49.000
 118850318.95447 110402831.04847  24519411.2894   24519416.5244   24519411.9504
        43.000          37.000
 09  1  7  0 49  0.0000000  0 12G24G12G22G 9G30G18G14G31G 5G29G21G 6
 114067638.61547  88883851.20547  21706369.0594   21706372.9214   21706369.2354
        52.000          45.000
 128268369.09347  99949367.39147  24408667.2244   24408669.9544   24408666.9904
        43.000          38.000
 126714718.44747  98738743.43747  24113005.8644   24113006.7024   24113006.2064
        45.000          38.000
 118144076.43547  92060325.23147  22482064.3504   22482066.7814   22482064.6274
        49.000          42.000
 122256317.15347  95264648.32947  23264614.1684   23264617.8394   23264613.8634
        48.000          42.000
 123259637.05947  96046458.95247  23455536.2054   23455537.6424   23455536.4424
        48.000          40.000
 115502002.27947  90001548.02447  21979310.4644   21979313.1144   21979310.7604
        51.000          45.000
 121910989.16247  94995568.33047  23198896.2604   23198899.7394   23198895.9894
        47.000          42.000
 124224846.86747  96798574.17647  23639207.5714   23639211.5714   23639207.9744
        46.000          39.000
 119115763.91047  92817468.29547  22666982.7064   22666986.1334   22666982.5814
        49.000          44.000
 106088971.23847  82666724.21847  20188065.6844   20188067.1034   20188066.1574
        54.000          49.000
 118803844.63147 110366617.35747  24510567.8424   24510572.4034   24510567.8774
        41.000          37.000
 09  1  7  0 49 30.0000000  0 12G24G12G22G 9G30G18G14G31G 5G29G21G 6
 114109799.29047  88916703.69347  21714392.2204   21714395.9294   21714392.1774
        52.000          45.000
 128269620.36447  99950342.53047  24408905.3984   24408908.4564   24408904.9214
        43.000          39.000
 126689406.38547  98719019.76547  24108189.2074   24108190.0334   24108188.8344
        45.000          39.000
 118218420.99947  92118256.07347  22496211.5224   22496214.2904   22496211.4194
        49.000          42.000
 122231745.09847  95245501.34847  23259938.0234   23259941.6954   23259937.7674
        47.000          41.000
 123233355.73247  96025979.98947  23450535.1634   23450536.7704   23450535.7024
        48.000          40.000
 115516834.68547  90013105.77847  21982133.2114   21982135.7194   21982133.5974
        51.000          45.000
 121809763.39547  94916691.23847  23179633.3574   23179636.9704   23179633.5464
        47.000          42.000
 124211006.78947  96787789.76347  23636573.7054   23636578.2864   23636574.2994
        45.000          39.000
 119191535.61947  92876511.17747  22681401.4174   22681405.1194   22681401.3034
        49.000          44.000
 106051211.81847  82637301.30347  20180880.0024   20180881.8884   20180880.4084
        54.000          49.000
 118757677.07747 110330642.69947  24501781.4094   24501787.1964   24501781.5934
        42.000          37.000
 09  1  7  0 50  0.0000000  0 12G24G12G22G 9G30G18G14G31G 5G29G21G 6
 114152420.89047  88949915.34247  21722502.7344   21722506.4974   21722502.6964
        52.000          45.000
 128270907.23747  99951345.37847  24409150.3614   24409153.3244   24409149.6694
        43.000          38.000
 126663865.70147  98699117.94947  24103329.2084   24103329.5824   24103329.2614
        46.000          39.000
 118293199.80147  92176525.27647  22510441.7194   22510444.3884   22510441.4984
        49.000          42.000
 122207069.10547  95226273.36147  23255242.3794   23255245.9834   23255241.9214
        48.000          41.000
 123206891.53947  96005358.55047  23445499.0034   23445500.6434   23445499.5424
        47.000          40.000
 115532021.64347  90024939.80447  21985022.9944   21985025.5574   21985023.1864
        50.000          45.000
 121708658.56747  94837908.38747  23160393.3994   23160397.0824   23160393.3344
        46.000          42.000
 124197202.83447  96777033.50947  23633947.3474   23633951.8444   23633947.7514
        46.000          39.000
 119267303.26547  92935550.89047  22695819.6254   22695823.2414   22695819.6444
        49.000          43.000
 106013977.68847  82608287.69547  20173794.8294   20173796.3404   20173795.2464
        55.000          49.000
 118711814.53847 110294905.68347  24493054.7784   24493060.0664   24493054.9744
        42.000          37.000
 09  1  7  0 50 30.0000000  0 12G24G12G22G 9G30G18G14G31G 5G29G21G 6
 114195505.59847  88983487.84347  21730701.2954   21730705.3624   21730701.3104
        52.000          45.000
 128272234.44347  99952379.67547  24409402.4134   24409405.7864   24409402.6814
        43.000          39.000
 126638098.91847  98679039.97447  24098426.4724   24098426.4404   24098426.3834
        46.000          39.000
 118368413.80747  92235133.60647  22524754.1224   22524757.0224   22524754.3914
        49.000          43.000
 122182293.42547  95206967.69747  23250527.6824   23250531.2604   23250527.1234
        48.000          41.000
 123180248.17747  95984597.48747  23440428.9814   23440430.9194   23440429.6934
        47.000          40.000
 115547563.93947  90037050.72147  21987980.6784   21987982.9654   21987980.8514
        51.000          44.000
 121607680.28047  94759224.12547  23141177.8874   23141181.3354   23141177.0224
        46.000          42.000
 124183439.81047  96766309.14947  23631328.0874   23631332.5674   23631328.2804
        45.000          39.000
 119343067.24747  92994587.76947  22710237.0864   22710240.4024   22710236.8314
        49.000          44.000
 105977273.75747  82579687.23347  20166810.2064   20166811.8134   20166810.5624
        54.000          49.000
 118666259.74847 110259408.49547  24484386.5624   24484390.9834   24484385.8294
        42.000          37.000
 09  1  7  0 51  0.0000000  0 12G24G12G22G 9G30G18G14G31G 5G29G21G 6
 114239048.62047  89017417.48347  21738987.1364   21738991.3464   21738987.1334
        52.000          45.000
 128273599.85647  99953443.70947  24409662.0884   24409665.5864   24409661.7634
        43.000          38.000
 126612101.85047  98658782.54747  24093479.1054   24093479.7514   24093479.3344
        45.000          39.000
 118444056.58047  92294076.02447  22539148.5094   22539151.4364   22539148.6524
        49.000          42.000
 122157415.50647  95187582.37047  23245793.2354   23245797.2124   23245793.3094
        47.000          41.000
 123153422.71447  95963694.53647  23435324.2924   23435325.7844   23435324.8164
        47.000          40.000
 115563455.14947  90049433.51847  21991004.5444   21991007.2114   21991004.9014
        50.000          45.000
 121506827.34247  94680637.53847  23121986.3834   23121989.5504   23121986.1984
        47.000          42.000
 124169715.73447  96755615.13747  23628716.0264   23628720.7804   23628716.0754
        46.000          39.000
 119418821.19247  93053616.80847  22724652.3834   22724656.1584   22724652.2864
        49.000          44.000
 105941098.15947  82551498.45747  20159926.1614   20159927.7094   20159926.5744
        54.000          49.000
 118621008.43347 110224147.74847  24475775.3554   24475780.4004   24475775.7854
        43.000          37.000
 09  1  7  0 51 30.0000000  0 12G24G12G22G 9G30G18G14G31G 5G29G21G 6
 114283053.15547  89051706.74047  21747361.1374   21747365.0174   21747361.3624
        52.000          45.000
 128275009.41647  99954542.18347  24409930.1204   24409933.0454   24409930.2854
        43.000          38.000
 126585879.16147  98638349.31447  24088488.6544   24088489.8094   24088488.6884
        45.000          39.000
 118520130.62747  92353354.51347  22553624.8244   22553627.6614   22553624.8064
        49.000          42.000
 122132441.44747  95168122.12247  23241040.9424   23241044.8054   23241040.8074
        47.000          41.000
 123126420.51947  95942653.86947  23430185.6714   23430187.5704   23430186.0174
        47.000          40.000
 115579697.43147  90062089.87947  21994095.3614   21994097.5874   21994095.4764
        50.000          45.000
 121406107.01047  94602154.27147  23102819.5454   23102822.7384   23102819.5734
        47.000          42.000
 124156037.00147  96744956.44247  23626113.4354   23626117.6594   23626113.5774
        45.000          39.000
 119494566.92347  93112639.45447  22739066.4354   22739070.1614   22739066.2834
        49.000          43.000
 105905457.20847  82523726.28947  20153143.9284   20153145.4464   20153144.3004
        54.000          49.000
 118576064.76347 110189126.73347  24467222.3434   24467227.3194   24467222.2824
        42.000          37.000
 09  1  7  0 52  0.0000000  0 12G24G12G22G 9G30G18G14G31G 5G29G21G 6
 114327514.58447  89086352.01147  21755821.6944   21755825.7234   21755821.8554
        52.000          45.000
 128276460.69447  99955673.11347  24410206.2704   24410209.7154   24410205.5934
        43.000          38.000
 126559426.07647  98617736.54847  24083454.8634   24083455.4304   24083454.9104
        46.000          39.000
 118596629.09147  92412963.72947  22568182.0134   22568184.9084   22568181.8654
        48.000          42.000
 122107368.61847  95148584.91447  23236269.7024   23236273.3914   23236269.3084
        47.000          41.000
 123099238.24747  95921472.88047  23425013.2964   23425015.4964   23425013.6224
        47.000          40.000
 115596284.48947  90075014.90047  21997251.5334   21997254.1814   21997251.8244
        50.000          44.000
 121305518.06647  94523773.36647  23083678.2714   23083681.1874   23083677.6894
        48.000          42.000
 124142401.35247  96734331.32447  23623518.9304   23623522.1094   23623519.2244
        46.000          39.000
 119570297.90847  93171650.61947  22753477.7674   22753480.9064   22753477.7934
        49.000          43.000
 105870348.58247  82496368.91947  20146462.9484   20146464.5494   20146463.2944
        54.000          49.000
 118531424.47947 110154342.11247  24458727.8574   24458732.4024   24458728.0394
        42.000          37.000
 09  1  7  0 52 30.0000000  0 12G24G12G22G 9G30G18G14G31G 5G29G21G 6
 114372436.81047  89121356.34347  21764370.1984   21764374.2264   21764370.4644
        52.000          45.000
 128277960.72647  99956842.04547  24410491.9144   24410494.8574   24410491.5584
        43.000          38.000
 126532747.71847  98596948.22647  24078378.4634   24078378.6754   24078378.4884
        45.000          39.000
 118673555.25747  92472906.20947  22582820.4124   22582823.1154   22582820.3134
        48.000          42.000
 122082203.58847  95128975.85447  23231480.7094   23231484.6584   23231480.1784
        47.000          41.000
 123071882.22047  95900156.50847  23419807.6734   23419809.3144   23419807.9184
        48.000          40.000
 115613219.14547  90088210.77247  22000474.2004   22000476.7054   22000474.4494
        50.000          44.000
 121205067.95547  94445500.63847  23064563.3824   23064565.9084   23064562.7204
        48.000          42.000
 124128815.92147  96723745.34247  23620933.1554   23620937.1104   23620933.4504
        45.000          39.000
 119646016.72347  93230652.29047  22767886.4184   22767889.8384   22767886.1224
        49.000          43.000
 105835779.64347  82469432.08247  20139884.6304   20139886.4554   20139885.0224
        54.000          49.000
 118487092.25247 110119797.56247  24450291.6334   24450296.8164   24450292.1524
        42.000          37.000
 09  1  7  0 53  0.0000000  0 12G24G12G22G 9G30G18G14G31G 5G29G21G 6
 114417814.34147  89156715.47047  21773005.4184   21773009.2494   21773005.5214
        52.000          45.000
 128279506.67347  99958046.77247  24410786.2574   24410788.9324   24410785.8524
        43.000          38.000
 126505839.21047  98575980.58747  24073257.6384   24073258.0414   24073258.0214
        45.000          39.000
 118750902.24647  92533176.58647  22597538.7434   22597541.9764   22597538.9454
        48.000          42.000
 122056943.70047  95109292.88447  23226673.8814   23226677.3714   23226673.6234
        48.000          41.000
 123044348.68847  95878701.79947  23414568.6804   23414569.5864   23414569.1184
        48.000          40.000
 115630494.38147  90101672.03047  22003761.3904   22003764.0614   22003761.7284
        50.000          44.000
 121104755.12347  94367334.88947  23045474.0944   23045476.7284   23045474.0324
        48.000          42.000
 124115278.05547  96713196.40947  23618357.0154   23618360.8704   23618357.3954
        46.000          40.000
 119721716.43447  93289639.07547  22782291.4984   22782295.0144   22782291.3184
        48.000          43.000
 105801747.67547  82442913.67347  20133408.4944   20133410.4324   20133408.8744
        54.000          49.000
 118443063.22447 110085489.24647  24441913.0644   24441918.2664   24441913.4544
        42.000          37.000
 09  1  7  0 53 30.0000000  0 12G24G12G22G 9G30G18G14G31G 5G29G21G 6
 114463649.86347  89192431.47047  21781727.5364   21781731.5364   21781727.8394
        52.000          45.000
 128281104.07547  99959291.56147  24411090.1484   24411093.0924   24411089.5364
        43.000          38.000
 126478703.88547  98554836.20647  24068094.2664   24068094.5014   24068094.1084
        45.000          39.000
 118828671.43347  92593775.95947  22612338.1674   22612340.9714   22612338.2754
        48.000          42.000
 122031594.15447  95089540.05947  23221850.2994   23221853.6154   23221849.9914
        47.000          41.000
 123016641.96847  95857112.14747  23409296.3744   23409297.6254   23409296.4194
        48.000          40.000
 115648111.44547  90115399.65247  22007113.8894   22007116.4454   22007114.2974
        50.000          44.000
 121004585.94047  94289281.06347  23026412.4754   23026415.3784   23026412.2884
        48.000          42.000
 124101793.31947  96702688.87947  23615790.8934   23615794.8084   23615791.1384
        45.000          39.000
 119797398.06147  93348611.77947  22796693.3194   22796696.8134   22796693.1534
        49.000          43.000
 105768258.36247  82416818.10547  20127035.9544   20127037.5184   20127036.3854
        54.000          49.000
 118399340.75647 110051419.79947  24433592.7074   24433598.5624   24433592.7534
        42.000          37.000
 09  1  7  0 54  0.0000000  0 12G24G12G22G 9G30G18G14G31G 5G29G21G 6
 114509940.87747  89228502.39847  21790536.2684   21790540.5974   21790536.4844
        52.000          45.000
 128282752.94947  99960576.48747  24411403.9634   24411406.4044   24411403.8324
        43.000          38.000
 126451340.33147  98533513.96447  24062886.6404   24062887.9254   24062886.7824
        45.000          39.000
 118906858.77847  92654701.17547  22627216.7954   22627219.4754   22627216.8624
        48.000          42.000
 122006154.48647  95069717.01247  23217009.0224   23217012.3314   23217008.7114
        47.000          41.000
 122988761.49147  95835387.08347  23403990.4574   23403992.0534   23403991.0284
        48.000          40.000
 115666066.54647  90129390.67547  22010530.6214   22010533.0484   22010530.6984
        50.000          44.000
 120904561.49447  94211340.01047  23007378.3194   23007381.1804   23007377.3444
        47.000          42.000
 124088362.06047  96692223.02847  23613235.0684   23613238.8084   23613235.3214
        46.000          39.000
 119873057.84547  93407567.46647  22811090.9114   22811094.3464   22811090.5834
        49.000          43.000
 105735311.58447  82391145.29947  20120766.0734   20120768.1684   20120766.3674
        54.000          50.000
 118355922.86647 110017587.68947  24425330.3784   24425336.1934   24425330.8804
        42.000          37.000
 09  1  7  0 54 30.0000000  0 12G24G12G22G 9G30G18G14G31G 5G29G21G 6
 114556687.01847  89264927.97247  21799431.9084   21799435.9204   21799432.2084
        52.000          45.000
 128284455.68247  99961903.35847  24411728.1264   24411729.8474   24411727.5734
        43.000          38.000
 126423748.48647  98512013.85847  24057635.9714   24057637.0294   24057636.3044
        46.000          39.000
 118985462.31347  92715950.71047  22642174.6304   22642177.0134   22642174.8434
        48.000          42.000
 121980626.73447  95049825.32647  23212151.1784   23212154.8354   23212150.6194
        47.000          41.000
 122960708.99347  95813527.99647  23398652.1314   23398653.6904   23398652.7764
        48.000          40.000
 115684357.91147  90143643.72247  22014011.4024   22014013.9164   22014011.7974
        50.000          45.000
 120804684.98747  94133514.25247  22988372.6704   22988375.3814   22988372.1904
        48.000          42.000
 124074986.82547  96681800.83047  23610689.5714   23610693.8254   23610690.2944
        46.000          39.000
 119948693.85747  93466504.63747  22825484.0784   22825487.4954   22825483.4944
        49.000          43.000
 105702909.83847  82365897.19047  20114600.4514   20114602.2024   20114600.8534
        54.000          50.000
 118312809.67347 109983992.99547  24417126.8434   24417131.4824   24417126.9434
        43.000          37.000
 09  1  7  0 55  0.0000000  0 12G24G12G22G 9G30G18G14G31G 5G29G21G 6
 114603888.22847  89301708.14247  21808413.7404   21808418.2404   21808413.7904
        52.000          45.000
 128286215.43747  99963274.64547  24412062.3364   24412064.7954   24412061.9254
        42.000          37.000
 126395929.59247  98490336.84747  24052342.7434   24052342.7154   24052342.9194
        46.000          40.000
 119064480.86347  92777523.61347  22657211.3914   22657213.7304   22657211.4174
        47.000          41.000
 121955014.05547  95029867.47047  23207277.0054   23207281.0514   23207277.0624
        47.000          41.000
 122932486.36647  95791536.34947  23393281.7144   23393283.1264   23393282.2934
        48.000          40.000
 115702984.37547  90158157.87347  22017555.9074   22017558.4984   22017556.2544
        50.000          44.000
 120704960.48047  94055806.92647  22969395.4774   22969398.7364   22969395.4264
        48.000          43.000
 124061670.79647  96671424.76447  23608155.7224   23608159.9714   23608156.2974
        46.000          40.000
 120024304.85347  93525422.31847  22839872.3424   22839875.8054   22839871.9304
        49.000          43.000
 105671056.04747  82341076.06047  20108538.8134   20108540.5774   20108539.2804
        54.000          49.000
 118270002.13947 109950636.50247  24408980.3964   24408986.3444   24408980.3154
        43.000          37.000
 09  1  7  0 55 30.0000000  0 12G24G12G22G 9G30G18G14G31G 5G29G21G 6
 114651541.52347  89338840.58747  21817482.0414   21817486.0364   21817482.2534
        51.000          45.000
 128288031.95647  99964690.14247  24412408.0244   24412410.2914   24412407.6824
        42.000          38.000
 126367881.75147  98468481.40947  24047005.0834   24047005.6844   24047005.1014
        46.000          39.000
 119143910.44547  92839416.81247  22672326.1504   22672328.6414   22672326.0764
        47.000          41.000
 121929316.31147  95009843.31047  23202387.1284   23202390.5094   23202386.7094
        48.000          41.000
 122904093.01147  95769411.63447  23387878.8824   23387880.0754   23387879.2414
        48.000          40.000
 115721941.23947  90172929.47847  22021163.0484   22021165.7164   22021163.2094
        50.000          44.000
 120605388.94647  93978218.81547  22950447.7564   22950450.6784   22950447.2694
        48.000          43.000
 124048414.06047  96661094.90247  23605633.1344   23605637.1654   23605633.7694
        46.000          40.000
 120099886.57447  93584317.17847  22854255.0754   22854258.5914   22854254.8024
        49.000          43.000
 105639750.35447  82316682.01447  20102581.6674   20102583.1494   20102582.0764
        54.000          49.000
 118227497.96347 109917516.38347  24400892.2484   24400897.4994   24400892.4684
        44.000          37.000
 09  1  7  0 56  0.0000000  0 12G24G12G22G 9G30G18G14G31G 5G29G21G 6
 114699646.50047  89376325.00447  21826635.9614   21826640.1054   21826636.1464
        51.000          45.000
 128289907.57547  99966151.70847  24412764.9254   24412767.4454   24412764.5584
        43.000          38.000
 126339605.51247  98446447.99347  24041624.1354   24041624.6284   24041624.1384
        46.000          39.000
 119223749.52247  92901629.08647  22687518.4684   22687521.8674   22687518.6514
        46.000          41.000
 121903535.75547  94989754.63247  23197481.5034   23197484.2474   23197480.9664
        48.000          41.000
 122875530.65047  95747155.26147  23382443.4244   23382444.6864   23382443.9054
        47.000          40.000
 115741227.47447  90187957.74147  22024833.1234   22024835.6974   22024833.3454
        50.000          44.000
 120505973.95547  93900752.67747  22931529.5534   22931532.6934   22931529.2904
        48.000          43.000
 124035219.32647  96650813.33847  23603122.3094   23603126.3394   23603122.6634
        46.000          39.000
 120175437.62047  93643188.13347  22868632.1384   22868635.3164   22868631.6524
        48.000          43.000
 105608995.22147  82292716.98147  20096729.0724   20096730.4944   20096729.5154
        54.000          49.000
 118185297.68947 109884633.07947  24392862.1854   24392866.8874   24392862.4214
        43.000          37.000
 09  1  7  0 56 30.0000000  0 12G24G12G22G 9G30G18G14G31G 5G29G21G 6
 114748203.27347  89414161.45747  21835875.9564   21835880.2624   21835876.0034
        51.000          45.000
 128291845.20547  99967661.61647  24413134.5394   24413136.0354   24413134.5874
        44.000          38.000
 126311101.68947  98424237.23847  24036200.7004   24036200.6054   24036200.5414
        46.000          40.000
 119303996.72747  92964159.37247  22702789.1524   22702792.3614   22702789.2274
        47.000          41.000
 121877675.04847  94969603.50147  23192560.4954   23192563.3064   23192559.7494
        48.000          42.000
 122846801.46647  95724768.88847  23376976.2834   23376977.4394   23376976.4044
        48.000          40.000
 115760841.31947  90203241.28847  22028565.3514   22028568.2224   22028565.7574
        50.000          45.000
 120406719.14247  93823411.35547  22912641.9254   22912644.8564   22912641.4904
        48.000          43.000
 124022089.54747  96640582.40147  23600623.4894   23600627.8774   23600623.8234
        46.000          40.000
 120250956.26447  93702033.84147  22883002.6584   22883006.1964   22883002.5514
        48.000          43.000
 105578793.17947  82269182.92947  20090981.7984   20090983.4944   20090982.1644
        55.000          49.000
 118143401.71247 109851986.88547  24384888.9064   24384893.9964   24384888.6014
        44.000          37.000
 09  1  7  0 57  0.0000000  0 12G24G12G22G 9G30G18G14G31G 5G29G21G 6
 114797210.89047  89452349.22747  21845201.7694   21845205.9154   21845201.7604
        51.000          45.000
 128293846.81147  99969221.36747  24413514.9254   24413517.3904   24413514.5764
        44.000          38.000
 126282370.82747  98401849.57747  24030732.9074   24030733.3864   24030733.2554
        45.000          40.000
 119384649.53347  93027005.74047  22718137.0844   22718140.3614   22718137.3094
        47.000          41.000
 121851736.31547  94949391.56447  23187624.2514   23187627.4574   23187624.0314
        48.000          41.000
 122817906.52647  95702253.36447  23371477.7054   23371479.4244   23371478.1214
        48.000          40.000
 115780781.08647  90218778.79047  22032359.9594   22032362.6074   22032360.2074
        51.000          45.000
 120307627.65147  93746197.30947  22893785.3294   22893788.2304   22893785.1024
        48.000          42.000
 124009026.96547  96630403.80047  23598137.7014   23598142.2894   23598138.3904
        46.000          40.000
 120326440.57047  93760852.77247  22897366.6304   22897370.2134   22897366.2084
        48.000          43.000
 105549146.45547  82246081.58747  20085340.0564   20085341.9514   20085340.3734
        54.000          49.000
 118101810.05547 109819577.82847  24376975.6564   24376979.1704   24376975.5504
        44.000          37.000
 09  1  7  0 57 30.0000000  0 12G24G12G22G 9G30G18G14G31G 5G29G21G 6
 114846666.64747  89490886.18947  21854613.0574   21854617.0454   21854613.2284
        51.000          45.000
 128295912.72747  99970831.21347  24413907.6114   24413909.6884   24413907.8534
        44.000          38.000
 126253411.09247  98379283.56447  24025222.0324   24025222.6524   24025222.2914
        46.000          40.000
 119465704.31047  93090165.31547  22733561.4884   22733564.1014   22733561.5664
        47.000          41.000
 121825719.23747  94929118.58547  23182673.0264   23182676.5204   23182673.1464
        48.000          41.000
 122788845.34347  95679608.28647  23365947.5984   23365949.3094   23365948.2424
        48.000          41.000
 115801042.51347  90234566.94347  22036215.6644   22036218.2084   22036215.7944
        50.000          45.000
 120208700.36147  93669111.19747  22874959.9494   22874962.6244   22874958.9604
        48.000          43.000
 123996032.07347  96620277.94547  23595664.9914   23595669.4904   23595665.3194
        46.000          39.000
 120401886.51847  93819641.82947  22911723.3754   22911726.7324   22911723.0794
        48.000          43.000
 105520055.04047  82223412.95247  20079804.2204   20079806.0054   20079804.6444
        54.000          49.000
 118060520.52947 109787404.21447  24369117.8244   24369122.2704   24369117.5764
        43.000          37.000
 09  1  7  0 58  0.0000000  0 12G24G12G22G 9G30G18G14G31G 5G29G21G 6
 114896572.77847  89529774.09347  21864109.8934   21864114.0714   21864109.7574
        52.000          45.000
 128298048.31447  99972495.34347  24414314.3474   24414316.6304   24414314.0534
        44.000          38.000
 126224225.59147  98356541.64547  24019668.3334   24019669.0554   24019668.4634
        46.000          40.000
 119547161.90447  93153638.76447  22749062.1834   22749065.0814   22749062.0104
        47.000          41.000
 121799629.27647  94908788.79847  23177708.1934   23177711.7954   23177707.4964
        48.000          41.000
 122759622.39747  95656837.16847  23360387.1174   23360388.5464   23360387.4844
        48.000          40.000
 115821626.30347  90250606.28647  22040132.5764   22040135.2914   22040132.8084
        51.000          45.000
 120109943.87147  93592158.17847  22856167.5604   22856169.5084   22856167.4374
        49.000          43.000
 123983110.27247  96610209.04747  23593205.8114   23593209.8314   23593206.3464
        45.000          39.000
 120477295.42447  93878402.00747  22926073.2654   22926076.9924   22926072.4654
        47.000          43.000
 105491524.25247  82201181.16847  20074374.9384   20074376.6544   20074375.3484
        54.000          49.000
 118019536.22147 109755468.44347  24361318.5994   24361323.0754   24361318.9784
        43.000          37.000
 09  1  7  0 58 30.0000000  0 12G24G12G22G 9G30G18G14G31G 5G29G21G 6
 114946923.09947  89569008.12347  21873691.1954   21873695.2584   21873691.3764
        51.000          45.000
 128300250.13347  99974211.08047  24414733.0554   24414735.3494   24414732.9424
        44.000          38.000
 126194809.34847  98333619.91047  24014070.6354   24014070.7014   24014070.2934
        46.000          39.000
 119629014.82947  93217420.27147  22764638.1934   22764641.4534   22764637.9714
        47.000          41.000
 121773462.71447  94888399.34647  23172728.9004   23172732.2754   23172728.9694
        47.000          41.000
 122730233.81047  95633936.96947  23354794.4464   23354795.5164   23354794.9534
        48.000          40.000
 115842525.22947  90266891.18647  22044109.5364   22044111.9754   22044109.5744
        50.000          45.000
 120011355.84347  93515336.44647  22837407.0394   22837408.8754   22837406.9874
        48.000          43.000
 123970258.43547  96600194.66147  23590760.0554   23590764.6644   23590760.8684
        46.000          39.000
 120552659.85247  93937127.55147  22940414.5504   22940418.1794   22940414.1904
        48.000          43.000
 105463550.76547  82179383.65047  20069051.7054   20069053.6514   20069052.0764
        54.000          50.000
 117978851.52847 109723766.13047  24353576.3954   24353581.2094   24353576.5324
        42.000          37.000
 09  1  7  0 59  0.0000000  0 12G24G12G22G 9G30G18G14G31G 5G29G21G 6
 114997722.47747  89608592.06847  21883357.7134   21883362.1214   21883357.6854
        51.000          45.000
 128302526.06147  99975984.57747  24415165.7424   24415168.4584   24415165.5724
        44.000          38.000
 126165169.12047  98310523.65847  24008429.7084   24008430.5164   24008429.6904
        46.000          39.000
 119711266.86347  93281512.78247  22780290.4564   22780293.1634   22780290.7254
        47.000          41.000
 121747227.72347  94867956.55447  23167736.2394   23167740.0324   23167736.0914
        48.000          42.000
 122700686.79047  95610913.31847  23349171.9934   23349173.0924   23349172.7074
        48.000          41.000
 115863743.22847  90283424.71647  22048147.0564   22048149.6144   22048147.4494
        51.000          45.000
 119912945.34047  93438653.02047  22818680.4164   22818681.7284   22818679.9894
        49.000          43.000
 123957484.75647  96590241.18547  23588329.4564   23588333.0644   23588329.9404
        46.000          39.000
 120627983.49447  93995821.31247  22954748.2894   22954752.1084   22954747.7884
        48.000          43.000
 105436142.20847  82158026.33947  20063836.0934   20063837.9404   20063836.4744
        54.000          49.000
 117938472.38047 109692301.90847  24345892.6414   24345896.8684   24345892.4104
        43.000          37.000
 09  1  7  0 59 30.0000000  0 12G24G12G22G 9G30G18G14G31G 5G29G21G 6
 115048963.42647  89648520.09147  21893108.6974   21893112.7074   21893108.8574
        52.000          45.000
 128304871.75847  99977812.42347  24415612.1014   24415614.7514   24415611.9884
        44.000          38.000
 126135297.49947  98287247.08647  24002745.9734   24002746.2494   24002745.9914
        46.000          40.000
 119793908.97747  93345909.23847  22796016.7214   22796019.8134   22796016.7214
        47.000          41.000
 121720919.46647  94847456.66547  23162729.9804   23162733.5064   23162729.4454
        48.000          42.000
 122670976.15347  95587762.18847  23343517.7974   23343519.4204   23343518.4094
        48.000          40.000
 115885271.07047  90300199.68147  22052243.7754   22052246.1134   22052244.1124
        50.000          44.000
 119814708.34447  93362104.81047  22799986.1444   22799987.8004   22799985.8104
        49.000          43.000
 123944784.87747  96580345.21647  23585912.7574   23585916.8174   23585913.1954
        46.000          39.000
 120703257.76947  94054476.59647  22969072.7534   22969076.2174   22969072.5784
        48.000          42.000
 105409293.82947  82137105.53047  20058727.0464   20058728.7454   20058727.4134
        54.000          49.000
 117898391.57347 109661070.15447  24338265.3234   24338269.7684   24338265.4504
        42.000          37.000
 09  1  7  1  0  0.0000000  0 12G24G12G22G 9G30G18G14G31G 5G29G21G 6
 115100652.29447  89688797.14647  21902944.9134   21902948.7524   21902945.0924
        51.000          45.000
 128307296.04047  99979701.51947  24416073.6094   24416076.0314   24416073.7024
        45.000          38.000
 126105202.33847  98263796.31747  23997019.0604   23997019.5754   23997018.9514
        45.000          39.000
 119876946.51847  93410613.83247  22811818.1824   22811821.2424   22811818.2414
        47.000          41.000
 121694547.25047  94826906.94847  23157711.6074   23157714.9284   23157711.3104
        48.000          42.000
 122641110.39047  95564490.17247  23337835.0114   23337836.2584   23337835.3534
        48.000          41.000
 115907114.11247  90317220.26147  22056400.3334   22056402.8354   22056400.5794
        50.000          44.000
 119716655.42447  93285700.03947  22781327.2564   22781328.9534   22781326.2544
        49.000          43.000
 123932168.18847  96570514.06047  23583511.8244   23583515.2524   23583512.2124
        46.000          39.000
 120778488.06047  94113097.60447  22983388.3914   22983391.8984   22983388.2584
        47.000          42.000
 105383014.66247  82116628.26547  20053726.2634   20053728.1224   20053726.6654
        54.000          50.000
 117858616.33447 109630076.51747  24330695.6654   24330700.9164   24330695.9374
        43.000          37.000
 09  1  7  1  0 30.0000000  0 12G24G12G22G 9G30G18G14G31G 5G29G21G 6
 115152782.92947  89729418.42947  21912864.8714   21912868.8474   21912865.1154
        51.000          45.000
 128309796.11547  99981649.66447  24416549.4144   24416552.1034   24416549.2434
        44.000          38.000
 126074878.96347  98240167.72347  23991248.3314   23991248.6364   23991248.0224
        46.000          39.000
 119960371.83347  93475620.58647  22827693.3174   22827696.4664   22827693.3964
        47.000          41.000
 121668107.66247  94806304.72347  23152680.4594   23152683.8464   23152680.0784
        48.000          42.000
 122611086.09047  95541094.62647  23332121.4504   23332122.6224   23332122.0474
        47.000          40.000
 115929264.83547  90334480.58847  22060615.3944   22060617.7884   22060615.4934
        50.000          44.000
 119618784.46147  93209437.04247  22762702.7944   22762704.5614   22762702.5194
        49.000          43.000
 123919631.86247  96560745.54447  23581126.0594   23581129.9794   23581126.5744
        46.000          39.000
 120853666.83447  94171678.47147  22997694.3474   22997697.9494   22997694.4894
        48.000          42.000
 105357301.41747  82096591.97047  20048833.2304   20048834.8624   20048833.6014
        54.000          50.000
 117819141.02647 109599316.55447  24323185.0274   24323189.3954   24323185.3734
        43.000          37.000
 09  1  7  1  1  0.0000000  0 12G24G12G22G 9G30G18G14G31G 5G29G21G 6
 115205355.36047  89770383.96947  21922869.2284   21922873.2694   21922869.3314
        51.000          45.000
 128312375.11847  99983659.32247  24417040.4774   24417042.7414   24417040.3574
        44.000          39.000
 126044328.61847  98216362.26247  23985435.0954   23985434.6184   23985435.1614
        46.000          39.000
 120044183.77847  93540928.59147  22843642.5734   22843645.2134   22843642.6704
        47.000          41.000
 121641603.95547  94785652.53947  23147637.2894   23147639.9614   23147636.8654
        49.000          42.000
 122580905.35647  95517577.17747  23326377.6024   23326379.2034   23326378.1224
        48.000          40.000
 115951721.99747  90351979.70547  22064888.9824   22064891.0594   22064889.1134
        50.000          44.000
 119521099.61847  93133319.05947  22744113.3964   22744115.6944   22744113.2004
        48.000          43.000
 123907179.17047  96551042.18747  23578756.3734   23578760.2104   23578756.9304
        46.000          39.000
 120928793.19347  94230218.49447  23011990.5474   23011994.1904   23011990.3624
        47.000          43.000
 105332156.70447  82076998.69447  20044048.3564   20044050.1574   20044048.6304
        54.000          50.000
 117779966.62147 109568791.12547  24315729.4734   24315734.6064   24315729.7004
        42.000          37.000
 09  1  7  1  1 30.0000000  0 12G24G12G22G 9G30G18G14G31G 5G29G21G 6
 115258367.96147  89811692.49347  21932957.3774   21932961.0664   21932957.4984
        51.000          45.000
 128315034.40747  99985731.51647  24417546.0804   24417549.1314   24417545.9134
        44.000          38.000
 126013551.14747  98192379.84647  23979578.3944   23979578.2164   23979578.2644
        45.000          39.000
 120128379.68547  93606535.80547  22859664.5764   22859667.0504   22859664.5604
        47.000          41.000
 121615037.65647  94764951.59047  23142581.6484   23142584.7114   23142581.5194
        48.000          42.000
 122550569.13647  95493938.57847  23320605.3214   23320606.3924   23320605.6204
        47.000          40.000
 115974482.90547  90369715.50447  22069220.1924   22069222.5074   22069220.3514
        50.000          44.000
 119423603.43447  93057348.09447  22725560.8784   22725562.6044   22725560.0944
        49.000          43.000
 123894811.87147  96541405.38147  23576403.2564   23576406.7124   23576403.8514
        46.000          39.000
 121003864.79047  94288715.82947  23026276.1734   23026279.6414   23026275.7684
        47.000          42.000
 105307581.98647  82057849.57147  20039371.9364   20039373.7284   20039372.2254
        54.000          49.000
 117741092.25747 109538499.42947  24308332.0874   24308337.0744   24308332.0104
        42.000          37.000
 09  1  7  1  2  0.0000000  0 12G24G12G22G 9G30G18G14G31G 5G29G21G 6
 115311820.74347  89853344.02447  21943128.9854   21943132.9114   21943128.9354
        51.000          45.000
 128317777.17747  99987868.78647  24418068.6184   24418070.3644   24418068.0694
        43.000          38.000
 125982547.81247  98168221.41147  23973678.0794   23973678.6054   23973678.0394
        44.000          39.000
 120212958.27147  93672441.19347  22875759.2034   22875762.0784   22875759.3044
        46.000          41.000
 121588411.66547  94744204.13047  23137514.7674   23137517.4244   23137514.2534
        48.000          41.000
 122520079.85347  95470180.68947  23314803.4214   23314804.9254   23314803.7104
        47.000          40.000
 115997546.40047  90387687.09047  22073608.7934   22073611.4394   22073608.9894
        50.000          44.000
 119326299.96447  92981527.28247  22707044.2174   22707046.2684   22707043.7774
        49.000          43.000
 123882533.39147  96531837.78247  23574066.2754   23574070.2174   23574066.8524
        46.000          40.000
 121078880.83747  94347169.87347  23040551.0674   23040554.7354   23040550.7784
        48.000          42.000
 105283580.05147  82039146.77447  20034804.5204   20034806.1304   20034804.8944
        54.000          49.000
 117702518.87947 109508442.28347  24300992.0454   24300996.4994   24300991.2274
        42.000          37.000
 09  1  7  1  2 30.0000000  0 12G24G12G22G 9G30G18G14G31G 5G29G21G 6
 115365711.18747  89895336.58747  21953384.0714   21953388.1534   21953384.2454
        52.000          45.000
 128320603.96147  99990071.50647  24418605.7194   24418608.4694   24418605.3234
        43.000          38.000
 125951317.35947  98143886.00747  23967735.0714   23967736.0074   23967734.8454
        45.000          39.000
 120297915.82347  93738641.88947  22891926.0574   22891928.7584   22891926.0834
        46.000          41.000
 121561726.56947  94723410.60147  23132436.5734   23132439.9034   23132436.5284
        48.000          42.000
 122489437.58747  95446303.62347  23308971.9794   23308973.4934   23308972.6494
        47.000          40.000
 116020908.69047  90405891.49947  22078054.5404   22078057.0754   22078054.7314
        51.000          45.000
 119229190.56347  92905857.68547  22688564.9704   22688567.2464   22688564.5434
        49.000          43.000
 123870344.22347  96522339.77447  23571746.9804   23571750.7354   23571747.5644
        46.000          39.000
 121153837.45747  94405577.61747  23054815.2964   23054818.5844   23054815.0574
        47.000          42.000
 105260151.08247  82020890.43947  20030346.1454   20030347.8374   20030346.5054
        54.000          50.000
 117664244.19947 109478617.89947  24293708.5494   24293712.8054   24293708.3754
        42.000          37.000
 09  1  7  1  3  0.0000000  0 12G24G12G22G 9G30G18G14G31G 5G29G21G 6
 115420040.59247  89937671.19947  21963722.3754   21963726.5534   21963722.4994
        51.000          45.000
 128323519.22647  99992343.19447  24419160.6714   24419163.8994   24419160.4394
        43.000          38.000
 125919862.81247  98119375.99147  23961750.1694   23961749.8914   23961749.8024
        46.000          39.000
 120383252.57447  93805138.06347  22908165.2314   22908167.5614   22908165.0984
        46.000          41.000
 121534986.72947  94702574.41247  23127347.9364   23127351.2454   23127347.8184
        48.000          41.000
 122458646.31547  95422310.41147  23303112.9844   23303114.3574   23303113.3784
        47.000          40.000
 116044570.02847  90424328.92947  22082557.4714   22082559.4844   22082557.5894
        51.000          45.000
 119132280.87147  92830343.69747  22670123.4234   22670125.9384   22670122.8274
        49.000          43.000
 123858249.39147  96512915.27647  23569444.9084   23569449.6574   23569445.6134
        46.000          40.000
 121228735.48447  94463939.70047  23069067.9214   23069071.0784   23069067.6394
        47.000          42.000
 105237299.31447  82003083.87147  20025997.5814   20025999.2464   20025997.9684
        54.000          49.000
 117626270.80647 109449028.29747  24286482.3794   24286487.4414   24286482.3304
        42.000          37.000
 09  1  7  1  3 30.0000000  0 12G24G12G22G 9G30G18G14G31G 5G29G21G 6
 115474804.75547  89980344.58447  21974143.6514   21974147.6484   21974143.6714
        51.000          44.000
 128326521.80647  99994682.89947  24419731.7044   24419735.0514   24419731.6844
        43.000          38.000
 125888180.58947  98094688.54647  23955721.2864   23955721.1134   23955721.2574
        46.000          39.000
 120468962.43347  93871924.97847  22924475.2274   22924477.5084   22924475.4224
        47.000          40.000
 121508191.07547  94681694.73347  23122249.2134   23122251.8604   23122249.1094
        48.000          41.000
 122427703.73647  95398199.30847  23297224.5044   23297226.2234   23297224.8174
        47.000          40.000
 116068524.73447  90442994.95747  22087115.8364   22087117.7324   22087116.0634
        51.000          45.000
 119035570.78247  92754985.23547  22651720.1274   22651722.7094   22651719.6244
        49.000          43.000
 123846247.65547  96503563.33147  23567161.4804   23567165.3124   23567162.0104
        46.000          40.000
 121303569.47547  94522251.88647  23083308.2414   23083311.6234   23083308.2864
        47.000          42.000
 105215023.10447  81985725.78947  20021758.7024   20021760.2244   20021759.1174
        54.000          50.000
 117588594.85047 109419670.43047  24279313.0114   24279317.5054   24279312.9244
        43.000          37.000
 09  1  7  1  4  0.0000000  0 12G24G12G22G 9G30G18G14G31G 5G29G21G 6
 115530004.10447  90023357.07447  21984647.4824   21984651.7004   21984647.5754
        51.000          44.000
 128329615.07647  99997093.28447  24420320.4724   24420323.1814   24420320.1784
        43.000          38.000
 125856273.12147  98069825.59847  23949649.1164   23949649.3914   23949649.4614
        46.000          39.000
 120555045.03447  93939002.34647  22940855.9734   22940858.7344   22940856.2694
        47.000          40.000
 121481343.20947  94660774.36547  23117139.8884   23117142.6404   23117139.4514
        48.000          41.000
 122396613.46347  95373973.12347  23291308.2294   23291309.9554   23291309.0324
        47.000          40.000
 116092772.35347  90461889.22347  22091729.9194   22091732.1604   22091730.1714
        51.000          45.000
 118939064.78647  92679785.80247  22633355.5754   22633358.0784   22633355.3234
        49.000          43.000
 123834342.93547  96494286.98447  23564896.0624   23564899.7404   23564896.7154
        46.000          40.000
 121378339.00847  94580513.84447  23097536.5114   23097539.6544   23097536.3244
        48.000          42.000
 105193325.58747  81968818.63847  20017629.6944   20017631.4354   20017630.1424
        54.000          50.000
 117551217.50347 109390545.25847  24272200.4944   24272205.4484   24272200.2924
        43.000          37.000
 09  1  7  1  4 30.0000000  0 12G24G12G22G 9G30G18G14G31G 5G29G21G 6
 115585636.33347  90066706.86147  21995234.0934   21995238.0564   21995234.3284
        51.000          44.000
 128332800.15347  99999575.19147  24420926.9514   24420929.4114   24420926.4174
        44.000          38.000
 125824139.82347  98044786.66647  23943534.5694   23943535.0104   23943534.6404
        46.000          39.000
 120641496.91547  94006367.45147  22957307.0464   22957310.3444   22957307.1534
        46.000          40.000
 121454444.08847  94639814.06547  23112021.4524   23112024.2874   23112020.9084
        48.000          41.000
 122365375.87147  95349632.14747  23285363.9714   23285365.8544   23285364.2894
        47.000          41.000
 116117309.58847  90481009.17347  22096399.1394   22096401.3624   22096399.1394
        50.000          44.000
 118842765.15847  92604747.17447  22615030.4694   22615033.0364   22615030.1004
        49.000          44.000
 123822536.47047  96485087.18947  23562648.9434   23562653.0374   23562649.5154
        45.000          39.000
 121453041.27547  94638723.38947  23111751.7684   23111754.9234   23111751.6874
        47.000          42.000
 105172207.36947  81952362.88247  20013611.0674   20013612.6564   20013611.3854
        54.000          50.000
 117514137.53847 109361651.80947  24265144.0754   24265148.2494   24265143.2564
        42.000          37.000
 09  1  7  1  5  0.0000000  0 12G24G12G22G 9G30G18G14G31G 5G29G21G 6
 115641702.49747  90110394.79347  22005903.1034   22005907.2164   22005903.0674
        51.000          44.000
 128336081.58247 100002132.19647  24421550.9454   24421553.2814   24421550.9074
        43.000          38.000
 125791783.21647  98019573.72947  23937376.8464   23937377.1714   23937376.7994
        45.000          39.000
 120728318.12947  94074020.34947  22973828.7224   22973831.5454   22973829.2274
        46.000          40.000
 121427498.15747  94618817.28147  23106893.7154   23106896.5174   23106893.4704
        48.000          41.000
 122333994.59547  95325179.21347  23279392.4234   23279394.0944   23279392.8434
        47.000          41.000
 116142136.32647  90500354.71447  22101123.2634   22101125.8434   22101123.4534
        50.000          44.000
 118746677.31747  92529873.57147  22596745.3944   22596747.9854   22596744.8264
        49.000          44.000
 123810832.77747  96475967.47447  23560421.9734   23560426.0544   23560422.2984
        46.000          39.000
 121527676.70847  94696880.87147  23125954.2714   23125957.5574   23125954.0234
        47.000          42.000
 105151672.34547  81936361.57447  20009703.2254   20009705.0204   20009703.5674
        54.000          50.000
 117477356.97647 109332991.66547  24258144.0474   24258149.2084   24258144.2824
        42.000          37.000
 09  1  7  1  5 30.0000000  0 12G24G12G22G 9G30G18G14G31G 5G29G21G 6
 115698197.02047  90154416.50647  22016653.8434   22016657.6784   22016653.9804
        51.000          44.000
 128339456.60847 100004762.13947  24422192.7874   24422196.0544   24422192.1194
        42.000          38.000
 125759198.85347  97994183.32947  23931176.1444   23931176.5984   23931176.2104
        45.000          39.000
 120815501.61547  94141955.53447  22990419.3764   22990421.6984   22990419.4774
        47.000          40.000
 121400502.79047  94597781.97947  23101756.4554   23101759.3734   23101756.3564
        48.000          41.000
 122302466.38947  95300611.77947  23273392.9744   23273394.4704   23273393.4194
        47.000          41.000
 116167245.64847  90519920.44747  22105901.2474   22105903.7644   22105901.3794
        50.000          44.000
 118650799.53147  92455163.64547  22578500.5844   22578502.8584   22578500.2544
        49.000          44.000
 123799229.58447  96466926.05747  23558213.6374   23558218.0894   23558214.1494
        45.000          40.000
 121602238.80147  94754981.18747  23140142.8644   23140146.3484   23140142.6954
        47.000          42.000
 105131717.11747  81920812.05247  20005905.8814   20005907.6854   20005906.2164
        54.000          50.000
 117440870.56347 109304560.73247  24251201.0514   24251206.3324   24251201.1914
        42.000          37.000
 09  1  7  1  6  0.0000000  0 12G24G12G22G 9G30G18G14G31G 5G29G21G 6
 115755124.21147  90198775.36947  22027486.4884   22027490.6654   22027486.7194
        51.000          44.000
 128342932.90647 100007471.01747  24422854.3264   24422857.1734   24422854.2004
        42.000          38.000
 125726393.09747  97968620.41447  23924933.9724   23924934.2604   23924933.8334
        46.000          39.000
 120903050.63747  94210175.56447  23007079.3794   23007081.7104   23007079.5304
        47.000          40.000
 121373465.64147  94576714.12247  23096611.2504   23096614.1914   23096610.4554
        48.000          41.000
 122270798.77147  95275935.71247  23267366.7894   23267368.5204   23267367.1464
        47.000          41.000
 116192640.90147  90539708.98047  22110734.0774   22110736.1434   22110734.1784
        50.000          44.000
 118555140.26447  92380624.01147  22560297.1164   22560299.4274   22560296.7174
        49.000          44.000
 123787734.74247  96457969.09447  23556026.6074   23556030.6534   23556026.8494
        45.000          39.000
 121676731.17847  94813027.18847  23154318.5784   23154321.5004   23154318.5764
        48.000          42.000
 105112349.46947  81905720.38347  20002220.3184   20002222.0324   20002220.6794
        54.000          50.000
 117404683.48747 109276363.04047  24244315.3134   24244319.4284   24244315.4844
        42.000          37.000
 09  1  7  1  6 30.0000000  0 12G24G12G22G 9G30G18G14G31G 5G29G21G 6
 115812477.15047  90243465.97147  22038400.3984   22038404.6684   22038400.6074
        51.000          44.000
 128346506.99147 100010256.07947  24423534.9004   24423537.6184   24423533.9994
        43.000          38.000
 125693360.80347  97942880.97647  23918648.1724   23918648.6204   23918647.8874
        46.000          39.000
 120990957.43747  94278674.38047  23023807.3714   23023809.8844   23023807.6844
        46.000          40.000
 121346383.22847  94555610.97747  23091457.6444   23091460.7914   23091457.1754
        48.000          41.000
 122238987.61947  95251147.81447  23261312.7844   23261315.0164   23261313.3784
        48.000          41.000
 116218314.02347  90559714.03047  22115619.4304   22115621.8134   22115619.5174
        51.000          44.000
 118459697.31947  92306252.94647  22542134.7664   22542137.2544   22542134.0004
        49.000          44.000
 123776344.82147  96449093.86747  23553858.8984   23553863.5284   23553859.3694
        45.000          39.000
 121751146.30547  94871013.01047  23168479.3254   23168482.2394   23168479.3494
        48.000          42.000
 105093564.92247  81891083.08047  19998645.8644   19998647.4564   19998646.2854
        54.000          50.000
 117368789.71647 109248393.89947  24237484.2224   24237490.2374   24237484.2794
        42.000          37.000
 09  1  7  1  7  0.0000000  0 12G24G12G22G 9G30G18G14G31G 5G29G21G 6
 115870258.70247  90288490.55747  22049395.6644   22049400.0884   22049395.9624
        51.000          44.000
 128350184.76647 100013121.92847  24424234.6344   24424237.2704   24424234.2314
        44.000          38.000
 125660106.11147  97916968.24447  23912319.6334   23912319.9214   23912319.8844
        45.000          39.000
 121079223.48447  94347453.12947  23040603.6834   23040606.2254   23040603.8244
        47.000          40.000
 121319261.58647  94534477.28847  23086296.5864   23086299.3504   23086296.3954
        48.000          41.000
 122207038.27747  95226252.22047  23255233.3884   23255235.2334   23255233.7114
        47.000          41.000
 116244266.83147  90579937.02647  22120558.3754   22120560.3034   22120558.6354
        50.000          44.000
 118364477.87847  92232056.04247  22524014.8494   22524017.4554   22524014.4834
        49.000          44.000
 123765066.21947  96440305.38547  23551712.7114   23551716.8304   23551713.2144
        45.000          39.000
 121825486.19147  94928940.18647  23182625.8204   23182628.6854   23182625.3264
        47.000          42.000
 105075369.07247  81876904.49847  19995183.4954   19995184.9364   19995183.8244
        54.000          50.000
 117333192.98047 109220656.22247  24230711.4804   24230715.6244   24230711.4374
        43.000          37.000
 09  1  7  1  7 30.0000000  0 12G24G12G22G 9G30G18G14G31G 5G29G21G 6
 115928464.96447  90333846.08947  22060472.1064   22060476.1374   22060472.3864
        51.000          44.000
 128353965.73547 100016068.20647  24424954.0914   24424956.3314   24424954.4044
        44.000          39.000
 125626626.94347  97890880.59747  23905948.8504   23905949.1734   23905948.8924
        46.000          39.000
 121167843.56447  94416507.75147  23057467.6334   23057469.9884   23057467.8364
        47.000          40.000
 121292100.40447  94513312.78347  23081127.5544   23081130.7884   23081127.1884
        48.000          42.000
 122174949.88347  95201248.28747  23249127.1264   23249128.8404   23249127.5484
        48.000          41.000
 116270494.31247  90600374.05147  22125548.9254   22125551.3074   22125549.0064
        50.000          44.000
 118269482.07947  92158033.41947  22505937.7874   22505940.6074   22505937.1174
        49.000          44.000
 123753898.52247  96431603.32147  23549587.4054   23549591.3304   23549587.8594
        45.000          39.000
 121899746.65947  94986805.46747  23196756.9474   23196760.5624   23196756.3184
        47.000          42.000
 105057760.70147  81863183.69247  19991832.6704   19991834.2004   19991833.1254
        54.000          50.000
 117297890.08847 109193147.51947  24223992.3754   24223997.4134   24223992.7954
        42.000          37.000
 09  1  7  1  8  0.0000000  0 12G24G12G22G 9G30G18G14G31G 5G29G21G 6
 115987096.21147  90379532.77147  22071629.4984   22071633.0874   22071629.5544
        51.000          44.000
 128357853.39747 100019097.60947  24425694.1244   24425696.0374   24425693.3114
        44.000          38.000
 125592925.03047  97864619.38647  23899536.0354   23899535.8314   23899536.4354
        46.000          40.000
 121256816.97947  94485837.70047  23074398.7464   23074401.0174   23074398.9344
        47.000          40.000
 121264903.27547  94492120.26047  23075952.2374   23075955.8144   23075951.9264
        48.000          42.000
 122142725.44347  95176138.34647  23242995.0234   23242996.8204   23242995.3654
        47.000          41.000
 116296995.58047  90621024.41647  22130592.0884   22130594.1914   22130592.1674
        50.000          44.000
 118174714.56747  92084188.68747  22487904.2284   22487906.9314   22487903.8044
        50.000          44.000
 123742845.42947  96422990.55647  23547484.4444   23547488.1724   23547484.8334
        45.000          39.000
 121973927.08247  95044608.39747  23210872.9764   23210876.2364   23210872.4454
        47.000          42.000
 105040742.63247  81849922.86147  19988594.1444   19988595.8664   19988594.5434
        54.000          50.000
 117262882.06547 109165868.57547  24217330.8604   24217336.3504   24217330.9584
        43.000          38.000
 09  1  7  1  8 30.0000000  0 12G24G12G22G 9G30G18G14G31G 5G29G21G 6
 116046149.50547  90425548.32447  22082867.0604   22082870.7874   22082867.0954
        51.000          44.000
 128361847.84347 100022210.21047  24426454.1164   24426456.4304   24426454.1874
        43.000          38.000
 125558999.55747  97838183.96347  23893079.7944   23893080.2694   23893079.8074
        45.000          39.000
 121346139.28647  94555439.51547  23091395.9624   23091398.6334   23091396.3804
        46.000          40.000
 121237670.36947  94470899.84347  23070770.0084   23070773.3884   23070769.7804
        48.000          42.000
 122110364.73047  95150922.20147  23236836.9104   23236838.4834   23236837.2354
        48.000          41.000
 116323766.78147  90641885.11947  22135686.5844   22135688.7354   22135686.5244
        50.000          44.000
 118080176.86547  92010523.04047  22469914.0874   22469916.7374   22469913.6474
        49.000          44.000
 123731907.67547  96414467.68147  23545402.8404   23545407.0664   23545403.4904
        46.000          39.000
 122048024.11447  95102346.36947  23224973.2934   23224976.8254   23224972.8484
        47.000          42.000
 105024314.67247  81837121.85847  19985467.9414   19985469.6024   19985468.3814
        54.000          50.000
 117228166.82747 109138817.77147  24210724.9864   24210730.1514   24210725.4794
        43.000          37.000
 09  1  7  1  9  0.0000000  0 12G24G12G22G 9G30G18G14G31G 5G29G21G 6
 116105623.99947  90471892.09047  22094184.5374   22094188.4494   22094184.7744
        50.000          44.000
 128365951.63947 100025408.01847  24427234.7924   24427237.3084   24427234.1954
        43.000          38.000
 125524851.57147  97811575.14047  23886581.5084   23886581.8874   23886581.4484
        45.000          39.000
 121435808.77547  94625311.85947  23108459.6014   23108462.6174   23108460.0004
        45.000          39.000
 121210404.33647  94449653.62847  23065581.4814   23065584.7184   23065580.9974
        48.000          42.000
 122077869.77347  95125601.45347  23230653.5194   23230654.9014   23230653.9224
        48.000          41.000
 116350805.75947  90662954.47547  22140831.6944   22140834.0124   22140832.0134
        50.000          44.000
 117985872.42047  91937039.14747  22451968.6844   22451971.0344   22451968.4914
        50.000          44.000
 123721087.91247  96406036.72647  23543343.8634   23543347.8084   23543344.4964
        45.000          39.000
 122122036.21847  95160018.12947  23239057.2844   23239060.8194   23239057.1614
        47.000          42.000
 105008478.54947  81824782.02547  19982454.5144   19982456.0354   19982454.9214
        54.000          50.000
 117193744.20847 109111994.99947  24204174.4484   24204179.4374   24204174.8354
        43.000          37.000
 09  1  7  1  9 30.0000000  0 12G24G12G22G 9G30G18G14G31G 5G29G21G 6
 116165519.43347  90518563.85747  22105582.2914   22105586.2294   22105582.3604
        50.000          44.000
 128370168.12347 100028693.64247  24428037.1874   24428039.5714   24428037.1614
        43.000          38.000
 125490482.35747  97784793.96447  23880041.5004   23880041.6174   23880041.3194
        46.000          40.000
 121525823.83947  94695453.46747  23125588.6694   23125592.2734   23125588.4634
        46.000          40.000
 121183108.49947  94428384.18247  23060387.5004   23060390.4354   23060387.4174
        48.000          42.000
 122045243.42547  95100178.32047  23224444.5834   23224446.3644   23224444.7314
        48.000          41.000
 116378111.60847  90684231.78147  22146027.8304   22146030.4734   22146027.9684
        50.000          44.000
 117891805.26947  91863740.15947  22434068.1924   22434070.6044   22434067.7524
        50.000          44.000
 123710389.50047  96397700.34747  23541308.2564   23541311.6124   23541308.2744
        46.000          39.000
 122195962.72847  95217623.20147  23253124.9254   23253128.8084   23253124.8134
        47.000          42.000
 104993236.73347  81812905.28747  19979554.0294   19979555.6544   19979554.4734
        54.000          50.000
 117159614.81547 109085400.69247  24197680.0644   24197685.4724   24197679.8974
        43.000          37.000
 09  1  7  1 10  0.0000000  0 12G24G12G22G 9G30G18G14G31G 5G29G21G 6
 116225833.56647  90565561.88847  22117059.2734   22117063.6474   22117059.3334
        50.000          44.000
 128374498.15247 100032067.73047  24428860.7884   24428863.4954   24428860.7624
        43.000          39.000
 125455891.14247  97757839.80047  23873458.6684   23873459.0774   23873458.9174
        46.000          39.000
 121616181.53147  94765862.05647  23142783.6974   23142786.5664   23142783.4984
        45.000          40.000
 121155784.00547  94407092.40647  23055187.8674   23055190.6634   23055187.3584
        48.000          42.000
 122012486.64547  95074653.56947  23218211.2034   23218213.2894   23218211.7824
        47.000          40.000
 116405680.87847  90705714.35747  22151274.0854   22151276.5744   22151274.4544
        50.000          44.000
 117797977.65047  91790627.82347  22416213.4854   22416215.7914   22416212.9644
        50.000          44.000
 123699813.75947  96389459.54947  23539295.7364   23539299.2454   23539296.0604
        46.000          40.000
 122269801.16447  95275159.63947  23267176.1194   23267179.7994   23267175.8704
        47.000          42.000
 104978589.75547  81801492.05947  19976766.9594   19976768.4104   19976767.3614
        54.000          50.000
 117125777.29447 109059033.83647  24191241.0134   24191246.2454   24191240.2464
        41.000          37.000
 09  1  7  1 10 30.0000000  0 12G24G12G22G 9G30G18G14G31G 5G29G21G 6
 116286564.99847  90612885.09047  22128616.1734   22128620.3414   22128616.1134
        51.000          44.000
 128378943.88147 100035531.95447  24429706.9934   24429709.8924   24429706.5834
        43.000          38.000
 125421078.92247  97730713.39147  23866834.2964   23866834.6204   23866834.2574
        47.000          40.000
 121706879.18647  94836535.55947  23160042.5264   23160045.7654   23160042.8004
        45.000          40.000
 121128432.90147  94385779.89347  23049983.0594   23049985.9954   23049982.7964
        48.000          42.000
 121979600.51647  95049028.04047  23211953.3034   23211955.3664   23211953.5244
        47.000          40.000
 116433510.98947  90727400.18447  22156569.8294   22156572.5194   22156569.7954
        50.000          44.000
 117704392.47447  91717704.40647  22398405.0494   22398406.9974   22398404.6144
        50.000          44.000
 123689362.88647  96381316.05047  23537307.0784   23537310.4954   23537307.7524
        46.000          39.000
 122343549.26547  95332625.69047  23281209.7754   23281213.5564   23281209.3194
        47.000          42.000
 104964538.87447  81790543.32247  19974093.0524   19974094.5974   19974093.4874
        54.000          50.000
 117092231.03847 109032893.93147  24184857.0364   24184862.1244   24184856.6904
        43.000          37.000
 09  1  7  1 11  0.0000000  0 12G24G12G22G 9G30G18G14G31G 5G29G21G 6
 116347711.94647  90660532.05847  22140252.2674   22140256.4634   22140252.4094
        50.000          44.000
 128383506.79047 100039087.51947  24430575.6244   24430577.2604   24430575.2714
        43.000          38.000
 125386046.18247  97703415.15947  23860167.8914   23860168.0704   23860167.7794
        46.000          40.000
 121797913.63047  94907471.48047  23177365.8844   23177369.0114   23177366.1864
        46.000          40.000
 121101057.03247  94364448.08947  23044773.5354   23044776.1584   23044773.4194
        49.000          42.000
 121946586.48747  95023302.82247  23205670.9564   23205672.6224   23205671.2644
        47.000          40.000
 116461599.19547  90749287.12847  22161914.9704   22161917.2674   22161915.0574
        50.000          44.000
 117611052.36247  91644971.95047  22380642.7134   22380644.9054   22380642.4134
        50.000          44.000
 123679038.64847  96373271.20947  23535342.0644   23535345.7164   23535342.3254
        45.000          39.000
 122417204.98247  95390019.76747  23295225.6224   23295229.8044   23295225.5234
        47.000          42.000
 104951084.68647  81780059.53947  19971532.7644   19971534.3744   19971533.1604
        54.000          50.000
 117058974.87547 109006980.04647  24178529.0764   24178533.2714   24178528.6884
        43.000          37.000
 09  1  7  1 11 30.0000000  0 12G24G12G22G 9G30G18G14G31G 5G29G21G 6
 116409272.06647  90708500.98147  22151966.9684   22151970.8244   22151966.9394
        50.000          44.000
 128388187.66647 100042734.98047  24431466.2574   24431468.4124   24431465.9114
        44.000          38.000
 125350792.09747  97675944.46247  23853459.2144   23853459.1044   23853459.0134
        46.000          39.000
 121889281.46947  94978667.21147  23194752.7024   23194755.3584   23194753.0954
        46.000          40.000
 121073657.57547  94343097.91647  23039559.6654   23039562.7044   23039559.1544
        48.000          42.000
 121913445.27947  94997478.49347  23199364.4204   23199366.0244   23199364.9964
        48.000          41.000
 116489942.16447  90771372.57947  22167308.2864   22167310.5934   22167308.4114
        50.000          44.000
 117517959.67847  91572432.28547  22362927.5814   22362929.7934   22362927.0104
        50.000          44.000
 123668842.39547  96365326.11547  23533401.8404   23533405.9734   23533402.4004
        46.000          40.000
 122490765.51247  95447339.69047  23309224.0344   23309227.8864   23309223.8414
        46.000          42.000
 104938227.41347  81770040.88447  19969086.0434   19969087.5804   19969086.3854
        54.000          50.000
 117026007.42947 108981291.15847  24172254.9214   24172259.5824   24172254.8734
        42.000          37.000
 09  1  7  1 12  0.0000000  0 12G24G12G22G 9G30G18G14G31G 5G29G21G 6
 116471245.83847  90756792.24047  22163760.1594   22163764.2084   22163760.3924
        50.000          44.000
 128392990.52947 100046477.49147  24432380.0394   24432382.1634   24432379.7054
        43.000          38.000
 125315317.79047  97648302.16847  23846708.1404   23846708.7574   23846708.4304
        46.000          39.000
 121980982.12247  95050122.27547  23212202.6594   23212205.3924   23212202.6944
        45.000          40.000
 121046238.29647  94321732.29947  23034341.9204   23034344.9054   23034341.4864
        49.000          42.000
 121880180.16447  94971557.63647  23193034.0164   23193035.9214   23193034.7144
        46.000          40.000
 116518539.50647  90793656.25047  22172750.0064   22172752.6394   22172750.2244
        50.000          44.000
 117425118.98447  91500088.97747  22345260.4874   22345262.5354   22345260.0874
        50.000          44.000
 123658778.10847  96357483.85547  23531486.4364   23531490.5704   23531486.9324
        46.000          40.000
 122564230.91447  95504585.46047  23323204.2024   23323207.8474   23323204.0714
        47.000          41.000
 104925970.03247  81760489.68047  19966753.5514   19966755.1824   19966753.9974
        54.000          50.000
 116993329.65847 108955827.99147  24166036.7304   24166041.0994   24166037.0794
        42.000          37.000
 09  1  7  1 12 30.0000000  0 12G24G12G22G 9G30G18G14G31G 5G29G21G 6
 116533630.67347  90805403.80147  22175631.5084   22175635.4624   22175631.6624
        50.000          44.000
 128397916.51447 100050315.94247  24433317.5224   24433319.7904   24433317.2644
        43.000          38.000
 125279623.79947  97620488.67147  23839915.7854   23839916.4024   23839915.5104
        47.000          39.000
 122073011.87547  95121833.77947  23229715.5294   23229718.4154   23229715.6974
        44.000          39.000
 121018800.55547  94300352.28547  23029120.4834   23029123.5984   23029120.1714
        48.000          42.000
 121846791.87947  94945540.79047  23186680.6084   23186682.0844   23186680.8734
        47.000          40.000
 116547387.52247  90816135.25347  22178239.5754   22178241.9054   22178239.6644
        50.000          44.000
 117332532.35047  91427943.62747  22327641.9034   22327643.8894   22327641.5584
        50.000          45.000
 123648847.14347  96349745.49247  23529596.7574   23529600.4264   23529597.5494
        46.000          40.000
 122637598.59047  95561755.07247  23337165.6364   23337168.8564   23337165.7044
        46.000          41.000
 104914312.88547  81751406.18847  19964535.3454   19964536.9884   19964535.7504
        54.000          50.000
 116960940.30247 108930589.56147  24159873.2784   24159878.4044   24159874.1064
        44.000          37.000
 09  1  7  1 13  0.0000000  0 12G24G12G22G 9G30G18G14G31G 5G29G21G 6
 116596424.89247  90854334.36047  22187581.0264   22187584.8364   22187581.2814
        50.000          44.000
 128402967.24847 100054251.59347  24434278.3224   24434281.0304   24434278.0434
        43.000          38.000
 125243711.16347  97592504.80547  23833082.4154   23833082.4844   23833082.4154
        47.000          39.000
 122165368.47347  95193799.95447  23247290.1594   23247292.8444   23247290.2844
        45.000          39.000
 120991346.38447  94278959.46347  23023896.2514   23023898.9894   23023895.9404
        48.000          42.000
 121813282.35147  94919429.47747  23180303.6954   23180305.5484   23180304.1414
        46.000          40.000
 116576483.77247  90838807.68447  22183776.4904   22183779.0414   22183776.6474
        50.000          44.000
 117240202.62947  91355998.46447  22310072.1184   22310074.0864   22310071.7064
        50.000          45.000
 123639051.71247  96342112.72647  23527732.5034   23527736.5184   23527732.7884
        46.000          40.000
 122710866.42447  95618846.89547  23351107.9324   23351111.6294   23351107.7614
        46.000          41.000
 104903256.89847  81742791.13247  19962431.3964   19962433.1104   19962431.7644
        54.000          50.000
 116928838.54547 108905575.22747  24153764.3854   24153769.1674   24153764.9364
        43.000          38.000
 09  1  7  1 13 30.0000000  0 12G24G12G22G 9G30G18G14G31G 5G29G21G 6
 116659627.98047  90903583.52047  22199608.2934   22199612.1594   22199608.4834
        50.000          44.000
 128408145.62847 100058286.73347  24435262.9364   24435266.1334   24435262.9534
        42.000          38.000
 125207580.87547  97564351.33947  23826206.9564   23826207.2554   23826207.6184
        47.000          39.000
 122258050.19047  95266019.47647  23264926.9504   23264929.4264   23264927.2964
        44.000          39.000
 120963878.93347  94257556.31047  23018669.1674   23018671.7024   23018668.4734
        48.000          42.000
 121779653.83847  94893225.45047  23173904.9114   23173906.3394   23173905.1604
        47.000          40.000
 116605826.83847  90861672.43447  22189360.2994   22189362.5804   22189360.5174
        50.000          44.000
 117148133.91447  91284256.68747  22292551.7804   22292553.9784   22292551.9174
        50.000          44.000
 123629394.88647  96334587.95847  23525895.3164   23525898.7344   23525895.9414
        46.000          40.000
 122784034.09547  95675860.66447  23365031.3524   23365034.6124   23365031.2434
        46.000          41.000
 104892804.17047  81734646.14947  19960442.3054   19960443.9584   19960442.7894
        54.000          50.000
 116897024.70147 108880785.26947  24147709.7604   24147715.6044   24147710.2784
        43.000          38.000
 09  1  7  1 14  0.0000000  0 12G24G12G22G 9G30G18G14G31G 5G29G21G 6
 116723235.68247  90953147.96447  22211712.1674   22211716.1514   22211712.3244
        50.000          44.000
 128413450.93047 100062420.75247  24436272.8384   24436276.0074   24436272.3364
        44.000          38.000
 125171230.64747  97536026.49647  23819289.7434   23819289.8214   23819290.0094
        47.000          39.000
 122351051.42547  95338487.97047  23282624.9064   23282627.0724   23282624.7614
        45.000          39.000
 120936397.47947  94236142.23447  23013439.3454   23013442.1314   23013438.9134
        48.000          42.000
 121745904.94347  94866927.61747  23167482.7924   23167484.0394   23167483.5334
        48.000          41.000
 116635411.43147  90884725.38047  22194989.8524   22194992.2074   22194990.0134
        50.000          44.000
 117056326.54047  91212718.53647  22275081.0354   22275083.4954   22275080.4434
        50.000          45.000
 123619875.89647  96327170.57347  23524083.4914   23524086.9844   23524083.9114
        46.000          40.000
 122857096.35347  95732792.31447  23378934.5654   23378937.1974   23378934.5624
        47.000          41.000
 104882952.82447  81726969.77447  19958567.6694   19958569.2964   19958567.9824
        54.000          50.000
 116865495.11347 108856216.78847  24141710.8704   24141715.9374   24141710.8464
        43.000          38.000
 09  1  7  1 14 30.0000000  0 12G24G12G22G 9G30G18G14G31G 5G29G21G 6
 116787251.02847  91003030.05247  22223893.7434   22223897.9304   22223893.7784
        50.000          44.000
 128418889.52647 100066658.64647  24437308.5424   24437310.7044   24437308.2154
        44.000          38.000
 125134665.53547  97507534.20147  23812331.8464   23812331.4204   23812332.0454
        47.000          39.000
 122444374.02047  95411206.87547  23300383.3274   23300385.6234   23300383.4614
        45.000          40.000
 120908908.40647  94214722.22347  23008208.3284   23008211.4384   23008207.9344
        48.000          42.000
 121712042.06347  94840540.96347  23161039.0054   23161040.1004   23161039.2944
        47.000          41.000
 116665239.44347  90907968.00947  22200666.0664   22200668.3904   22200666.1784
        50.000          44.000
 116964787.98247  91141389.84547  22257662.1314   22257664.2554   22257661.3424
        50.000          45.000
 123610501.52847  96319865.87647  23522299.9944   23522303.5224   23522300.6474
        46.000          40.000
 122930055.81547  95789643.87247  23392817.9164   23392821.1514   23392817.9884
        47.000          41.000
 104873708.35647  81719766.29547  19956808.5894   19956810.0564   19956809.0094
        54.000          50.000
 116834253.39147 108831872.63647  24135765.0994   24135769.9744   24135765.3714
        43.000          38.000
 09  1  7  1 15  0.0000000  0 12G24G12G22G 9G30G18G14G31G 5G29G21G 6
 116851667.01647  91053224.32847  22236151.8374   22236155.8644   22236151.9534
        50.000          43.000
 128424457.93047 100070997.66347  24438368.0644   24438370.3904   24438367.4264
        44.000          38.000
 125097880.78347  97478870.75447  23805331.9484   23805331.7934   23805331.7334
        46.000          39.000
 122538009.86047  95484169.88247  23318201.5784   23318204.2384   23318201.9674
        46.000          40.000
 120881408.55047  94193293.81847  23002975.5894   23002978.7174   23002975.1574
        49.000          42.000
 121678061.45447  94814062.57847  23154572.0414   23154573.8174   23154572.2524
        47.000          40.000
 116695303.13247  90931394.27247  22206386.9984   22206389.2594   22206387.1554
        50.000          44.000
 116873515.34747  91070268.36547  22240293.5554   22240295.6594   22240293.5474
        50.000          45.000
 123601268.53547  96312671.36047  23520542.5704   23520546.4064   23520543.1164
        46.000          39.000
 123002905.84847  95846410.15347  23406681.1174   23406684.1844   23406681.0354
        47.000          41.000
 104865066.14347  81713032.10647  19955164.0094   19955165.4874   19955164.3644
        54.000          50.000
 116803293.61847 108807748.16947  24129873.9974   24129878.9394   24129874.1384
        43.000          38.000
 09  1  7  1 15 30.0000000  0 12G24G12G22G 9G30G18G14G31G 5G29G21G 6
 116916486.66447  91103733.14247  22248486.6344   22248490.6294   22248486.8234
        50.000          43.000
 128430162.57747 100075442.90347  24439453.0694   24439456.1274   24439452.9194
        43.000          38.000
 125060881.56847  97450040.21447  23798290.4254   23798291.0744   23798290.8234
        45.000          39.000
 122631961.23847  95557378.76347  23336080.3764   23336083.1484   23336080.4594
        46.000          40.000
 120853904.93847  94171862.46147  22997741.5594   22997745.0274   22997741.4384
        48.000          42.000
 121643969.42247  94787497.38047  23148084.8934   23148086.4684   23148085.0404
        48.000          41.000
 116725604.41147  90955005.67947  22212153.4434   22212155.2154   22212153.6294
        50.000          44.000
 116782516.58947  90999360.29047  22222976.9594   22222979.2074   22222976.8294
        50.000          45.000
 123592183.88647  96305592.44847  23518813.8034   23518817.7454   23518814.5334
        45.000          39.000
 123075649.39947  95903093.48047  23420524.1924   23420526.8204   23420523.8944
        47.000          41.000
 104857031.82147  81706771.59647  19953635.0534   19953636.7324   19953635.4544
        54.000          50.000
 116772619.78347 108783846.53047  24124036.6254   24124041.2944   24124036.7514
        42.000          37.000
 09  1  7  1 16  0.0000000  0 12G24G12G22G 9G30G18G14G31G 5G29G21G 6
 116981704.50847  91154552.23547  22260896.9354   22260901.0444   22260897.1304
        50.000          43.000
 128436001.37247 100079992.64647  24440564.0784   24440567.1904   24440563.5454
        43.000          38.000
 125023664.31947  97421039.77147  23791208.2924   23791208.7704   23791208.4294
        46.000          39.000
 122726221.35947  95630828.21147  23354017.2914   23354020.3934   23354017.8114
        46.000          40.000
 120826395.68247  94150426.72147  22992506.9934   22992509.8414   22992506.7974
        48.000          42.000
 121609763.70847  94760843.58247  23141575.6474   23141577.3804   23141576.0234
        48.000          41.000
 116756136.90347  90978797.24547  22217963.0694   22217965.0244   22217963.4114
        50.000          44.000
 116691790.72647  90928664.85447  22205712.3504   22205714.6104   22205712.0254
        50.000          45.000
 123583245.60447  96298627.55247  23517112.9154   23517117.1654   23517113.6714
        46.000          39.000
 123148280.39747  95959689.09347  23434345.2164   23434347.9844   23434345.3464
        47.000          41.000
 104849602.27347  81700982.33647  19952221.2824   19952222.8534   19952221.6494
        54.000          50.000
 116742227.07047 108760163.92947  24118253.5344   24118257.9094   24118254.1134
        43.000          37.000
 09  1  7  1 16 30.0000000  0 12G24G12G22G 9G30G18G14G31G 5G29G21G 6
 117047322.34847  91205683.02247  22273383.7184   22273387.8144   22273384.0684
        50.000          43.000
 128441979.66947 100084651.08847  24441702.2674   24441705.3124   24441702.0374
        44.000          38.000
 124986232.95447  97391872.50147  23784085.9184   23784085.8844   23784085.7364
        46.000          39.000
 122820791.10747  95704518.93347  23372013.5914   23372016.3324   23372013.5434
        45.000          40.000
 120798886.25547  94128990.83947  22987271.6724   22987274.8074   22987271.6044
        48.000          42.000
 121575449.44947  94734105.20347  23135045.8874   23135047.4754   23135046.3484
        48.000          41.000
 116786901.66447  91002769.80547  22223817.6594   22223819.6644   22223817.7754
        50.000          44.000
 116601344.00747  90858186.93047  22188500.9484   22188503.0734   22188500.5474
        50.000          45.000
 123574459.30647  96291781.11247  23515441.3614   23515444.5204   23515441.8114
        46.000          40.000
 123220800.56147  96016198.32347  23448145.5474   23448148.0574   23448145.0214
        46.000          41.000
 104842781.74347  81695667.63547  19950923.5434   19950925.0534   19950923.9724
        54.000          50.000
 116712118.00747 108736702.35947  24112523.4654   24112528.8094   24112523.9504
        43.000          37.000
 09  1  7  1 17  0.0000000  0 12G24G12G22G 9G30G18G14G31G 5G29G21G 6
 117113336.12647  91257122.33547  22285945.7114   22285949.7114   22285945.6384
        50.000          43.000
 128448097.38347 100089418.13647  24442866.3424   24442868.7934   24442866.1624
        44.000          38.000
 124948586.08847  97362537.29447  23776921.5194   23776921.9164   23776921.5114
        46.000          40.000
 122915665.74747  95778447.21147  23390067.1334   23390070.4154   23390067.2394
        45.000          40.000
 120771376.54147  94107554.72847  22982036.7334   22982039.9164   22982036.4214
        48.000          42.000
 121541026.24147  94707281.93247  23128495.7384   23128497.1214   23128496.0854
        48.000          41.000
 116817894.10347  91026919.77947  22229715.1064   22229717.5114   22229715.3674
        49.000          44.000
 116511177.09947  90787927.03647  22171342.5934   22171344.7964   22171342.0354
        51.000          45.000
 123565824.99747  96285053.10147  23513798.5314   23513801.8864   23513798.8764
        46.000          40.000
 123293206.00247  96072618.16947  23461923.7314   23461926.6324   23461923.1714
        46.000          41.000
 104836568.91147  81690826.46647  19949741.1314   19949742.6434   19949741.5284
        54.000          50.000
 116682289.62747 108713459.51747  24106848.0104   24106852.3764   24106847.9454
        44.000          38.000
 09  1  7  1 17 30.0000000  0 12G24G12G22G 9G30G18G14G31G 5G29G21G 6
 117179745.09247  91308869.58347  22298582.9234   22298586.8704   22298583.3164
        49.000          43.000
 128454357.14147 100094295.92047  24444057.1754   24444059.5524   24444057.0354
        44.000          38.000
 124910725.21047  97333035.30247  23769716.6074   23769717.1384   23769716.8394
        45.000          39.000
 123010843.27347  95852611.51147  23408178.8624   23408182.3154   23408178.9584
        44.000          39.000
 120743869.69547  94086120.86047  22976802.3394   22976805.6844   22976801.8204
        48.000          42.000
 121506496.64147  94680375.75547  23121924.5274   23121926.0654   23121924.9934
        48.000          41.000
 116849112.26947  91051245.63847  22235655.8134   22235658.1734   22235656.0264
        50.000          44.000
 116421294.23747  90717888.47947  22154238.4104   22154240.3764   22154237.8594
        51.000          45.000
 123557345.75847  96278445.92747  23512184.4254   23512188.1214   23512184.7124
        45.000          39.000
 123365495.97847  96128948.03547  23475679.8354   23475683.0064   23475679.1424
        46.000          41.000
 104830965.84147  81686460.44147  19948674.9094   19948676.3594   19948675.3294
        54.000          50.000
 116652742.25347 108690435.63047  24101224.6074   24101229.8404   24101224.8624
        42.000          37.000
 09  1  7  1 18  0.0000000  0 12G24G12G22G 9G30G18G14G31G 5G29G21G 6
 117246547.43847  91360923.35547  22311294.5144   22311298.8874   22311294.6444
        49.000          43.000
 128460760.68547 100099285.69747  24445275.3854   24445278.4754   24445275.1564
        43.000          38.000
 124872650.93547  97303367.04347  23762471.2154   23762471.8064   23762471.4784
        46.000          39.000
 123106321.25847  95927009.95347  23426347.7014   23426350.6674   23426347.7794
        44.000          39.000
 120716367.83047  94064690.86147  22971569.1384   22971572.2704   22971568.8144
        48.000          42.000
 121471862.45347  94653388.08147  23115333.9744   23115335.2394   23115334.3504
        48.000          41.000
 116880553.76047  91075745.51847  22241639.0494   22241641.2084   22241639.4154
        50.000          44.000
 116331698.12347  90648073.36147  22137188.7224   22137190.5894   22137188.2804
        50.000          45.000
 123549023.63447  96271961.16247  23510600.9054   23510604.0514   23510601.4304
        45.000          40.000
 123437668.84547  96185186.64447  23489413.5034   23489416.9294   23489413.0014
        45.000          41.000
 104825972.81247  81682569.76547  19947724.7964   19947726.3374   19947725.1654
        54.000          50.000
 116623474.77247 108667629.82947  24095655.3514   24095660.0284   24095655.7044
        43.000          37.000
 09  1  7  1 18 30.0000000  0 12G24G12G22G 9G30G18G14G31G 5G29G21G 6
 117313740.70247  91413281.74147  22324081.1694   22324085.1074   22324081.2504
        49.000          43.000
 128467309.17447 100104388.41447  24446521.7434   24446524.4804   24446521.6654
        43.000          38.000
 124834363.06647  97273532.36847  23755185.8334   23755186.3114   23755186.2054
        46.000          39.000
 123202095.77647  96001639.44747  23444572.7814   23444576.0714   23444572.9484
        45.000          39.000
 120688872.40847  94043265.88547  22966336.8064   22966339.3564   22966336.4074
        48.000          42.000
 121437124.22447  94626319.33647  23108723.6574   23108725.0914   23108724.0494
        48.000          41.000
 116912214.86147  91100416.52047  22247663.9774   22247666.1154   22247664.0324
        50.000          44.000
 116242390.68947  90578483.19747  22120194.1014   22120195.9244   22120193.6994
        51.000          45.000
 123540859.95447  96265599.88847  23509047.0514   23509050.6074   23509047.3654
        45.000          39.000
 123509721.92247  96241331.91247  23503124.7304   23503128.0854   23503124.2804
        46.000          41.000
 104821589.50347  81679154.19747  19946890.6664   19946892.1754   19946891.0314
        54.000          50.000
 116594485.51447 108645040.82047  24090139.2354   24090143.9224   24090138.8954
        43.000          37.000
 09  1  7  1 19  0.0000000  0 12G24G12G22G 9G30G18G14G31G 5G29G21G 6
 117381325.45647  91465945.18747  22336942.4554   22336946.1544   22336942.4404
        49.000          43.000
 128474006.32047 100109607.00947  24447796.2324   24447798.6174   24447795.6204
        43.000          38.000
 124795864.18947  97243533.25547  23747859.4124   23747859.8314   23747859.4764
        45.000          39.000
 123298166.24547  96076499.56347  23462854.3604   23462857.2804   23462854.8334
        45.000          39.000
 120661387.66947  94021849.23447  22961106.6724   22961109.6354   22961106.3624
        48.000          42.000
 121402286.13547  94599172.78047  23102093.8244   23102095.3944   23102094.1554
        48.000          41.000
 116944095.41647  91125258.52847  22253730.7324   22253732.8564   22253731.0134
        50.000          44.000
 116153377.00247  90509121.92747  22103255.1414   22103257.2654   22103254.8714
        51.000          45.000
 123532858.82447  96259365.27747  23507524.5974   23507528.1994   23507525.3664
        46.000          40.000
 123581655.56947  96297384.11347  23516813.2464   23516816.8524   23516813.0684
        45.000          41.000
 104817819.18347  81676216.28347  19946173.0854   19946174.7904   19946173.4884
        54.000          50.000
 116565775.58547 108622669.50047  24084675.2994   24084680.2994   24084675.1484
        43.000          37.000
 09  1  7  1 19 30.0000000  0 12G24G12G22G 9G30G18G14G31G 5G29G21G 6
 117449296.80547  91518909.87447  22349876.7684   22349880.7704   22349876.9124
        49.000          43.000
 128480851.17647 100114940.68647  24449098.8024   24449100.6144   24449099.0114
        44.000          38.000
 124757151.94147  97213367.87747  23740492.2654   23740493.4094   23740492.4884
        46.000          40.000
 123394526.97147  96151585.86147  23481191.1744   23481194.0774   23481191.1434
        45.000          39.000
 120633912.46947  94000440.02847  22955878.1274   22955880.9714   22955877.4184
        48.000          42.000
 121367346.15947  94571946.82347  23095445.0134   23095446.5854   23095445.5024
        48.000          41.000
 116976190.11147  91150267.39147  22259837.8704   22259840.5504   22259837.9154
        49.000          44.000
 116064657.13247  90439989.60347  22086372.4424   22086374.4144   22086372.0354
        51.000          45.000
 123525019.45147  96253256.70047  23506032.4344   23506036.5964   23506032.8254
        45.000          40.000
 123653464.83947  96353339.39947  23530477.8114   23530481.9574   23530477.8604
        45.000          41.000
 104814658.91547  81673753.73847  19945571.6144   19945573.4864   19945571.9514
        54.000          50.000
 116537341.26847 108600512.89847  24079265.1994   24079269.2204   24079265.5754
        43.000          38.000
 09  1  7  1 20  0.0000000  0 12G24G12G22G 9G30G18G14G31G 5G29G21G 6
 117517655.19947  91572176.15647  22362885.1574   22362889.1674   22362885.3364
        49.000          43.000
 128487847.62447 100120392.48847  24450430.6494   24450432.1354   24450430.1984
        43.000          38.000
 124718229.29847  97183038.55647  23733086.1004   23733086.6754   23733085.9984
        47.000          40.000
 123491177.76347  96226898.17247  23499583.2514   23499586.2424   23499583.4114
        46.000          39.000
 120606451.37447  93979041.79647  22950652.3584   22950655.5594   22950652.2074
        48.000          42.000
 121332308.75147  94544644.96747  23088777.4334   23088779.3014   23088777.8244
        48.000          41.000
 117008498.05847  91175442.43447  22265986.0874   22265988.0934   22265986.0234
        50.000          44.000
 115976236.15347  90371090.19147  22069546.3784   22069548.4714   22069546.0684
        51.000          45.000
 123517346.21347  96247277.60247  23504572.8054   23504576.5944   23504572.9134
        46.000          40.000
 123725150.62647  96409198.45447  23544119.2814   23544123.1954   23544118.9284
        45.000          40.000
 104812111.99447  81671769.12647  19945087.1164   19945088.7104   19945087.5264
        54.000          50.000
 116509183.89247 108578572.15747  24073906.6224   24073911.3914   24073906.7954
        43.000          38.000
 09  1  7  1 20 30.0000000  0 12G24G12G22G 9G30G18G14G31G 5G29G21G 6
 117586397.37347  91625741.49147  22375966.2464   22375970.3324   22375966.3474
        49.000          43.000
 128494995.87447 100125962.56847  24451790.7244   24451792.2814   24451790.5244
        43.000          38.000
 124679095.22947  97152544.49047  23725639.5034   23725639.7884   23725639.7444
        46.000          40.000
 123588113.98547  96302432.90447  23518029.9704   23518032.5754   23518029.7844
        45.000          39.000
 120579004.89047  93957654.95247  22945429.6224   22945432.1654   22945429.2444
        48.000          42.000
 121297174.23847  94517267.44247  23082091.6554   23082093.3254   23082092.2004
        48.000          41.000
 117041015.28547  91200780.55247  22272173.6504   22272175.9474   22272173.6434
        49.000          44.000
 115888115.23447  90302424.58847  22052777.6954   22052779.6274   22052777.2374
        51.000          45.000
 123509839.59047  96241428.31747  23503144.1204   23503147.8744   23503144.5984
        46.000          40.000
 123796709.59647  96464958.68047  23557736.3684   23557740.5184   23557736.1114
        45.000          41.000
 104810177.38947  81670261.64347  19944718.8994   19944720.6484   19944719.2654
        54.000          50.000
 116481300.92847 108556845.20447  24068600.7704   24068605.4664   24068601.0824
        43.000          38.000
 09  1  7  1 21  0.0000000  0 12G24G12G22G 9G30G18G14G31G 5G29G21G 6
 117655523.44947  91679605.95547  22389120.5494   22389124.5744   22389120.9704
        49.000          43.000
 128502299.98347 100131654.11847  24453180.6274   24453182.7904   24453180.5234
        44.000          39.000
 124639752.55047  97121887.86547  23718152.3994   23718152.8884   23718152.5254
        46.000          40.000
 123685334.72447  96378189.34247  23536530.2624   23536532.7814   23536530.1544
        45.000          39.000
 120551577.35647  93936282.86747  22940210.5174   22940213.1104   22940210.0264
        49.000          42.000
 121261946.24347  94489817.04947  23075388.1774   23075389.3994   23075388.3734
        48.000          41.000
 117073741.29047  91226281.34547  22278401.2284   22278403.7214   22278401.6044
        50.000          44.000
 115800299.38047  90233996.70347  22036066.8394   22036068.8114   22036066.7634
        51.000          46.000
 123502503.69247  96235712.06247  23501748.3314   23501752.1154   23501748.7554
        46.000          40.000
 123868142.25147  96520620.49347  23571329.9254   23571333.8744   23571329.6244
        45.000          41.000
 104808857.61847  81669233.25247  19944467.8024   19944469.4404   19944468.2574
        54.000          50.000
 116453693.36347 108535332.85847  24063347.3964   24063352.1524   24063347.0524
        43.000          38.000
 09  1  7  1 21 30.0000000  0 12G24G12G22G 9G30G18G14G31G 5G29G21G 6
 117725030.51947  91733767.31447  22402347.2224   22402351.3594   22402347.2014
        49.000          43.000
 128509760.42047 100137467.48447  24454600.2954   24454602.9444   24454600.1894
        44.000          39.000
 124600200.68647  97091068.23247  23710626.1224   23710626.5374   23710626.3754
        47.000          40.000
 123782836.35547  96454164.65447  23555083.9464   23555087.0444   23555084.0824
        44.000          39.000
 120524169.83447  93914926.39647  22934994.9664   22934997.8874   22934994.7154
        49.000          42.000
 121226625.34647  94462294.28247  23068666.8714   23068668.4034   23068667.1254
        47.000          41.000
 117106672.34547  91251941.92747  22284668.0334   22284670.1794   22284668.3684
        50.000          44.000
 115712790.35547  90165807.90647  22019414.3694   22019416.4044   22019414.4374
        51.000          46.000
 123495339.56647  96230129.66547  23500384.8494   23500388.5904   23500385.1334
        45.000          40.000
 123939445.54047  96576181.50447  23584898.2424   23584902.4814   23584897.7874
        45.000          41.000
 104808151.77947  81668683.24847  19944333.4314   19944335.0634   19944333.8924
        54.000          50.000
 116426359.24147 108514033.59947  24058145.9014   24058150.2324   24058145.8884
        43.000          38.000
 09  1  7  1 22  0.0000000  0 12G24G12G22G 9G30G18G14G31G 5G29G21G 6
 117794916.15047  91788223.64447  22415646.3264   22415650.2284   22415646.2594
        49.000          43.000
 128517378.58947 100143403.72547  24456049.9304   24456052.0534   24456049.6304
        42.000          39.000
 124560439.87447  97060085.79147  23703060.0494   23703060.6244   23703059.9004
        47.000          40.000
 123880615.34047  96530356.07047  23573690.6174   23573693.7124   23573690.8234
        44.000          38.000
 120496783.96347  93893586.79347  22929783.2704   22929786.3924   22929782.7654
        48.000          42.000
 121191212.86547  94434700.15247  23061927.7264   23061929.3974   23061928.1024
        47.000          41.000
 117139805.32847  91277759.85347  22290972.8814   22290975.4794   22290973.0394
        50.000          44.000
 115625590.38047  90097859.93347  22002820.6804   22002823.0574   22002820.0884
        51.000          46.000
 123488348.67647  96224682.25647  23499054.2174   23499058.3894   23499054.3244
        46.000          40.000
 124010617.20647  96631639.94947  23598441.7004   23598446.0434   23598441.3494
        45.000          40.000
 104808060.03447  81668611.76447  19944316.1454   19944317.5994   19944316.5734
        54.000          50.000
 116399296.89247 108492946.10547  24052995.6194   24053000.3134   24052995.6514
        42.000          37.000
 09  1  7  1 22 30.0000000  0 12G24G12G22G 9G30G18G14G31G 5G29G21G 6
 117865179.70947  91842974.47347  22429017.1664   22429021.1054   22429017.3404
        49.000          43.000
 128525157.22147 100149465.03347  24457529.8464   24457532.1294   24457529.3584
        43.000          38.000
 124520471.48147  97028941.60047  23695454.2764   23695454.6274   23695454.0734
        47.000          40.000
 123978669.95447  96606762.27547  23592349.2894   23592352.5214   23592349.4244
        44.000          38.000
 120469422.88547  93872266.49747  22924576.9284   22924579.7154   22924576.5084
        49.000          42.000
 121155711.53347  94407036.78047  23055172.3044   23055173.8174   23055172.6204
        48.000          41.000
 117173138.64347  91303733.87247  22297316.2794   22297318.3284   22297316.5634
        50.000          44.000
 115538703.35447  90030155.82347  21986286.5294   21986288.9484   21986286.0124
        51.000          46.000
 123481534.05847  96219372.21147  23497757.5354   23497761.3464   23497758.0094
        46.000          40.000
 124081656.69847  96686995.40647  23611960.1264   23611963.9764   23611959.8054
        45.000          40.000
 104808583.91347  81669019.98147  19944415.6954   19944417.4124   19944416.0504
        54.000          49.000
 116372506.47647 108472070.49647  24047897.7394   24047902.4164   24047897.4604
        41.000          37.000
 09  1  7  1 23  0.0000000  0 12G24G12G22G 9G30G18G14G31G 5G29G21G 6
 117935820.39847  91898019.16547  22442459.1874   22442463.4054   22442459.3654
        49.000          43.000
 128533099.19147 100155653.60547  24459041.0874   24459043.8394   24459041.2134
        43.000          38.000
 124480297.62647  96997637.28847  23687809.4964   23687809.5854   23687809.2134
        48.000          40.000
 124076998.81847  96683382.16047  23611061.0974   23611064.0104   23611061.0224
        44.000          39.000
 120442090.00047  93850968.18547  22919375.7304   22919378.5524   22919375.3784
        49.000          42.000
 121120124.69347  94379306.78547  23048400.4094   23048401.6974   23048400.8274
        48.000          41.000
 117206670.88747  91329862.90647  22303697.3404   22303699.0164   22303697.6614
        50.000          44.000
 115452133.43447  89962698.80947  21969812.8514   21969815.1334   21969812.4884
        51.000          46.000
 123474899.11547  96214202.16647  23496494.9134   23496498.9784   23496495.3454
        46.000          40.000
 124152563.62247  96742247.55547  23625453.5104   23625456.9804   23625453.8014
        46.000          40.000
 104809724.91147  81669909.07347  19944632.7074   19944634.4654   19944633.0154
        54.000          49.000
 116345988.12047 108451406.90047  24042851.0404   24042855.8564   24042851.2014
        43.000          37.000
 09  1  7  1 23 30.0000000  0 12G24G12G22G 9G30G18G14G31G 5G29G21G 6
 118006832.52047  91953353.28147  22455972.4074   22455976.5764   22455972.7234
        49.000          43.000
 128541202.68347 100161968.03147  24460583.4934   24460585.7274   24460583.4394
        43.000          39.000
 124439915.31047  96966170.54947  23680125.1964   23680124.9274   23680125.2014
        48.000          40.000
 124175595.17147  96760210.48547  23629823.6074   23629826.4904   23629823.7264
        44.000          38.000
 120414783.62747  93829690.52147  22914179.0774   22914182.4414   22914179.0514
        48.000          42.000
 121084449.76847  94351508.14847  23041611.8024   23041613.1004   23041612.3404
        48.000          41.000
 117240395.27747  91356141.66347  22310114.6054   22310116.7484   22310114.8644
        50.000          44.000
 115365879.74247  89895488.20547  21953399.4584   21953401.3584   21953399.0944
        51.000          46.000
 123468442.10947  96209170.76047  23495266.2044   23495270.1454   23495266.5024
        46.000          40.000
 124223332.83747  96797392.40347  23638920.5754   23638923.8044   23638920.7874
        46.000          40.000
 104811479.65147  81671276.40347  19944966.7944   19944968.3764   19944967.2754
        54.000          49.000
 116319737.22247 108430951.70647  24037855.4874   24037860.3174   24037855.9144
        43.000          37.000
 09  1  7  1 24  0.0000000  0 12G24G12G22G 9G30G18G14G31G 5G29G21G 6
 118078217.74147  92008978.13247  22469556.5494   22469560.7754   22469556.6654
        49.000          43.000
 128549473.10747 100168412.52447  24462157.1154   24462159.7524   24462156.9064
        43.000          39.000
 124399328.72647  96934544.64547  23672401.3594   23672401.6244   23672401.5294
        47.000          40.000
 124274459.95047  96837247.98547  23648636.6544   23648639.6294   23648636.7384
        44.000          38.000
 120387509.62947  93808438.08247  22908989.2264   22908991.7894   22908988.9174
        49.000          42.000
 121048692.49347  94323645.33347  23034807.5594   23034808.8214   23034808.1164
        48.000          41.000
 117274313.74047  91382571.64947  22316569.1334   22316571.2564   22316569.0834
        50.000          44.000
 115279948.65047  89828528.98047  21937047.2894   21937049.0214   21937047.1444
        51.000          46.000
 123462168.73147  96204282.44747  23494072.5334   23494076.2404   23494073.2084
        46.000          40.000
 124293966.48847  96852431.60647  23652361.7084   23652365.0714   23652361.6084
        45.000          40.000
 104813852.20447  81673125.14747  19945418.2434   19945419.8494   19945418.5724
        54.000          49.000
 116293756.31147 108410706.91247  24032911.7104   24032916.1964   24032911.7514
        42.000          37.000
 09  1  7  1 24 30.0000000  0 12G24G12G22G 9G30G18G14G31G 5G29G21G 6
 118149972.07547  92064890.58747  22483211.0454   22483215.1594   22483211.2324
        49.000          43.000
 128557909.66947 100174986.49047  24463763.0924   24463765.0794   24463763.1254
        44.000          39.000
 124358536.71447  96902758.65947  23664639.1574   23664639.2104   23664639.1674
        48.000          40.000
 124373588.13847  96914490.71447  23667500.1974   23667503.1074   23667500.2654
        44.000          38.000
 120360267.87347  93787210.76647  22903805.2914   22903807.8364   22903805.0064
        49.000          42.000
 121012852.33847  94295717.94747  23027987.2334   23027988.6384   23027987.9934
        47.000          41.000
 117308420.94347  91409148.70047  22323059.3924   22323061.6044   22323059.7234
        49.000          44.000
 115194340.45247  89761821.35247  21920756.3134   21920758.2584   21920755.5914
        51.000          46.000
 123456078.72447  96199537.01147  23492913.5884   23492917.3424   23492914.1044
        45.000          40.000
 124364459.88547  96907361.51747  23665775.8764   23665779.4734   23665775.7534
        45.000          40.000
 104816840.31747  81675453.55147  19945986.7704   19945988.4574   19945987.1624
        54.000          50.000
 116268041.83547 108390669.70547  24028018.0954   24028022.9004   24028018.7454
        43.000          37.000
 09  1  7  1 25  0.0000000  0 12G24G12G22G 9G30G18G14G31G 5G29G21G 6
 118222095.54447  92121090.67547  22496935.4594   22496939.7814   22496935.9534
        49.000          43.000
 128566516.36447 100181693.06047  24465400.6214   24465402.3644   24465400.5854
        44.000          39.000
 124317541.55847  96870814.39147  23656838.1234   23656838.1394   23656838.2364
        47.000          40.000
 124472978.66247  96991937.88847  23686413.7844   23686416.2574   23686413.8714
        44.000          38.000
 120333062.76647  93766012.01247  22898628.4814   22898630.9554   22898628.0104
        49.000          42.000
 120976933.10247  94267728.94647  23021151.8524   23021153.4964   23021152.2994
        47.000          41.000
 117342716.14747  91435872.24947  22329585.6044   22329587.7304   22329585.6414
        49.000          44.000
 115109060.26347  89695369.32147  21904528.1554   21904530.0334   21904527.6434
        52.000          46.000
 123450176.13447  96194937.61447  23491790.3974   23491793.8124   23491790.8884
        46.000          40.000
 124434813.94547  96962182.86447  23679163.8164   23679167.6274   23679163.4604
        45.000          40.000
 104820446.51147  81678263.57047  19946673.0724   19946674.7154   19946673.4484
        54.000          50.000
 116242594.95547 108370841.02747  24023175.9984   24023180.9914   24023175.5314
        43.000          38.000
 09  1  7  1 25 30.0000000  0 12G24G12G22G 9G30G18G14G31G 5G29G21G 6
 118294584.87747  92177575.87247  22510729.5834   22510734.1064   22510729.7734
        49.000          43.000
 128575293.38247 100188532.32647  24467070.7254   24467072.8414   24467070.5294
        44.000          39.000
 124276343.02247  96838711.62947  23648997.7644   23648998.2634   23648997.7464
        46.000          40.000
 124572627.38847  97069586.25347  23705376.0334   23705379.2844   23705376.3354
        44.000          38.000
 120305894.97047  93744842.31847  22893458.3834   22893460.9484   22893458.1884
        49.000          42.000
 120940935.43647  94239678.80947  23014301.5134   23014303.3144   23014301.9614
        47.000          41.000
 117377195.40747  91462739.21647  22336146.8214   22336148.9824   22336146.7964
        50.000          44.000
 115024109.66347  89629174.11147  21888362.4684   21888364.4854   21888362.4484
        51.000          46.000
 123444461.78247  96190484.89247  23490703.1534   23490706.5064   23490703.6704
        46.000          40.000
 124505025.73047  97016893.34847  23692524.5104   23692528.3454   23692524.1224
        44.000          40.000
 104824669.65347  81681554.32747  19947476.8254   19947478.3084   19947477.1734
        54.000          50.000
 116217413.35147 108351219.05247  24018383.8484   24018388.2734   24018384.0764
        43.000          38.000
 09  1  7  1 26  0.0000000  0 12G24G12G22G 9G30G18G14G31G 5G29G21G 6
 118367437.53747  92234344.16647  22524593.2614   22524597.4444   22524593.6354
        49.000          42.000
 128584242.18747 100195505.44147  24468773.7904   24468775.4934   24468773.0264
        43.000          38.000
 124234941.43047  96806450.66447  23641119.4534   23641119.8494   23641119.5544
        47.000          40.000
 124672531.27147  97147433.42347  23724387.3774   23724390.1214   23724387.1654
        44.000          38.000
 120278766.29647  93723703.11347  22888295.7274   22888298.5544   22888295.4664
        49.000          42.000
 120904860.75847  94211568.67047  23007436.7764   23007438.3634   23007437.3004
        48.000          41.000
 117411855.61147  91489747.17947  22342742.3464   22342744.2964   22342742.8484
        50.000          44.000
 114939490.83547  89563237.41447  21872260.0634   21872261.8454   21872259.2444
        51.000          46.000
 123438937.21247  96186180.06047  23489651.9894   23489654.9414   23489652.1964
        47.000          40.000
 124575093.15147  97071491.34147  23705857.9434   23705861.7354   23705857.5824
        44.000          40.000
 104829509.20647  81685325.40747  19948397.7794   19948399.1864   19948398.1414
        54.000          49.000
 116192495.34447 108331802.47147  24013642.6444   24013646.5024   24013642.4824
        42.000          38.000
 09  1  7  1 26 30.0000000  0 12G24G12G22G 9G30G18G14G31G 5G29G21G 6
 118440652.35647  92291394.67147  22538525.4714   22538529.5984   22538525.3184
        48.000          42.000
 128593365.45947 100202614.50047  24470509.3724   24470511.1904   24470508.5664
        43.000          38.000
 124193338.25747  96774032.62347  23633202.5964   23633202.6254   23633202.7954
        47.000          40.000
 124772688.20747  97225477.78147  23743446.5244   23743449.0864   23743446.0424
        44.000          38.000
 120251679.50247  93702596.53547  22883141.4144   22883143.7744   22883140.9334
        49.000          42.000
 120868711.25347  94183400.24047  23000557.7704   23000559.6344   23000558.2144
        48.000          41.000
 117446694.91347  91516894.70447  22349371.7874   22349374.2734   22349372.1514
        49.000          44.000
 114855207.29147  89497561.98447  21856221.1164   21856223.3294   21856220.9254
        52.000          46.000
 123433605.07747  96182025.16347  23488637.2294   23488640.5824   23488637.8504
        47.000          40.000
 124645015.40847  97125976.20747  23719163.9404   23719167.4094   23719163.6674
        45.000          40.000
 104834966.29147  81689577.68647  19949436.1114   19949437.7374   19949436.5154
        54.000          49.000
 116167840.36847 108312590.87147  24008950.9444   24008955.3874   24008950.8414
        44.000          38.000
 09  1  7  1 27  0.0000000  0 12G24G12G22G 9G30G18G14G31G 5G29G21G 6
 118514229.63747  92348727.61347  22552527.0344   22552530.9354   22552527.5624
        49.000          42.000
 128602666.83247 100209862.37947  24472279.7944   24472281.6554   24472279.8414
        44.000          38.000
 124151536.76547  96741460.03847  23625248.1514   23625248.4764   23625248.1434
        47.000          40.000
 124873097.20147  97303718.55447  23762553.5654   23762556.6454   23762553.9184
        44.000          38.000
 120224639.16047  93681526.15847  22877995.7584   22877998.6624   22877995.5384
        48.000          42.000
 120832491.31647  94155176.90847  22993665.1784   22993666.8584   22993665.4914
        48.000          41.000
 117481713.22547  91544181.71747  22356035.4954   22356037.9734   22356035.5604
        49.000          44.000
 114771264.20747  89432151.83747  21840247.2994   21840249.4664   21840246.8134
        52.000          46.000
 123428469.57847  96178023.48947  23487659.8654   23487663.5934   23487660.4054
        46.000          40.000
 124714793.40547  97180348.65747  23732442.7294   23732445.7144   23732442.5584
        45.000          40.000
 104841043.62147  81694313.26947  19950592.4684   19950594.2594   19950592.8634
        54.000          49.000
 116143449.63947 108293585.17747  24004309.1864   24004313.8594   24004309.4464
        44.000          38.000
 09  1  7  1 27 30.0000000  0 12G24G12G22G 9G30G18G14G31G 5G29G21G 6
 118588164.92147  92406339.52447  22566596.4684   22566600.4954   22566596.6804
        49.000          42.000
 128612145.79847 100217248.61047  24474083.6354   24474085.2994   24474083.3784
        44.000          38.000
 124109534.99047  96708731.37147  23617255.1984   23617255.3704   23617255.0674
        47.000          40.000
 124973753.26047  97382151.84547  23781708.4234   23781711.5364   23781708.1924
        44.000          38.000
 120197645.26247  93660491.96047  22872858.6224   22872861.8834   22872858.2564
        48.000          42.000
 120796200.30847  94126898.19947  22986759.5454   22986761.1304   22986759.9124
        48.000          41.000
 117516905.28347  91571604.11347  22362732.3414   22362734.8074   22362732.7184
        49.000          44.000
 114687662.03647  89367007.33647  21824338.3414   21824340.4584   21824337.9634
        52.000          46.000
 123423530.62547  96174174.97747  23486720.1984   23486723.3104   23486720.8244
        46.000          40.000
 124784423.19047  97234605.62547  23745692.7174   23745695.5994   23745692.4264
        45.000          40.000
 104847738.86247  81699530.33847  19951866.6574   19951868.3004   19951867.0384
        54.000          49.000
 116119319.95047 108274782.87647  23999717.6944   23999721.9674   23999717.4144
        44.000          38.000
 09  1  7  1 28  0.0000000  0 12G24G12G22G 9G30G18G14G31G 5G29G21G 6
 118662455.11147  92464227.97047  22580733.0944   22580737.3504   22580733.5424
        48.000          42.000
 128621802.73047 100224773.54147  24475921.4034   24475923.0634   24475921.1904
        44.000          38.000
 124067332.38947  96675846.23147  23609224.8144   23609224.8934   23609224.8064
        47.000          41.000
 125074652.47547  97460774.61047  23800908.7824   23800911.8934   23800909.1254
        44.000          37.000
 120170698.81947  93639494.75347  22867731.3294   22867734.0944   22867731.2294
        49.000          42.000
 120759838.89147  94098564.63647  22979839.8054   22979841.8944   22979840.1914
        48.000          41.000
 117552267.23047  91599158.89147  22369461.5864   22369463.9174   22369461.5974
        49.000          44.000
 114604402.04747  89302129.46347  21808494.7074   21808496.6704   21808494.2714
        52.000          46.000
 123418788.92947  96170480.16747  23485817.5764   23485821.2374   23485818.0324
        46.000          40.000
 124853901.87647  97288744.86047  23758913.8734   23758917.3424   23758913.7774
        45.000          40.000
 104855050.74747  81705227.91247  19953258.0734   19953259.6154   19953258.5184
        54.000          50.000
 116095448.81747 108256182.05047  23995175.1984   23995179.3944   23995175.3954
        44.000          39.000
 09  1  7  1 28 30.0000000  0 12G24G12G22G 9G30G18G14G31G 5G29G21G 6
 118737100.90647  92522393.50947  22594937.8474   22594942.0084   22594938.0854
        49.000          42.000
 128631642.01347 100232440.54447  24477793.3084   24477795.9244   24477792.7274
        43.000          38.000
 124024932.28847  96642807.20747  23601156.0494   23601156.3524   23601156.1584
        47.000          41.000
 125175794.43747  97539586.53847  23820155.6044   23820157.9464   23820155.6534
        44.000          37.000
 120143804.82847  93618538.39447  22862613.5904   22862616.2864   22862613.1234
        49.000          42.000
 120723411.69347  94070179.80947  22972908.3444   22972910.0624   22972908.6354
        48.000          41.000
 117587799.00447  91626846.00447  22376223.2574   22376225.2694   22376223.4404
        49.000          44.000
 114521489.98447  89237522.70647  21792717.2634   21792718.7894   21792716.8304
        52.000          46.000
 123414249.14147  96166942.71147  23484953.8214   23484957.3704   23484954.2904
        46.000          40.000
 124923230.68247  97342767.30247  23772106.9674   23772110.0544   23772106.7024
        45.000          40.000
 104862981.86447  81711408.00647  19954767.4714   19954768.8534   19954767.9014
        54.000          49.000
 116071837.81047 108237783.91647  23990682.0924   23990686.1244   23990681.9144
        43.000          38.000
 09  1  7  1 29  0.0000000  0 12G24G12G22G 9G30G18G14G31G 5G29G21G 6
 118812098.02647  92580832.80647  22609209.5824   22609213.3654   22609209.5174
        48.000          42.000
 128641663.55647 100240249.57147  24479700.5554   24479702.3184   24479700.2804
        44.000          38.000
 123982334.45547  96609614.10547  23593049.9204   23593050.0024   23593050.1414
        47.000          40.000
 125277174.45947  97618583.97147  23839447.5864   23839449.5004   23839447.3274
        44.000          37.000
 120116963.53047  93597623.12147  22857506.0004   22857508.8134   22857505.7614
        49.000          42.000
 120686918.92247  94041743.88447  22965964.1324   22965965.6344   22965964.4544
        48.000          42.000
 117623496.42647  91654662.19247  22383015.7904   22383018.0004   22383016.1004
        50.000          44.000
 114438926.43647  89173187.52047  21777005.6114   21777007.4144   21777005.3074
        52.000          46.000
 123409911.44647  96163562.70147  23484128.5044   23484132.0124   23484128.8554
        46.000          40.000
 124992406.30747  97396670.39347  23785270.5884   23785273.5814   23785270.4354
        45.000          40.000
 104871529.99147  81718068.88347  19956394.2064   19956395.5384   19956394.6584
        54.000          49.000
 116048483.78347 108219586.02447  23986237.5244   23986241.8504   23986237.5474
        44.000          38.000
 09  1  7  1 29 30.0000000  0 12G24G12G22G 9G30G18G14G31G 5G29G21G 6
 118887447.49747  92639546.66747  22623548.2534   22623551.9544   22623547.6924
        49.000          42.000
 128651871.92447 100248204.15547  24481643.1284   24481644.8434   24481642.9514
        44.000          38.000
 123939542.40447  96576269.65847  23584906.7284   23584907.4754   23584906.6224
        47.000          40.000
 125378792.73947  97697767.06447  23858784.8184   23858787.0504   23858784.8464
        44.000          37.000
 120090180.01347  93576752.84747  22852409.1864   22852411.8674   22852408.8364
        49.000          42.000
 120650365.07047  94013260.34847  22959008.1914   22959009.4864   22959008.4804
        49.000          42.000
 117659359.57547  91682607.51747  22389840.5714   22389842.8584   22389840.7034
        49.000          44.000
 114356717.27147  89109128.48047  21761361.4664   21761363.4184   21761361.0204
        52.000          46.000
 123405780.66347  96160343.94147  23483342.1254   23483345.8674   23483342.7854
        45.000          40.000
 125061429.98947  97450455.08947  23798405.3124   23798408.3324   23798405.0194
        45.000          40.000
 104880698.43147  81725213.12747  19958138.7204   19958140.2804   19958139.1224
        54.000          49.000
 116025388.60947 108201589.83947  23981842.9594   23981846.8314   23981842.9114
        44.000          38.000
 09  1  7  1 30  0.0000000  0 12G24G12G22G 9G30G18G14G31G 5G29G21G 6
 118963143.77547  92698530.76447  22637952.5934   22637956.2834   22637952.8614
        48.000          42.000
 128662264.82847 100256302.53847  24483620.4324   24483622.4434   24483620.1934
        44.000          39.000
 123896553.07347  96542771.48347  23576726.0754   23576726.9974   23576726.1154
        47.000          40.000
 125480642.62847  97777130.62547  23878166.3904   23878168.6874   23878166.2834
        44.000          37.000
 120063452.92347  93555926.55947  22847323.3754   22847325.8524   22847323.1304
        49.000          42.000
 120613748.42247  93984727.89847  22952039.9214   22952041.5634   22952040.6284
        49.000          42.000
 117695381.85547  91710676.84047  22396695.4404   22396697.5394   22396695.5394
        49.000          43.000
 114274861.53247  89045344.82547  21745784.8764   21745786.8164   21745784.0924
        52.000          46.000
 123401855.15647  96157285.13347  23482595.1734   23482598.9964   23482595.4554
        46.000          40.000
 125130296.89747  97504117.60547  23811510.0874   23811513.4344   23811509.8774
        44.000          40.000
 104890483.78547  81732838.07847  19960000.8214   19960002.3874   19960001.2724
        54.000          49.000
 116002547.15147 108183791.35047  23977496.7244   23977500.5304   23977496.4424
        44.000          38.000
 09  1  7  1 30 30.0000000  0 12G24G12G22G 9G30G18G14G31G 5G29G21G 6
 119039187.86947  92757785.90047  22652423.1674   22652427.3694   22652423.3364
        48.000          42.000
 128672847.16947 100264548.53247  24485634.4594   24485636.7144   24485634.6014
        44.000          39.000
 123853370.64147  96509122.85047  23568508.8644   23568509.3444   23568508.8864
        47.000          41.000
 125582724.50147  97856674.93747  23897591.5454   23897593.8994   23897591.7444
        43.000          37.000
 120036787.43047  93535148.26447  22842249.3764   22842251.6284   22842248.9574
        50.000          43.000
 120577074.20947  93956150.59347  22945061.1644   22945062.6884   22945061.4284
        48.000          41.000
 117731564.21347  91738870.90447  22403580.5524   22403582.8674   22403580.8334
        50.000          43.000
 114193364.85547  88981840.97247  21730276.4684   21730278.3494   21730276.3144
        52.000          46.000
 123398140.05547  96154390.25947  23481888.1584   23481891.9774   23481888.6344
        46.000          40.000
 125199008.33547  97557658.98047  23824585.7174   23824588.9574   23824585.4234
        45.000          40.000
 104900888.97947  81740946.02247  19961980.6724   19961982.4634   19961980.9964
        54.000          49.000
 115979961.65647 108166192.32747  23973198.4534   23973202.9014   23973198.0374
        43.000          38.000
 09  1  7  1 31  0.0000000  0 12G24G12G22G 9G30G18G14G31G 5G29G21G 6
 119115575.42947  92817308.68047  22666958.9924   22666963.3614   22666959.3344
        49.000          42.000
 128683618.47647 100272941.77147  24487684.2224   24487685.9714   24487684.0324
        44.000          38.000
 123809993.24647  96475322.28347  23560254.5954   23560254.7354   23560254.6664
        47.000          40.000
 125685033.12747  97936395.95547  23917060.0414   23917062.6924   23917060.6574
        43.000          37.000
 120010183.54347  93514417.97847  22837186.9874   22837188.7794   22837186.5864
        49.000          43.000
 120540341.63847  93927527.81847  22938070.7694   22938073.0874   22938071.2004
        48.000          41.000
 117767901.27347  91767185.50947  22410495.5794   22410497.5064   22410495.7284
        49.000          44.000
 114112227.84847  88918617.36147  21714836.4374   21714838.2054   21714835.8254
        52.000          46.000
 123394635.03847  96151659.10747  23481221.0684   23481224.9224   23481221.6914
        45.000          40.000
 125267560.56047  97611076.28947  23837630.7554   23837633.7494   23837630.7114
        45.000          40.000
 104911911.20847  81749534.77447  19964078.3304   19964079.9604   19964078.6824
        54.000          49.000
 115957628.53047 108148789.93847  23968948.0594   23968952.7624   23968948.5514
        43.000          38.000
 09  1  7  1 31 30.0000000  0 12G24G12G22G 9G30G18G14G31G 5G29G21G 6
 119192304.82747  92877097.81947  22681560.3224   22681564.4634   22681560.6694
        48.000          42.000
 128694581.41547 100281484.34747  24489770.1034   24489772.0294   24489769.3174
        44.000          38.000
 123766423.02247  96441371.47547  23551962.9744   23551963.7234   23551962.7814
        46.000          40.000
 125787566.00247  98016291.67447  23936571.2884   23936573.8184   23936571.8664
        41.000          36.000
 119983644.18347  93493737.97147  22832136.0174   22832138.7754   22832135.9974
        49.000          43.000
 120503553.87347  93898862.03547  22931070.6154   22931072.7984   22931070.8334
        48.000          42.000
 117804391.42347  91795619.40047  22417439.2444   22417441.0974   22417439.5304
        50.000          43.000
 114031453.88147  88855676.65147  21699465.8124   21699467.6894   21699465.5014
        52.000          46.000
 123391342.68347  96149093.66447  23480594.2674   23480598.6074   23480594.9564
        46.000          40.000
 125335952.90747  97664369.03047  23850645.0174   23850647.9424   23850644.8204
        45.000          39.000
 104923551.08347  81758604.80647  19966293.2994   19966294.6264   19966293.6434
        54.000          49.000
 115935547.20947 108131583.78347  23964746.4924   23964750.7834   23964746.4834
        43.000          38.000
 09  1  7  1 32  0.0000000  0 12G24G12G22G 9G30G18G14G31G 5G29G21G 6
 119269375.86247  92937153.17147  22696226.3674   22696230.6054   22696226.4304
        48.000          42.000
 128705738.97847 100290178.56647  24491893.2044   24491895.3494   24491892.7584
        44.000          39.000
 123722662.49847  96407272.37347  23543636.0344   23543636.4584   23543636.0564
        46.000          40.000
 125890322.11047  98096361.36847  23956124.9774   23956128.3244   23956125.0634
        40.000          37.000
 119957173.40547  93473111.40047  22827099.2244   22827101.4664   22827098.7354
        49.000          43.000
 120466714.42747  93870155.97847  22924060.4574   22924062.4484   22924060.8574
        49.000          42.000
 117841033.72147  91824171.85547  22424412.3914   22424413.9124   22424412.5824
        50.000          44.000
 113951047.52047  88793022.37847  21684165.1044   21684166.7474   21684164.6724
        52.000          46.000
 123388266.83047  96146696.92647  23480008.9804   23480012.8044   23480009.9754
        46.000          40.000
 125404186.03347  97717537.68747  23863629.3844   23863632.1964   23863629.0084
        45.000          39.000
 104935810.66947  81768157.72747  19968626.2214   19968627.6574   19968626.5144
        54.000          49.000
 115913718.16547 108114574.18847  23960591.9574   23960596.8454   23960592.1964
        44.000          38.000
 09  1  7  1 32 30.0000000  0 12G24G12G22G 9G30G18G14G31G 5G29G21G 6
 119346784.67347  92997471.71747  22710957.1384   22710960.8504   22710957.4564
        48.000          42.000
 128717091.17347 100299024.47447  24494053.5884   24494055.7464   24494053.1804
        44.000          38.000
 123678710.69747  96373024.23647  23535271.9874   23535272.6194   23535272.0544
        47.000          40.000
 125993296.98947  98176601.51047  23975720.2454   23975722.8654   23975720.3284
        41.000          37.000
 119930771.65247  93452538.62547  22822074.6414   22822077.3774   22822074.5474
        49.000          42.000
 120429823.76047  93841410.00747  22917040.4454   22917042.2374   22917040.9564
        49.000          42.000
 117877823.93647  91852839.56947  22431413.0114   22431414.8624   22431413.1714
        50.000          44.000
 113871009.82547  88730655.37347  21668934.3404   21668935.9974   21668933.8094
        52.000          47.000
 123385407.71247  96144469.05947  23479465.2414   23479468.5564   23479465.6074
        46.000          40.000
 125472256.56147  97770579.66247  23876583.2844   23876585.6944   23876582.8644
        45.000          40.000
 104948687.90747  81778191.93647  19971076.6294   19971078.1234   19971077.1144
        54.000          49.000
 115892138.69047 108097759.08247  23956486.1114   23956490.2544   23956486.0794
        44.000          38.000
 09  1  7  1 33  0.0000000  0 12G24G12G22G 9G30G18G14G31G 5G29G21G 6
 119424529.55147  93058052.13947  22725751.3034   22725755.2574   22725751.4744
        48.000          42.000
 128728639.89747 100308023.49447  24496250.8324   24496253.2864   24496250.7804
        43.000          38.000
 123634569.29647  96338628.33547  23526872.4624   23526872.9634   23526872.6304
        47.000          41.000
 126096488.18947  98257010.22447  23995357.1384   23995360.2474   23995356.8834
        42.000          37.000
 119904441.58647  93432021.70047  22817064.2744   22817066.5864   22817063.7304
        49.000          42.000
 120392883.87047  93812625.68447  22910010.9474   22910012.5794   22910011.4594
        48.000          41.000
 117914759.49247  91881620.54047  22438441.5764   22438443.5774   22438441.8684
        49.000          43.000
 113791343.73147  88668577.94147  21653774.3984   21653776.0014   21653774.3494
        52.000          47.000
 123382767.51247  96142411.79847  23478962.5724   23478966.2444   23478963.1884
        46.000          40.000
 125540163.34547  97823494.03047  23889505.3314   23889508.5224   23889505.0994
        44.000          40.000
 104962182.76747  81788707.41047  19973644.6724   19973646.0614   19973645.0384
        54.000          49.000
 115870807.46147 108081137.38747  23952426.7134   23952431.1144   23952426.6204
        43.000          38.000
 09  1  7  1 33 30.0000000  0 12G24G12G22G 9G30G18G14G31G 5G29G21G 6
 119502610.16347  93118894.15447  22740609.7824   22740613.4664   22740609.7124
        49.000          42.000
 128740388.39047 100317178.18447  24498487.0234   24498488.8514   24498486.9934
        43.000          38.000
 123590240.50447  96304086.42947  23518437.2254   23518437.3294   23518436.9014
        47.000          40.000
 126199894.33047  98337586.41647  24015034.8304   24015038.1024   24015034.8444
        42.000          37.000
 119878187.08847  93411563.66947  22812068.0344   22812070.6814   22812067.9614
        49.000          42.000
 120355898.49747  93783805.91747  22902972.4084   22902974.3494   22902972.7744
        47.000          41.000
 117951839.53147  91910514.08147  22445497.6864   22445499.7904   22445498.0144
        50.000          43.000
 113712053.23947  88606793.17447  21638685.8964   21638687.4324   21638685.2694
        52.000          47.000
 123380349.81747  96140527.91847  23478502.7414   23478506.2064   23478503.2034
        46.000          40.000
 125607906.43547  97876280.82647  23902395.9674   23902399.8414   23902395.7344
        44.000          39.000
 104976296.19647  81799704.89047  19976330.2464   19976331.8974   19976330.5774
        54.000          49.000
 115849725.06647 108064709.58247  23948414.8944   23948419.3774   23948414.8044
        44.000          38.000
 09  1  7  1 34  0.0000000  0 12G24G12G22G 9G30G18G14G31G 5G29G21G 6
 119581021.37747  93179993.79047  22755530.8354   22755534.8714   22755531.3834
        49.000          42.000
 128752335.56847 100326487.67147  24500759.4494   24500762.2794   24500758.8694
        42.000          38.000
 123545722.30947  96269396.93847  23509965.4064   23509965.5374   23509965.5574
        47.000          40.000
 126303509.56347  98418325.55147  24034752.6904   24034755.2144   24034752.2754
        42.000          38.000
 119852007.56547  93391164.06547  22807086.3374   22807089.1314   22807086.3834
        49.000          43.000
 120318866.45947  93754949.78747  22895925.7254   22895927.6614   22895926.1054
        48.000          41.000
 117989058.51947  91939515.90347  22452580.3154   22452582.2624   22452580.5004
        49.000          43.000
 113633138.49447  88545301.20947  21623668.8464   21623670.2944   21623668.7034
        52.000          47.000
 123378153.74847  96138816.71347  23478084.9624   23478088.4144   23478085.4674
        46.000          40.000
 125675481.83847  97928936.97647  23915254.9824   23915258.6784   23915254.4804
        45.000          39.000
 104991025.52947  81811182.29347  19979133.1524   19979134.7694   19979133.5314
        54.000          49.000
 115828887.36347 108048472.45147  23944449.5054   23944453.9954   23944449.6024
        44.000          38.000
 09  1  7  1 34 30.0000000  0 12G24G12G22G 9G30G18G14G31G 5G29G21G 6
 119659762.01847  93241350.12847  22770515.1524   22770518.7364   22770515.3144
        48.000          42.000
 128764483.89647 100335953.91647  24503071.7464   24503074.1274   24503071.3704
        42.000          38.000
 123501017.21547  96234561.79647  23501458.4754   23501458.2814   23501458.4984
        47.000          41.000
 126407332.15347  98499226.24747  24054509.5104   24054512.4054   24054509.2894
        43.000          38.000
 119825906.67047  93370825.71047  22802119.4164   22802122.2274   22802118.9584
        48.000          42.000
 120281791.16947  93726059.96047  22888870.5764   22888872.4014   22888871.0074
        48.000          41.000
 118026415.11347  91968624.95347  22459689.0644   22459690.7944   22459689.2274
        49.000          43.000
 113554603.15447  88484104.87447  21608723.9704   21608725.3034   21608723.3504
        52.000          47.000
 123376182.32447  96137280.56647  23477709.4534   23477713.2464   23477710.4064
        46.000          40.000
 125742889.33047  97981462.26947  23928082.5174   23928085.7764   23928082.4754
        44.000          39.000
 105006371.64647  81823140.30447  19982053.4244   19982054.9904   19982053.8324
        54.000          49.000
 115808294.28047 108032425.93247  23940530.5634   23940535.2514   23940531.0104
        43.000          38.000
 09  1  7  1 35  0.0000000  0 12G24G12G22G 9G30G18G14G31G 5G29G21G 6
 119738832.21347  93302963.25547  22785561.3554   22785565.4314   22785561.5004
        49.000          42.000
 128776837.40447 100345580.05047  24505422.1464   24505425.1804   24505421.9884
        43.000          38.000
 123456128.27447  96199583.40847  23492916.5254   23492916.5594   23492916.3054
        47.000          40.000
 126511361.49947  98580288.06847  24074305.7594   24074308.0094   24074305.7334
        43.000          38.000
 119799888.71647  93350552.00347  22797168.7744   22797170.9944   22797168.3214
        49.000          42.000
 120244676.77947  93697139.65047  22881808.2154   22881809.6674   22881808.3704
        48.000          41.000
 118063908.61547  91997840.68647  22466823.6964   22466825.7284   22466823.9204
        49.000          43.000
 113476452.08147  88423207.97447  21593852.4244   21593853.5654   21593852.0404
        53.000          47.000
 123374439.77347  96135922.74647  23477378.1944   23477381.5324   23477378.3674
        46.000          40.000
 125810129.71147  98033857.36547  23940878.1204   23940881.1794   23940877.9504
        44.000          39.000
 105022336.22847  81835580.23347  19985091.5234   19985092.8634   19985091.8384
        54.000          49.000
 115787946.61247 108016570.65147  23936658.2064   23936662.8884   23936658.1364
        43.000          38.000
 09  1  7  1 35 30.0000000  0 12G24G12G22G 9G30G18G14G31G 5G29G21G 6
 119818225.88547  93364828.43447  22800669.9174   22800673.5614   22800670.2354
        48.000          42.000
 128789393.96747 100355364.39947  24507812.6094   24507814.3114   24507812.5514
        43.000          38.000
 123411052.71947  96164459.61047  23484338.8424   23484338.9854   23484339.0984
        47.000          40.000
 126615590.86647  98661505.74647  24094139.5484   24094142.0254   24094139.6144
        43.000          38.000
 119773952.03347  93330341.60447  22792232.5984   22792235.4354   22792232.1414
        48.000          42.000
 120207521.44247  93668187.45447  22874737.6364   22874739.1794   22874738.0534
        48.000          41.000
 118101532.87447  92027158.30547  22473983.2374   22473985.3214   22473983.5244
        49.000          43.000
 113398684.32647  88362609.75847  21579053.6384   21579054.8714   21579053.4954
        53.000          47.000
 123372924.31547  96134741.88747  23477089.6364   23477093.2854   23477089.9034
        46.000          40.000
 125877198.17047  98086118.49347  23953640.6044   23953644.0904   23953640.3424
        45.000          39.000
 105038915.26347  81848498.95747  19988246.5584   19988247.7564   19988246.9394
        54.000          49.000
 115767839.37847 108000902.71247  23932832.2794   23932836.3904   23932832.5664
        43.000          38.000
 09  1  7  1 36  0.0000000  0 12G24G12G22G 9G30G18G14G31G 5G29G21G 6
 119897943.87347  93426946.33747  22815839.5124   22815843.2534   22815839.4754
        48.000          42.000
 128802157.67947 100365310.16347  24510241.4814   24510243.3374   24510241.4894
        44.000          38.000
 123365794.17647  96129193.22147  23475726.1504   23475726.7064   23475726.4784
        46.000          40.000
 126720020.53647  98742879.50647  24114012.0834   24114014.7244   24114011.9884
        44.000          38.000
 119748101.63547  93310198.46147  22787313.5474   22787316.3724   22787313.3004
        49.000          42.000
 120170330.18547  93639207.24947  22867660.3674   22867661.9844   22867660.7934
        48.000          41.000
 118139288.10547  92056577.97747  22481167.8134   22481169.8334   22481168.1224
        49.000          43.000
 113321305.11447  88302314.30047  21564328.9014   21564330.1934   21564328.5314
        53.000          47.000
 123371640.57147  96133741.58647  23476844.8044   23476848.4894   23476845.1124
        46.000          40.000
 125944095.94247  98138246.63147  23966371.0064   23966374.1824   23966370.9854
        44.000          39.000
 105056111.01847  81861898.24447  19991518.6794   19991520.0324   19991519.0404
        54.000          49.000
 115747974.19647 107985423.39347  23929052.0024   23929055.6424   23929052.1924
        42.000          37.000
 09  1  7  1 36 30.0000000  0 12G24G12G22G 9G30G18G14G31G 5G29G21G 6
 119977982.95347  93489314.44247  22831070.7244   22831074.2354   22831070.8184
        48.000          42.000
 128815129.50847 100375418.10347  24512709.3774   24512711.6424   24512708.8914
        42.000          38.000
 123320352.76747  96093784.33347  23467078.9064   23467079.3064   23467078.7404
        46.000          41.000
 126824646.35947  98824406.10947  24133921.6164   24133924.4314   24133921.8424
        44.000          38.000
 119722339.24747  93290123.89647  22782411.0954   22782413.6294   22782410.7734
        48.000          42.000
 120133104.47647  93610200.20447  22860576.3704   22860578.1104   22860576.8744
        48.000          41.000
 118177170.53047  92086096.76847  22488376.6334   22488378.7814   22488376.9684
        49.000          43.000
 113244316.17647  88242322.95947  21549678.3244   21549679.9074   21549678.1224
        52.000          47.000
 123370589.62547  96132922.69147  23476645.2204   23476648.1994   23476645.7734
        46.000          40.000
 126010820.80947  98190240.02947  23979068.4274   23979071.7854   23979067.9844
        44.000          39.000
 105073922.31847  81875777.17947  19994907.9074   19994909.4724   19994908.3454
        54.000          49.000
 115728348.60947 107970130.78047  23925317.0634   23925321.2044   23925317.1254
        43.000          38.000
 09  1  7  1 37  0.0000000  0 12G24G12G22G 9G30G18G14G31G 5G29G21G 6
 120058342.80447  93551932.51247  22846362.2604   22846366.2904   22846362.2284
        48.000          42.000
 128828312.80247 100385690.81547  24515218.6754   24515220.1144   24515218.3824
        43.000          38.000
 123274731.90347  96058235.61847  23458397.3184   23458398.2064   23458397.0654
        47.000          41.000
 126929466.93747  98906084.48247  24153867.9974   24153871.1494   24153868.4304
        44.000          38.000
 119696668.70447  93270120.88447  22777525.9674   22777528.8614   22777525.5294
        48.000          42.000
 120095847.50647  93581168.79647  22853486.6454   22853488.3994   22853487.0784
        49.000          42.000
 118215179.26447  92115713.97747  22495609.5074   22495611.5744   22495609.6204
        49.000          43.000
 113167722.04747  88182639.25147  21535102.8604   21535104.6494   21535102.2404
        53.000          47.000
 123369775.03447  96132287.96947  23476490.3294   23476493.4634   23476490.6634
        46.000          40.000
 126077373.25847  98242099.06247  23991732.9934   23991735.9104   23991732.2214
        44.000          39.000
 105092349.83747  81890136.28047  19998414.5804   19998416.2734   19998414.9924
        54.000          49.000
 115708963.03247 107955025.15947  23921628.0504   23921632.4344   23921628.2434
        43.000          38.000
 09  1  7  1 37 30.0000000  0 12G24G12G22G 9G30G18G14G31G 5G29G21G 6
 120139022.42147  93614799.72147  22861715.3034   22861719.0614   22861715.1474
        47.000          42.000
 128841710.37147 100396130.47847  24517767.6534   24517769.8034   24517767.0374
        43.000          38.000
 123228933.41047  96022548.50647  23449682.2244   23449682.8534   23449682.3334
        47.000          41.000
 127034480.83147  98987913.48647  24173851.6584   24173854.2564   24173851.8824
        43.000          37.000
 119671093.54247  93250192.20547  22772659.1304   22772661.8464   22772658.8094
        49.000          42.000
 120058562.69547  93552115.70147  22846391.6434   22846393.5294   22846392.0734
        48.000          42.000
 118253313.36547  92145428.87847  22502866.2194   22502868.5444   22502866.4394
        49.000          43.000
 113091526.59447  88123266.21547  21520603.3144   21520605.1664   21520603.4784
        53.000          47.000
 123369199.93847  96131839.86647  23476380.7764   23476384.5234   23476381.2524
        45.000          40.000
 126143753.15547  98293823.64247  24004364.2494   24004367.9394   24004364.0774
        44.000          39.000
 105111395.07647  81904976.72447  20002038.8094   20002040.3734   20002039.1854
        54.000          49.000
 115689817.57747 107940106.68047  23917984.8184   23917989.1514   23917984.7474
        43.000          38.000
 09  1  7  1 38  0.0000000  0 12G24G12G22G 9G30G18G14G31G 5G29G21G 6
 120220014.03447  93677910.05547  22877127.1744   22877131.4774   22877127.1894
        48.000          41.000
 128855317.96047 100406733.82047  24520357.5344   24520359.3694   24520356.7054
        43.000          38.000
 123182952.54447  95986719.25847  23440932.2934   23440932.7294   23440932.6314
        47.000          41.000
 127139679.89947  99069886.78647  24193870.1714   24193873.0864   24193870.3924
        42.000          37.000
 119645610.54247  93230335.34547  22767810.3124   22767812.2064   22767809.9824
        49.000          42.000
 120021246.46447  93523038.12547  22839290.7274   22839292.2914   22839291.2144
        49.000          42.000
 118291564.22147  92175234.74747  22510145.1784   22510146.9584   22510145.3244
        49.000          43.000
 113015726.70547  88064201.39447  21506179.1074   21506180.8824   21506178.5454
        53.000          47.000
 123368860.73347  96131575.57147  23476316.0774   23476319.7114   23476316.3704
        45.000          40.000
 126209953.86047  98345408.59747  24016961.9334   24016965.3354   24016961.4794
        44.000          39.000
 105131051.66047  81920293.54047  20005779.3514   20005780.8254   20005779.8404
        54.000          49.000
 115670905.31847 107925369.87847  23914385.9264   23914390.4574   23914386.3954
        43.000          38.000
 09  1  7  1 38 30.0000000  0 12G24G12G22G 9G30G18G14G31G 5G29G21G 6
 120301316.01747  93741262.24847  22892598.4414   22892602.6314   22892598.5664
        48.000          41.000
 128869137.96847 100417502.67447  24522987.1224   24522989.9114   24522986.5294
        43.000          38.000
 123136791.64147  95950749.71947  23432148.1984   23432148.6284   23432148.1174
        48.000          41.000
 127245061.71547  99152002.48347  24213923.9334   24213926.4214   24213923.7724
        42.000          37.000
 119620222.87647  93210552.75547  22762979.2554   22762981.6134   22762979.0034
        49.000          43.000
 119983902.23547  93493938.72747  22832184.3004   22832185.8714   22832184.7084
        49.000          42.000
 118329930.13947  92205130.29047  22517445.9334   22517447.7414   22517446.1514
        49.000          43.000
 112940325.70647  88005447.40047  21491830.9274   21491832.4214   21491830.7064
        53.000          47.000
 123368759.92747  96131497.04247  23476296.6504   23476300.4624   23476297.2644
        45.000          39.000
 126275974.90647  98396853.55947  24029525.3134   24029528.7794   24029525.3114
        44.000          39.000
 105151319.64247  81936086.77147  20009636.0514   20009637.8364   20009636.4474
        54.000          49.000
 115652225.43247 107910814.16347  23910830.8324   23910835.1284   23910830.9764
        43.000          38.000
 09  1  7  1 39  0.0000000  0 12G24G12G22G 9G30G18G14G31G 5G29G21G 6
 120382929.90247  93804857.47247  22908128.9094   22908133.0284   22908128.9974
        47.000          41.000
 128883175.75047 100428441.22747  24525658.6604   24525660.5774   24525658.5904
        43.000          38.000
 123090455.35847  95914643.53747  23423330.8914   23423331.3224   23423330.9194
        48.000          42.000
 127350627.28447  99234261.36347  24234011.9354   24234014.9814   24234012.4194
        40.000          36.000
 119594936.61247  93190849.19947  22758167.2344   22758169.4824   22758166.9274
        49.000          43.000
 119946535.42647  93464821.73247  22825073.6844   22825075.0054   22825074.1374
        49.000          42.000
 118368412.28147  92235116.39447  22524768.8844   22524770.6134   22524769.0864
        49.000          43.000
 112865329.65647  87947008.94847  21477559.5664   21477560.9624   21477559.1704
        53.000          47.000
 123368903.32247  96131608.79747  23476323.7374   23476327.5044   23476324.4514
        45.000          39.000
 126341818.65247  98448160.35447  24042054.7014   24042058.4194   24042055.0774
        44.000          39.000
 105172202.43047  81952359.07347  20013610.0394   20013611.6644   20013610.4494
        54.000          49.000
 115633780.40447 107896441.44447  23907321.8904   23907325.4974   23907321.5024
        42.000          37.000
 09  1  7  1 39 30.0000000  0 12G24G12G22G 9G30G18G14G31G 5G29G21G 6
 120464852.31147  93868693.11547  22923718.1704   22923722.5124   22923718.0054
        47.000          41.000
 128897431.66947 100439549.75847  24528370.6344   24528372.9234   24528370.6534
        42.000          38.000
 123043943.69147  95878400.68847  23414480.7164   23414480.4534   23414480.9494
        48.000          42.000
 127456372.60347  99316660.31347  24254134.9964   24254138.3484   24254135.1324
        41.000          36.000
 119569752.87447  93171225.52947  22753374.7714   22753377.5604   22753374.4864
        49.000          43.000
 119909147.06847  93435687.93947  22817958.9994   22817960.6354   22817959.4904
        50.000          42.000
 118407006.75447  92265190.02147  22532113.0294   22532114.8194   22532113.2254
        49.000          43.000
 112790740.54247  87888887.59047  21463365.6284   21463367.0494   21463365.1634
        53.000          47.000
 123369291.62547  96131911.40247  23476397.7384   23476401.5704   23476397.9444
        45.000          39.000
 126407482.75247  98499327.17247  24054550.9154   24054553.6644   24054550.6274
        45.000          39.000
 105193698.05847  81969108.91347  20017700.6804   20017702.1744   20017701.0944
        54.000          49.000
 115615568.00547 107882250.00647  23903854.9724   23903859.3534   23903855.1654
        42.000          37.000
 09  1  7  1 40  0.0000000  0 12G24G12G22G 9G30G18G14G31G 5G29G21G 6
 120547079.97847  93932766.60947  22939365.0744   22939369.4444   22939365.0614
        47.000          41.000
 128911905.80747 100450828.32747  24531125.2264   24531127.6954   24531124.9774
        43.000          38.000
 122997257.30047  95842021.69747  23405596.2454   23405596.2454   23405596.2094
        47.000          41.000
 127562293.29347  99399195.90347  24274290.7174   24274294.0624   24274291.2874
        40.000          36.000
 119544672.67947  93151682.54547  22748602.2704   22748604.9144   22748602.3124
        50.000          43.000
 119871737.63547  93406537.73147  22810840.4474   22810841.5844   22810840.7064
        50.000          42.000
 118445709.79547  92295348.25447  22539478.0604   22539480.0944   22539478.1174
        49.000          43.000
 112716559.46347  87831084.18047  21449249.4884   21449250.7694   21449249.0314
        53.000          47.000
 123369925.40347  96132405.28347  23476518.1354   23476522.1894   23476518.3374
        45.000          40.000
 126472964.62847  98550352.01047  24067011.4204   24067014.5264   24067011.4484
        44.000          39.000
 105215804.77447  81986334.92547  20021907.1254   20021909.0724   20021907.4994
        54.000          49.000
 115597585.27847 107868237.52547  23900433.4034   23900437.9554   23900433.7564
        43.000          37.000
 09  1  7  1 40 30.0000000  0 12G24G12G22G 9G30G18G14G31G 5G29G21G 6
 120629611.67047  93997076.99847  22955070.6324   22955075.0254   22955070.8434
        47.000          41.000
 128926601.12747 100462279.27747  24533921.5394   24533923.5584   24533921.4964
        43.000          38.000
 122950396.88947  95805507.11447  23396678.6724   23396679.0094   23396678.6394
        48.000          41.000
 127668387.72147  99481866.88647  24294480.1104   24294482.8684   24294479.6234
        41.000          35.000
 119519699.19247  93132222.70447  22743850.1984   22743853.1294   22743849.9484
        49.000          43.000
 119834310.73247  93377373.91647  22803718.2624   22803719.6234   22803718.5974
        49.000          42.000
 118484520.14447  92325590.09847  22546863.2814   22546865.2394   22546863.5234
        49.000          43.000
 112642790.00147  87773601.51147  21435211.4044   21435213.0254   21435211.1004
        53.000          47.000
 123370807.63247  96133092.76947  23476686.3614   23476689.9374   23476686.7364
        46.000          40.000
 126538264.54547  98601235.05847  24079437.5904   24079440.9204   24079437.2994
        44.000          39.000
 105238523.18347  82004037.58047  20026230.2504   20026232.2574   20026230.5554
        54.000          49.000
 115579832.13147 107854403.92747  23897055.0094   23897059.0754   23897055.5384
        43.000          37.000
 09  1  7  1 41  0.0000000  0 12G24G12G22G 9G30G18G14G31G 5G29G21G 6
 120712445.13247  94061622.54447  22970833.3434   22970837.7774   22970833.2814
        47.000          41.000
 128941519.32647 100473903.86547  24536760.2694   24536762.7404   24536760.2484
        43.000          37.000
 122903364.65747  95768858.63947  23387729.0984   23387729.0104   23387729.1634
        48.000          42.000
 127774653.06047  99564671.02647  24314701.4474   24314704.4924   24314701.1954
        38.000          35.000
 119494835.18247  93112848.17547  22739118.3454   22739121.2224   22739117.6584
        49.000          43.000
 119796868.66647  93348198.27547  22796592.8804   22796594.6184   22796593.3094
        49.000          42.000
 118523435.25347  92355913.57047  22554268.5744   22554270.5724   22554268.5634
        49.000          43.000
 112569434.69347  87716441.55447  21421252.3614   21421254.1534   21421251.9594
        53.000          47.000
 123371940.37547  96133975.45847  23476901.5224   23476906.2694   23476902.1494
        46.000          40.000
 126603381.32647  98651975.40447  24091828.8724   24091832.3624   24091828.6344
        44.000          39.000
 105261852.12447  82022215.97747  20030669.6604   20030671.5074   20030669.9554
        54.000          49.000
 115562307.14847 107840748.12647  23893720.4274   23893724.0394   23893720.5724
        44.000          38.000
 09  1  7  1 41 30.0000000  0 12G24G12G22G 9G30G18G14G31G 5G29G21G 6
 120795578.96247  94126402.14547  22986653.5144   22986657.2624   22986653.9624
        47.000          41.000
 128956662.35847 100485703.64947  24539642.8764   24539644.4704   24539643.1594
        42.000          37.000
 122856162.14847  95732077.48947  23378746.8434   23378746.4204   23378746.8114
        48.000          42.000
 127881087.10447  99647606.63347  24334954.9194   24334958.2584   24334955.2974
        39.000          35.000
 119470083.79247  93093561.39347  22734408.0504   22734411.0634   22734407.5234
        49.000          43.000
 119759414.15647  93319012.95447  22789465.8164   22789467.3194   22789466.1634
        49.000          42.000
 118562453.20947  92386317.18847  22561693.2974   22561695.5374   22561693.3554
        49.000          43.000
 112496496.94947  87659606.97047  21407372.8584   21407374.4214   21407372.4574
        53.000          47.000
 123373326.04147  96135055.22347  23477165.8804   23477169.4514   23477166.2654
        46.000          40.000
 126668314.34947  98702572.57047  24104185.3574   24104188.4884   24104185.3634
        44.000          39.000
 105285792.26647  82040870.63147  20035225.3954   20035227.1024   20035225.8484
        54.000          49.000
 115545009.74647 107827269.65047  23890429.2574   23890432.4184   23890429.2424
        44.000          38.000
 09  1  7  1 42  0.0000000  0 12G24G12G22G 9G30G18G14G31G 5G29G21G 6
 120879009.14647  94191412.66147  23002529.7844   23002533.5034   23002529.7944
        47.000          41.000
 128972030.40247 100497678.77947  24542567.0044   24542568.7504   24542566.6294
        43.000          37.000
 122808789.26447  95695163.57947  23369731.5704   23369731.7414   23369731.6804
        48.000          41.000
 127987685.67147  99730670.43747  24355239.4734   24355243.3884   24355240.7424
        39.000          35.000
 119445445.59247  93074362.82247  22729719.5724   22729722.5804   22729719.2094
        49.000          43.000
 119721948.07147  93289818.59547  22782335.9554   22782337.3154   22782336.5104
        49.000          42.000
 118601569.67247  92416797.56447  22569137.0964   22569139.1624   22569137.5344
        49.000          43.000
 112423977.55447  87603098.36747  21393572.8184   21393574.1644   21393572.4474
        53.000          47.000
 123374964.95447  96136332.32247  23477477.3754   23477480.7784   23477477.6774
        45.000          39.000
 126733060.88547  98753024.39747  24116506.2534   24116509.4474   24116505.7204
        44.000          39.000
 105310340.92047  82059999.44547  20039896.9884   20039898.5314   20039897.3884
        54.000          49.000
 115527936.86847 107813966.16047  23887180.3824   23887183.6944   23887180.4104
        44.000          38.000
 09  1  7  1 42 30.0000000  0 12G24G12G22G 9G30G18G14G31G 5G29G21G 6
 120962733.64347  94256652.50747  23018462.1264   23018465.9634   23018462.2484
        47.000          41.000
 128987625.05547 100509830.45647  24545534.4094   24545536.3914   24545534.3374
        43.000          37.000
 122761247.29147  95658117.90647  23360684.8624   23360684.9984   23360685.2754
        48.000          42.000
 128094445.96547  99813860.25547  24375555.8374   24375559.7854   24375555.6994
        40.000          35.000
 119420922.87747  93055254.23747  22725053.3914   22725055.9384   22725052.9564
        49.000          43.000
 119684472.65547  93260616.98747  22775204.9044   22775206.1574   22775205.4194
        49.000          42.000
 118640782.46647  92447353.00547  22576599.1204   22576600.8674   22576599.3104
        49.000          43.000
 112351879.28447  87546917.92247  21379852.9944   21379854.5654   21379852.4894
        53.000          47.000
 123376859.09747  96137808.31047  23477837.9724   23477841.1754   23477838.6254
        45.000          39.000
 126797619.97047  98803330.15947  24128791.5234   24128794.6144   24128791.0374
        43.000          39.000
 105335497.60547  82079602.05547  20044684.0974   20044685.5794   20044684.5104
        54.000          49.000
 115511087.36647 107800836.70347  23883974.0624   23883977.4794   23883973.6724
        43.000          38.000
 09  1  7  1 43  0.0000000  0 12G24G12G22G 9G30G18G14G31G 5G29G21G 6
 121046750.51347  94322120.18247  23034449.9244   23034454.0764   23034450.1774
        47.000          41.000
 129003447.72147 100522159.83547  24548545.0594   24548547.3944   24548544.5504
        43.000          37.000
 122713537.59147  95620941.53547  23351605.9724   23351606.0354   23351605.9824
        47.000          42.000
 128201365.10247  99897173.85347  24395902.1334   24395904.6724   24395901.4514
        40.000          35.000
 119396518.49347  93036237.86347  22720409.4284   22720411.9224   22720409.0954
        49.000          43.000
 119646989.93647  93231409.67547  22768072.2984   22768073.7904   22768072.9634
        49.000          42.000
 118680089.21947  92477981.66047  22584078.6694   22584080.6254   22584078.9454
        49.000          43.000
 112280204.90347  87491067.78247  21366213.8864   21366215.3734   21366213.6104
        53.000          48.000
 123379010.57047  96139484.81547  23478247.6054   23478250.8174   23478248.0594
        46.000          39.000
 126861990.84347  98853489.27747  24141040.8794   24141043.9744   24141040.3194
        44.000          39.000
 105361261.57047  82099677.86747  20049586.7884   20049588.3174   20049587.1204
        54.000          49.000
 115494459.90847 107787880.26747  23880809.4394   23880813.4464   23880809.4874
        44.000          38.000
 09  1  7  1 43 30.0000000  0 12G24G12G22G 9G30G18G14G31G 5G29G21G 6
 121131059.37147  94387815.37447  23050493.6064   23050497.5044   23050493.8074
        48.000          41.000
 129019502.11647 100534669.76247  24551599.8394   24551602.3224   24551599.6744
        42.000          37.000
 122665663.26547  95583636.87747  23342495.7544   23342496.1394   23342495.6154
        48.000          42.000
 128308442.41147  99980610.71647  24416278.0134   24416281.7494   24416277.9204
        40.000          35.000
 119372236.75247  93017317.05147  22715788.9784   22715791.0924   22715788.6504
        50.000          43.000
 119609504.18847  93202200.00347  22760938.5974   22760940.3914   22760938.9284
        49.000          42.000
 118719489.26047  92508683.01047  22591576.1804   22591578.2984   22591576.2784
        48.000          43.000
 112208958.92647  87435551.46547  21352656.2714   21352657.5774   21352656.0044
        53.000          48.000
 123381423.22047  96141364.82847  23478706.5104   23478709.8624   23478707.0154
        45.000          39.000
 126926174.62947  98903502.60647  24153254.8124   24153257.5174   24153254.6524
        44.000          39.000
 105387633.83347  82120227.67747  20054605.1264   20054606.8254   20054605.5344
        54.000          49.000
 115478055.25547 107775097.44047  23877687.8454   23877691.8104   23877688.1044
        43.000          38.000
 09  1  7  1 44  0.0000000  0 12G24G12G22G 9G30G18G14G31G 5G29G21G 6
 121215654.57147  94453733.69047  23066591.4984   23066595.4564   23066591.6794
        47.000          41.000
 129035786.39847 100547358.83447  24554698.9624   24554701.1484   24554699.0004
        44.000          38.000
 122617622.62547  95546202.61347  23333354.0464   23333354.0634   23333354.1794
        48.000          42.000
 128415671.86647 100064166.15047  24436682.6794   24436686.4924   24436683.8364
        41.000          35.000
 119348076.92947  92998491.24347  22711191.4384   22711194.2124   22711190.9694
        49.000          43.000
 119572014.70747  93172987.42547  22753804.7534   22753806.2874   22753804.9384
        49.000          42.000
 118758976.90847  92539452.62147  22599090.3204   22599092.4584   22599090.6074
        49.000          43.000
 112138140.71147  87380368.46147  21339180.0824   21339181.2924   21339179.4384
        53.000          48.000
 123384095.62447  96143447.24747  23479214.4854   23479218.6614   23479215.1524
        45.000          39.000
 126990166.81847  98953366.62347  24165431.8344   24165435.2204   24165431.5084
        44.000          39.000
 105414610.92347  82141248.78347  20059738.7344   20059740.3924   20059739.0484
        54.000          49.000
 115461868.67347 107762484.55547  23874607.2364   23874611.1884   23874607.1184
        43.000          38.000
 09  1  7  1 44 30.0000000  0 12G24G12G22G 9G30G18G14G31G 5G29G21G 6
 121300535.93347  94519874.98547  23082743.8974   23082747.8024   23082744.4574
        48.000          41.000
 129052304.12047 100560229.79747  24557842.7344   24557844.2354   24557842.4894
        43.000          37.000
 122569419.17547  95508641.49647  23324181.1504   23324181.2804   23324181.2784
        48.000          42.000
 128523052.34047 100147839.22547  24457117.6264   24457121.2614   24457117.8434
        40.000          34.000
 119324042.91347  92979763.47247  22706617.7624   22706619.7144   22706617.3404
        49.000          43.000
 119534525.61147  93143775.14147  22746670.6594   22746672.6584   22746671.0064
        49.000          42.000
 118798551.22247  92570289.76347  22606621.2144   22606623.3254   22606621.5984
        49.000          43.000
 112067754.13047  87325521.80747  21325785.8334   21325787.1554   21325785.6954
        53.000          48.000
 123387031.35047  96145734.85847  23479773.3314   23479777.2464   23479774.0254
        46.000          40.000
 127053967.96347  99003081.80147  24177572.7574   24177576.1804   24177572.6034
        43.000          38.000
 105442193.37247  82162741.59447  20064987.4614   20064989.2804   20064987.9094
        54.000          49.000
 115445900.61447 107750041.93647  23871568.8524   23871573.1414   23871568.9494
        43.000          38.000
 09  1  7  1 45  0.0000000  0 12G24G12G22G 9G30G18G14G31G 5G29G21G 6
 121385700.60747  94586237.05047  23098949.9944   23098954.3354   23098950.0004
        47.000          41.000
 129069055.81247 100573283.08747  24561030.1634   24561031.7634   24561029.8234
        43.000          37.000
 122521052.94847  95470953.53047  23314977.3614   23314977.0404   23314977.5484
        48.000          42.000
 128630580.39247 100231627.33147  24477579.2804   24477582.1064   24477579.1294
        39.000          34.000
 119300136.43347  92961135.06347  22702068.3024   22702070.5544   22702067.9924
        50.000          43.000
 119497038.08247  93114564.08947  22739536.5674   22739538.9834   22739537.0244
        49.000          42.000
 118838209.53847  92601192.35847  22614167.8184   22614169.8364   22614168.3054
        48.000          43.000
 111997801.40347  87271013.21347  21312473.9314   21312475.5954   21312473.4104
        53.000          48.000
 123390231.72047  96148228.66847  23480382.3754   23480386.1434   23480383.1384
        46.000          40.000
 127117576.64147  99052646.98447  24189676.8784   24189680.2174   24189676.9474
        44.000          38.000
 105470379.76347  82184705.00647  20070351.1074   20070353.1174   20070351.4714
        54.000          49.000
 115430148.87847 107737767.90647  23868570.8804   23868575.4084   23868570.7404
        43.000          38.000
 09  1  7  1 45 30.0000000  0 12G24G12G22G 9G30G18G14G31G 5G29G21G 6
 121471147.45847  94652819.00247  23115209.9904   23115214.0874   23115210.0334
        47.000          41.000
 129086044.57547 100586521.11647  24564262.8414   24564265.1554   24564262.3974
        42.000          37.000
 122472526.79947  95433140.96647  23305742.4044   23305742.8814   23305742.7024
        47.000          41.000
 138738187.70557  90315462.37957  24498069.4025   24498071.5675   24498068.7485
        40.000          33.000
 119276361.39447  92942609.07947  22697544.0414   22697546.6154   22697544.0004
        49.000          43.000
 119459556.10747  93085357.34447  22732404.3474   22732406.3184   22732404.7514
        49.000          42.000
 118877950.73147  92632159.53547  22621730.4724   22621732.3504   22621730.3324
        48.000          43.000
 111928286.51647  87216845.79547  21299245.8274   21299247.4284   21299245.4214
        53.000          48.000
 123393700.07547  96150931.31447  23481042.4234   23481045.8544   23481043.1884
        46.000          40.000
 127180993.39547  99102062.62347  24201745.2014   24201747.9724   24201744.6964
        43.000          38.000
 105499170.59647  82207139.41047  20075829.9384   20075831.7674   20075830.3624
        54.000          49.000
 115414613.62247 107725662.54047  23865614.8484   23865619.0124   23865615.2634
        43.000          38.000
 09  1  7  1 46  0.0000000  0 11G24G12G22G30G18G14G31G 5G29G21G 6
 121556873.02047  94719618.11147  23131523.1304   23131527.2124   23131523.0114
        47.000          41.000
 129103270.76447 100599944.12447  24567539.9534   24567543.1024   24567540.0224
        42.000          37.000
 122423840.75747  95395203.78947  23296477.9044   23296478.5414   23296478.0164
        47.000          41.000
 119252719.06947  92924186.50647  22693044.8074   22693047.8884   22693044.6244
        49.000          43.000
 119422080.73847  93056155.74847  22725273.4054   22725275.0444   22725273.8064
        49.000          42.000
 118917770.88147  92663188.25047  22629307.8554   22629309.9764   22629308.0904
        48.000          43.000
 111859210.39147  87163020.27847  21286100.9824   21286102.6394   21286100.7624
        53.000          48.000
 123397436.97447  96153843.19747  23481753.6844   23481756.9634   23481754.2054
        47.000          40.000
 127244215.83847  99151326.86547  24213775.8084   24213778.9434   24213775.7894
        44.000          38.000
 105528563.51447  82230042.97647  20081423.3344   20081424.9754   20081423.7834
        54.000          49.000
 115399292.31847 107713723.91147  23862699.3684   23862703.9394   23862699.2194
        43.000          38.000
 09  1  7  1 46 30.0000000  0 11G24G12G22G30G18G14G31G 5G29G21G 6
 121642873.43947  94786631.41247  23147888.4844   23147892.6184   23147888.4694
        47.000          41.000
 129120734.01347 100613551.86747  24570863.3494   24570866.1164   24570863.2704
        43.000          37.000
 122374995.30847  95357142.40747  23287183.0084   23287183.4464   23287183.0774
        48.000          41.000
 119229210.20347  92905867.92747  22688571.1024   22688574.1084   22688571.0934
        49.000          43.000
 119384612.59947  93026959.78347  22718143.1934   22718144.6244   22718143.6174
        49.000          42.000
 118957665.87547  92694275.26847  22636899.8384   22636901.8404   22636899.8464
        49.000          43.000
 111790573.69447  87109537.17047  21273039.9044   21273041.3564   21273039.2014
        53.000          48.000
 123401442.41147  96156964.34647  23482516.3484   23482519.3544   23482516.9074
        46.000          40.000
 127307241.33047  99200437.63047  24225769.1174   24225772.3064   24225768.6654
        43.000          38.000
 105558555.90647  82253413.67047  20087130.8264   20087132.2284   20087131.2624
        54.000          49.000
 115384181.60447 107701949.35847  23859823.9564   23859827.7554   23859824.3684
        44.000          38.000
