     2.11           OBSERVATION DATA    G (GPS)             RINEX VERSION / TYPE
teqc  2013Mar15     gpsops              20140515 00:23:19UTCPGM / RUN BY / DATE
Linux 2.4.21-27.ELsmp|Opteron|gcc -static|Linux x86_64|=+   COMMENT
BIT 2 OF LLI FLAGS DATA COLLECTED UNDER A/S CONDITION       COMMENT
GLPS                                                        MARKER NAME
42005M002                                                   MARKER NUMBER
GGN                 JPL                                     OBSERVER / AGENCY
ZR220013847         ASHTECH UZ-12       CQ00                REC # / TYPE / VERS
CR519992104         ASH701945B_M    SCIT                    ANT # / TYPE
   -33801.4662 -6377516.5323   -82154.3508                  APPROX POSITION XYZ
        0.0083        0.0000        0.0000                  ANTENNA: DELTA H/E/N
     1     1                                                WAVELENGTH FACT L1/2
     7    L1    L2    P1    P2    C1    S1    S2            # / TYPES OF OBSERV
    30.0000                                                 INTERVAL
                                                            COMMENT
This data is provided as a public service by NASA/JPL.      COMMENT
No warranty is expressed or implied regarding suitability   COMMENT
for use.  For further information, contact:                 COMMENT
Dave Stowers, NASA/JPL m/s 238-600                          COMMENT
4800 Oak Grove Drive, Pasadena CA 91109 USA                 COMMENT
                                                            COMMENT
Forced Modulo Decimation to 30 seconds                      COMMENT
 SNR is mapped to RINEX snr flag value [0-9]                COMMENT
  L1 & L2: min(max(int(snr_dBHz/6), 0), 9)                  COMMENT
pseudorange smoothing corrections not applied               COMMENT
  2014     5    14     0     0    0.0000000     GPS         TIME OF FIRST OBS
                                                            END OF HEADER
 14  5 14  0  0  0.0000000  0 11G09G08G20G10G07G28G17G26G04G01G13
 -13691926.03049 -10662070.55748  20130244.7574   20130252.4604   20130244.748
        54.0004         49.0004
 -19526782.99449 -15210298.41848  20033200.8994   20033208.8674   20033201.321
        54.0004         49.0004
  -4995568.48147  -3841553.08346  23624379.4384   23624391.4534   23624380.329
        42.0004         37.0004
  -8036044.75547  -6250981.13446  24217577.6664   24217591.8634   24217579.529
        42.0004         38.0004
 -23537751.37848 -18311441.25748  20331854.5044   20331861.1154   20331854.015
        53.0004         49.0004
  -1897730.06847  -1479180.18446  23775155.8994   23775169.0384   23775157.253
        43.0004         38.0004
 -13902169.05948 -10778562.99447  22475144.6944   22475154.6134   22475144.262
        50.0004         45.0004
   -953527.84146   -717921.09246  24151402.6064   24151420.5184   24151404.015
        41.0004         37.0004
 -20124871.53448 -15619661.30747  21539455.1874   21539462.9104   21539454.413
        50.0004         46.0004
  -6834814.42147  -5294721.43546  23517670.1814   23517685.2194   23517669.515
        44.0004         39.0004
  -3498269.11547  -2670940.10246  23899022.9034   23899030.9194   23899022.894
        42.0004         37.0004
 14  5 14  0  0 30.0000000  0 11G09G08G20G10G07G28G17G26G04G01G13
 -13722459.44649 -10685862.75548  20124434.1624   20124442.3294   20124434.167
        54.0004         49.0004
 -19558704.79749 -15235172.48948  20027126.2274   20027134.3654   20027126.310
        54.0004         49.0004
  -4988948.10847  -3836394.33546  23625640.7314   23625651.0004   23625640.856
        42.0004         37.0004
  -8088748.18647  -6292048.55246  24207550.1184   24207562.2434   24207550.731
        42.0004         38.0004
 -23501082.97248 -18282868.43548  20338832.5514   20338838.3844   20338831.494
        53.0004         49.0004
  -1943031.40447  -1514479.76446  23766536.7534   23766549.2314   23766536.113
        43.0004         38.0004
 -13861502.96848 -10746875.17547  22482882.8384   22482893.7954   22482882.961
        50.0004         45.0004
   -972462.97446   -732675.49346  24147801.5314   24147817.0144   24147800.597
        41.0004         37.0004
 -20202819.10148 -15680399.57447  21524621.0074   21524629.5484   21524620.823
        50.0004         46.0004
  -6737992.85047  -5219276.10746  23536094.8974   23536108.7774   23536094.187
        44.0004         39.0004
  -3422601.33747  -2611978.09246  23913423.0934   23913431.2094   23913422.340
        42.0004         37.0004
 14  5 14  0  1  0.0000000  0 11G09G08G20G10G07G28G17G26G04G01G13
 -13752407.34849 -10709198.70948  20118735.4074   20118743.3214   20118735.308
        54.0004         49.0004
 -19590014.49549 -15259569.58248  20021168.2804   20021176.3804   20021168.643
        54.0004         49.0004
  -4982108.75347  -3831064.94546  23626941.6864   23626953.6834   23626941.615
        42.0004         37.0004
  -8141679.13747  -6333293.23746  24197476.9914   24197488.6574   24197477.759
        43.0004         38.0004
 -23463836.67548 -18253845.31148  20345920.2034   20345926.1174   20345919.580
        53.0004         49.0004
  -1988554.48147  -1549952.11146  23757873.4444   23757885.1224   23757873.853
        43.0004         39.0004
 -13820742.06748 -10715113.47847  22490639.7944   22490650.2944   22490639.243
        50.0004         45.0004
   -991041.77146   -747152.23446  24144264.1714   24144283.2854   24144265.080
        41.0004         37.0004
 -20280407.93648 -15740858.31747  21509856.7994   21509865.3254   21509856.517
        50.0004         46.0004
  -6640937.27247  -5143648.44846  23554564.7134   23554579.0034   23554563.632
        44.0004         39.0004
  -3347097.96747  -2553144.18546  23927790.7414   23927798.0584   23927790.069
        42.0004         37.0004
 14  5 14  0  1 30.0000000  0 11G09G08G20G10G07G28G17G26G04G01G13
 -13781769.25249 -10732078.04148  20113147.8494   20113155.2724   20113147.745
        54.0004         49.0004
 -19620710.79249 -15283488.70948  20015326.6514   20015334.9374   20015326.942
        54.0004         49.0004
  -4975049.49047  -3825564.20646  23628284.2704   23628293.6684   23628284.829
        42.0004         37.0004
  -8194837.54747  -6374715.17346  24187360.6984   24187371.8464   24187361.715
        43.0004         38.0004
 -23426014.32948 -18224373.31448  20353117.3514   20353123.5664   20353116.727
        53.0004         49.0004
  -2034298.48047  -1585596.62946  23749168.8854   23749180.2694   23749169.191
        43.0004         39.0004
 -13779889.48748 -10683280.32647  22498413.9044   22498424.1174   22498413.173
        50.0004         45.0004
  -1009266.08546   -761352.74346  24140797.4974   24140813.7544   24140796.050
        41.0004         36.0004
 -20357635.70148 -15801035.69647  21495160.9534   21495169.2464   21495160.321
        51.0004         46.0004
  -6543650.96247  -5067840.99546  23573077.4244   23573091.4784   23573076.846
        44.0004         39.0004
  -3271761.55347  -2494440.39146  23942124.7984   23942134.1934   23942126.092
        42.0004         37.0004
 14  5 14  0  2  0.0000000  0 11G09G08G20G10G07G28G17G26G04G01G13
 -13810547.99449 -10754502.96648  20107671.4344   20107678.8534   20107671.461
        54.0004         49.0004
 -19650795.71949 -15306931.44048  20009601.5414   20009610.0114   20009602.039
        54.0004         49.0004
  -4967772.83047  -3819894.04846  23629667.6604   23629679.7894   23629669.510
        42.0004         37.0004
  -8248226.79047  -6416316.97646  24177202.1964   24177214.0074   24177202.735
        43.0004         38.0004
 -23387621.36148 -18194456.67448  20360422.9804   20360429.6174   20360422.717
        53.0004         49.0004
  -2080265.57047  -1621414.98546  23740421.9774   23740433.9664   23740421.688
        43.0004         39.0004
 -13738951.24348 -10651380.43747  22506204.1404   22506215.2034   22506203.709
        50.0004         45.0004
  -1027140.93146   -775280.94446  24137395.5174   24137411.4704   24137395.327
        41.0004         36.0004
 -20434504.18048 -15860933.12247  21480532.9824   21480540.9524   21480532.800
        51.0004         46.0004
  -6446140.62947  -4991858.97346  23591632.5104   23591647.0274   23591632.256
        44.0004         40.0004
  -3196597.54347  -2435870.92946  23956428.0064   23956436.2874   23956429.501
        42.0004         37.0004
 14  5 14  0  2 30.0000000  0 11G09G08G20G10G07G28G17G26G04G01G13
 -13838735.17249 -10776466.92748  20102307.3374   20102315.3424   20102307.498
        54.0004         49.0004
 -19680260.53749 -15329890.96848  20003995.1324   20004002.5694   20003994.941
        54.0004         49.0004
  -4960269.53947  -3814047.32346  23631098.0964   23631107.7334   23631097.968
        42.0004         37.0004
  -8301838.76947  -6458092.36146  24166999.4864   24167010.1204   24167000.300
        43.0004         38.0004
 -23348651.54448 -18164090.54148  20367838.5694   20367844.7904   20367838.405
        53.0004         48.0004
  -2126447.89147  -1657401.07646  23731632.6514   23731645.8824   23731632.983
        43.0004         39.0004
 -13697923.34048 -10619410.67947  22514011.8844   22514022.1184   22514011.098
        50.0004         45.0004
  -1044660.27046   -788932.15046  24134061.9094   24134076.5914   24134060.459
        41.0004         36.0004
 -20511003.47148 -15920542.87347  21465975.8484   21465984.1284   21465975.267
        51.0004         46.0004
  -6348401.63547  -4915698.79846  23610232.0554   23610246.7054   23610231.545
        44.0004         40.0004
  -3121600.34947  -2377431.43846  23970701.5094   23970708.0204   23970700.208
        42.0004         37.0004
 14  5 14  0  3  0.0000000  0 11G09G08G20G10G07G28G17G26G04G01G13
 -13866330.61449 -10797969.79148  20097056.2164   20097063.9064   20097056.190
        54.0004         49.0004
 -19709104.68849 -15352366.86148  19998505.9944   19998513.7614   19998506.119
        54.0004         49.0004
  -4952539.39447  -3808023.82746  23632568.6004   23632579.1554   23632568.450
        42.0004         37.0004
  -8355673.83647  -6500041.54146  24156754.2974   24156765.8854   24156755.704
        43.0004         38.0004
 -23309107.40948 -18133276.88448  20375363.8094   20375370.2424   20375363.267
        53.0004         49.0004
  -2172845.35747  -1693554.80646  23722802.2184   23722814.8014   23722804.036
        44.0004         39.0004
 -13656809.20348 -10587373.73847  22521834.8064   22521846.0064   22521834.589
        50.0004         45.0004
  -1061826.36946   -802308.08446  24130795.1794   24130810.2304   24130794.327
        41.0004         37.0004
 -20587132.19448 -15979863.87447  21451488.6164   21451496.9804   21451488.051
        50.0004         46.0004
  -6250437.67747  -4839363.31446  23628873.4984   23628888.5394   23628873.206
        44.0004         40.0004
  -3046772.95347  -2319124.24846  23984940.0074   23984946.6724   23984939.001
        42.0004         37.0004
 14  5 14  0  3 30.0000000  0 11G09G08G20G10G07G28G17G26G04G01G13
 -13893336.38349 -10819013.17148  20091917.0794   20091924.7704   20091917.083
        54.0004         49.0004
 -19737329.35549 -15374360.03748  19993134.7494   19993142.9834   19993134.973
        54.0004         49.0004
  -4944583.60046  -3801824.48746  23634082.7524   23634091.7284   23634082.467
        41.0004         37.0004
  -8409734.32247  -6542166.41046  24146468.0044   24146478.9894   24146468.513
        43.0004         38.0004
 -23268993.49548 -18102019.24748  20382997.3694   20383003.3814   20382996.964
        53.0004         49.0004
  -2219459.17347  -1729877.12346  23713933.3944   23713944.7924   23713933.778
        44.0004         39.0004
 -13615614.44948 -10555273.97247  22529674.6624   22529683.7974   22529673.818
        49.0004         45.0004
  -1078643.60047   -815412.18646  24127593.6724   24127611.2584   24127593.320
        42.0004         37.0004
 -20662890.95348 -16038896.57947  21437071.6854   21437080.0734   21437072.233
        50.0004         46.0004
  -6152254.50347  -4762857.01746  23647558.1464   23647572.6794   23647557.104
        44.0004         40.0004
  -2972119.88547  -2260952.90446  23999145.7674   23999153.3294   23999145.298
        42.0004         37.0004
 14  5 14  0  4  0.0000000  0 11G09G08G20G10G07G28G17G26G04G01G13
 -13919748.71749 -10839594.12848  20086890.8624   20086898.8734   20086891.001
        54.0004         49.0004
 -19764930.32649 -15395867.21848  19987882.3274   19987890.1764   19987882.699
        54.0004         49.0004
  -4936397.89146  -3795446.00846  23635640.1294   23635651.2154   23635640.094
        41.0004         37.0004
  -8464016.75147  -6584464.20646  24136137.8184   24136148.3724   24136138.492
        43.0004         38.0004
 -23228308.69148 -18070316.75648  20390739.1114   20390745.4084   20390738.676
        53.0004         49.0004
  -2266285.57447  -1766365.06646  23705022.3054   23705033.6874   23705022.463
        44.0004         39.0004
 -13574338.99048 -10523111.31447  22537528.7594   22537538.6284   22537528.199
        49.0004         45.0004
  -1095110.44246   -828243.24646  24124459.1904   24124476.5444   24124459.759
        41.0004         37.0004
 -20738274.71648 -16097637.08547  21422727.1404   21422734.4274   21422726.377
        50.0004         46.0004
  -6053852.13047  -4686179.90646  23666283.2074   23666297.5454   23666282.974
        44.0004         40.0004
  -2897640.33347  -2202916.74846  24013318.8964   24013325.8664   24013318.320
        42.0004         37.0004
 14  5 14  0  4 30.0000000  0 11G09G08G20G10G07G28G17G26G04G01G13
 -13945570.60149 -10859714.99848  20081977.2094   20081985.0734   20081977.136
        54.0004         49.0004
 -19791910.06149 -15416890.31848  19982748.2844   19982756.4314   19982748.558
        54.0004         49.0004
  -4927984.71246  -3788890.26346  23637242.6794   23637250.8704   23637241.828
        41.0004         37.0004
  -8518524.46547  -6626937.57046  24125764.0374   24125776.5084   24125765.712
        43.0004         38.0004
 -23187058.11148 -18038173.40648  20398589.0664   20398595.0524   20398588.473
        53.0004         49.0004
  -2313327.36147  -1803020.86246  23696071.0904   23696083.4034   23696070.978
        44.0004         39.0004
 -13532989.21848 -10490890.74447  22545396.6854   22545408.5804   22545397.180
        49.0004         45.0004
  -1111232.18247   -840805.41246  24121392.4444   24121410.8684   24121392.155
        42.0004         37.0004
 -20813285.01948 -16156086.58247  21408453.4844   21408461.2024   21408452.960
        51.0004         46.0004
  -5955237.32247  -4609337.26846  23685048.8164   23685062.7664   23685048.630
        44.0004         40.0004
  -2823339.54447  -2145019.90446  24027458.2574   24027465.2624   24027457.057
        42.0004         37.0004
 14  5 14  0  5  0.0000000  0 11G09G08G20G10G07G28G17G26G04G01G13
 -13970795.00349 -10879370.29148  20077177.3984   20077184.5724   20077177.149
        54.0004         49.0004
 -19818261.11749 -15437423.53848  19977734.2544   19977741.8744   19977734.367
        54.0004         49.0004
  -4919336.58046  -3782151.43846  23638886.8824   23638896.3634   23638886.985
        41.0004         37.0004
  -8573250.92747  -6669581.37946  24115351.8004   24115362.5274   24115351.421
        43.0004         38.0004
 -23145237.35748 -18005585.76248  20406546.7444   20406553.2194   20406546.625
        53.0004         49.0004
  -2360577.20747  -1839838.77546  23687079.0264   23687089.1134   23687079.387
        44.0004         39.0004
 -13491561.62648 -10458609.53847  22553280.5514   22553291.2554   22553280.165
        49.0004         44.0004
  -1127004.14247   -853094.99346  24118390.5644   24118406.6524   24118390.561
        42.0004         37.0004
 -20887913.47248 -16214238.53547  21394251.6694   21394259.6854   21394251.176
        51.0004         46.0004
  -5856406.71847  -4532326.47146  23703856.2304   23703870.7694   23703855.296
        44.0004         39.0004
  -2749213.42847  -2087259.14746  24041563.9254   24041571.5954   24041562.708
        42.0004         37.0004
 14  5 14  0  5 30.0000000  0 11G09G08G20G10G07G28G17G26G04G01G13
 -13995426.20949 -10898563.36348  20072489.7624   20072497.3004   20072489.924
        54.0004         49.0004
 -19843987.14549 -15457469.72148  19972838.1614   19972846.1514   19972838.467
        54.0004         49.0004
  -4910457.08447  -3775232.34746  23640576.9984   23640585.3464   23640578.068
        42.0004         37.0004
  -8628200.47347  -6712399.01146  24104893.3614   24104905.7334   24104894.656
        43.0004         38.0004
 -23102852.98748 -17972558.93548  20414612.4394   20414619.1384   20414612.098
        53.0004         49.0004
  -2408038.81147  -1876821.70246  23678047.3084   23678058.7584   23678047.430
        43.0004         39.0004
 -13450064.13048 -10426273.85447  22561177.4474   22561187.7814   22561177.247
        49.0004         44.0004
  -1142432.67147   -865116.98246  24115454.4814   24115470.2994   24115454.102
        42.0004         37.0004
 -20962162.63448 -16272094.93047  21380122.3104   21380130.6834   21380122.392
        51.0004         46.0004
  -5757368.06247  -4455153.55146  23722702.6404   23722717.0094   23722701.520
        44.0004         40.0004
  -2675268.64846  -2029639.71746  24055634.1894   24055640.1934   24055633.736
        41.0004         37.0004
 14  5 14  0  6  0.0000000  0 11G09G08G20G10G07G28G17G26G04G01G13
 -14019459.77449 -10917290.73648  20067916.2084   20067924.0604   20067916.382
        54.0004         49.0004
 -19869082.90949 -15477024.79248  19968063.0424   19968070.7154   19968063.172
        54.0004         49.0004
  -4901341.00447  -3768128.88746  23642311.5094   23642321.4234   23642311.794
        42.0004         37.0004
  -8683368.83647  -6755387.15046  24094396.0184   24094407.1774   24094396.834
        43.0004         38.0004
 -23059903.50448 -17939091.76448  20422785.3694   20422791.9434   20422784.960
        53.0004         48.0004
  -2455707.46547  -1913965.96246  23668976.2924   23668987.9674   23668976.558
        43.0004         39.0004
 -13408495.76748 -10393882.94947  22569087.6444   22569098.1534   22569087.353
        49.0004         44.0004
  -1157515.76747   -876869.78546  24112585.2254   24112600.4594   24112584.421
        42.0004         38.0004
 -21036026.66148 -16329651.22447  21366066.5794   21366074.5494   21366066.198
        51.0004         46.0004
  -5658120.77147  -4377818.07046  23741589.0664   23741603.0624   23741587.781
        44.0004         39.0004
  -2601503.50446  -1972160.25346  24069671.6134   24069677.9744   24069670.447
        41.0004         36.0004
 14  5 14  0  6 30.0000000  0 11G09G08G20G10G07G28G17G26G04G01G13
 -14042895.49349 -10935552.24848  20063456.7584   20063464.2994   20063456.609
        54.0004         49.0004
 -19893547.84549 -15496088.30548  19963407.2574   19963415.2174   19963407.377
        54.0004         49.0004
  -4891987.60547  -3760840.50446  23644092.5564   23644099.7274   23644091.638
        42.0004         37.0004
  -8738755.80547  -6798545.63046  24083855.9014   24083867.1824   24083856.882
        43.0004         38.0004
 -23016390.74848 -17905185.67048  20431065.5594   20431071.8164   20431065.172
        53.0004         49.0004
  -2503582.64347  -1951271.14646  23659866.7554   23659877.5734   23659865.864
        43.0004         38.0004
 -13366859.91048 -10361439.45347  22577010.7174   22577021.7274   22577010.437
        49.0004         44.0004
  -1172255.51147   -888355.04146  24109779.2254   24109794.9234   24109778.535
        42.0004         37.0004
 -21109504.02148 -16386906.21947  21352084.8644   21352092.1354   21352084.291
        51.0004         46.0004
  -5558668.19347  -4300322.61546  23760513.8474   23760529.0554   23760512.927
        44.0004         40.0004
  -2527920.20346  -1914822.46446  24083674.0664   24083680.2624   24083672.610
        41.0004         37.0004
 14  5 14  0  7  0.0000000  0 11G09G08G20G10G07G28G17G26G04G01G13
 -14065735.00949 -10953349.19348  20059110.3654   20059117.9944   20059110.262
        54.0004         49.0004
 -19917383.33749 -15514661.34548  19958871.3954   19958879.2704   19958871.772
        54.0004         49.0004
  -4882398.35647  -3753368.35246  23645915.9164   23645924.5594   23645916.147
        42.0004         37.0004
  -8794363.16047  -6841875.85046  24073273.5694   24073286.0814   24073275.084
        43.0004         38.0004
 -22972319.08348 -17870844.07448  20439452.3134   20439458.5944   20439451.774
        53.0004         49.0004
  -2551665.29847  -1988738.00246  23650717.3824   23650727.5604   23650716.217
        43.0004         39.0004
 -13325161.23248 -10328947.00947  22584946.9194   22584956.9814   22584945.432
        49.0004         44.0004
  -1186655.67247   -899575.71046  24107037.9034   24107053.0864   24107037.369
        42.0004         37.0004
 -21182594.94248 -16443860.08847  21338175.1034   21338183.2434   21338174.688
        51.0004         46.0004
  -5459015.57347  -4222671.29546  23779476.4164   23779492.2184   23779475.411
        44.0004         40.0004
  -2454522.69646  -1857629.46846  24097640.4304   24097648.0954   24097639.730
        41.0004         37.0004
 14  5 14  0  7 30.0000000  0 11G09G08G20G10G07G28G17G26G04G01G13
 -14087973.64849 -10970677.92748  20054878.0854   20054885.8464   20054878.167
        54.0004         49.0004
 -19940583.59849 -15532739.40048  19954456.4714   19954464.0364   19954456.829
        54.0004         49.0004
  -4872567.29646  -3745707.76746  23647787.1044   23647796.4704   23647787.477
        41.0004         37.0004
  -8850186.32147  -6885374.21646  24062650.2094   24062662.4924   24062652.353
        43.0004         38.0004
 -22927685.94848 -17836064.96848  20447945.5384   20447951.9674   20447945.038
        53.0004         48.0004
  -2599950.01747  -2026362.29846  23641528.8234   23641538.2174   23641527.853
        44.0004         39.0004
 -13283398.47148 -10296404.63247  22592893.6024   22592904.4364   22592892.794
        49.0004         45.0004
  -1200713.54947   -910529.67346  24104362.7124   24104378.3234   24104363.301
        42.0004         38.0004
 -21255292.60648 -16500507.52447  21324340.9944   21324348.5934   21324340.951
        51.0004         46.0004
  -5359161.46247  -4144862.96246  23798477.8034   23798493.0714   23798476.960
        44.0004         39.0004
  -2381308.81246  -1800579.54646  24111572.2684   24111579.8794   24111571.951
        41.0004         37.0004
 14  5 14  0  8  0.0000000  0 11G09G08G20G10G07G28G17G26G04G01G13
 -14109612.86649 -10987539.57648  20050760.2994   20050767.9264   20050760.443
        54.0004         49.0004
 -19963149.91049 -15550323.47348  19950162.1834   19950169.6594   19950162.478
        54.0004         49.0004
  -4862495.34346  -3737859.48746  23649703.0574   23649712.7374   23649704.615
        41.0004         37.0004
  -8906226.96847  -6929042.07146  24051986.7654   24051997.6614   24051987.458
        43.0004         38.0004
 -22882495.38848 -17800851.50548  20456544.9794   20456551.2364   20456544.620
        53.0004         48.0004
  -2648438.50647  -2064145.38246  23632300.0874   23632312.1114   23632300.883
        44.0004         39.0004
 -13241576.63248 -10263816.21247  22600851.3664   22600862.3814   22600851.185
        49.0004         44.0004
  -1214433.18247   -921220.04446  24101751.8674   24101767.6634   24101751.530
        42.0004         37.0004
 -21327597.56848 -16556848.95347  21310581.9454   21310590.6184   21310581.508
        51.0004         46.0004
  -5259111.31947  -4066901.89046  23817517.1294   23817531.9264   23817516.960
        44.0004         39.0004
  -2308282.43346  -1743675.73946  24125468.1444   24125475.4764   24125468.084
        41.0004         37.0004
 14  5 14  0  8 30.0000000  0 11G09G08G20G10G07G28G17G26G04G01G13
 -14130650.41449 -11003932.39748  20046757.0824   20046764.9094   20046757.163
        54.0004         49.0004
 -19985079.50749 -15567411.40248  19945989.2744   19945996.7654   19945989.445
        54.0004         49.0004
  -4852179.69146  -3729821.29746  23651667.1434   23651674.8684   23651666.974
        41.0004         36.0004
  -8962482.57447  -6972877.40746  24041281.8234   24041291.5654   24041282.895
        42.0004         38.0004
 -22836747.50748 -17765203.76348  20465250.7984   20465256.3094   20465250.146
        53.0004         48.0004
  -2697127.17447  -2102084.44746  23623034.5924   23623045.9884   23623035.002
        44.0004         39.0004
 -13199696.61348 -10231182.45247  22608820.7124   22608831.6084   22608820.585
        49.0004         44.0004
  -1227814.33647   -931646.66046  24099205.8924   24099221.1904   24099205.613
        42.0004         37.0004
 -21399505.71948 -16612881.18547  21296898.5984   21296906.2354   21296898.136
        51.0004         46.0004
  -5158866.15947  -3988788.82446  23836593.2574   23836608.7224   23836592.589
        44.0004         39.0004
  -2235443.24846  -1686917.79646  24139329.5484   24139336.8844   24139328.586
        41.0004         37.0004
 14  5 14  0  9  0.0000000  0 12G09G08G20G10G07G28G17G26G02G04G01G13
 -14151086.81649 -11019856.78748  20042868.1174   20042875.5884   20042868.023
        54.0004         49.0004
 -20006371.86849 -15584002.78848  19941937.3194   19941944.8514   19941937.627
        54.0004         49.0004
  -4841619.91446  -3721592.88746  23653675.4294   23653685.8284   23653676.611
        41.0004         37.0004
  -9018953.37947  -7016880.42546  24030534.3354   24030545.5964   24030536.448
        42.0004         38.0004
 -22790445.19148 -17729123.99648  20474061.5464   20474067.9114   20474060.899
        53.0004         48.0004
  -2746015.88347  -2140179.39446  23613730.6944   23613743.0694   23613731.845
        44.0004         39.0004
 -13157762.37748 -10198506.45447  22616800.1724   22616812.3624   22616800.077
        49.0004         44.0004
  -1240859.57946   -941811.54546  24096723.1274   24096739.8104   24096721.565
        41.0004         37.0004
   -533490.16447   -399933.91546  24045404.7854   24045414.9274   24045406.092
        45.0004         38.0004
 -21471016.03648 -16668603.41847  21283290.5734   21283298.2704   21283290.013
        51.0004         46.0004
  -5058429.86047  -3910526.84246  23855705.7834   23855721.0494   23855705.196
        44.0004         39.0004
  -2162794.66146  -1630308.34846  24153155.1714   24153160.6554   24153153.190
        41.0004         36.0004
 14  5 14  0  9 30.0000000  0 12G09G08G20G10G07G28G17G26G02G04G01G13
 -14170920.92749 -11035311.86148  20039094.0114   20039101.4124   20039093.789
        54.0004         49.0004
 -20027025.50149 -15600096.45848  19938007.1434   19938014.4424   19938007.204
        54.0004         49.0004
  -4830814.12746  -3713172.79846  23655732.0984   23655742.1014   23655732.493
        41.0004         37.0004
  -9075638.00047  -7061050.06146  24019747.8424   24019757.9914   24019748.830
        42.0004         38.0004
 -22743589.98648 -17692613.40748  20482977.4994   20482984.2284   20482977.165
        53.0004         48.0004
  -2795103.04847  -2178428.97046  23604391.0774   23604402.4954   23604390.775
        44.0004         39.0004
 -13115775.90748 -10165789.75247  22624790.9394   22624800.6934   22624790.164
        49.0004         44.0004
  -1253569.99446   -951715.50846  24094303.3214   24094321.0864   24094304.336
        41.0004         37.0004
   -626956.97647   -472764.93746  24027620.0484   24027629.8104   24027619.782
        43.0004         38.0004
 -21542125.59148 -16724013.37047  21269758.7664   21269766.4724   21269758.229
        51.0004         46.0004
  -4957804.75047  -3832117.72246  23874853.8604   23874869.3714   23874853.203
        44.0004         39.0004
  -2090337.23846  -1573847.87546  24166941.9894   24166948.6544   24166941.543
        41.0004         36.0004
 14  5 14  0 10  0.0000000  0 12G09G08G20G10G07G28G17G26G02G04G01G13
 -14190151.59449 -11050296.72048  20035434.4054   20035441.5124   20035434.155
        54.0004         49.0004
 -20047038.87449 -15615691.22848  19934198.6424   19934206.0584   19934198.673
        54.0004         49.0004
  -4819760.29746  -3704559.41046  23657837.1364   23657847.9134   23657836.021
        41.0004         36.0004
  -9132535.40847  -7105385.51646  24008921.0884   24008931.6224   24008921.649
        42.0004         38.0004
 -22696183.19548 -17655673.00948  20491999.0044   20492005.1604   20491998.500
        53.0004         48.0004
  -2844386.19247  -2216831.25446  23595012.4774   23595022.8664   23595011.985
        44.0004         39.0004
 -13073738.80048 -10133033.59247  22632790.3104   22632801.1054   22632789.682
        49.0004         44.0004
  -1265946.56646   -961359.33146  24091948.5144   24091962.7124   24091947.116
        41.0004         36.0004
   -720261.16147   -545469.21746  24009864.3154   24009872.7004   24009864.819
        43.0004         38.0004
 -21612831.90248 -16779109.10547  21256303.9894   21256311.6154   21256303.189
        51.0004         47.0004
  -4856993.07347  -3753563.22346  23894039.2524   23894053.7804   23894037.505
        44.0004         39.0004
  -2018071.46546  -1517536.73146  24180692.9594   24180701.0064   24180693.180
        41.0004         36.0004
 14  5 14  0 10 30.0000000  0 12G09G08G20G10G07G28G17G26G02G04G01G13
 -14208777.59349 -11064810.40448  20031889.8604   20031897.1734   20031889.595
        54.0004         49.0004
 -20066410.20849 -15630785.70248  19930512.0914   19930519.9154   19930512.578
        54.0004         49.0004
  -4808456.48446  -3695751.25446  23659986.7244   23659995.9094   23659985.995
        41.0004         37.0004
  -9189644.05447  -7149885.55346  23998053.4074   23998063.8874   23998054.038
        43.0004         38.0004
 -22648226.00848 -17618303.73448  20501124.9514   20501130.7874   20501124.320
        53.0004         48.0004
  -2893863.67047  -2255384.97046  23585597.3394   23585608.1074   23585597.078
        44.0004         39.0004
 -13031653.17448 -10100239.62747  22640798.8364   22640810.6554   22640798.098
        49.0004         44.0004
  -1277990.30146   -970743.80246  24089657.0534   24089670.7774   24089657.519
        41.0004         37.0004
   -813400.52447   -618045.09646  23992139.3234   23992148.2244   23992141.421
        42.0004         38.0004
 -21683131.87848 -16833888.20847  21242925.3134   21242933.2084   21242925.474
        51.0004         47.0004
  -4755997.20447  -3674865.19146  23913257.7274   23913272.2784   23913256.833
        44.0004         39.0004
  -1945999.66446  -1461376.73646  24194407.4824   24194416.6264   24194407.606
        41.0004         36.0004
 14  5 14  0 11  0.0000000  0 12G09G08G20G10G07G28G17G26G02G04G01G13
 -14226798.82149 -11078852.84548  20028460.5034   20028467.5164   20028460.500
        54.0004         49.0004
 -20085138.67649 -15645379.24548  19926948.1634   19926955.4464   19926948.282
        54.0004         49.0004
  -4796901.82846  -3686747.63346  23662185.3494   23662193.6034   23662185.044
        41.0004         36.0004
  -9246963.36447  -7194549.74246  23987145.7914   23987156.2384   23987146.424
        43.0004         38.0004
 -22599720.55348 -17580507.23548  20510355.0094   20510360.8584   20510354.619
        53.0004         48.0004
  -2943534.91747  -2294089.66546  23576144.2744   23576155.7484   23576144.877
        44.0004         39.0004
 -12989522.49048 -10067410.55747  22648816.5324   22648826.1464   22648814.981
        49.0004         44.0004
  -1289703.13446   -979870.43446  24087428.5134   24087443.3584   24087426.921
        41.0004         36.0004
   -906372.72147   -690490.70746  23974448.0044   23974456.5194   23974448.267
        42.0004         38.0004
 -21753023.96348 -16888349.47847  21229626.1184   21229633.7244   21229625.643
        51.0004         47.0004
  -4654820.20247  -3596026.01646  23932510.9704   23932524.6594   23932510.044
        44.0004         39.0004
  -1874123.31146  -1405369.01746  24208085.8324   24208093.8814   24208085.217
        41.0004         36.0004
 14  5 14  0 11 30.0000000  0 12G09G08G20G10G07G28G17G26G02G04G01G13
 -14244214.98649 -11092423.81248  20025146.1974   20025154.1174   20025146.127
        54.0004         49.0004
 -20103223.52749 -15659471.27248  19923506.7014   19923514.3314   19923507.132
        54.0004         49.0004
  -4785095.03746  -3677547.53646  23664431.9584   23664441.4944   23664431.404
        41.0004         36.0004
  -9304493.06647  -7239377.87646  23976199.0254   23976208.4264   23976199.370
        43.0004         38.0004
 -22550668.77348 -17542285.02848  20519689.4474   20519695.3534   20519688.800
        53.0004         48.0004
  -2993398.30247  -2332944.08746  23566655.7274   23566666.0044   23566655.737
        44.0004         39.0004
 -12947349.30648 -10034548.37147  22656842.0224   22656850.8634   22656840.876
        49.0004         44.0004
  -1301086.70946   -988740.49946  24085260.6194   24085277.9474   24085260.084
        41.0004         36.0004
   -999175.97047   -762804.69846  23956787.7524   23956795.3564   23956788.384
        42.0004         38.0004
 -21822506.08148 -16942491.29547  21216403.6864   21216411.2124   21216403.365
        51.0004         47.0004
  -4553465.06247  -3517048.03546  23951797.7954   23951812.7704   23951797.117
        44.0004         39.0004
  -1802444.00746  -1349514.87646  24221725.7214   24221733.0004   24221725.298
        41.0004         36.0004
 14  5 14  0 12  0.0000000  0 12G09G08G20G10G07G28G17G26G02G04G01G13
 -14261023.00849 -11105520.90048  20021947.5774   20021955.0774   20021947.721
        54.0004         49.0004
 -20120661.41249 -15673059.16648  19920188.4184   19920195.8684   19920188.665
        54.0004         49.0004
  -4773032.48946  -3668148.15046  23666726.5864   23666737.4064   23666727.208
        41.0004         36.0004
  -9362229.73447  -7284367.27946  23965210.9934   23965222.0524   23965211.760
        43.0004         38.0004
 -22501070.45048 -17503636.94748  20529127.5834   20529133.4424   20529127.139
        53.0004         48.0004
  -3043450.20747  -2371945.41746  23557130.4594   23557142.1464   23557131.224
        44.0004         39.0004
 -12905133.76848 -10001653.17047  22664874.3744   22664885.4464   22664874.473
        49.0004         44.0004
  -1312140.32446   -997353.45946  24083158.6054   24083172.5054   24083157.097
        41.0004         37.0004
  -1091805.72147   -834983.48546  23939160.6764   23939169.3924   23939160.892
        42.0004         38.0004
 -21891573.46748 -16996309.94547  21203260.9124   21203268.4684   21203260.437
        51.0004         47.0004
  -4451932.17247  -3437931.54446  23971118.3714   23971133.6754   23971118.412
        44.0004         39.0004
  -1730960.87046  -1293813.56545  24235326.8334   24235334.1044   24235327.944
        40.0004         35.0004
 14  5 14  0 12 30.0000000  0 12G09G08G20G10G07G28G17G26G02G04G01G13
 -14277225.38249 -11118146.05548  20018864.4364   20018871.8594   20018864.443
        54.0004         49.0004
 -20137453.70549 -15686144.00548  19916992.8324   19917000.1684   19916993.189
        54.0004         49.0004
  -4760715.64846  -3658550.61546  23669071.1184   23669082.2034   23669071.530
        41.0004         36.0004
  -9420175.43847  -7329519.57146  23954183.6694   23954193.8044   23954184.515
        43.0004         38.0004
 -22450930.06748 -17464566.47748  20538669.2364   20538675.2424   20538668.421
        53.0004         48.0004
  -3093691.74647  -2411094.50546  23547569.6514   23547580.7814   23547570.196
        44.0004         39.0004
 -12862881.09948  -9968729.03947  22672915.0424   22672925.2564   22672914.325
        49.0004         44.0004
  -1322868.29946  -1005712.66946  24081117.1994   24081131.2434   24081116.341
        41.0004         37.0004
  -1184262.59047   -907027.54046  23921567.2104   23921576.3274   23921567.723
        42.0004         38.0004
 -21960226.90548 -17049806.03447  21190196.1614   21190204.3134   21190195.921
        51.0004         47.0004
  -4350227.12747  -3358680.88946  23990472.3964   23990487.3854   23990472.008
        43.0004         39.0004
  -1659678.10646  -1238268.38545  24248891.3164   24248899.2954   24248892.016
        40.0004         35.0004
 14  5 14  0 13  0.0000000  0 12G09G08G20G10G07G28G17G26G02G04G01G13
 -14292819.84449 -11130297.50948  20015896.6164   20015904.0584   20015896.577
        54.0004         49.0004
 -20153597.74049 -15698723.70348  19913920.6134   19913927.9884   19913920.902
        54.0004         49.0004
  -4748141.21746  -3648752.36546  23671464.8054   23671475.0914   23671464.983
        41.0004         36.0004
  -9478327.34647  -7374832.53946  23943117.5574   23943127.7984   23943118.082
        43.0004         38.0004
 -22400247.84148 -17425073.79948  20548312.9934   20548319.6154   20548312.750
        53.0004         48.0004
  -3144119.90747  -2450389.03146  23537973.6294   23537985.4894   23537973.880
        44.0004         40.0004
 -12820592.07848  -9935776.58647  22680961.5624   22680973.1824   22680961.580
        49.0004         44.0004
  -1333270.37547  -1013817.91746  24079136.5244   24079151.4194   24079135.681
        42.0004         37.0004
  -1276542.59047   -978933.81046  23904007.7094   23904015.3304   23904006.438
        42.0004         38.0004
 -22028462.15948 -17102976.27047  21177211.6704   21177219.0114   21177211.146
        51.0004         47.0004
  -4248350.82447  -3279296.80346  24009859.1954   24009874.9534   24009858.684
        43.0004         39.0004
  -1588595.26146  -1182879.01446  24262419.1334   24262427.0154   24262418.472
        40.0004         36.0004
 14  5 14  0 13 30.0000000  0 12G09G08G20G10G07G28G17G26G02G04G01G13
 -14307806.44949 -11141975.30748  20013045.1104   20013052.1344   20013045.087
        54.0004         50.0004
 -20169093.26249 -15710798.06948  19910971.8924   19910979.3064   19910972.249
        54.0004         49.0004
  -4735308.25946  -3638752.66046  23673907.1444   23673916.5044   23673906.195
        41.0004         36.0004
  -9536685.03147  -7420305.86246  23932012.3904   23932023.2554   23932013.282
        43.0004         39.0004
 -22349026.26248 -17385160.83448  20558060.3074   20558066.5794   20558060.036
        53.0004         48.0004
  -3194733.37747  -2489827.94046  23528343.2904   23528353.0854   23528342.945
        44.0004         40.0004
 -12778269.66848  -9902798.11347  22689015.9594   22689026.9124   22689015.558
        49.0004         44.0004
  -1343348.81246  -1021670.98146  24077217.5264   24077232.4604   24077217.319
        41.0004         37.0004
  -1368643.67547  -1050700.65346  23886480.7674   23886488.1924   23886479.422
        43.0004         38.0004
 -22096277.87448 -17155819.59047  21164306.3684   21164314.0144   21164306.026
        51.0004         47.0004
  -4146306.66647  -3199781.92746  24029277.7584   24029292.4694   24029277.192
        43.0004         39.0004
  -1517714.30946  -1127646.93246  24275909.0764   24275913.8364   24275907.359
        40.0004         36.0004
 14  5 14  0 14  0.0000000  0 12G09G08G20G10G07G28G17G26G02G04G01G13
 -14322184.98549 -11153179.28648  20010308.7554   20010316.0094   20010308.657
        54.0004         50.0004
 -20183939.74749 -15722366.68748  19908146.7764   19908154.1324   19908146.964
        54.0004         49.0004
  -4722215.95746  -3628550.86846  23676397.1634   23676407.6414   23676397.619
        41.0004         36.0004
  -9595247.91547  -7465939.07146  23920867.8624   23920879.0104   23920868.807
        43.0004         39.0004
 -22297267.26348 -17344829.11048  20567909.5834   20567916.2224   20567909.089
        53.0004         48.0004
  -3245531.12947  -2529410.44946  23518676.3344   23518686.7904   23518676.258
        44.0004         40.0004
 -12735916.32048  -9869795.52347  22697075.4294   22697086.7114   22697075.036
        49.0004         44.0004
  -1353105.39846  -1029273.30446  24075361.7654   24075376.3584   24075361.434
        41.0004         37.0004
  -1460564.15647  -1122326.75946  23868987.4654   23868997.3304   23868988.195
        43.0004         38.0004
 -22163671.94148 -17208334.35547  21151481.5164   21151489.1014   21151481.574
        51.0004         47.0004
  -4044097.70447  -3120138.64446  24048727.8334   24048742.0564   24048727.016
        43.0004         39.0004
  -1447037.52246  -1072573.96646  24289358.9474   24289363.2384   24289356.209
        40.0004         36.0004
 14  5 14  0 14 30.0000000  0 12G09G08G20G10G07G28G17G26G02G04G01G13
 -14335952.86849 -11163907.43248  20007688.7164   20007696.0704   20007688.697
        54.0004         50.0004
 -20198133.87349 -15733426.97648  19905445.4834   19905452.8764   19905445.717
        54.0004         49.0004
  -4708860.86446  -3618144.31346  23678940.1534   23678947.8984   23678938.383
        41.0004         36.0004
  -9654012.61547  -7511729.54646  23909685.2774   23909695.7884   23909685.787
        43.0004         39.0004
 -22244971.10548 -17304078.81548  20577861.4644   20577867.4244   20577860.965
        53.0004         48.0004
  -3296509.38747  -2569133.62146  23508974.9534   23508985.6324   23508974.982
        45.0004         40.0004
 -12693532.98948  -9836769.58747  22705140.6324   22705152.3024   22705140.583
        49.0004         44.0004
  -1362539.52546  -1036624.31146  24073566.6624   24073580.5794   24073565.515
        41.0004         37.0004
  -1552299.72247  -1193808.77546  23851531.5724   23851538.7684   23851531.696
        43.0004         38.0004
 -22230640.08748 -17260517.23847  21138738.2184   21138745.4424   21138737.662
        51.0004         47.0004
  -3941724.37547  -3040367.26246  24068207.6334   24068224.2454   24068208.166
        44.0004         39.0004
  -1376563.64946  -1017659.09346  24302766.7824   24302772.3314   24302766.585
        40.0004         36.0004
 14  5 14  0 15  0.0000000  0 12G09G08G20G10G07G28G17G26G02G04G01G13
 -14349112.79849 -11174161.84648  20005184.1564   20005191.5404   20005184.216
        54.0004         49.0004
 -20211677.83149 -15743980.64248  19902868.3084   19902875.4254   19902868.639
        54.0004         49.0004
  -4695243.98746  -3607533.77846  23681530.2894   23681540.0654   23681531.098
        41.0004         37.0004
  -9712981.29547  -7557678.96646  23898464.9224   23898474.9234   23898464.704
        43.0004         39.0004
 -22192142.62748 -17262913.72448  20587914.2474   20587920.8194   20587913.764
        53.0004         48.0004
  -3347669.88547  -2608998.80446  23499239.8504   23499249.3854   23499239.727
        45.0004         40.0004
 -12651124.85348  -9803724.30947  22713211.1304   22713221.1344   22713210.993
        49.0004         44.0004
  -1371655.87946  -1043727.71246  24071829.7674   24071845.8564   24071830.540
        41.0004         36.0004
  -1643851.24247  -1265147.39846  23834109.3094   23834117.1004   23834109.917
        43.0004         38.0004
 -22297183.36948 -17312369.05547  21126075.5924   21126082.7754   21126075.033
        52.0004         47.0004
  -3839192.53847  -2960472.36146  24087720.1874   24087735.0954   24087719.233
        44.0004         39.0004
  -1306297.21946   -962905.91346  24316137.2754   24316145.2184   24316137.855
        40.0004         36.0004
 14  5 14  0 15 30.0000000  0 12G09G08G20G10G07G28G17G26G02G04G01G13
 -14361662.51549 -11183940.77348  20002796.0854   20002803.1594   20002796.061
        54.0004         49.0004
 -20224568.88149 -15754025.54948  19900414.8694   19900422.4194   19900415.250
        54.0004         49.0004
  -4681362.52046  -3596717.05046  23684171.1034   23684182.0464   23684171.230
        41.0004         37.0004
  -9772151.11247  -7603785.11946  23887204.0274   23887213.8434   23887204.933
        43.0004         39.0004
 -22138782.04248 -17221334.00848  20598068.2824   20598074.6964   20598068.409
        53.0004         48.0004
  -3399009.21847  -2649003.34446  23489469.7534   23489479.5354   23489469.978
        45.0004         40.0004
 -12608692.49848  -9770660.15547  22721285.5304   22721296.1334   22721285.359
        49.0004         44.0004
  -1380454.22746  -1050583.32346  24070155.9824   24070172.1654   24070155.978
        41.0004         37.0004
  -1735214.70147  -1336339.47246  23816723.3254   23816730.2614   23816724.184
        43.0004         38.0004
 -22363297.44448 -17363886.41447  21113494.0364   21113501.4664   21113493.839
        52.0004         47.0004
  -3736503.06347  -2880454.63946  24107261.2584   24107276.2434   24107260.679
        44.0004         39.0004
  -1236237.55446   -908313.78945  24329469.4554   24329476.9744   24329469.275
        40.0004         35.0004
 14  5 14  0 16  0.0000000  0 12G09G08G20G10G07G28G17G26G02G04G01G13
 -14373601.16749 -11193243.54048  20000524.1454   20000531.4974   20000524.138
        54.0004         49.0004
 -20236805.57249 -15763560.56848  19898086.3894   19898094.0404   19898087.113
        54.0004         49.0004
  -4667214.63646  -3585692.74746  23686861.7314   23686873.2484   23686864.743
        41.0004         37.0004
  -9831520.66847  -7650046.92046  23875906.5404   23875915.8384   23875906.700
        43.0004         39.0004
 -22084890.74148 -17179340.74648  20608323.5954   20608329.9464   20608322.985
        53.0004         48.0004
  -3450525.15247  -2689145.48546  23479666.7084   23479677.4134   23479666.366
        45.0004         40.0004
 -12566237.80448  -9737578.60447  22729364.5334   22729376.3014   22729364.190
        49.0004         44.0004
  -1388935.64147  -1057191.99046  24068541.8114   24068556.6334   24068542.289
        42.0004         37.0004
  -1826386.71647  -1407382.36946  23799373.2734   23799381.6654   23799373.881
        43.0004         38.0004
 -22428979.88848 -17415067.44747  21100995.0914   21101002.5524   21100994.463
        52.0004         47.0004
  -3633658.15847  -2800315.81046  24126831.9094   24126847.0454   24126831.083
        44.0004         39.0004
  -1166385.96246   -853883.79545  24342762.3114   24342768.1044   24342761.855
        40.0004         35.0004
 14  5 14  0 16 30.0000000  0 12G09G08G20G10G07G28G17G26G02G04G01G13
 -14384928.46149 -11202069.92648  19998368.7274   19998375.6234   19998368.508
        54.0004         50.0004
 -20248386.99449 -15772584.98548  19895882.3974   19895890.1814   19895882.872
        54.0004         49.0004
  -4652799.03146  -3574459.81946  23689606.2794   23689616.1164   23689607.736
        41.0004         36.0004
  -9891088.64847  -7696463.31946  23864570.7524   23864581.2414   23864571.988
        44.0004         39.0004
 -22030470.25748 -17136935.13848  20618679.5394   20618685.6784   20618679.016
        53.0004         48.0004
  -3502215.64147  -2729423.65046  23469830.7994   23469841.1344   23469830.246
        45.0004         40.0004
 -12523763.04948  -9704481.41247  22737447.4404   22737457.7454   22737446.914
        49.0004         44.0004
  -1397101.62347  -1063554.83346  24066988.1414   24067001.8384   24066988.566
        42.0004         37.0004
  -1917365.26947  -1478274.49446  23782060.1694   23782068.2634   23782060.612
        43.0004         38.0004
 -22494228.26048 -17465910.23947  21088578.6654   21088585.8164   21088578.207
        52.0004         47.0004
  -3530660.42547  -2720057.88346  24146431.1284   24146446.6384   24146430.908
        44.0004         39.0004
  -1096743.31646   -799616.63746  24356017.0164   24356019.7274   24356014.867
        40.0004         36.0004
 14  5 14  0 17  0.0000000  0 12G09G08G20G10G07G28G17G26G02G04G01G13
 -14395645.48649 -11210420.77948  19996329.0114   19996336.6044   19996329.219
        54.0004         50.0004
 -20259314.13349 -15781099.57348  19893803.4054   19893810.5834   19893803.295
        54.0004         49.0004
  -4638115.54246  -3563018.15846  23692400.9594   23692409.5144   23692402.651
        41.0004         36.0004
  -9950855.50747  -7743034.68946  23853198.7924   23853206.8964   23853198.765
        44.0004         39.0004
 -21975524.44348 -17094120.17748  20629135.1814   20629141.3714   20629134.667
        53.0004         48.0004
  -3554080.82447  -2769837.94046  23459959.6814   23459970.2764   23459960.511
        45.0004         40.0004
 -12481272.23848  -9671371.70647  22745533.2394   22745543.3834   22745532.352
        49.0004         44.0004
  -1404955.42747  -1069674.43746  24065493.3534   24065507.0384   24065493.073
        42.0004         37.0004
  -2008149.57247  -1549015.27246  23764784.3114   23764793.0244   23764785.182
        43.0004         38.0004
 -22559041.95148 -17516414.32847  21076245.2564   21076252.1394   21076244.461
        52.0004         47.0004
  -3427514.04847  -2639684.13446  24166059.0624   24166074.4594   24166058.908
        44.0004         39.0004
  -1027312.18746   -745514.28945  24369228.4404   24369233.9404   24369227.163
        40.0004         35.0004
 14  5 14  0 17 30.0000000  0 12G09G08G20G10G07G28G17G26G02G04G01G13
 -14405750.73449 -11218294.92548  19994406.3034   19994413.1074   19994405.993
        54.0004         50.0004
 -20269584.64249 -15789102.50548  19891848.6584   19891856.2324   19891849.077
        54.0004         49.0004
  -4623161.61546  -3551365.76746  23695247.4644   23695257.0134   23695247.494
        41.0004         36.0004
 -10010818.83947  -7789759.15646  23841787.1674   23841797.1464   23841788.041
        44.0004         39.0004
 -21920054.53348 -17050896.84048  20639690.8024   20639696.5604   20639690.421
        53.0004         48.0004
  -3606117.71947  -2810386.03346  23450058.4844   23450069.0994   23450058.474
        45.0004         40.0004
 -12438766.39848  -9638250.29647  22753621.5084   22753631.7624   22753621.422
        49.0004         44.0004
  -1412497.20647  -1075550.90446  24064057.5584   24064072.1884   24064057.619
        42.0004         37.0004
  -2098735.94447  -1619601.81846  23747547.0014   23747555.6874   23747547.158
        43.0004         38.0004
 -22623417.58748 -17566577.07147  21063994.3344   21064001.7914   21063993.987
        52.0004         47.0004
  -3324220.39447  -2559195.61046  24185715.6364   24185730.8944   24185714.868
        43.0004         38.0004
   -958092.93246   -691577.01845  24382397.0594   24382404.2614   24382398.288
        40.0004         35.0004
 14  5 14  0 18  0.0000000  0 12G09G08G20G10G07G28G17G26G02G04G01G13
 -14415243.67049 -11225691.94448  19992599.7594   19992607.1294   19992599.838
        54.0004         50.0004
 -20279197.41349 -15796592.90848  19890019.5564   19890026.5194   19890019.732
        54.0004         49.0004
  -4607935.58446  -3539501.34846  23698143.7724   23698155.0014   23698144.398
        41.0004         36.0004
 -10070977.50547  -7836635.84946  23830338.9584   23830348.8634   23830340.302
        44.0004         39.0004
 -21864061.90748 -17007266.18348  20650346.4414   20650351.7804   20650345.447
        52.0004         48.0004
  -3658324.38147  -2851066.41546  23440123.7054   23440133.8064   23440123.447
        45.0004         41.0004
 -12396247.62548  -9605118.80647  22761712.7994   22761723.5954   22761712.238
        49.0004         44.0004
  -1419728.41847  -1081185.36246  24062681.2794   24062696.8324   24062681.478
        42.0004         37.0004
  -2189122.08447  -1690032.32946  23730346.5024   23730353.4074   23730346.425
        43.0004         38.0004
 -22687352.67148 -17616396.53247  21051827.5324   21051835.4294   21051827.485
        52.0004         47.0004
  -3220781.86347  -2478594.20046  24205399.0894   24205415.8344   24205398.588
        43.0004         38.0004
   -889086.29446   -637805.41845  24395529.6384   24395537.5844   24395530.161
        40.0004         35.0004
 14  5 14  0 18 30.0000000  0 12G09G08G20G10G07G28G17G26G02G04G01G13
 -14424125.24849 -11232612.57648  19990909.5854   19990916.5794   19990909.301
        54.0004         49.0004
 -20288153.34949 -15803571.49648  19888315.1294   19888322.5984   19888315.414
        54.0004         49.0004
  -4592437.43946  -3527424.86546  23701093.8584   23701102.4864   23701093.998
        41.0004         36.0004
 -10131331.62547  -7883664.84846  23818854.8244   23818862.9684   23818854.606
        44.0004         39.0004
 -21807549.96948 -16963230.86948  20661099.9744   20661105.5304   20661098.921
        53.0004         48.0004
  -3710700.48847  -2891878.83946  23430156.7044   23430166.9844   23430156.586
        45.0004         41.0004
 -12353719.57048  -9571980.07447  22769805.7554   22769817.3344   22769805.133
        49.0004         44.0004
  -1426651.99747  -1086580.12346  24061363.5594   24061379.4524   24061363.934
        42.0004         38.0004
  -2279307.05047  -1760306.08746  23713185.0004   23713192.6764   23713184.293
        43.0004         38.0004
 -22750846.37448 -17665872.05247  21039745.3164   21039752.9514   21039745.642
        52.0004         47.0004
  -3117202.52747  -2397883.06446  24225111.3474   24225125.1824   24225109.267
        43.0004         38.0004
   -820294.94446   -584201.57545  24408619.7864   24408626.6054   24408620.061
        40.0004         35.0004
 14  5 14  0 19  0.0000000  0 12G09G08G20G10G07G28G17G26G02G04G01G13
 -14432394.00949 -11239055.68648  19989335.9174   19989343.4014   19989335.698
        54.0004         49.0004
 -20296450.16149 -15810036.49448  19886736.1074   19886743.3304   19886736.634
        54.0004         49.0004
  -4576664.55446  -3515134.33546  23704094.8954   23704104.1204   23704096.080
        40.0004         36.0004
 -10191878.38047  -7930843.94546  23807332.1134   23807341.1514   23807332.322
        43.0004         39.0004
 -21750519.36148 -16918791.39348  20671952.3164   20671958.0474   20671951.801
        53.0004         48.0004
  -3763242.77847  -2932820.77546  23420158.6524   23420167.6784   23420158.198
        45.0004         41.0004
 -12311183.35048  -9538834.98047  22777900.0074   22777910.7224   22777899.519
        49.0004         44.0004
  -1433268.15947  -1091735.34446  24060105.1154   24060119.7874   24060105.412
        42.0004         37.0004
  -2369287.30247  -1830420.32146  23696061.8924   23696070.1714   23696062.135
        43.0004         38.0004
 -22813895.41148 -17715001.09547  21027747.2744   21027755.0024   21027747.060
        52.0004         47.0004
  -3013483.61147  -2317063.15946  24244847.9214   24244863.2104   24244846.504
        42.0004         38.0004
   -751718.78046   -530765.44345  24421670.8354   24421678.6544   24421669.670
        40.0004         35.0004
 14  5 14  0 19 30.0000000  0 12G09G08G20G10G07G28G17G26G02G04G01G13
 -14440049.85249 -11245021.21448  19987878.9394   19987885.6964   19987879.062
        54.0004         49.0004
 -20304087.30749 -15815987.45348  19885282.8454   19885290.3594   19885283.089
        54.0004         49.0004
  -4560615.69346  -3502628.71846  23707150.1804   23707158.2294   23707149.474
        40.0004         36.0004
 -10252616.54347  -7978172.19246  23795773.4404   23795783.7554   23795774.724
        43.0004         39.0004
 -21692972.22248 -16873949.42848  20682902.9784   20682908.8334   20682902.292
        53.0004         48.0004
  -3815949.61447  -2973890.92946  23410127.5244   23410138.1124   23410128.094
        45.0004         41.0004
 -12268641.16448  -9505685.24547  22785995.1044   22786006.1924   22785995.223
        49.0004         44.0004
  -1439578.65447  -1096652.37746  24058903.7594   24058918.8874   24058903.646
        42.0004         38.0004
  -2459060.11447  -1900372.93146  23678979.0074   23678985.5344   23678978.715
        43.0004         38.0004
 -22876497.39448 -17763781.78047  21015834.3464   21015842.1814   21015834.485
        52.0004         47.0004
  -2909627.81047  -2236136.58146  24264609.2494   24264626.0614   24264609.372
        42.0004         38.0004
   -683358.91946   -477497.83745  24434679.7804   24434684.3664   24434678.108
        40.0004         35.0004
 14  5 14  0 20  0.0000000  0 12G09G08G20G10G07G28G17G26G02G04G01G13
 -14447092.47149 -11250508.89948  19986538.6884   19986546.1074   19986538.697
        54.0004         49.0004
 -20311063.88949 -15821423.69148  19883955.2674   19883962.2024   19883955.603
        54.0004         49.0004
  -4544289.16246  -3489906.74646  23710256.4614   23710266.7444   23710257.179
        40.0004         36.0004
 -10313545.06147  -8025648.76446  23784179.2674   23784188.0454   23784180.100
        43.0004         39.0004
 -21634910.56148 -16828706.54348  20693951.7124   20693957.5934   20693951.622
        53.0004         48.0004
  -3868819.09947  -3015087.82846  23400067.8354   23400079.0094   23400067.576
        45.0004         40.0004
 -12226095.21348  -9472532.57547  22794091.7154   22794102.8884   22794091.108
        49.0004         44.0004
  -1445584.96147  -1101332.38746  24057761.8904   24057775.9894   24057761.330
        42.0004         38.0004
  -2548623.36747  -1970162.24246  23661935.2494   23661942.8624   23661935.677
        43.0004         38.0004
 -22938650.19248 -17812212.46047  21004007.1914   21004015.1984   21004006.925
        52.0004         47.0004
  -2805637.64347  -2155105.32546  24284399.2304   24284414.5234   24284398.352
        42.0004         37.0004
   -615216.44546   -424399.66545  24447646.0164   24447649.5154   24447644.146
        40.0004         35.0004
 14  5 14  0 20 30.0000000  0 12G09G08G20G10G07G28G17G26G02G04G01G13
 -14453524.00549 -11255520.41748  19985314.8894   19985321.7944   19985314.839
        54.0004         49.0004
 -20317381.74749 -15826346.63948  19882752.9984   19882760.5414   19882753.341
        54.0004         49.0004
  -4527685.99946  -3476969.25046  23713415.8264   23713424.6824   23713416.091
        40.0004         36.0004
 -10374664.95847  -8073274.46446  23772547.7824   23772557.5354   23772549.162
        43.0004         39.0004
 -21576338.98748 -16783066.31248  20705097.5034   20705103.5324   20705096.876
        53.0004         48.0004
  -3921851.42847  -3056411.61846  23389975.5944   23389986.0964   23389975.726
        45.0004         40.0004
 -12183550.03048  -9439380.49147  22802188.0594   22802199.2434   22802187.650
        49.0004         44.0004
  -1451291.01647  -1105778.42146  24056675.5054   24056688.9454   24056674.894
        43.0004         38.0004
  -2637976.78247  -2039788.02246  23644931.8574   23644938.7424   23644931.967
        43.0004         39.0004
 -23000354.11348 -17860293.36347  20992265.6714   20992273.0504   20992265.090
        52.0004         47.0004
  -2701517.98547  -2073973.14746  24304212.0954   24304227.3084   24304211.231
        42.0004         37.0004
   -547294.66646   -371473.46645  24460569.3834   24460578.7614   24460569.494
        40.0004         35.0004
 14  5 14  0 21  0.0000000  0 12G09G08G20G10G07G28G17G26G02G04G01G13
 -14459341.26749 -11260053.28048  19984208.0854   19984215.2974   19984207.874
        54.0004         50.0004
 -20323036.97449 -15830753.25648  19881676.7434   19881683.7534   19881676.909
        54.0004         49.0004
  -4510802.15246  -3463813.02746  23716630.0434   23716639.7324   23716628.445
        40.0004         36.0004
 -10435971.95947  -8121045.96146  23760881.9264   23760891.5714   23760881.984
        43.0004         39.0004
 -21517256.11648 -16737027.67948  20716340.7504   20716347.0954   20716340.224
        53.0004         48.0004
  -3975042.26347  -3097858.90346  23379853.1134   23379865.1354   23379853.845
        45.0004         40.0004
 -12141004.68748  -9406228.27647  22810283.5904   22810294.2804   22810283.390
        49.0004         44.0004
  -1456695.54547  -1109989.51946  24055646.5554   24055661.0574   24055646.454
        43.0004         38.0004
  -2727115.06647  -2109246.18646  23627969.1984   23627975.4764   23627969.306
        43.0004         39.0004
 -23061603.86048 -17908020.37547  20980610.3464   20980617.1054   20980609.383
        52.0004         47.0004
  -2597268.57246  -1992739.85846  24324050.0914   24324065.0734   24324049.918
        41.0004         37.0004
   -479591.85746   -318717.92645  24473454.5154   24473462.7734   24473453.230
        40.0004         35.0004
 14  5 14  0 21 30.0000000  0 12G09G08G20G10G07G28G17G26G02G04G01G13
 -14464545.30449 -11264108.30848  19983217.7824   19983224.4614   19983217.333
        54.0004         49.0004
 -20328030.35049 -15834644.14648  19880726.0814   19880733.7684   19880726.505
        54.0004         49.0004
  -4493637.03846  -3450437.66446  23719894.5944   23719903.2994   23719895.282
        40.0004         36.0004
 -10497465.87847  -8168963.09846  23749180.7564   23749189.2854   23749180.373
        44.0004         39.0004
 -21457665.68448 -16690593.53848  20727680.0804   20727686.2474   20727679.568
        52.0004         48.0004
  -4028390.73447  -3139429.02346  23369701.5064   23369712.2584   23369701.593
        45.0004         40.0004
 -12098462.70448  -9373078.69947  22818378.5194   22818390.5414   22818378.628
        49.0004         44.0004
  -1461801.31247  -1113967.82146  24054673.9484   24054689.6534   24054674.919
        43.0004         38.0004
  -2816037.46647  -2178536.13046  23611047.6174   23611054.6994   23611047.117
        43.0004         39.0004
 -23122398.73648 -17955392.93247  20969041.2704   20969048.1314   20969040.847
        52.0004         47.0004
  -2492893.08446  -1911408.32746  24343913.2554   24343927.1634   24343912.214
        41.0004         37.0004
   -412110.10146   -266134.65145  24486295.6754   24486302.0634   24486294.500
        40.0004         35.0004
 14  5 14  0 22  0.0000000  0 12G09G08G20G10G07G28G17G26G02G04G01G13
 -14469136.57049 -11267685.85448  19982343.7664   19982351.0464   19982343.733
        54.0004         49.0004
 -20332361.99349 -15838019.39548  19879902.1074   19879909.1914   19879902.197
        54.0004         49.0004
  -4476190.05546  -3436842.60946  23723214.2334   23723225.2964   23723216.009
        40.0004         36.0004
 -10559146.07347  -8217025.38446  23737442.1554   23737451.6074   23737442.810
        44.0004         39.0004
 -21397570.05148 -16643765.73948  20739116.2384   20739122.1144   20739116.009
        52.0004         48.0004
  -4081895.56647  -3181120.97846  23359519.4604   23359530.5164   23359520.007
        45.0004         40.0004
 -12055927.02248  -9339934.01947  22826474.1534   22826483.5504   22826473.003
        49.0004         44.0004
  -1466610.50147  -1117714.98346  24053759.0064   24053773.7294   24053759.921
        43.0004         38.0004
  -2904741.92047  -2247656.25446  23594167.3074   23594174.6524   23594166.750
        44.0004         39.0004
 -23182736.98148 -18002409.68347  20957559.2254   20957566.2494   20957558.712
        52.0004         47.0004
  -2388394.62946  -1829980.99046  24363799.1854   24363814.5434   24363797.613
        41.0004         36.0004
   -344850.98846   -213724.83445  24499091.4424   24499101.3954   24499093.284
        40.0004         35.0004
 14  5 14  0 22 30.0000000  0 12G09G08G20G10G07G28G17G26G02G04G01G13
 -14473114.69649 -11270785.62448  19981586.6424   19981593.6484   19981586.896
        54.0004         49.0004
 -20336030.66649 -15840878.04848  19879203.7864   19879211.1014   19879204.096
        54.0004         49.0004
  -4458459.62546  -3423026.73146  23726589.4594   23726599.4054   23726590.123
        40.0004         36.0004
 -10621010.78647  -8265231.46246  23725670.1304   23725679.2124   23725669.930
        44.0004         39.0004
 -21336971.27848 -16596545.87248  20750647.9924   20750653.5384   20750646.944
        52.0004         48.0004
  -4135554.37747  -3222932.91546  23349309.2714   23349319.8224   23349308.673
        45.0004         40.0004
 -12013399.50748  -9306795.69547  22834566.5934   22834577.4584   22834565.925
        49.0004         44.0004
  -1471124.41947  -1121232.09546  24052899.2294   24052914.9154   24052899.776
        43.0004         38.0004
  -2993225.76147  -2316604.46546  23577329.5734   23577336.7334   23577329.364
        44.0004         39.0004
 -23242616.10348 -18049068.67147  20946164.0454   20946171.9134   20946164.234
        52.0004         47.0004
  -2283775.40046  -1748459.54946  24383704.7914   24383719.7904   24383705.712
        41.0004         36.0004
   -277815.62446   -161489.38645  24511849.4094   24511857.5294   24511849.823
        40.0004         35.0004
 14  5 14  0 23  0.0000000  0 12G09G08G20G10G07G28G17G26G02G04G01G13
 -14476479.18349 -11273407.23748  19980946.3344   19980953.3484   19980946.208
        54.0004         49.0004
 -20339035.70949 -15843219.58948  19878631.8064   19878639.1194   19878632.395
        54.0004         49.0004
  -4440443.49546  -3408988.20646  23730017.4464   23730027.7374   23730017.838
        40.0004         36.0004
 -10683058.15147  -8313579.86546  23713862.2294   23713871.8804   23713862.823
        44.0004         39.0004
 -21275871.04848 -16548935.26148  20762274.4984   20762280.8484   20762274.333
        52.0004         48.0004
  -4189364.94647  -3264863.11546  23339067.4064   23339078.2864   23339068.735
        44.0004         40.0004
 -11970881.95248  -9273665.14147  22842657.5974   22842668.8894   22842656.785
        49.0004         44.0004
  -1475344.31047  -1124520.08046  24052097.7954   24052110.5374   24052097.384
        42.0004         38.0004
  -3081486.18347  -2385378.57846  23560533.7484   23560540.4754   23560533.849
        44.0004         39.0004
 -23302033.54648 -18095367.91147  20934857.7084   20934865.1524   20934857.042
        52.0004         47.0004
  -2179037.60246  -1666845.71346  24403636.1964   24403651.7734   24403636.584
        41.0004         36.0004
   -211004.17946   -109428.42946  24524562.6684   24524569.7254   24524564.419
        40.0004         36.0004
 14  5 14  0 23 30.0000000  0 12G09G08G20G10G07G28G17G26G02G04G01G13
 -14479231.02249 -11275551.46548  19980422.5834   19980429.3444   19980422.582
        54.0004         49.0004
 -20341377.27449 -15845044.13348  19878186.7344   19878193.4604   19878186.781
        54.0004         49.0004
  -4422141.50746  -3394726.97346  23733501.6014   23733509.1764   23733500.617
        40.0004         36.0004
 -10745287.86147  -8362070.36346  23702019.5294   23702029.5874   23702021.076
        44.0004         39.0004
 -21214272.49948 -16500936.34948  20773996.0004   20774002.1534   20773995.785
        52.0004         48.0004
  -4243326.18247  -3306910.70346  23328799.5504   23328810.7374   23328800.093
        44.0004         40.0004
 -11928376.80048  -9240544.25747  22850746.6084   22850757.0534   22850745.686
        49.0004         44.0004
  -1479272.76347  -1127581.00646  24051349.8374   24051363.0374   24051349.141
        42.0004         38.0004
  -3169521.78447  -2453977.50446  23543780.7804   23543787.8964   23543780.423
        44.0004         39.0004
 -23360988.23948 -18141306.56548  20923639.2414   20923645.9544   20923638.614
        52.0004         48.0004
  -2074184.67346  -1585142.16546  24423590.0474   24423605.1484   24423589.167
        41.0004         36.0004
   -144418.53646    -57543.43945  24537235.1964   24537242.7194   24537233.701
        40.0004         35.0004
 14  5 14  0 24  0.0000000  0 12G09G08G20G10G07G28G17G26G02G04G01G13
 -14481369.93149 -11277218.08748  19980015.5624   19980022.7254   19980015.602
        54.0004         50.0004
 -20343054.83949 -15846351.27648  19877867.0354   19877874.6584   19877867.368
        54.0004         49.0004
  -4403552.26746  -3380241.84445  23737039.4104   23737048.6974   23737038.354
        40.0004         35.0004
 -10807698.28547  -8410701.67546  23690143.4664   23690153.7324   23690144.263
        44.0004         39.0004
 -21152177.45048 -16452550.56248  20785812.7634   20785818.2444   20785812.210
        52.0004         48.0004
  -4297435.75547  -3349073.88346  23318503.3964   23318513.1624   23318503.428
        44.0004         40.0004
 -11885886.77948  -9207435.15547  22858831.5904   22858842.2024   22858830.866
        49.0004         44.0004
  -1482911.22547  -1130415.94146  24050656.4254   24050671.3624   24050656.703
        42.0004         38.0004
  -3257329.91047  -2522399.19746  23527070.9594   23527077.8244   23527071.081
        44.0004         39.0004
 -23419478.06248 -18186882.98347  20912508.8854   20912515.7964   20912507.883
        52.0004         47.0004
  -1969218.92546  -1503350.70746  24443565.9974   24443579.5274   24443563.342
        41.0004         36.0004
    -78059.70046     -5835.18645  24549862.5724   24549870.6614   24549862.051
        40.0004         35.0004
 14  5 14  0 24 30.0000000  0 12G09G08G20G10G07G28G17G26G02G04G01G13
 -14482895.41149 -11278406.70748  19979725.4904   19979731.9344   19979725.318
        54.0004         49.0004
 -20344067.37349 -15847140.21448  19877674.5174   19877681.5534   19877674.687
        54.0004         49.0004
  -4384673.69446  -3365531.31045  23740631.0094   23740638.8594   23740630.005
        40.0004         35.0004
 -10870287.24547  -8459472.10546  23678233.2984   23678242.0794   23678234.042
        44.0004         39.0004
 -21089587.52448 -16403779.14948  20797722.5954   20797728.5804   20797722.777
        52.0004         48.0004
  -4351691.45447  -3391350.92446  23308178.3164   23308189.1804   23308178.845
        44.0004         40.0004
 -11843413.34648  -9174338.97847  22866913.1744   22866924.5334   22866913.257
        48.0004         44.0004
  -1486260.68947  -1133025.70446  24050018.6854   24050032.4494   24050019.101
        42.0004         38.0004
  -3344907.85447  -2590641.50246  23510404.6904   23510412.4704   23510406.127
        44.0004         39.0004
 -23477500.17148 -18232094.94347  20901466.7724   20901474.1164   20901466.700
        52.0004         47.0004
  -1864142.42546  -1421472.94646  24463559.7044   24463574.4294   24463559.138
        41.0004         37.0004
    -11927.98346     45696.10045  24562445.6084   24562450.2904   24562446.370
        40.0004         35.0004
 14  5 14  0 25  0.0000000  0 12G09G08G20G10G07G28G17G26G02G04G01G13
 -14483807.97349 -11279117.73348  19979551.6714   19979559.0664   19979551.625
        54.0004         50.0004
 -20344414.92349 -15847410.98148  19877608.1344   19877615.4594   19877608.454
        54.0004         49.0004
  -4365505.20946  -3350594.86245  23744277.5754   23744286.2584   23744278.249
        40.0004         35.0004
 -10933053.93747  -8508381.02246  23666288.8504   23666298.6974   23666289.547
        44.0004         39.0004
 -21026505.57148 -16354624.34048  20809726.9734   20809732.6654   20809726.569
        52.0004         48.0004
  -4406091.63047  -3433740.54746  23297826.0234   23297836.5794   23297826.999
        45.0004         40.0004
 -11800959.04848  -9141257.73147  22874992.3854   22875002.0314   22874992.320
        48.0004         44.0004
  -1489323.44047  -1135412.04046  24049435.8574   24049450.1814   24049435.880
        42.0004         38.0004
  -3432253.38147  -2658702.71246  23493783.8544   23493791.4404   23493784.961
        44.0004         39.0004
 -23535053.05448 -18276941.27347  20890515.1204   20890521.9544   20890514.763
        52.0004         47.0004
  -1758958.06246  -1339511.13746  24483574.6774   24483590.8754   24483575.164
        41.0004         36.0004
     53975.63546     97049.66445  24574986.2304   24574994.8454   24574987.746
        40.0004         35.0004
 14  5 14  0 25 30.0000000  0 12G09G08G20G10G07G28G17G26G02G04G01G13
 -14484108.58249 -11279351.91048  19979494.2764   19979501.3044   19979494.352
        54.0004         50.0004
 -20344098.14249 -15847164.08748  19877668.6364   19877675.8584   19877668.871
        54.0004         49.0004
  -4346046.16646  -3335431.99045  23747978.3114   23747991.0194   23747980.869
        40.0004         35.0004
 -10995998.19547  -8557428.31246  23654310.1474   23654320.1904   23654311.890
        44.0004         39.0004
 -20962934.80648 -16305088.63948  20821824.3364   20821830.3504   20821823.655
        52.0004         48.0004
  -4460635.27047  -3476241.93946  23287446.0594   23287458.1254   23287447.268
        45.0004         40.0004
 -11758527.00248  -9108193.82247  22883066.0214   22883077.9034   22883066.386
        48.0004         44.0004
  -1492102.04647  -1137576.98546  24048906.7074   24048922.2054   24048907.044
        43.0004         38.0004
  -3519365.59047  -2726582.13046  23477207.2594   23477213.2484   23477207.069
        44.0004         40.0004
 -23592135.66948 -18321421.16747  20879652.2634   20879659.8904   20879652.051
        52.0004         47.0004
  -1653669.28346  -1257467.94846  24503612.5364   24503626.5514   24503611.072
        41.0004         37.0004
    119648.89846    148223.69545  24587484.1214   24587490.4514   24587484.546
        40.0004         35.0004
 14  5 14  0 26  0.0000000  0 12G09G08G20G10G07G28G17G26G02G04G01G13
 -14483796.60549 -11279108.75248  19979553.5084   19979560.6324   19979553.739
        54.0004         50.0004
 -20343116.01249 -15846398.74148  19877855.2254   19877862.6824   19877855.473
        54.0004         49.0004
  -4326294.82646  -3320041.37046  23751739.1464   23751751.2714   23751740.029
        40.0004         36.0004
 -11059117.68347  -8606612.15746  23642299.7994   23642308.3854   23642299.936
        44.0004         39.0004
 -20898876.28848 -16255172.87348  20834014.0764   20834019.9724   20834013.580
        52.0004         48.0004
  -4515319.49147  -3518852.88246  23277041.5404   23277051.5744   23277040.986
        45.0004         40.0004
 -11716117.93248  -9075147.82147  22891136.1204   22891146.5214   22891136.833
        48.0004         44.0004
  -1494597.67147  -1139521.40746  24048432.5424   24048445.4724   24048432.290
        43.0004         38.0004
  -3606241.08647  -2794277.09046  23460674.3294   23460681.5444   23460675.651
        44.0004         40.0004
 -23648745.51748 -18365532.65947  20868880.1504   20868887.4474   20868879.827
        52.0004         47.0004
  -1548278.15146  -1175345.01246  24523667.2504   24523682.7674   24523666.543
        41.0004         37.0004
    185091.38346    199217.91445  24599936.6104   24599944.2314   24599938.128
        39.0004         35.0004
 14  5 14  0 26 30.0000000  0 12G09G08G20G10G07G28G17G26G02G04G01G13
 -14482871.51949 -11278387.84448  19979729.8744   19979736.1034   19979729.891
        54.0004         50.0004
 -20341467.38749 -15845114.05048  19878169.0114   19878175.9714   19878169.221
        54.0004         49.0004
  -4306249.25246  -3304421.47745  23755554.9974   23755564.1984   23755554.439
        40.0004         35.0004
 -11122410.09747  -8655930.74546  23630255.7604   23630264.4324   23630255.661
        44.0004         39.0004
 -20834332.15848 -16204878.70648  20846296.8654   20846302.5464   20846296.106
        52.0004         48.0004
  -4570141.78847  -3561571.41646  23266608.9284   23266618.0724   23266608.517
        45.0004         40.0004
 -11673734.17548  -9042121.52847  22899202.0054   22899214.4824   22899202.201
        48.0004         44.0004
  -1496811.09947  -1141245.95146  24048010.3114   24048023.6974   24048011.115
        43.0004         38.0004
  -3692876.79947  -2861785.21346  23444189.3114   23444195.1584   23444189.873
        44.0004         40.0004
 -23704879.61448 -18409273.44148  20858197.9174   20858205.0544   20858197.744
        52.0004         48.0004
  -1442786.30646  -1093143.59646  24543741.3394   24543756.4954   24543740.529
        41.0004         37.0004
    250303.21546    250032.41245  24612346.4114   24612353.2774   24612346.448
        39.0004         35.0004
 14  5 14  0 27  0.0000000  0 12G09G08G20G10G07G28G17G26G02G04G01G13
 -14481334.87549 -11277190.39948  19980022.2264   19980028.9494   19980021.964
        54.0004         50.0004
 -20339153.81349 -15843311.21648  19878609.5174   19878616.6654   19878609.627
        54.0004         49.0004
  -4285909.41746  -3288572.29545  23759421.7734   23759435.0964   23759424.322
        40.0004         35.0004
 -11185875.26547  -8705383.95246  23618178.9864   23618187.7994   23618178.849
        44.0004         39.0004
 -20769306.16748 -16154209.05747  20858670.1994   20858676.1024   20858669.924
        52.0004         47.0004
  -4625101.37647  -3604396.92546  23256149.5574   23256160.4004   23256150.132
        45.0004         40.0004
 -11631378.93148  -9009117.47747  22907262.5184   22907274.1024   22907261.886
        48.0004         44.0004
  -1498745.73847  -1142753.25746  24047642.9654   24047656.9754   24047642.502
        43.0004         38.0004
  -3779271.89247  -2929105.83246  23427747.9354   23427755.3114   23427749.351
        44.0004         40.0004
 -23760537.57848 -18452643.20548  20847606.6604   20847614.2014   20847606.756
        52.0004         48.0004
  -1337197.78947  -1010866.85546  24563834.4204   24563849.0624   24563833.580
        42.0004         37.0004
    315281.86046    300665.19245  24624713.3214   24624718.3134   24624711.497
        40.0004         35.0004
 14  5 14  0 27 30.0000000  0 12G09G08G20G10G07G28G17G26G02G04G01G13
 -14479186.06349 -11275515.94148  19980430.8974   19980437.8344   19980430.941
        54.0004         50.0004
 -20336173.94949 -15840989.19448  19879176.2224   19879182.9834   19879176.662
        54.0004         49.0004
  -4265273.21646  -3272492.18145  23763350.8724   23763364.2024   23763351.943
        40.0004         35.0004
 -11249510.89247  -8754969.98746  23606068.8374   23606078.1864   23606069.434
        44.0004         39.0004
 -20703799.27448 -16103164.68147  20871135.9044   20871141.8114   20871135.586
        52.0004         47.0004
  -4680195.37147  -3647327.17046  23245665.9194   23245675.9444   23245665.721
        45.0004         40.0004
 -11589053.13048  -8976136.36347  22915316.7044   22915327.4884   22915316.579
        48.0004         44.0004
  -1500402.15847  -1144043.75946  24047327.4234   24047341.2654   24047327.065
        43.0004         38.0004
  -3865423.36347  -2996236.63046  23411352.9074   23411360.0954   23411353.348
        44.0004         40.0004
 -23815716.53548 -18495639.72648  20837106.1214   20837113.3664   20837105.645
        52.0004         48.0004
  -1231514.09447   -928515.91546  24583944.5544   24583960.1784   24583944.025
        42.0004         37.0004
    380027.42346    351116.36145  24637031.6944   24637038.2454   24637031.501
        39.0004         35.0004
 14  5 14  0 28  0.0000000  0 12G09G08G20G10G07G28G17G26G02G04G01G13
 -14476426.14749 -11273365.30148  19980956.0654   19980962.7284   19980956.075
        54.0004         50.0004
 -20332528.67449 -15838148.67148  19879869.6934   19879876.9854   19879870.008
        54.0004         49.0004
  -4244340.34746  -3256180.87045  23767333.2074   23767346.7994   23767333.791
        40.0004         35.0004
 -11313316.55347  -8804688.51946  23593926.3664   23593934.8534   23593927.560
        44.0004         39.0004
 -20637814.74048 -16051748.11447  20883692.2774   20883698.2224   20883691.745
        52.0004         47.0004
  -4735422.86247  -3690361.44246  23235155.8254   23235165.2064   23235156.482
        45.0004         40.0004
 -11546760.19648  -8943180.87247  22923364.0784   22923375.8514   22923364.578
        48.0004         44.0004
  -1501783.32747  -1145119.79046  24047064.7444   24047078.0244   24047063.396
        43.0004         38.0004
  -3951329.79247  -3063176.49346  23395006.4654   23395013.4594   23395006.903
        44.0004         40.0004
 -23870415.47148 -18538262.19247  20826697.3024   20826704.3064   20826696.848
        52.0004         47.0004
  -1125738.90246   -846093.70846  24604071.7994   24604086.8584   24604072.503
        41.0004         37.0004
    444537.95246    401384.38345  24649309.2224   24649314.6244   24649308.128
        39.0004         35.0004
 14  5 14  0 28 30.0000000  0 12G09G08G20G10G07G28G17G26G02G04G01G13
 -14473054.62949 -11270738.08048  19981598.0234   19981604.6514   19981597.594
        54.0004         50.0004
 -20328216.75649 -15834788.69148  19880690.2984   19880697.3754   19880690.787
        54.0004         49.0004
  -4223108.56446  -3239636.64845  23771376.7264   23771386.2964   23771375.697
        40.0004         35.0004
 -11377289.69947  -8854537.55846  23581752.3744   23581760.6104   23581753.745
        44.0004         39.0004
 -20571354.05748 -15999960.53147  20896339.4044   20896344.9744   20896338.910
        52.0004         47.0004
  -4790780.62947  -3733497.22046  23224622.9224   23224631.3304   23224622.301
        45.0004         41.0004
 -11504500.88148  -8910251.57447  22931407.3384   22931417.8134   22931406.404
        48.0004         43.0004
  -1502889.96947  -1145981.89546  24046853.6734   24046866.7194   24046854.065
        43.0004         38.0004
  -4036987.94847  -3129922.88146  23378705.3724   23378712.5684   23378706.703
        44.0004         40.0004
 -23924631.68148 -18580508.52847  20816380.6074   20816387.4104   20816380.539
        52.0004         47.0004
  -1019873.61246   -763601.27446  24624220.4494   24624233.8294   24624218.316
        41.0004         37.0004
    508813.80746    451469.53745  24661540.9334   24661544.9124   24661539.379
        39.0004         35.0004
 14  5 14  0 29  0.0000000  0 12G09G08G20G10G07G28G17G26G02G04G01G13
 -14469068.67649 -11267632.08348  19982355.8624   19982362.8364   19982355.781
        54.0004         50.0004
 -20323234.88449 -15830906.66848  19881638.6184   19881645.5974   19881638.796
        54.0004         49.0004
  -4201573.44446  -3222856.05345  23775472.5874   23775481.9184   23775473.307
        39.0004         35.0004
 -11441425.42547  -8904513.29046  23569548.3034   23569556.9184   23569549.117
        44.0004         40.0004
 -20504416.59348 -15947801.42647  20909077.4504   20909082.8534   20909076.831
        52.0004         47.0004
  -4846263.40347  -3776730.41146  23214063.3774   23214073.4524   23214063.899
        45.0004         40.0004
 -11462274.60348  -8877348.01447  22939441.2564   22939451.7704   22939441.868
        48.0004         44.0004
  -1503720.59247  -1146628.92446  24046694.8924   24046708.4854   24046694.215
        43.0004         38.0004
  -4122392.34347  -3196471.54646  23362453.8714   23362459.4794   23362453.827
        44.0004         40.0004
 -23978359.88848 -18622374.59348  20806156.2034   20806162.7934   20806155.265
        52.0004         48.0004
   -913917.62846   -681038.17446  24644382.1274   24644396.5304   24644380.704
        41.0004         37.0004
    572857.51446    501373.77945  24673726.1234   24673731.9304   24673727.042
        40.0004         35.0004
 14  5 14  0 29 30.0000000  0 12G09G08G20G10G07G28G17G26G02G04G01G13
 -14464476.15849 -11264053.43348  19983229.9564   19983236.9834   19983230.036
        54.0004         50.0004
 -20317590.80049 -15826508.63348  19882712.5014   19882719.4964   19882712.815
        54.0004         49.0004
  -4179742.09846  -3205844.63445  23779626.3504   23779638.6154   23779628.137
        39.0004         35.0004
 -11505730.21947  -8954620.75946  23557311.4534   23557319.9334   23557312.042
        44.0004         40.0004
 -20437012.46548 -15895278.68847  20921903.7184   20921909.8384   20921903.249
        52.0004         47.0004
  -4901877.06147  -3820065.59546  23203481.7894   23203490.7524   23203480.836
        45.0004         40.0004
 -11420090.70548  -8844477.48847  22947470.6934   22947480.6584   22947469.212
        48.0004         44.0004
  -1504284.74047  -1147068.31946  24046587.7824   24046600.3464   24046588.531
        43.0004         38.0004
  -4207548.12747  -3262826.48446  23346249.4794   23346254.9624   23346249.026
        44.0004         40.0004
 -24031605.93248 -18663864.94648  20796023.9114   20796030.6784   20796023.864
        52.0004         48.0004
   -807881.09446   -598412.29246  24664558.4824   24664575.0514   24664558.712
        41.0004         36.0004
    636660.16846    551090.17345  24685869.4434   24685874.7474   24685868.807
        39.0004         35.0004
 14  5 14  0 30  0.0000000  0 12G09G08G20G10G07G28G17G26G02G04G01G13
 -14459273.63349 -11259999.45548  19984219.6934   19984226.6104   19984219.695
        54.0004         50.0004
 -20311280.60349 -15821591.54948  19883913.0354   19883920.4174   19883913.268
        54.0004         49.0004
  -4157609.06046  -3188598.12845  23783838.1184   23783847.8524   23783839.243
        39.0004         34.0004
 -11570198.66147  -9004855.73946  23545043.7214   23545052.8064   23545043.555
        44.0004         40.0004
 -20369140.11848 -15842391.10147  20934819.5544   20934824.6504   20934819.062
        52.0004         47.0004
  -4957615.45647  -3863497.97846  23192873.3704   23192884.1734   23192873.918
        45.0004         40.0004
 -11377947.52548  -8811638.69947  22955488.8884   22955499.8754   22955488.807
        48.0004         44.0004
  -1504580.47647  -1147298.55746  24046530.9974   24046545.1284   24046530.577
        43.0004         38.0004
  -4292449.41047  -3328983.12246  23330092.3034   23330098.5424   23330092.993
        45.0004         40.0004
 -24084364.23848 -18704975.24548  20785984.3124   20785990.6354   20785984.027
        52.0004         48.0004
   -701762.83646   -515722.75346  24684752.2354   24684767.9894   24684752.534
        41.0004         36.0004
    700224.80846    600621.12345  24697965.6864   24697971.1874   24697964.322
        39.0004         34.0004
 14  5 14  0 30 30.0000000  0 12G09G08G20G10G07G28G17G26G02G04G01G13
 -14453461.55549 -11255470.50848  19985325.6864   19985332.9204   19985325.754
        54.0004         50.0004
 -20304303.95949 -15816155.15248  19885240.7834   19885247.9284   19885241.156
        54.0004         49.0004
  -4135173.06246  -3171115.58145  23788108.9894   23788116.3314   23788110.131
        40.0004         35.0004
 -11634829.28047  -9055217.08946  23532743.8224   23532753.3514   23532744.849
        44.0004         40.0004
 -20300801.90748 -15789140.50547  20947823.9254   20947829.2284   20947823.397
        52.0004         47.0004
  -5013476.49147  -3907025.91646  23182244.1124   23182253.5134   23182244.222
        45.0004         41.0004
 -11335847.25448  -8778833.34847  22963500.5224   22963511.0364   22963500.374
        48.0004         44.0004
  -1504609.45047  -1147320.93546  24046524.6514   24046539.9234   24046525.706
        43.0004         38.0004
  -4377093.71447  -3394939.50946  23313985.1914   23313992.2524   23313985.080
        45.0004         40.0004
 -24136633.02348 -18745704.09948  20776038.1614   20776045.1964   20776037.373
        52.0004         48.0004
   -595565.18446   -432971.31246  24704960.7704   24704976.9824   24704960.919
        40.0004         36.0004
    763550.79146    649966.07945  24710017.8294   24710022.5284   24710014.920
        39.0004         34.0004
 14  5 14  0 31  0.0000000  0 12G09G08G20G10G07G28G17G26G02G04G01G13
 -14447040.96249 -11250467.38548  19986547.9764   19986554.5204   19986547.959
        54.0004         50.0004
 -20296661.86049 -15810200.22148  19886694.6384   19886701.8724   19886694.853
        54.0004         49.0004
  -4112433.63546  -3153396.57445  23792435.0314   23792444.5344   23792435.795
        39.0004         34.0004
 -11699621.23647  -9105704.17346  23520415.0424   23520423.6594   23520415.020
        45.0004         40.0004
 -20232000.96048 -15735529.32947  20960916.2524   20960921.4414   20960915.656
        52.0004         47.0004
  -5069458.74347  -3950648.32546  23171591.1354   23171600.3844   23171590.932
        45.0004         41.0004
 -11293792.35648  -8746063.34047  22971503.7674   22971512.8964   22971503.102
        48.0004         43.0004
  -1504374.15947  -1147137.38746  24046571.1064   24046583.3754   24046569.955
        43.0004         38.0004
  -4461479.36947  -3460694.34646  23297926.8554   23297933.7304   23297927.025
        45.0004         40.0004
 -24188410.96748 -18786050.47948  20766184.5824   20766191.4734   20766184.433
        52.0004         48.0004
   -489291.33646   -350160.50945  24725184.6624   24725199.7714   24725184.335
        40.0004         35.0004
    826636.37346    699123.71845  24722019.8734   24722026.3214   24722019.328
        39.0004         34.0004
 14  5 14  0 31 30.0000000  0 12G09G08G20G10G07G28G17G26G02G04G01G13
 -14440012.75749 -11244990.80048  19987884.9164   19987891.7634   19987884.853
        54.0004         50.0004
 -20288354.93449 -15803727.24648  19888275.8304   19888282.7494   19888275.966
        54.0004         49.0004
  -4089390.07946  -3135440.57345  23796819.0404   23796828.6204   23796820.651
        39.0004         34.0004
 -11764572.86147  -9156315.67846  23508054.5014   23508063.4124   23508054.762
        45.0004         40.0004
 -20162740.18548 -15681559.84947  20974096.2654   20974101.5934   20974095.317
        52.0004         47.0004
  -5125560.18247  -3994363.60246  23160914.7144   23160924.4034   23160915.102
        46.0004         41.0004
 -11251785.30348  -8713330.61547  22979497.5154   22979508.4694   22979496.720
        48.0004         43.0004
  -1503876.81147  -1146749.63946  24046665.3994   24046678.7854   24046664.734
        43.0004         38.0004
  -4545604.72247  -3526246.36646  23281917.6684   23281925.1104   23281918.752
        45.0004         40.0004
 -24239696.82848 -18826013.42348  20756425.6454   20756432.5104   20756425.086
        52.0004         48.0004
   -382944.19946   -267292.61045  24745423.6704   24745439.3044   24745422.331
        40.0004         35.0004
    889480.61646    748093.33945  24733979.3984   24733985.7134   24733978.182
        39.0004         34.0004
 14  5 14  0 32  0.0000000  0 12G09G08G20G10G07G28G17G26G02G04G01G13
 -14432375.49949 -11239039.63248  19989338.3194   19989344.9624   19989338.281
        54.0004         50.0004
 -20279381.11249 -15796734.60948  19889983.3004   19889990.4384   19889983.939
        54.0004         49.0004
  -4066039.47846  -3117245.34345  23801264.2374   23801273.5774   23801264.468
        40.0004         35.0004
 -11829680.80647  -9207048.98646  23495664.4494   23495673.9074   23495665.307
        45.0004         40.0004
 -20093019.86248 -15627232.27747  20987363.3484   20987369.1684   20987362.631
        52.0004         47.0004
  -5181776.84047  -4038168.66746  23150216.9354   23150226.6214   23150217.415
        46.0004         41.0004
 -11209826.08648  -8680635.15747  22987482.0064   22987492.9834   22987481.405
        48.0004         43.0004
  -1503117.27847  -1146157.59646  24046808.9934   24046822.8024   24046808.623
        43.0004         38.0004
  -4629465.49147  -3591592.20246  23265959.5714   23265966.3384   23265959.866
        45.0004         41.0004
 -24290486.52048 -18865589.74148  20746760.3894   20746766.9104   20746759.554
        52.0004         48.0004
   -276524.30446   -184368.00445  24765669.7054   24765692.7414   24765672.091
        40.0004         35.0004
    952084.97446    796875.99445  24745892.4004   24745899.4974   24745891.395
        39.0004         34.0004
 14  5 14  0 32 30.0000000  0 12G09G08G20G10G07G28G17G26G02G04G01G13
 -14424131.59449 -11232615.75048  19990906.9544   19990913.5274   19990906.920
        54.0004         50.0004
 -20269742.53849 -15789223.98748  19891817.5784   19891824.1804   19891817.574
        54.0004         49.0004
  -4042382.61946  -3098811.47745  23805767.4424   23805775.8324   23805765.844
        39.0004         34.0004
 -11894945.50747  -9257904.44546  23483245.1554   23483253.3644   23483246.012
        45.0004         40.0004
 -20022844.51348 -15572550.13847  21000717.0984   21000722.2484   21000716.685
        52.0004         47.0004
  -5238108.48047  -4082063.33446  23139498.0224   23139506.9754   23139497.556
        46.0004         41.0004
 -11167918.98248  -8647980.32747  22995456.3064   22995467.2564   22995456.235
        48.0004         43.0004
  -1502099.43547  -1145364.26246  24047002.1434   24047015.6844   24047002.305
        43.0004         38.0004
  -4713061.30047  -3656731.58846  23250052.4534   23250058.1514   23250052.613
        45.0004         41.0004
 -24340780.55848 -18904779.83448  20737189.4544   20737196.5844   20737189.777
        52.0004         48.0004
   -170036.05646   -101390.12945  24785936.1534   24785952.6434   24785936.579
        39.0004         34.0004
   1014446.46646    845469.39845  24757758.4844   24757769.3404   24757758.562
        39.0004         35.0004
 14  5 14  0 33  0.0000000  0 12G09G08G20G10G07G28G17G26G02G04G01G13
 -14415281.44349 -11225719.47148  19992590.9754   19992597.6044   19992590.888
        54.0004         50.0004
 -20259438.95149 -15781195.17548  19893778.2004   19893784.7114   19893778.296
        54.0004         49.0004
  -4018418.19446  -3080137.95645  23810324.8514   23810335.6264   23810326.707
        39.0004         34.0004
 -11960365.24847  -9308880.71346  23470795.9794   23470805.2524   23470796.940
        45.0004         40.0004
 -19952216.50948 -15517515.28547  21014157.3314   21014162.8814   21014156.485
        52.0004         47.0004
  -5294553.10147  -4126046.03247  23128757.2034   23128766.1614   23128756.745
        46.0004         42.0004
 -11126065.56448  -8615367.31347  23003420.4844   23003430.5374   23003420.250
        48.0004         43.0004
  -1500825.07147  -1144371.05446  24047244.7924   24047258.2124   24047244.681
        43.0004         38.0004
  -4796389.79647  -3721662.67446  23234195.1764   23234201.0494   23234196.007
        45.0004         41.0004
 -24390577.04848 -18943582.23748  20727713.4954   20727720.6114   20727712.837
        52.0004         48.0004
    -63481.97346    -18360.96445  24806211.6694   24806229.7064   24806213.069
        39.0004         34.0004
   1076564.51846    893873.09945  24769577.0024   24769586.1764   24769578.850
        39.0004         35.0004
 14  5 14  0 33 30.0000000  0 12G09G08G20G10G07G28G17G26G02G04G01G13
 -14405823.40749 -11218349.51548  19994390.9394   19994397.8414   19994390.981
        54.0004         50.0004
 -20248468.61749 -15772646.82248  19895865.8154   19895872.5994   19895866.072
        54.0004         49.0004
  -3994142.91546  -3061222.18645  23814946.0604   23814954.9564   23814946.267
        39.0004         35.0004
 -12025936.05147  -9359974.68846  23458318.1764   23458326.9914   23458319.470
        45.0004         40.0004
 -19881136.26748 -15462128.04847  21027683.5154   21027689.1784   21027682.856
        52.0004         47.0004
  -5351106.11747  -4170113.19347  23117993.7994   23118004.8804   23117994.809
        46.0004         42.0004
 -11084265.86948  -8582796.16547  23011375.3064   23011386.3904   23011374.474
        48.0004         43.0004
  -1499293.77147  -1143177.62146  24047536.9834   24047549.2284   24047537.142
        43.0004         38.0004
  -4879446.43647  -3786381.93046  23218390.2794   23218395.6494   23218389.585
        45.0004         41.0004
 -24439872.10848 -18981993.90548  20718332.9584   20718340.1114   20718332.812
        52.0004         48.0004
 -20437322.23246 -15894080.61945  24826503.7464   24826518.9014   24826501.946
        39.0004         34.0004
   1138440.48946    942088.16145  24781352.2274   24781361.5164   24781353.411
        39.0004         35.0004
 14  5 14  0 34  0.0000000  0 12G09G08G20G10G07G28G17G26G02G04G01G13
 -14395761.92149 -11210509.34148  19996305.3714   19996312.3254   19996305.354
        54.0004         50.0004
 -20236835.33449 -15763581.88348  19898079.4214   19898086.4274   19898079.663
        54.0004         49.0004
  -3969559.65146  -3042066.45145  23819625.4874   23819635.5604   23819624.635
        39.0004         35.0004
 -12091659.85647  -9411187.90146  23445812.4234   23445819.2704   23445813.027
        45.0004         40.0004
 -19809609.87548 -15406393.15247  21041294.4674   21041299.8864   21041293.677
        52.0004         47.0004
  -5407769.24347  -4214266.15746  23107211.7734   23107221.1874   23107211.767
        46.0004         41.0004
 -11042525.51048  -8550271.26247  23019317.8234   23019330.0694   23019317.511
        48.0004         43.0004
  -1497511.08447  -1141788.31346  24047875.5094   24047887.3214   24047874.493
        42.0004         38.0004
  -4962233.17747  -3850890.87146  23202635.3424   23202642.0934   23202636.053
        45.0004         41.0004
 -24488667.80848 -19020016.48148  20709047.7674   20709054.1194   20709047.116
        52.0004         48.0004
 -20330643.01646 -15810953.95245  24846805.5244   24846820.8684   24846801.971
        38.0004         34.0004
   1200069.90746    990111.07245  24793081.7434   24793084.9394   24793081.007
        39.0004         34.0004
 14  5 14  0 34 30.0000000  0 12G09G08G20G10G07G28G17G26G02G04G01G13
 -14385095.29249 -11202197.62848  19998335.4954   19998341.7764   19998335.206
        54.0004         50.0004
 -20224537.27149 -15753998.93448  19900419.3234   19900426.2574   19900419.546
        54.0004         49.0004
  -3944664.87346  -3022667.96245  23824363.1274   23824372.5534   23824361.174
        39.0004         35.0004
 -12157533.12047  -9462517.57646  23433276.5064   23433284.0394   23433276.969
        45.0004         40.0004
 -19737637.71948 -15350310.91747  21054990.2744   21054995.5084   21054989.817
        52.0004         47.0004
  -5464537.89447  -4258501.34146  23096409.3704   23096417.9894   23096409.165
        46.0004         41.0004
 -11000844.11648  -8517792.30047  23027249.8874   23027261.1694   23027249.686
        48.0004         43.0004
  -1495476.81647  -1140202.96246  24048261.7484   24048275.7024   24048262.851
        42.0004         38.0004
  -5044745.26147  -3915185.79046  23186934.6474   23186939.9864   23186934.250
        45.0004         41.0004
 -24536960.23248 -19057646.88648  20699857.4394   20699863.9394   20699857.004
        52.0004         48.0004
 -20223904.70746 -15727781.20645  24867113.9214   24867129.2064   24867113.639
        38.0004         33.0004
   1261454.43346   1037943.15145  24804765.1864   24804768.7824   24804762.458
        39.0004         34.0004
 14  5 14  0 35  0.0000000  0 12G09G08G20G10G07G28G17G26G02G04G01G13
 -14373824.37649 -11193415.03948  20000479.8784   20000486.5234   20000480.080
        54.0004         50.0004
 -20211574.80349 -15743898.27048  19902886.2824   19902892.7504   19902886.817
        54.0004         49.0004
  -3919457.99046  -3003026.29945  23829158.4864   23829168.5184   23829158.291
        39.0004         34.0004
 -12223554.08447  -9513962.33946  23420713.4164   23420719.6244   23420713.161
        45.0004         40.0004
 -19665222.46748 -15293883.40547  21068770.2184   21068775.1474   21068769.338
        52.0004         47.0004
  -5521409.97147  -4302817.11046  23085586.3364   23085596.8664   23085586.345
        46.0004         41.0004
 -10959223.95747  -8485361.03447  23035170.0294   23035180.4034   23035169.312
        47.0004         43.0004
  -1493192.86047  -1138423.05946  24048696.4924   24048708.3094   24048695.946
        42.0004         38.0004
  -5126980.52947  -3979265.01546  23171285.3784   23171290.9814   23171285.219
        45.0004         41.0004
 -24584747.63348 -19094883.76748  20690763.9504   20690770.8734   20690763.975
        52.0004         48.0004
 -20117109.79746 -15644564.36845  24887434.9714   24887453.0094   24887436.746
        38.0004         34.0004
   1322593.33546   1085583.86145  24816396.8704   24816401.7584   24816396.077
        39.0004         34.0004
 14  5 14  0 35 30.0000000  0 12G09G08G20G10G07G28G17G26G02G04G01G13
 -14361947.95649 -11184160.63048  20002739.8784   20002746.5204   20002739.877
        54.0004         50.0004
 -20197946.53749 -15733278.79948  19905479.3594   19905486.3374   19905479.713
        54.0004         49.0004
  -3893935.80546  -2983138.93045  23834017.3974   23834025.0864   23834015.364
        39.0004         34.0004
 -12289719.46347  -9565519.61746  23408122.4534   23408129.7474   23408122.292
        45.0004         40.0004
 -19592365.01148 -15237111.31647  21082634.7024   21082639.5754   21082634.351
        52.0004         47.0004
  -5578381.59347  -4347210.44246  23074744.1324   23074755.1044   23074745.402
        46.0004         41.0004
 -10917665.17647  -8452977.60747  23043079.1694   23043090.2134   23043077.450
        47.0004         42.0004
  -1490659.40647  -1136448.71646  24049177.5844   24049191.5814   24049179.062
        42.0004         38.0004
  -5208935.06247  -4043125.48846  23155690.3044   23155695.3964   23155689.893
        46.0004         41.0004
 -24632026.87548 -19131724.68848  20681766.7894   20681774.1954   20681766.199
        52.0004         48.0004
 -20010259.03746 -15561304.01245  24907769.9944   24907786.3534   24907769.319
        38.0004         33.0004
   1383487.72846   1133034.03145  24827983.1924   24827992.4594   24827984.367
        39.0004         35.0004
 14  5 14  0 36  0.0000000  0 12G09G08G20G10G07G28G17G26G02G04G01G13
 -14349471.74849 -11174438.85548  20005113.9964   20005120.7084   20005113.929
        54.0004         50.0004
 -20183657.71949 -15722144.61248  19908199.0504   19908205.8214   19908199.167
        54.0004         49.0004
  -3868102.42646  -2963009.05145  23838929.7034   23838942.5044   23838930.259
        39.0004         34.0004
 -12356032.44947  -9617191.93546  23395501.9344   23395511.3424   23395503.255
        45.0004         40.0004
 -19519072.48148 -15180000.21447  21096581.5764   21096586.9414   21096580.676
        52.0004         47.0004
  -5635455.28047  -4391683.32946  23063884.3544   23063894.0594   23063884.257
        46.0004         41.0004
 -10876174.45647  -8420647.21347  23050973.2334   23050985.0464   23050973.114
        47.0004         43.0004
  -1487883.31347  -1134285.32046  24049707.5454   24049719.1074   24049706.454
        43.0004         38.0004
  -5290611.70647  -4106769.43046  23140146.7254   23140153.1274   23140146.897
        46.0004         41.0004
 -24678801.28348 -19168172.22748  20672865.9544   20672872.6704   20672865.734
        52.0004         48.0004
 -19903359.82646 -15478005.87145  24928111.7734   24928127.0254   24928111.779
        38.0004         33.0004
   1444131.87546   1180289.18445  24839522.6164   24839532.8474   24839523.234
        39.0004         34.0004
 14  5 14  0 36 30.0000000  0 12G09G08G20G10G07G28G17G26G02G04G01G13
 -14336394.32849 -11164248.60748  20007602.6184   20007609.1704   20007602.736
        54.0004         50.0004
 -20168706.35449 -15710494.15748  19911043.5694   19911050.7654   19911044.052
        54.0004         49.0004
  -3841954.63246  -2942634.21745  23843904.2484   23843917.5874   23843907.440
        39.0004         34.0004
 -12422488.94847  -9668976.08346  23382856.0764   23382864.1374   23382856.632
        45.0004         40.0004
 -19445345.20748 -15122550.34447  21110611.0434   21110616.4044   21110610.681
        52.0004         47.0004
  -5692626.41347  -4436232.13746  23053003.1564   23053014.6124   23053004.614
        46.0004         41.0004
 -10834751.29147  -8388369.45547  23058856.7414   23058868.2214   23058856.135
        47.0004         43.0004
  -1484864.03847  -1131932.41446  24050281.0604   24050293.6584   24050281.233
        42.0004         38.0004
  -5372005.57747  -4170193.02046  23124657.4764   23124663.4594   23124658.555
        46.0004         41.0004
 -24725066.57748 -19204223.06548  20664061.8954   20664068.9434   20664061.647
        53.0004         48.0004
                 -15394670.00455                  24948475.3225   24948464.149
                        32.0004
   1504527.41746   1227350.58045  24851016.4374   24851024.6704   24851018.187
        39.0004         34.0004
 14  5 14  0 37  0.0000000  0 12G09G08G20G10G07G28G17G26G02G04G01G13
 -14322715.12649 -11153589.43148  20010205.6094   20010212.1964   20010205.504
        54.0004         50.0004
 -20153091.60249 -15698326.77748  19914015.2694   19914022.0044   19914015.166
        54.0004         49.0004
  -3815489.91846  -2922012.41245  23848941.8374   23848951.3514   23848942.617
        39.0004         34.0004
 -12489085.87447  -9720869.65446  23370182.5504   23370191.5864   23370183.813
        45.0004         40.0004
 -19371184.57648 -15064762.80047  21124723.2364   21124729.2364   21124722.953
        52.0004         47.0004
  -5749891.28847  -4480853.98746  23042106.9844   23042117.6464   23042107.909
        46.0004         41.0004
 -10793396.74448  -8356145.17347  23066725.1814   23066736.8294   23066725.666
        48.0004         43.0004
  -1481602.21347  -1129390.52146  24050902.5434   24050914.5994   24050901.628
        42.0004         38.0004
  -5453113.16147  -4233393.53546  23109223.4964   23109229.0744   23109223.402
        46.0004         41.0004
 -24770820.17548 -19239875.17248  20655355.4234   20655362.0334   20655355.064
        53.0004         48.0004
 -19689417.18356 -15311297.28755  24968827.5575   24968840.0675   24968824.290
        37.0004         33.0004
   1564675.25246   1274218.99645  24862460.2284   24862470.1204   24862463.598
        38.0004         34.0004
 14  5 14  0 37 30.0000000  0 11G09G08G20G10G07G28G17G26G02G04G13
 -14308436.98949 -11142463.55548  20012922.6624   20012929.1054   20012922.629
        54.0004         50.0004
 -20136815.95849 -15685644.41448  19917112.4124   19917119.0894   19917112.502
        54.0004         49.0004
  -3788709.54246  -2901144.64145  23854040.6684   23854051.0184   23854039.270
        39.0004         34.0004
 -12555823.38247  -9772872.76446  23357484.6264   23357492.6404   23357483.790
        45.0004         40.0004
 -19296595.42648 -15006641.33547  21138917.1464   21138922.2484   21138916.839
        51.0004         47.0004
  -5807249.96447  -4525548.94246  23031192.3414   23031200.9754   23031192.668
        45.0004         41.0004
 -10752114.75048  -8323977.43047  23074580.9454   23074593.1084   23074580.885
        48.0004         43.0004
  -1478102.03347  -1126662.88846  24051566.7644   24051579.4714   24051567.337
        42.0004         38.0004
  -5533934.65647  -4296371.14146  23093844.1334   23093848.4674   23093843.577
        46.0004         41.0004
 -24816062.55048 -19275128.92248  20646746.0294   20646753.0304   20646745.900
        53.0004         48.0004
 -10978787.47546  -8499907.86445  24873864.0664   24873867.4244   24873861.669
        39.0004         34.0004
 14  5 14  0 38  0.0000000  0 11G09G08G20G10G07G28G17G26G02G04G13
 -14293560.67349 -11130871.56448  20015753.2744   20015759.7244   20015753.197
        54.0004         50.0004
 -20119880.26248 -15672447.72648  19920334.6874   19920341.8044   19920335.338
        53.0004         49.0004
  -3761612.27646  -2880029.97645  23859193.5044   23859203.0794   23859195.403
        39.0004         34.0004
 -12622699.83547  -9824984.15346  23344757.1404   23344765.1284   23344758.068
        45.0004         40.0004
 -19221580.08348 -14948187.77647  21153192.4844   21153197.6414   21153191.600
        51.0004         47.0004
  -5864700.13747  -4570315.19546  23020260.0844   23020269.4904   23020260.190
        45.0004         41.0004
 -10710907.25648  -8291867.72547  23082423.6154   23082433.9114   23082422.764
        48.0004         43.0004
  -1474365.21947  -1123750.87146  24052279.1004   24052291.1874   24052278.433
        42.0004         38.0004
  -5614467.78147  -4359124.03646  23078518.8254   23078524.2394   23078519.833
        46.0004         41.0004
 -24860792.28648 -19309983.21848  20638234.3804   20638240.9114   20638233.900
        53.0004         48.0004
 -10919141.16146  -8453430.25345  24885210.7444   24885220.9434   24885211.357
        39.0004         34.0004
 14  5 14  0 38 30.0000000  0 11G09G08G20G10G07G28G17G26G02G04G13
 -14278085.30949 -11118812.78848  20018698.2524   20018704.7814   20018698.272
        54.0004         50.0004
 -20102283.30148 -15658735.76748  19923683.4104   19923690.5294   19923683.654
        53.0004         49.0004
  -3734195.81046  -2858666.55945  23864412.6084   23864419.6934   23864412.281
        39.0004         34.0004
 -12689711.73747  -9877201.07346  23332004.4014   23332013.1664   23332005.886
        45.0004         40.0004
 -19146139.91748 -14889403.18847  21167548.0644   21167553.1074   21167547.362
        51.0004         47.0004
  -5922237.78747  -4615149.61346  23009310.3604   23009319.1014   23009310.868
        45.0004         41.0004
 -10669774.24648  -8259816.06647  23090250.8474   23090261.4974   23090250.290
        48.0004         43.0004
  -1470392.29247  -1120654.88746  24053034.3564   24053046.7864   24053034.297
        42.0004         38.0004
  -5694708.77347  -4421649.28846  23063248.4204   23063255.0604   23063249.631
        46.0004         41.0004
 -24905006.03648 -19344435.45048  20629820.5414   20629827.3534   20629820.321
        53.0004         48.0004
 -10859744.76946  -8407147.41745  24896515.1424   24896523.7244   24896513.900
        39.0004         34.0004
 14  5 14  0 39  0.0000000  0 11G09G08G20G10G07G28G17G26G02G04G13
 -14262013.06749 -11106288.91148  20021756.6024   20021763.2684   20021756.641
        54.0004         50.0004
 -20084026.57548 -15644509.70348  19927157.2614   19927164.5524   19927157.626
        53.0004         49.0004
  -3706460.31246  -2837054.55345  23869690.6064   23869697.0074   23869690.364
        39.0004         34.0004
 -12756858.73147  -9929523.27046  23319227.5314   23319236.2874   23319228.030
        45.0004         40.0004
 -19070278.41348 -14830290.28547  21181984.1194   21181989.1774   21181983.445
        51.0004         47.0004
  -5979861.72347  -4660051.26346  22998344.5794   22998353.7144   22998345.459
        45.0004         41.0004
 -10628718.77848  -8227824.82247  23098064.0644   23098074.2944   23098062.923
        48.0004         43.0004
  -1466186.14947  -1117377.15646  24053834.4294   24053846.7004   24053834.598
        42.0004         38.0004
  -5774656.73547  -4483946.22546  23048035.3434   23048040.3684   23048035.129
        46.0004         41.0004
 -24948703.73448 -19378485.55748  20621505.3544   20621511.8344   20621504.674
        53.0004         48.0004
 -10800600.28346  -8361060.86945  24907768.5964   24907773.7644   24907769.793
        39.0004         34.0004
 14  5 14  0 39 30.0000000  0 11G09G08G20G10G07G28G17G26G02G04G13
 -14245337.80449 -11093295.14748  20024930.0034   20024936.0074   20024929.765
        54.0004         50.0004
 -20065103.80848 -15629764.64548  19930758.2284   19930765.2214   19930758.861
        53.0004         49.0004
 -22583437.66746 -17546387.60345  23875029.1784   23875040.2424   23875029.645
        38.0004         34.0004
 -12824131.90547  -9981943.80346  23306424.9614   23306434.5454   23306425.831
        45.0004         40.0004
 -18993991.29548 -14770845.73347  21196500.8364   21196505.9944   21196500.641
        51.0004         47.0004
  -6037562.64947  -4705012.91246  22987365.6454   22987373.4024   22987364.978
        45.0004         41.0004
 -10587735.59648  -8195889.91347  23105862.1934   23105873.6454   23105861.583
        48.0004         43.0004
  -1461741.90247  -1113913.87646  24054681.2954   24054692.2484   24054679.783
        43.0004         38.0004
  -5854302.18247  -4546007.43147  23032880.0304   23032884.8284   23032879.165
        46.0004         42.0004
 -24991876.51848 -19412126.65848  20613289.6534   20613296.2134   20613289.694
        53.0004         48.0004
 -10741700.83446  -8315165.20745  24918977.5774   24918983.8454   24918977.554
        39.0004         35.0004
 14  5 14  0 40  0.0000000  0 11G09G08G20G10G07G28G17G26G02G04G13
 -14228077.20749 -11079845.27748  20028214.8204   20028220.6594   20028214.450
        54.0004         50.0004
 -20045532.22348 -15614514.01648  19934482.8034   19934489.5654   19934483.080
        53.0004         49.0004
 -22555063.82346 -17524278.19245  23880429.4334   23880441.4104   23880429.588
        39.0004         34.0004
 -12891546.07347 -10034474.19446  23293596.9824   23293604.4024   23293597.388
        45.0004         40.0004
 -18917297.86248 -14711084.57147  21211095.4584   21211101.5484   21211094.771
        51.0004         47.0004
  -6095354.88047  -4750045.71046  22976366.6954   22976377.0054   22976367.762
        45.0004         41.0004
 -10546843.35848  -8164025.85947  23113643.3834   23113654.6214   23113642.976
        48.0004         43.0004
  -1457078.11647  -1110279.52346  24055566.5024   24055580.1794   24055567.385
        43.0004         38.0004
  -5933659.80047  -4607844.36046  23017777.1714   23017783.3984   23017778.175
        46.0004         41.0004
 -25034539.98948 -19445370.87548  20605170.9674   20605177.4974   20605170.272
        53.0004         48.0004
 -10683064.01246  -8269474.22045  24930137.5554   24930140.7274   24930135.280
        39.0004         34.0004
 14  5 14  0 40 30.0000000  0 11G09G08G20G10G07G28G17G26G02G04G13
 -14210222.37549 -11065932.36948  20031611.6874   20031618.5344   20031611.809
        54.0004         50.0004
 -20025302.74548 -15598750.74548  19938332.2564   19938339.0764   19938332.582
        53.0004         49.0004
 -22526367.92346 -17501917.80345  23885890.4734   23885902.9254   23885889.936
        39.0004         34.0004
 -12959089.42247 -10087105.24946  23280743.5714   23280751.0814   23280744.589
        45.0004         41.0004
 -18840191.25848 -14651001.46547  21225768.2074   21225773.3634   21225767.462
        51.0004         47.0004
  -6153226.42747  -4795140.31446  22965353.8184   22965363.6574   22965354.504
        46.0004         41.0004
 -10506034.27248  -8132226.60947  23121409.2394   23121420.9704   23121408.761
        48.0004         43.0004
  -1452187.04647  -1106468.08246  24056498.1554   24056510.0074   24056497.423
        43.0004         38.0004
  -6012717.51347  -4669447.61346  23002733.6384   23002739.5374   23002733.314
        46.0004         41.0004
 -25076682.62848 -19478209.25848  20597151.4154   20597158.4344   20597151.435
        53.0004         48.0004
 -10624680.52246  -8223980.65845  24941246.9004   24941253.2044   24941245.440
        39.0004         34.0004
 14  5 14  0 41  0.0000000  0 11G09G08G20G10G07G28G17G26G02G04G13
 -14191773.79549 -11051556.80248  20035122.2954   20035128.8674   20035122.689
        54.0004         50.0004
 -20004415.76648 -15582475.14048  19942306.9834   19942313.8414   19942307.437
        53.0004         49.0004
 -22497348.86346 -17479305.61445  23891412.4884   23891422.8204   23891413.679
        39.0004         34.0004
 -13026759.88947 -10139835.34546  23267866.4404   23267874.0584   23267867.006
        45.0004         40.0004
 -18762673.34348 -14590597.84547  21240519.0454   21240524.5534   21240518.822
        51.0004         47.0004
  -6211174.22447  -4840294.31746  22954328.2944   22954336.3294   22954327.616
        46.0004         41.0004
 -10465309.42848  -8100492.99747  23129159.1244   23129170.2814   23129158.595
        48.0004         43.0004
  -1447069.97947  -1102480.52546  24057472.6424   24057483.5734   24057471.937
        43.0004         38.0004
  -6091472.66147  -4730815.08846  22987745.7644   22987752.4514   22987746.748
        46.0004         41.0004
 -25118302.67348 -19510640.42448  20589231.4134   20589238.2374   20589230.814
        53.0004         48.0004
 -10566550.33846  -8178684.45845  24952306.1474   24952314.3914   24952307.595
        39.0004         34.0004
 14  5 14  0 41 30.0000000  0 11G09G08G20G10G07G28G17G26G02G04G13
 -14172732.47749 -11036719.35748  20038745.9244   20038752.3554   20038745.904
        54.0004         50.0004
 -19982871.86949 -15565687.64648  19946406.4464   19946413.6774   19946406.531
        54.0004         49.0004
 -22468005.22346 -17456440.51145  23896999.6224   23897006.8904   23896997.474
        39.0004         35.0004
 -13094555.38647 -10192662.87546  23254965.5814   23254973.4324   23254966.376
        45.0004         40.0004
 -18684746.81048 -14529875.82847  21255348.3964   21255353.2474   21255347.609
        51.0004         47.0004
  -6269195.63847  -4885505.69246  22943286.2334   22943295.5184   22943286.260
        46.0004         41.0004
 -10424670.85248  -8068826.59947  23136893.2624   23136902.4644   23136891.954
        48.0004         43.0004
  -1441729.05047  -1098318.51746  24058487.6304   24058499.3144   24058487.402
        43.0004         38.0004
  -6169923.48147  -4791945.43446  22972818.0644   22972824.1514   22972818.654
        46.0004         41.0004
 -25159398.67648 -19542663.24148  20581410.9604   20581417.7674   20581410.880
        53.0004         48.0004
 -10508673.76346  -8133585.84945  24963321.0774   24963326.3394   24963321.694
        39.0004         34.0004
 14  5 14  0 42  0.0000000  0 11G09G08G20G10G07G28G17G26G02G04G13
 -14153101.05249 -11021422.09348  20042481.6564   20042487.9694   20042481.653
        54.0004         50.0004
 -19960673.06349 -15548389.84548  19950630.7364   19950637.6654   19950631.071
        54.0004         49.0004
 -22438338.31546 -17433323.50745  23902644.4774   23902649.2464   23902642.406
        39.0004         34.0004
 -13162475.75047 -10245587.72146  23242040.9944   23242047.8644   23242041.501
        45.0004         41.0004
 -18606415.95948 -14468838.76147  21270253.7534   21270259.3764   21270253.246
        51.0004         47.0004
  -6327290.17247  -4930774.04646  22932230.7824   22932239.7034   22932231.539
        46.0004         41.0004
 -10384121.90947  -8037230.05047  23144607.7134   23144619.5444   23144607.761
        47.0004         43.0004
  -1436167.64447  -1093984.73146  24059546.6344   24059559.2084   24059545.997
        43.0004         38.0004
  -6248069.06147  -4852837.93846  22957946.9804   22957953.2904   22957946.240
        46.0004         41.0004
 -25199970.87148 -19574277.91048  20573690.6004   20573697.0984   20573690.200
        53.0004         48.0004
 -10451052.80546  -8088686.43145  24974287.6174   24974291.2964   24974286.200
        39.0004         34.0004
 14  5 14  0 42 30.0000000  0 11G09G08G20G10G07G28G17G26G02G04G13
 -14132879.40949 -11005664.91448  20046329.5784   20046336.2344   20046329.571
        54.0004         50.0004
 -19937819.25749 -15530581.64348  19954979.9664   19954986.4284   19954980.286
        54.0004         49.0004
 -22408346.00846 -17409952.95745  23908349.6074   23908360.9964   23908350.469
        39.0004         35.0004
 -13230517.92947 -10298607.46546  23229092.4474   23229100.3834   23229093.888
        45.0004         41.0004
 -18527682.31048 -14407487.83047  21285236.5244   21285241.4914   21285236.183
        51.0004         47.0004
  -6385453.92847  -4976096.34347  22921162.9204   22921172.3064   22921163.303
        46.0004         42.0004
 -10343663.08747  -8005703.72447  23152307.1334   23152319.4544   23152307.259
        47.0004         43.0004
  -1430386.76347  -1089479.93246  24060647.1374   24060657.7794   24060645.720
        43.0004         38.0004
  -6325906.07147  -4913489.99546  22943134.9844   22943140.9844   22943135.565
        46.0004         41.0004
 -25240016.72048 -19605482.42348  20566069.8134   20566076.5444   20566069.477
        53.0004         48.0004
 -10393686.76446  -8043985.62645  24985201.9504   24985206.1144   24985202.909
        39.0004         34.0004
 14  5 14  0 43  0.0000000  0 11G09G08G20G10G07G28G17G26G02G04G13
 -14112069.58249 -10989449.41448  20050289.6184   20050295.8864   20050289.589
        54.0004         50.0004
 -19914312.05249 -15512264.30048  19959453.1184   19959459.7684   19959453.306
        54.0004         49.0004
 -22378028.30346 -17386328.86245  23914120.8704   23914129.9814   23914120.471
        39.0004         35.0004
 -13298680.68247 -10351721.17946  23216121.9604   23216129.2544   23216122.509
        46.0004         41.0004
 -18448549.26648 -14345825.67347  21300294.7804   21300300.5524   21300294.135
        51.0004         46.0004
  -6443685.61047  -5021471.57047  22910082.1304   22910090.6854   22910082.018
        46.0004         42.0004
 -10303297.05747  -7974249.71547  23159988.7824   23160000.9304   23159988.439
        47.0004         43.0004
  -1424389.08447  -1084806.19246  24061787.7854   24061798.8434   24061786.675
        42.0004         38.0004
  -6403433.40247  -4973900.73947  22928381.4144   22928387.3504   22928382.245
        46.0004         42.0004
 -25279535.56048 -19636276.28848  20558549.5304   20558556.2724   20558549.585
        53.0004         48.0004
 -10336577.17346  -7999484.67345  24996072.3664   24996076.8794   24996070.300
        39.0004         34.0004
 14  5 14  0 43 30.0000000  0 11G09G08G20G10G07G28G17G26G02G04G13
 -14090672.37249 -10972776.21248  20054360.9454   20054367.7264   20054360.901
        54.0004         50.0004
 -19890152.17549 -15493438.38048  19964050.6414   19964057.0354   19964050.564
        54.0004         49.0004
 -22347383.99646 -17362450.21345  23919951.1344   23919962.8034   23919951.228
        39.0004         34.0004
 -13366962.23447 -10404927.46446  23203128.4794   23203136.0174   23203128.875
        45.0004         41.0004
 -18369019.73348 -14283854.56947  21315428.6234   21315434.2804   21315428.362
        51.0004         46.0004
  -6501982.74447  -5066897.80047  22898987.2164   22898997.3284   22898988.395
        46.0004         42.0004
 -10263025.46847  -7942869.28947  23167652.0734   23167663.8524   23167651.898
        47.0004         43.0004
  -1418176.65947  -1079965.12046  24062969.2444   24062981.4824   24062968.844
        42.0004         37.0004
  -6480648.90347  -5034068.50147  22913687.8794   22913694.0464   22913689.008
        46.0004         42.0004
 -25318526.08548 -19666658.47548  20551130.2084   20551136.4724   20551129.498
        53.0004         48.0004
 -10279724.14946  -7955183.61845  25006890.8394   25006893.3624   25006888.516
        39.0004         34.0004
 14  5 14  0 44  0.0000000  0 11G09G08G20G10G07G28G17G26G02G04G13
 -14068690.71549 -10955647.59748  20058544.3414   20058550.6344   20058544.265
        54.0004         50.0004
 -19865342.20149 -15474105.88748  19968771.6664   19968778.4474   19968771.865
        54.0004         49.0004
 -22316414.36046 -17338318.09945  23925843.2554   23925853.7524   23925844.436
        39.0004         35.0004
 -13435362.00947 -10458225.86946  23190111.5604   23190118.5084   23190112.311
        45.0004         41.0004
 -18289098.24648 -14221578.03647  21330637.4264   21330642.5644   21330636.592
        51.0004         46.0004
  -6560344.53647  -5112374.40647  22887883.0854   22887892.4224   22887882.570
        46.0004         42.0004
 -10222851.56947  -7911564.98847  23175297.4884   23175308.5994   23175296.251
        47.0004         43.0004
  -1411753.12447  -1074959.52746  24064190.8854   24064203.2164   24064190.407
        42.0004         37.0004
  -6557551.89547  -5093992.76247  22899053.7904   22899059.4894   22899054.118
        47.0004         42.0004
 -25356988.99148 -19696629.52948  20543811.3734   20543817.3364   20543810.466
        53.0004         48.0004
 -10223129.83846  -7911084.16345  25017659.3744   25017666.3134   25017658.790
        39.0004         34.0004
 14  5 14  0 44 30.0000000  0 11G09G08G20G10G07G28G17G26G02G04G13
 -14046123.21249 -10938062.47748  20062838.9484   20062845.0774   20062838.698
        54.0004         50.0004
 -19839880.56749 -15454265.61348  19973616.8404   19973623.5474   19973617.038
        54.0004         49.0004
 -22285115.54946 -17313929.46245  23931800.0034   23931806.9704   23931799.775
        39.0004         34.0004
 -13503875.67947 -10511613.02146  23177073.2584   23177081.7704   23177074.394
        45.0004         41.0004
 -18208784.70648 -14158996.02047  21345920.8354   21345925.5964   21345920.151
        51.0004         46.0004
  -6618765.69947  -5157897.27747  22876764.8554   22876773.4814   22876764.974
        46.0004         42.0004
 -10182774.56447  -7880336.17947  23182922.6934   23182934.6324   23182923.199
        47.0004         43.0004
  -1405117.78447  -1069788.89346  24065453.8444   24065465.6424   24065453.259
        42.0004         37.0004
  -6634138.16547  -5153670.21947  22884480.1774   22884484.7934   22884480.127
        47.0004         42.0004
 -25394920.00048 -19726186.11948  20536592.3114   20536599.5884   20536592.214
        53.0004         48.0004
 -10166792.10946  -7867184.59945  25028378.5454   25028384.6214   25028379.027
        39.0004         34.0004
 14  5 14  0 45  0.0000000  0 11G09G08G20G10G07G28G17G26G02G04G13
 -14022973.29049 -10920023.52148  20067243.9564   20067250.1734   20067243.696
        54.0004         50.0004
 -19813770.52948 -15433920.08948  19978585.0904   19978591.9404   19978585.413
        53.0004         49.0004
 -22253489.28046 -17289285.73045  23937817.9384   23937825.3194   23937817.195
        39.0004         34.0004
 -13572503.40747 -10565089.05946  23164014.6174   23164021.7124   23164015.447
        45.0004         41.0004
 -18128083.74748 -14096112.12147  21361277.1514   21361282.8234   21361276.632
        51.0004         46.0004
  -6677245.98347  -5203466.21646  22865635.8894   22865645.1764   22865636.509
        46.0004         41.0004
 -10142798.91147  -7849186.35247  23190530.9464   23190542.8224   23190530.532
        47.0004         42.0004
  -1398274.99147  -1064456.60246  24066755.2774   24066768.6604   24066755.158
        42.0004         38.0004
  -6710407.27847  -5213100.54847  22869966.4664   22869971.1974   22869966.477
        47.0004         42.0004
 -25432320.36248 -19755329.21648  20529475.4264   20529482.1894   20529475.335
        53.0004         48.0004
 -10110713.46146  -7823486.87645  25039050.1124   25039055.7344   25039049.348
        39.0004         34.0004
 14  5 14  0 45 30.0000000  0 11G09G08G20G10G07G28G17G26G02G04G13
 -13999240.75749 -10901530.58648  20071759.9074   20071766.7544   20071760.002
        54.0004         50.0004
 -19787011.39348 -15413068.77548  19983677.7384   19983683.9014   19983677.635
        53.0004         49.0004
 -22221533.75046 -17264385.36545  23943897.8664   23943909.3684   23943899.610
        39.0004         34.0004
 -13641241.84747 -10618651.36146  23150933.9714   23150941.6184   23150934.259
        46.0004         41.0004
 -18046997.21548 -14032927.76747  21376707.3084   21376712.6654   21376706.892
        51.0004         46.0004
  -6735781.50747  -5249078.20347  22854498.1244   22854506.9264   22854497.412
        46.0004         42.0004
 -10102924.73047  -7818115.59747  23198118.7264   23198129.6834   23198118.119
        47.0004         42.0004
  -1391225.31147  -1058963.11946  24068098.1804   24068108.0974   24068096.979
        42.0004         38.0004
  -6786355.92647  -5272281.16947  22855513.3094   22855518.5694   22855513.746
        47.0004         42.0004
 -25469187.52148 -19784056.82748  20522459.9564   20522466.4794   20522459.616
        53.0004         48.0004
 -10054893.04746  -7779990.43345  25049673.7794   25049678.6574   25049671.378
        38.0004         34.0004
 14  5 14  0 46  0.0000000  0 11G09G08G20G10G07G28G17G26G02G04G13
 -13974928.52949 -10882585.94148  20076386.3784   20076392.6734   20076386.343
        54.0004         50.0004
 -19759605.75048 -15391713.68448  19988892.4084   19988898.8514   19988892.806
        53.0004         49.0004
 -22189249.01446 -17239228.50545  23950041.6764   23950053.1654   23950042.878
        39.0004         34.0004
 -13710090.56347 -10672299.59846  23137831.8734   23137839.5524   23137832.757
        46.0004         41.0004
 -17965529.26848 -13969446.21047  21392209.7114   21392215.4514   21392209.742
        51.0004         46.0004
  -6794371.62847  -5294732.71946  22843348.4964   22843356.4914   22843348.164
        46.0004         41.0004
 -10063155.01647  -7787126.24447  23205686.1754   23205696.7914   23205686.474
        47.0004         42.0004
  -1383972.35847  -1053311.22646  24069477.0094   24069489.1694   24069476.738
        43.0004         38.0004
  -6861983.62347  -5331211.70147  22841121.4544   22841127.2914   22841122.869
        47.0004         42.0004
 -25505521.50548 -19812368.97948  20515545.8294   20515552.3744   20515545.486
        53.0004         48.0004
  -9999332.43446  -7736696.37945  25060243.6984   25060253.0824   25060245.105
        38.0004         33.0004
 14  5 14  0 46 30.0000000  0 11G09G08G20G10G07G28G17G26G02G04G13
 -13950037.07249 -10863189.94948  20081122.9954   20081129.3444   20081123.065
        54.0004         50.0004
 -19731554.09548 -15369855.21748  19994230.9864   19994237.2944   19994230.802
        53.0004         49.0004
 -22156634.03446 -17213814.30145  23956249.3854   23956260.2914   23956250.577
        39.0004         34.0004
 -13779046.89847 -10726031.69646  23124710.7634   23124717.8454   23124710.647
        46.0004         41.0004
 -17883681.82448 -13905668.94247  21407785.2524   21407790.9224   21407784.797
        51.0004         46.0004
  -6853012.86147  -5340427.06047  22832188.8114   22832197.7484   22832188.810
        46.0004         42.0004
 -10023490.75247  -7756219.06647  23213234.8354   23213246.8224   23213234.218
        47.0004         43.0004
  -1376517.44347  -1047501.95346  24070895.9914   24070906.7624   24070895.567
        43.0004         38.0004
  -6937287.57647  -5389889.97947  22826792.5424   22826796.3244   22826791.436
        47.0004         42.0004
 -25541320.72648 -19840264.44048  20508733.7004   20508740.1254   20508733.148
        53.0004         48.0004
  -9944031.28646  -7693604.51345  25070768.8174   25070767.1434   25070768.087
        38.0004         33.0004
 14  5 14  0 47  0.0000000  0 11G09G08G20G10G07G28G17G26G02G04G13
 -13924567.77349 -10843343.69448  20085969.8024   20085976.2344   20085969.624
        54.0004         50.0004
 -19702857.78148 -15347494.41348  19999691.0974   19999697.6964   19999691.584
        53.0004         49.0004
 -22123688.30746 -17188142.34145  23962516.8314   23962527.6274   23962518.663
        38.0004         33.0004
 -13848109.08647 -10779846.28346  23111567.2434   23111574.4064   23111568.920
        46.0004         41.0004
 -17801457.97648 -13841598.37147  21423431.4184   21423437.6954   21423431.218
        51.0004         46.0004
  -6911702.90147  -5386159.43647  22821019.9774   22821029.2924   22821020.307
        46.0004         42.0004
  -9983933.89347  -7725395.57847  23220762.5384   23220773.8084   23220761.563
        47.0004         42.0004
  -1368862.77047  -1041537.03846  24072351.5144   24072362.5044   24072351.854
        43.0004         38.0004
  -7012266.00847  -5448314.60647  22812524.1774   22812528.7004   22812524.047
        47.0004         42.0004
 -25576584.07248 -19867742.33148  20502022.9714   20502029.4074   20502022.561
        53.0004         48.0004
  -9888990.36656  -7650715.39055  25081240.6355   25081247.9895   25081242.784
        37.0004         33.0004
 14  5 14  0 47 30.0000000  0 11G09G08G20G10G07G28G17G26G02G04G13
 -13898523.14449 -10823049.13048  20090926.0154   20090932.2774   20090925.750
        54.0004         50.0004
 -19673518.62748 -15324632.69648  20005274.1954   20005280.9504   20005274.491
        53.0004         49.0004
 -22090411.95646 -17162212.81745  23968852.9344   23968863.1404   23968851.960
        38.0004         34.0004
 -13917275.96947 -10833742.45846  23098406.2784   23098412.6094   23098406.564
        46.0004         41.0004
 -17718861.75448 -13777237.63447  21439149.2454   21439154.5404   21439148.961
        51.0004         46.0004
  -6970440.35947  -5431928.75747  22809841.8824   22809851.0144   22809843.186
        46.0004         42.0004
  -9944487.45747  -7694658.12647  23228268.1934   23228280.3264   23228268.167
        47.0004         43.0004
  -1361011.49247  -1035418.91646  24073846.8294   24073856.3454   24073845.888
        43.0004         38.0004
  -7086917.98847  -5506484.84947  22798318.6554   22798323.4894   22798318.345
        47.0004         42.0004
 -25611311.56648 -19894802.68348  20495414.5774   20495421.3234   20495414.401
        53.0004         48.0004
  -9834211.26246  -7608030.22845  25091668.8384   25091671.8274   25091666.591
        38.0004         33.0004
 14  5 14  0 48  0.0000000  0 11G09G08G20G10G07G28G17G26G02G04G13
 -13871901.80149 -10802305.17148  20095991.5684   20095997.9334   20095991.664
        54.0004         50.0004
 -19643535.12248 -15301268.88448  20010980.0594   20010986.4844   20010980.128
        53.0004         49.0004
 -22056801.68046 -17136023.05745  23975245.8074   23975257.9504   23975247.701
        38.0004         34.0004
 -13986543.05547 -10887716.70146  23085225.4204   23085231.6994   23085225.657
        46.0004         41.0004
 -17635893.18048 -13712586.76247  21454937.5284   21454943.2884   21454937.460
        51.0004         46.0004
  -7029219.96347  -5477730.91547  22798655.6674   22798666.1134   22798657.605
        46.0004         42.0004
  -9905149.88747  -7664005.50147  23235754.2674   23235765.6734   23235754.014
        47.0004         43.0004
  -1352962.92247  -1029147.06446  24075376.4494   24075388.0434   24075376.117
        43.0004         38.0004
  -7161238.99147  -5564397.18247  22784175.3854   22784180.1254   22784175.636
        47.0004         42.0004
 -25645499.25448 -19921442.40748  20488908.8084   20488915.6764   20488908.227
        53.0004         48.0004
  -9779691.24446  -7565546.99645  25102043.9224   25102049.9944   25102041.068
        38.0004         33.0004
 14  5 14  0 48 30.0000000  0 11G09G08G20G10G07G28G17G26G02G04G13
 -13844708.48549 -10781115.52348  20101166.1524   20101172.5474   20101166.106
        54.0004         50.0004
 -19612911.78048 -15277406.50248  20016807.0414   20016813.9584   20016807.344
        53.0004         49.0004
 -22022859.90046 -17109574.98345  23981706.6844   23981718.6484   23981706.668
        39.0004         34.0004
 -14055911.39447 -10941769.84346  23072024.3164   23072030.7184   23072024.529
        46.0004         41.0004
 -17552557.98048 -13647650.20347  21470796.1804   21470800.9624   21470795.427
        51.0004         46.0004
  -7088042.47347  -5523566.52647  22787464.2424   22787472.5604   22787463.862
        47.0004         42.0004
  -9865926.68347  -7633441.99347  23243217.2204   23243228.8054   23243217.478
        47.0004         42.0004
  -1344722.36547  -1022725.60746  24076946.5544   24076956.1184   24076945.929
        43.0004         38.0004
  -7235230.18447  -5622052.53847  22770093.6004   22770100.6744   22770094.767
        47.0004         42.0004
 -25679149.43348 -19947663.28948  20482505.4374   20482511.6914   20482505.295
        53.0004         48.0004
  -9725434.07546  -7523268.55245  25112367.4874   25112374.3084   25112366.503
        38.0004         34.0004
 14  5 14  0 49  0.0000000  0 11G09G08G20G10G07G28G17G26G02G04G13
 -13816943.74249 -10759480.60548  20106449.8714   20106456.2204   20106449.916
        54.0004         50.0004
 -19581648.82348 -15253045.71348  20022756.3344   20022762.9974   20022756.662
        53.0004         49.0004
 -21988585.71446 -17082867.91745  23988230.0934   23988237.9614   23988227.801
        39.0004         34.0004
 -14125378.06447 -10995899.61546  23058804.7824   23058812.4914   23058805.413
        46.0004         41.0004
 -17468858.47848 -13582429.77747  21486723.1154   21486728.3544   21486723.046
        51.0004         46.0004
  -7146904.40747  -5569432.84447  22776264.0054   22776272.6934   22776262.699
        47.0004         42.0004
  -9826818.43947  -7602968.06947  23250659.3304   23250671.2574   23250659.706
        47.0004         42.0004
  -1336291.21647  -1016155.64546  24078549.0284   24078561.3434   24078548.459
        43.0004         38.0004
  -7308888.40147  -5679448.43847  22756078.3894   22756083.0024   22756079.025
        47.0004         42.0004
 -25712260.36448 -19973463.98448  20476204.5814   20476210.9394   20476204.133
        53.0004         48.0004
  -9671439.06846  -7481194.40545  25122644.7674   25122652.6014   25122640.858
        38.0004         33.0004
 14  5 14  0 49 30.0000000  0 11G09G08G20G10G07G28G17G26G02G04G13
 -13788608.36649 -10737401.04548  20111841.8254   20111847.8184   20111841.701
        54.0004         50.0004
 -19549747.05548 -15228187.15348  20028827.1424   20028833.5434   20028827.530
        53.0004         49.0004
 -21953977.37546 -17055900.45045  23994815.5674   23994826.6604   23994815.416
        39.0004         34.0004
 -14194940.43247 -11050103.95547  23045568.6064   23045574.9944   23045568.692
        46.0004         42.0004
 -17384796.79448 -13516927.12247  21502719.3524   21502725.0504   21502719.122
        51.0004         46.0004
  -7205802.41547  -5615327.29147  22765054.6424   22765062.7344   22765054.818
        46.0004         42.0004
  -9787825.74347  -7572584.18747  23258080.9054   23258090.5394   23258079.903
        47.0004         43.0004
  -1327670.63647  -1009438.07946  24080190.3294   24080200.8174   24080189.771
        43.0004         38.0004
  -7382211.06347  -5736582.87047  22742125.7844   22742130.9524   22742125.101
        47.0004         43.0004
 -25744830.07748 -19998842.94448  20470006.6204   20470013.2054   20470006.051
        53.0004         48.0004
  -9617706.05446  -7439324.36645  25132867.0534   25132873.7294   25132865.783
        38.0004         33.0004
 14  5 14  0 50  0.0000000  0 11G09G08G20G10G07G28G17G26G02G04G13
 -13759704.00749 -10714878.11648  20117341.8904   20117348.4394   20117342.014
        54.0004         50.0004
 -19517208.13948 -15202832.10948  20035018.4904   20035025.7194   20035018.932
        53.0004         49.0004
 -21919034.58246 -17028672.33345  24001460.1644   24001472.2234   24001463.106
        39.0004         34.0004
 -14264596.55347 -11104381.35247  23032312.6074   23032320.6034   23032313.180
        46.0004         42.0004
 -17300375.81348 -13451144.49747  21518784.4684   21518790.0414   21518783.904
        50.0004         46.0004
  -7264734.38847  -5661248.18247  22753840.0714   22753848.6714   22753840.117
        47.0004         42.0004
  -9748951.00847  -7542292.23047  23265478.5184   23265490.1034   23265477.722
        47.0004         43.0004
  -1318863.07647  -1002574.81646  24081866.2374   24081876.4954   24081864.943
        43.0004         38.0004
  -7455196.59147  -5793454.59547  22728236.5834   22728242.1884   22728236.866
        47.0004         43.0004
 -25776857.93848 -20023799.69848  20463912.0514   20463918.3284   20463911.889
        53.0004         48.0004
  -9564235.09146  -7397658.57045  25143039.7984   25143049.2554   25143041.106
        38.0004         34.0004
 14  5 14  0 50 30.0000000  0 11G09G08G20G10G07G28G17G26G02G04G13
 -13730231.97549 -10691912.84648  20122950.3334   20122956.4514   20122950.220
        54.0004         50.0004
 -19484033.02548 -15176981.32948  20041332.4144   20041338.0794   20041332.254
        53.0004         49.0004
 -21883756.88546 -17001183.33845  24008173.4904   24008187.2454   24008177.395
        38.0004         34.0004
 -14334344.36947 -11158730.20347  23019039.6214   23019047.3444   23019040.623
        46.0004         42.0004
 -17215598.60148 -13385084.29747  21534916.8314   21534922.3034   21534916.600
        50.0004         46.0004
  -7323697.62447  -5707193.44647  22742619.2284   22742627.8094   22742620.076
        47.0004         42.0004
  -9710195.52447  -7512093.17047  23272852.9304   23272864.6064   23272852.538
        47.0004         43.0004
  -1309870.46747   -995567.36646  24083577.0234   24083586.5934   24083576.308
        43.0004         38.0004
  -7527842.99447  -5850062.06847  22714412.3804   22714417.9704   22714413.148
        47.0004         43.0004
 -25808342.99948 -20048333.48748  20457920.1274   20457927.0114   20457920.107
        53.0004         48.0004
  -9511026.70646  -7356197.32345  25153168.5984   25153174.2864   25153165.416
        38.0004         33.0004
 14  5 14  0 51  0.0000000  0 11G09G08G20G10G07G28G17G26G02G04G13
 -13700196.10649 -10668508.22148  20128665.9464   20128672.0004   20128665.980
        54.0004         50.0004
 -19450225.30948 -15150637.60948  20047765.4014   20047771.5284   20047765.672
        53.0004         49.0004
 -21848145.45046 -16973434.23545  24014954.0804   24014966.8074   24014953.423
        39.0004         34.0004
 -14404183.82547 -11213150.45647  23005750.6254   23005756.8704   23005750.517
        46.0004         42.0004
 -17130469.98148 -13318750.26647  21551116.4084   21551122.2204   21551115.796
        50.0004         46.0004
  -7382691.92247  -5753162.91747  22731393.6954   22731402.3294   22731393.686
        47.0004         42.0004
  -9671563.00647  -7481989.92747  23280204.4644   23280215.7404   23280203.769
        47.0004         42.0004
  -1300697.13847   -988419.08646  24085322.0384   24085333.2104   24085321.791
        43.0004         38.0004
  -7600150.43247  -5906405.41747  22700652.5884   22700657.3654   22700652.641
        47.0004         42.0004
 -25839286.55748 -20072445.32648  20452032.5494   20452038.9894   20452032.135
        53.0004         48.0004
  -9458083.15946  -7314942.46645  25163240.2824   25163248.9974   25163241.621
        38.0004         33.0004
 14  5 14  0 51 30.0000000  0 11G09G08G20G10G07G28G17G26G02G04G13
 -13669595.04149 -10644663.18448  20134489.0864   20134494.9264   20134488.931
        54.0004         50.0004
 -19415783.33448 -15123799.66948  20054319.3474   20054325.7824   20054319.588
        53.0004         49.0004
 -21812196.98246 -16945422.54245  24021793.5494   24021807.0344   24021794.746
        39.0004         34.0004
 -14474109.98247 -11267638.26347  22992443.9454   22992449.7104   22992444.312
        46.0004         42.0004
 -17044989.97548 -13252142.43547  21567382.7264   21567388.1664   21567382.312
        50.0004         46.0004
  -7441711.19347  -5799151.85747  22720163.5784   22720170.2484   22720162.868
        47.0004         42.0004
  -9633052.16347  -7451981.50447  23287532.3174   23287544.2344   23287532.119
        47.0004         42.0004
  -1291342.18347   -981129.28946  24087101.9744   24087112.8064   24087101.693
        43.0004         38.0004
  -7672113.89947  -5962480.73647  22686958.3684   22686962.8084   22686958.688
        47.0004         43.0004
 -25869684.52648 -20096132.03348  20446247.4134   20446254.1764   20446246.975
        53.0004         48.0004
  -9405401.99146  -7273892.05345  25173268.5014   25173269.6584   25173265.786
        37.0004         33.0004
 14  5 14  0 52  0.0000000  0 11G09G08G20G10G07G28G17G26G02G04G13
 -13638432.35649 -10620380.52148  20140418.8464   20140425.3914   20140419.134
        54.0004         50.0004
 -19380710.51848 -15096470.16048  20060993.1874   20061000.0344   20060993.707
        53.0004         49.0004
 -21775913.09946 -16917149.43945  24028698.6994   24028709.2564   24028699.233
        39.0004         34.0004
 -14544122.89747 -11322193.68247  22979120.5304   22979127.8884   22979120.711
        46.0004         42.0004
 -16959163.50948 -13185264.62547  21583714.3304   21583720.0794   21583714.006
        50.0004         46.0004
  -7500755.23347  -5845160.08847  22708926.0354   22708935.0794   22708926.921
        47.0004         42.0004
  -9594667.04847  -7422071.04947  23294837.1814   23294848.5964   23294836.838
        47.0004         42.0004
  -1281809.92947   -973701.32546  24088915.7024   24088926.3684   24088915.687
        43.0004         38.0004
  -7743733.81147  -6018288.35147  22673328.6514   22673334.2104   22673329.340
        47.0004         43.0004
 -25899538.25448 -20119394.65548  20440566.7664   20440572.9554   20440566.680
        53.0004         49.0004
  -9352985.44446  -7233047.85145  25183239.6484   25183246.2344   25183239.929
        37.0004         33.0004
 14  5 14  0 52 30.0000000  0 11G09G08G20G10G07G28G17G26G02G04G13
 -13606708.96249 -10595660.94348  20146455.7514   20146461.8964   20146455.673
        54.0004         50.0004
 -19345007.69948 -15068649.74548  20067787.1494   20067793.9404   20067787.656
        53.0004         49.0004
 -21739292.50646 -16888614.00445  24035666.6094   24035677.0834   24035668.598
        39.0004         34.0004
 -14614219.49947 -11376814.31947  22965781.3254   22965789.6684   22965781.732
        47.0004         42.0004
 -16872992.69648 -13118118.50747  21600112.2824   21600118.5534   21600112.413
        50.0004         46.0004
  -7559820.50047  -5891184.86947  22697687.6044   22697694.0654   22697686.651
        47.0004         42.0004
  -9556408.16247  -7392258.95447  23302118.3094   23302128.6374   23302117.587
        47.0004         42.0004
  -1272101.58347   -966136.14946  24090763.3814   24090773.4944   24090762.605
        43.0004         38.0004
  -7815007.26047  -6073825.99747  22659766.4014   22659770.7434   22659766.927
        47.0004         43.0004
 -25928846.07848 -20142231.89948  20434989.4784   20434996.2684   20434989.067
        53.0004         48.0004
  -9300832.72346  -7192409.22245  25193165.6194   25193172.5564   25193164.442
        38.0004         33.0004
 14  5 14  0 53  0.0000000  0 11G09G08G20G10G07G28G17G26G02G04G13
 -13574427.04349 -10570506.15648  20152598.9864   20152604.8434   20152598.768
        54.0004         50.0004
 -19308677.07648 -15040340.12748  20074700.7864   20074707.3954   20074701.348
        53.0004         49.0004
 -21702335.05846 -16859816.07645  24042699.2224   24042712.0434   24042700.154
        39.0004         34.0004
 -14684398.24147 -11431498.95247  22952426.9644   22952433.4784   22952427.280
        47.0004         42.0004
 -16786480.99048 -13050706.75147  21616574.9714   21616579.8204   21616574.828
        50.0004         46.0004
  -7618905.30247  -5937224.88147  22686441.9574   22686451.6554   22686443.238
        47.0004         42.0004
  -9518277.50647  -7362546.76547  23309373.6254   23309385.4074   23309373.312
        47.0004         42.0004
  -1262219.90347   -958435.91746  24092644.2464   24092654.6684   24092643.359
        43.0004         38.0004
  -7885932.90047  -6129092.62447  22646269.6764   22646273.8864   22646270.376
        47.0004         43.0004
 -25957607.55748 -20164643.42148  20429516.3434   20429522.5364   20429516.040
        53.0004         48.0004
  -9248944.71146  -7151976.87945  25203038.4524   25203046.3924   25203037.856
        37.0004         33.0004
 14  5 14  0 53 30.0000000  0 11G09G08G20G10G07G28G17G26G02G04G13
 -13541589.39449 -10544918.33048  20158847.8964   20158853.5554   20158847.684
        54.0004         50.0004
 -19271721.27348 -15011543.35648  20081733.3324   20081739.6634   20081733.498
        53.0004         49.0004
 -21665041.58446 -16830756.29545  24049797.8164   24049810.0164   24049797.811
        39.0004         35.0004
 -14754658.26247 -11486246.92147  22939056.5304   22939063.3424   22939057.151
        46.0004         42.0004
 -16699632.32548 -12983032.43147  21633101.8434   21633107.1214   21633101.721
        50.0004         46.0004
  -7678007.92347  -5983278.76847  22675195.6374   22675204.9184   22675196.597
        47.0004         42.0004
  -9480277.98547  -7332936.77047  23316604.4814   23316616.5864   23316604.382
        47.0004         42.0004
  -1252168.15447   -950603.16846  24094556.4294   24094566.8354   24094555.464
        43.0004         38.0004
  -7956510.40847  -6184087.98347  22632839.3694   22632844.1064   22632839.368
        47.0004         43.0004
 -25985823.27248 -20186629.67448  20424146.9814   20424153.2624   20424146.666
        53.0004         48.0004
                  -7111751.85245                  25212866.9454   25212860.633
                        32.0004
 14  5 14  0 54  0.0000000  0 11G09G08G20G10G07G28G17G26G02G04G13
 -13508195.11149 -10518896.76348  20165201.8144   20165208.3534   20165201.949
        54.0004         50.0004
 -19234139.26248 -14982258.63148  20088885.0504   20088891.2484   20088885.380
        53.0004         49.0004
 -21627408.82846 -16801432.11245  24056957.7724   24056969.8634   24056957.703
        40.0004         35.0004
 -14824994.83147 -11541054.52947  22925671.2194   22925678.9404   22925672.024
        46.0004         42.0004
 -16612447.26848 -12915095.98247  21649693.2664   21649697.9354   21649692.440
        50.0004         46.0004
  -7737123.11147  -6029342.45947  22663946.6084   22663954.3424   22663946.848
        47.0004         42.0004
  -9442408.88547  -7303428.38847  23323811.1554   23323822.6754   23323810.298
        47.0004         42.0004
  -1241945.95147   -942637.60046  24096500.1914   24096510.9534   24096500.774
        43.0004         38.0004
  -8026735.14447  -6238808.44947  22619475.3264   22619479.5194   22619476.015
        47.0004         43.0004
 -26013489.87648 -20208188.04648  20418882.2144   20418888.5324   20418881.862
        53.0004         49.0004
  -9145964.67846  -7071732.44045  25222631.4144   25222638.0894   25222634.114
        37.0004         33.0004
 14  5 14  0 54 30.0000000  0 11G09G08G20G10G07G28G17G26G02G04G13
 -13474247.46949 -10492444.01248  20171661.9224   20171667.9524   20171662.276
        54.0004         50.0004
 -19195933.69748 -14952488.02048  20096155.3804   20096161.8754   20096155.291
        53.0004         49.0004
 -21589437.93646 -16771844.49545  24064180.9394   24064192.5304   24064184.733
        39.0004         35.0004
 -14895407.06347 -11595921.11147  22912273.8814   22912279.6704   22912273.173
        46.0004         42.0004
 -16524930.02448 -12846900.69347  21666347.0364   21666352.1674   21666346.231
        50.0004         45.0004
  -7796249.95247  -6075415.22847  22652694.6584   22652703.4944   22652695.398
        47.0004         42.0004
  -9404672.87547  -7274023.72047  23330991.6974   23331003.1414   23330991.367
        47.0004         42.0004
  -1231556.86047   -934541.97746  24098477.9094   24098488.7614   24098476.841
        43.0004         38.0004
  -8096606.77347  -6293253.77547  22606178.6134   22606183.9744   22606179.874
        47.0004         43.0004
 -26040608.05448 -20229319.08048  20413722.2174   20413728.5024   20413721.901
        53.0004         49.0004
                  -7031919.80245                  25232363.7534   25232357.783
                        32.0004
 14  5 14  0 55  0.0000000  0 11G09G08G20G10G07G28G17G26G02G04G13
 -13439748.73149 -10465561.83048  20178226.9204   20178233.0234   20178226.887
        54.0004         50.0004
 -19157107.16648 -14922233.54148  20103543.9024   20103550.2194   20103544.020
        53.0004         49.0004
 -21551129.21346 -16741993.62745  24071473.8224   24071484.8944   24071474.827
        39.0004         34.0004
 -14965893.35847 -11650845.40947  22898859.0314   22898866.1974   22898860.164
        46.0004         42.0004
 -16437084.22848 -12778449.38847  21683063.2284   21683068.4324   21683062.609
        50.0004         45.0004
  -7855386.08247  -6121495.23847  22641442.8044   22641450.6124   22641442.074
        47.0004         42.0004
  -9367072.02647  -7244724.37247  23338146.6824   23338158.1494   23338146.483
        47.0004         42.0004
  -1221003.57947   -926318.41346  24100485.9504   24100495.9854   24100486.166
        43.0004         38.0004
  -8166123.89347  -6347422.85347  22592950.7274   22592954.9264   22592950.934
        47.0004         43.0004
 -26067177.80648 -20250022.76448  20408665.6044   20408672.2274   20408665.364
        53.0004         49.0004
  -9044045.22646  -6992314.44845  25242031.3134   25242034.2564   25242029.350
        37.0004         33.0004
 14  5 14  0 55 30.0000000  0 11G09G08G20G10G07G28G17G26G02G04G13
 -13404699.10349 -10438250.38548  20184896.8094   20184902.9774   20184896.719
        54.0004         50.0004
 -19117659.80848 -14891495.30148  20111049.6184   20111056.4544   20111050.398
        53.0004         49.0004
 -21512480.82846 -16711878.06545  24078828.4874   24078837.9014   24078829.637
        39.0004         34.0004
 -15036450.34647 -11705824.79147  22885432.8984   22885439.9374   22885433.259
        46.0004         42.0004
 -16348911.39048 -12709743.24647  21699842.2724   21699847.0554   21699841.800
        50.0004         46.0004
  -7914527.71147  -6167579.54547  22630187.4814   22630197.5094   22630187.939
        47.0004         42.0004
  -9329606.61647  -7215530.57347  23345277.1154   23345287.4314   23345275.909
        47.0004         42.0004
  -1210286.88247   -917967.53346  24102525.4714   24102535.0774   24102524.110
        43.0004         38.0004
  -8235283.44747  -6401313.31947  22579790.4084   22579794.8764   22579790.914
        47.0004         43.0004
 -26093196.57648 -20270297.11148  20403714.6484   20403721.1694   20403714.380
        53.0004         49.0004
  -8993483.16746  -6952915.24645  25251651.3024   25251657.3844   25251650.599
        38.0004         33.0004
 14  5 14  0 56  0.0000000  0 11G09G08G20G10G07G28G17G26G02G04G13
 -13369102.04449 -10410512.37148  20191670.3614   20191676.7234   20191670.543
        54.0004         50.0004
 -19077594.65948 -14860275.66748  20118674.2114   20118680.7534   20118674.300
        53.0004         48.0004
 -21473493.96746 -16681498.72545  24086241.0034   24086257.0714   24086247.557
        38.0004         34.0004
 -15107077.25247 -11760858.64647  22871993.2494   22871999.4804   22871993.891
        46.0004         42.0004
 -16260415.89148 -12640785.67847  21716681.5964   21716686.7754   21716681.465
        50.0004         45.0004
  -7973673.32947  -6213666.95747  22618932.0994   22618941.8514   22618932.649
        47.0004         42.0004
  -9292279.67047  -7186444.66247  23352379.8754   23352390.3684   23352379.309
        47.0004         42.0004
  -1199410.40747   -909492.14546  24104594.9664   24104605.0004   24104594.495
        43.0004         38.0004
  -8304085.01747  -6454924.83847  22566697.5224   22566701.0754   22566697.819
        47.0004         43.0004
 -26118665.61448 -20290143.09848  20398868.3084   20398874.4174   20398867.800
        53.0004         49.0004
  -8943187.71346  -6913723.84145  25261221.0604   25261222.7624   25261221.421
        37.0004         32.0004
 14  5 14  0 56 30.0000000  0 11G09G08G20G10G07G28G17G26G02G04G13
 -13332960.02149 -10382349.71248  20198547.9894   20198554.2124   20198547.976
        54.0004         50.0004
 -19036914.11248 -14828576.50148  20126415.4674   20126421.5484   20126415.763
        53.0004         48.0004
 -21434168.67146 -16650855.72345  24093734.1174   24093739.7544   24093731.782
        38.0004         34.0004
 -15177772.74947 -11815945.97047  22858539.8444   22858546.8124   22858540.638
        46.0004         42.0004
 -16171601.49248 -12571579.61347  21733582.4694   21733587.0964   21733582.437
        50.0004         45.0004
  -8032821.37747  -6259756.26647  22607676.7194   22607686.8724   22607677.278
        47.0004         42.0004
  -9255093.51947  -7157468.45047  23359456.3874   23359467.4134   23359455.718
        47.0004         42.0004
  -1188377.19447   -900894.62846  24106695.0214   24106704.5784   24106693.790
        42.0004         38.0004
  -8372527.70048  -6508256.71047  22553673.5564   22553678.0594   22553673.043
        48.0004         43.0004
 -26143585.00748 -20309560.79348  20394126.2164   20394132.2664   20394125.738
        53.0004         49.0004
  -8893159.67446  -6874740.81945  25270740.5984   25270745.7594   25270741.099
        37.0004         33.0004
 14  5 14  0 57  0.0000000  0 11G09G08G20G10G07G28G17G26G02G04G13
 -13296271.96649 -10353761.56848  20205529.9054   20205535.7884   20205529.766
        54.0004         50.0004
 -18995616.90848 -14796396.82648  20134273.6554   20134280.4544   20134274.256
        53.0004         48.0004
 -21394501.16746 -16619946.02145  24101279.5054   24101293.7954   24101280.314
        39.0004         34.0004
 -15248531.09547 -11871082.25147  22845074.8264   22845082.2504   22845075.259
        46.0004         42.0004
 -16082467.92848 -12502124.85247  21750545.0094   21750549.9444   21750544.145
        50.0004         45.0004
  -8091965.95547  -6305842.87647  22596421.7014   22596430.3364   22596422.429
        47.0004         42.0004
  -9218046.37447  -7128600.56947  23366505.4734   23366518.6394   23366505.679
        47.0004         42.0004
  -1177186.03147   -892174.01946  24108824.4814   24108832.9874   24108823.053
        42.0004         38.0004
  -8440606.53048  -6561305.04947  22540717.8674   22540722.5594   22540719.359
        48.0004         43.0004
 -26167950.96148 -20328547.24048  20389489.5494   20389495.5974   20389489.009
        53.0004         49.0004
  -8843395.73746  -6835963.55045  25280211.9984   25280216.6424   25280211.530
        38.0004         33.0004
 14  5 14  0 57 30.0000000  0 11G09G08G20G10G07G28G17G26G02G04G13
 -13259043.48549 -10324752.31648  20212613.4634   20212620.2374   20212613.664
        54.0004         50.0004
 -18953708.54648 -14763740.92348  20142248.9214   20142254.9354   20142249.272
        53.0004         48.0004
 -21354495.86146 -16588773.13345  24108892.8424   24108901.8444   24108893.809
        38.0004         34.0004
 -15319354.13447 -11926268.95847  22831597.7664   22831603.8334   22831598.140
        46.0004         42.0004
 -15993022.13948 -12432426.79147  21767565.1484   21767570.5334   21767564.822
        50.0004         45.0004
  -8151107.98047  -6351927.49847  22585168.4474   22585176.9874   22585167.730
        47.0004         42.0004
  -9181143.30047  -7099844.96647  23373528.8234   23373540.2304   23373527.973
        47.0004         42.0004
  -1165843.08647   -883335.16446  24110982.1634   24110993.0304   24110981.421
        42.0004         38.0004
  -8508323.79348  -6614071.65147  22527832.3034   22527836.7074   22527832.379
        48.0004         43.0004
 -26191766.62148 -20347104.87848  20384957.3634   20384963.5804   20384956.821
        53.0004         49.0004
  -8793900.11846  -6797395.44945  25289632.4854   25289635.4724   25289629.577
        38.0004         33.0004
 14  5 14  0 58  0.0000000  0 11G09G08G20G10G07G28G17G26G02G04G13
 -13221274.78949 -10295322.12048  20219801.2464   20219807.0684   20219801.162
        54.0004         50.0004
 -18911189.35248 -14730609.05148  20150339.8204   20150346.6024   20150340.313
        53.0004         48.0004
 -21314150.12846 -16557334.99245  24116570.3564   24116578.5744   24116569.867
        39.0004         34.0004
 -15390237.95447 -11981503.02047  22818109.4144   22818115.9294   22818109.368
        46.0004         42.0004
 -15903265.11448 -12362486.21547  21784645.5384   21784650.2544   21784645.153
        50.0004         45.0004
  -8210243.16247  -6398006.78747  22573914.3684   22573922.9194   22573915.444
        47.0004         43.0004
  -9144384.91247  -7071202.10147  23380522.7144   23380534.1694   23380522.727
        47.0004         42.0004
  -1154348.86547   -874378.40946  24113167.9944   24113178.3814   24113168.041
        42.0004         38.0004
  -8575675.65648  -6666553.54147  22515015.1484   22515020.5664   22515016.021
        48.0004         43.0004
 -26215029.84248 -20365232.04648  20380530.3754   20380536.9374   20380530.067
        53.0004         49.0004
 -10320091.24456  -7986635.11855  25298996.2275   25299001.6785   25298997.706
        38.0004         33.0004
 14  5 14  0 58 30.0000000  0 11G09G08G20G10G07G28G17G26G02G04G13
 -13182967.60649 -10265472.32348  20227090.5784   20227096.9484   20227090.534
        54.0004         50.0004
 -18868060.73948 -14697002.30648  20158546.8494   20158553.2574   20158547.199
        53.0004         48.0004
 -21273463.49446 -16525631.16545  24124313.1324   24124324.5894   24124313.398
        39.0004         34.0004
 -15461180.18347 -12036782.58347  22804608.5994   22804615.2294   22804609.157
        46.0004         42.0004
 -15813199.78648 -12292305.40547  21801784.2514   21801789.9844   21801783.602
        50.0004         45.0004
  -8269368.69847  -6444078.55947  22562663.6484   22562672.6454   22562663.780
        47.0004         43.0004
  -9107771.60347  -7042672.27847  23387490.3494   23387502.4224   23387490.057
        47.0004         42.0004
  -1142705.26547   -865305.26346  24115383.8654   24115393.8794   24115384.167
        42.0004         38.0004
  -8642660.08148  -6718749.10047  22502268.4414   22502272.9174   22502269.169
        48.0004         43.0004
 -26237739.71748 -20382928.03948  20376208.8694   20376215.3234   20376208.406
        53.0004         49.0004
                  -7948482.61345                  25308320.7694   25308315.002
                        33.0004
 14  5 14  0 59  0.0000000  0 11G09G08G20G10G07G28G17G26G02G04G13
 -13144123.39549 -10235204.06548  20234482.6654   20234488.4814   20234482.681
        54.0004         50.0004
 -18824324.16048 -14662921.82248  20166869.9294   20166876.4324   20166870.264
        53.0004         48.0004
 -21232435.26546 -16493661.17745  24132119.7364   24132129.9044   24132120.679
        39.0004         34.0004
 -15532178.21147 -12092105.64747  22791097.9754   22791105.8634   22791099.382
        46.0004         42.0004
 -15722828.85948 -12221886.45747  21818981.0014   21818986.3804   21818980.260
        50.0004         45.0004
  -8328481.62147  -6490140.49947  22551414.2764   22551422.0584   22551414.713
        47.0004         43.0004
  -9071305.32347  -7014257.01147  23394429.3044   23394440.9024   23394429.258
        47.0004         42.0004
  -1130914.12247   -856117.15346  24117628.4474   24117637.7804   24117627.601
        42.0004         38.0004
  -8709275.15948  -6770656.86547  22489591.9734   22489596.1174   22489592.472
        48.0004         43.0004
 -26259895.64348 -20400192.38248  20371993.0634   20371999.4684   20371992.515
        53.0004         49.0004
 -10222433.21446  -7910537.67145  25317578.7134   25317586.2774   25317581.201
        37.0004         33.0004
 14  5 14  0 59 30.0000000  0 11G09G08G20G10G07G28G17G26G02G04G13
 -13104746.18849 -10204520.48548  20241975.6664   20241981.7854   20241975.468
        54.0004         50.0004
 -18779983.44648 -14628370.57748  20175307.5984   20175314.0814   20175307.752
        53.0004         48.0004
 -21191067.32546 -16461426.51745  24139993.1334   24140003.1054   24139991.658
        39.0004         34.0004
 -15603231.75547 -12147471.96947  22777577.9314   22777584.2224   22777577.527
        46.0004         42.0004
 -15632157.40748 -12151233.34747  21836235.3694   21836239.9214   21836234.897
        50.0004         45.0004
  -8387581.02547  -6536191.90847  22540168.0504   22540176.0974   22540168.817
        47.0004         43.0004
  -9034989.11747  -6985958.69247  23401340.5044   23401351.9074   23401340.279
        47.0004         42.0004
  -1118979.74647   -846817.43746  24119898.3324   24119909.7034   24119898.634
        42.0004         38.0004
  -8775521.53348  -6822277.33347  22476986.1134   22476989.2414   22476986.373
        48.0004         43.0004
 -26281499.04448 -20417026.19348  20367881.3974   20367888.0734   20367881.428
        53.0004         49.0004
 -10174005.58746  -7872801.72445  25326793.9494   25326806.2054   25326796.340
        37.0004         33.0004
 14  5 14  1  0  0.0000000  0 11G09G08G20G10G07G28G17G26G02G04G13
 -13064836.53449 -10173422.01748  20249570.1994   20249576.2844   20249570.032
        54.0004         49.0004
 -18735039.24448 -14593349.08848  20183860.2224   20183866.4504   20183860.489
        53.0004         48.0004
 -21149358.05646 -16428925.83445  24147930.1394   24147938.9064   24147929.225
        39.0004         34.0004
 -15674336.91547 -12202878.50447  22764045.6484   22764052.3694   22764046.878
        46.0004         42.0004
 -15541186.65148 -12080347.00547  21853546.3744   21853550.9484   21853545.679
        50.0004         45.0004
  -8446662.69447  -6582229.50447  22528924.9574   22528933.5894   22528925.545
        47.0004         43.0004
  -8998822.93147  -6957777.28047  23408222.7624   23408234.3124   23408222.374
        47.0004         42.0004
  -1106902.80147   -837406.62946  24122195.3624   24122206.2004   24122196.073
        42.0004         37.0004
  -8841396.12148  -6873608.09447  22464450.2774   22464454.3354   22464450.423
        48.0004         43.0004
 -26302548.07748 -20433428.02748  20363876.2984   20363882.9574   20363875.983
        53.0004         49.0004
                  -7835273.68945                  25335963.0284   25335960.500
                        33.0004
 14  5 14  1  0 30.0000000  0 11G09G08G20G10G07G28G17G26G02G04G13
 -13024388.18849 -10141903.79348  20257267.0594   20257273.4744   20257267.165
        54.0004         49.0004
 -18689485.19548 -14557852.39348  20192528.5824   20192534.8434   20192529.056
        53.0004         48.0004
 -22682718.49246 -17623752.25445  24155932.2714   24155942.5514   24155932.261
        39.0004         35.0004
 -15745482.95547 -12258316.90147  22750507.2724   22750514.7744   22750508.531
        47.0004         42.0004
 -15449911.54048 -12009223.51147  21870915.4354   21870921.3784   21870915.061
        50.0004         45.0004
  -8505715.79947  -6628244.84647  22517688.0654   22517696.5934   22517687.912
        47.0004         43.0004
  -8962799.93147  -6929707.44447  23415078.6164   23415089.2134   23415077.481
        47.0004         42.0004
  -1094677.26347   -827880.03546  24124523.6154   24124533.3404   24124522.981
        42.0004         38.0004
  -8906888.80548  -6924641.26947  22451987.8164   22451991.8814   22451987.928
        48.0004         44.0004
 -26323034.10848 -20449391.16448  20359977.7144   20359984.2704   20359977.538
        53.0004         49.0004
 -10077942.98246  -7797947.44545  25345076.0224   25345080.2514   25345075.996
        37.0004         33.0004
 14  5 14  1  1  0.0000000  0 11G09G08G20G10G07G28G17G26G02G04G13
 -12983424.10349 -10109983.68648  20265062.6104   20265068.3444   20265062.288
        54.0004         49.0004
 -18643344.03948 -14521898.21148  20201308.9804   20201315.4314   20201309.279
        53.0004         48.0004
 -22640329.70146 -17590722.05445  24164000.0474   24164008.1924   24164000.313
        39.0004         34.0004
 -15816688.89747 -12313801.98247  22736957.6324   22736964.4714   22736957.995
        47.0004         42.0004
 -15358355.94848 -11937881.45547  21888337.2504   21888342.9464   21888337.558
        50.0004         45.0004
  -8564758.57847  -6674252.15347  22506452.8484   22506460.7364   22506452.248
        47.0004         43.0004
  -8926942.51247  -6901766.62547  23421900.7304   23421912.8504   23421901.095
        47.0004         42.0004
  -1082326.06747   -818255.52346  24126873.3854   24126883.4324   24126872.933
        42.0004         38.0004
  -8972018.62148  -6975391.69147  22439593.8294   22439596.7644   22439593.856
        48.0004         43.0004
 -26342977.43848 -20464931.41348  20356182.9244   20356189.1494   20356182.540
        53.0004         49.0004
 -10030320.66646  -7760838.94945  25354136.5924   25354142.2754   25354138.317
        38.0004         34.0004
 14  5 14  1  1 30.0000000  0 11G09G08G20G10G07G28G17G26G02G04G13
 -12941933.08849 -10077652.98748  20272957.8754   20272963.8264   20272957.752
        54.0004         49.0004
 -18596604.65148 -14485477.87948  20210203.2794   20210209.5754   20210203.455
        53.0004         48.0004
 -22597598.36246 -17557424.94345  24172131.3804   24172141.6904   24172131.721
        38.0004         34.0004
 -15887939.06947 -12369321.51747  22723399.0564   22723405.5114   22723400.341
        47.0004         42.0004
 -15266509.85748 -11866313.04247  21905816.3384   21905820.8574   21905815.421
        50.0004         45.0004
  -8623775.04647  -6720238.94847  22495221.6064   22495231.4624   22495221.965
        47.0004         43.0004
  -8891238.93047  -6873945.67847  23428694.8684   23428706.6294   23428695.051
        47.0004         42.0004
  -1069838.47447   -808524.72946  24129249.8274   24129259.6634   24129249.242
        42.0004         38.0004
  -9036771.00848  -7025848.01847  22427271.4054   22427275.8034   22427271.454
        48.0004         43.0004
 -26362364.82148 -20480038.45348  20352493.2474   20352500.1524   20352493.067
        53.0004         49.0004
  -9982965.18546                  25363151.0674                   25363149.917
        38.0004
 14  5 14  1  2  0.0000000  0 11G09G08G20G10G07G28G17G26G02G04G13
 -12899917.51249 -10044913.53948  20280953.1634   20280959.2124   20280953.119
        54.0004         49.0004
 -18549269.46448 -14448593.28648  20219210.8794   20219217.1374   20219211.348
        53.0004         48.0004
 -22554524.71146 -17523861.11245  24180326.8554   24180338.1694   24180327.545
        38.0004         34.0004
 -15959231.68547 -12424874.14247  22709832.9244   22709839.2214   22709832.720
        47.0004         42.0004
 -15174376.13448 -11794520.50147  21923348.4064   21923353.3144   21923348.163
        49.0004         45.0004
  -8682762.69148  -6766203.28947  22483996.4344   22484004.2164   22483996.850
        48.0004         43.0004
  -8855690.78447  -6846245.84747  23435460.1194   23435472.0404   23435459.547
        46.0004         42.0004
  -1057216.97347   -798689.58746  24131650.3614   24131660.2814   24131650.348
        42.0004         38.0004
  -9101144.45448  -7076009.06647  22415021.5014   22415024.6284   22415022.039
        48.0004         43.0004
 -26381196.11548 -20494712.18548  20348910.2664   20348916.5944   20348909.785
        53.0004         49.0004
  -9935876.54746  -7687245.93945  25372112.5454   25372115.7404   25372110.876
        39.0004         34.0004
 14  5 14  1  2 30.0000000  0 11G09G08G20G10G07G28G17G26G02G04G13
 -12857377.37349 -10011765.33548  20289047.9234   20289054.2014   20289047.841
        54.0004         49.0004
 -18501338.36948 -14411244.34748  20228331.7384   20228338.0254   20228331.759
        53.0004         48.0004
 -22511106.30846 -17490028.65145  24188590.3364   24188597.8684   24188590.522
        38.0004         34.0004
 -16030562.03647 -12480456.15247  22696258.9364   22696265.1694   22696259.429
        47.0004         42.0004
 -15081956.14548 -11722504.90147  21940935.1104   21940939.7514   21940934.941
        49.0004         45.0004
  -8741716.86148  -6812141.55247  22472779.6254   22472787.1744   22472778.448
        48.0004         43.0004
  -8820297.70347  -6818666.84647  23442195.5984   23442207.0474   23442194.780
        46.0004         42.0004
  -1044461.72247   -788750.21246  24134078.5364   24134087.7404   24134078.444
        42.0004         38.0004
  -9165135.73848  -7125872.31747  22402844.0344   22402848.6374   22402844.900
        48.0004         44.0004
 -26399468.75348 -20508950.59348  20345432.9894   20345439.5054   20345432.569
        53.0004         49.0004
                  -7650759.80745                  25381024.2494   25381020.180
                        33.0004
 14  5 14  1  3  0.0000000  0 11G09G08G20G10G07G28G17G26G02G04G13
 -12814320.08449  -9978214.16248  20297241.6934   20297247.6624   20297241.620
        54.0004         49.0004
 -18452818.56548 -14373436.68248  20237564.9134   20237571.0514   20237565.323
        53.0004         48.0004
 -22467348.18646 -17455931.44445  24196918.2624   24196927.1504   24196918.976
        39.0004         34.0004
 -16101933.05647 -12536069.86147  22682677.4734   22682684.0664   22682677.309
        47.0004         42.0004
 -14989258.00748 -11650272.55147  21958574.9094   21958580.3954   21958574.600
        49.0004         45.0004
  -8800639.88748  -6858055.54047  22461564.7364   22461573.4474   22461565.735
        48.0004         43.0004
  -8785066.08347  -6791213.64947  23448900.4804   23448910.6394   23448899.501
        47.0004         42.0004
  -1031579.98147   -778712.30746  24136528.2604   24136537.7124   24136529.095
        42.0004         38.0004
  -9228748.20648  -7175440.39647  22390739.6704   22390742.9804   22390739.085
        48.0004         44.0004
 -26417187.99248 -20522757.78148  20342061.0024   20342067.2844   20342060.591
        53.0004         49.0004
  -9842499.13046  -7614484.19545  25389877.9064   25389885.1354   25389878.712
        38.0004         33.0004
 14  5 14  1  3 30.0000000  0 11G09G08G20G10G07G28G17G26G02G04G13
 -12770738.40549  -9944254.37348  20305534.9734   20305540.8604   20305534.982
        54.0004         49.0004
 -18403702.88148 -14335164.68848  20246911.0694   20246917.7234   20246911.288
        53.0004         48.0004
 -22423240.82346                  24205313.5364                   24205309.829
        38.0004
 -16173333.21247 -12591706.28047  22669089.6774   22669095.4074   22669090.636
        47.0004         42.0004
 -14896275.36548 -11577818.51847  21976269.0104   21976274.5334   21976268.784
        49.0004         45.0004
  -8859519.35548  -6903935.59247  22450361.0544   22450369.0924   22450361.175
        48.0004         43.0004
  -8749987.76247  -6763879.91947  23455574.6914   23455586.6924   23455574.498
        47.0004         42.0004
  -1018564.76447   -768570.35746  24139004.4534   24139014.8794   24139004.933
        42.0004         38.0004
  -9291970.95948  -7224704.80747  22378707.8984   22378712.4564   22378708.271
        48.0004         43.0004
 -26434343.99148 -20536126.08248  20338796.7624   20338802.9644   20338796.240
        53.0004         49.0004
  -9796205.92646  -7578411.48645  25398689.1194   25398696.4924   25398688.509
        38.0004         33.0004
 14  5 14  1  4  0.0000000  0 11G09G08G20G10G07G28G17G26G02G04G13
 -12726648.54249  -9909898.60248  20313925.3224   20313930.8184   20313924.900
        54.0004         49.0004
 -18354007.36248 -14296440.88148  20256368.2164   20256374.1924   20256368.200
        53.0004         48.0004
 -22378798.00446 -17386931.41845  24213771.0514   24213778.6314   24213769.097
        38.0004         33.0004
 -16244774.05847 -12647374.40547  22655495.5814   22655502.4914   22655496.432
        47.0004         43.0004
 -14803025.23648 -11505156.05247  21994013.4024   21994018.9514   21994013.369
        49.0004         45.0004
  -8918366.99148  -6949790.84647  22439163.0014   22439171.5254   22439162.579
        48.0004         43.0004
  -8715078.49947  -6736677.93047  23462218.2254   23462230.4234   23462217.468
        46.0004         42.0004
  -1005432.17347   -758336.96646  24141505.3054   24141515.0224   24141504.619
        42.0004         38.0004
  -9354816.52348  -7273675.29247  22366749.0444   22366753.2114   22366749.494
        48.0004         44.0004
 -26450950.49548 -20549066.21148  20335636.1944   20335642.2554   20335635.680
        53.0004         49.0004
  -9750187.11446                  25407446.4384                   25407445.415
        38.0004
 14  5 14  1  4 30.0000000  0 10G09G08G10G07G28G17G26G02G04G13
 -12682043.20549  -9875141.16348  20322413.4164   20322418.7714   20322413.111
        54.0004         49.0004
 -18303724.47948 -14257259.38148  20265936.5524   20265942.7094   20265936.816
        53.0004         48.0004
 -16316243.59447 -12703064.88547  22641895.1174   22641902.3274   22641896.234
        47.0004         43.0004
 -14709500.86348 -11432279.89847  22011810.6104   22011815.7624   22011810.235
        49.0004         44.0004
  -8977170.13548  -6995611.42947  22427972.7404   22427980.0914   22427972.817
        48.0004         43.0004
  -8680329.78147  -6709601.01847  23468830.4694   23468842.4184   23468830.536
        47.0004         42.0004
   -992174.91147   -748006.43246  24144027.0154   24144037.0264   24144027.394
        43.0004         38.0004
  -9417273.36548  -7322342.88747  22354863.2564   22354868.1174   22354863.585
        48.0004         44.0004
 -26466997.84048 -20561570.62848  20332582.5584   20332588.7154   20332582.275
        53.0004         49.0004
  -9704433.29656                  25416147.7285                   25416152.024
        38.0004
 14  5 14  1  5  0.0000000  0 10G09G08G10G07G28G17G26G02G04G13
 -12636918.50549  -9839979.02248  20331000.0104   20331006.0234   20331000.037
        54.0004         49.0004
 -18252850.56648 -14217617.33448  20275617.1674   20275623.8514   20275617.470
        53.0004         48.0004
 -16387733.68847 -12758771.39447  22628290.6354   22628297.9244   22628291.762
        47.0004         43.0004
 -14615699.76648 -11359188.11147  22029660.8384   22029665.6494   22029660.303
        49.0004         45.0004
  -9035920.39748  -7041390.80347  22416792.2544   22416801.1024   22416793.335
        48.0004         43.0004
  -8645737.28147  -6682645.83047  23475412.9924   23475424.5934   23475412.605
        47.0004         42.0004
   -978789.34947   -737575.93646  24146574.4034   24146584.2454   24146574.310
        43.0004         38.0004
  -9479334.20448  -7370701.90147  22343053.5524   22343058.2794   22343054.426
        48.0004         44.0004
 -26482479.85548 -20573634.53048  20329636.4274   20329642.9814   20329636.271
        53.0004         49.0004
                                                                  25424808.306

 14  5 14  1  5 30.0000000  0 10G09G08G10G07G28G17G26G02G04G13
 -12591295.17849  -9804428.34948  20339681.9934   20339687.5924   20339681.822
        54.0004         49.0004
 -18201406.31748 -14177530.87448  20285407.1814   20285412.8454   20285407.287
        53.0004         48.0004
 -16459260.45248 -12814506.46347  22614680.1744   22614687.6054   22614681.066
        48.0004         43.0004
 -14521642.98748 -11285897.08847  22047558.9434   22047563.6984   22047558.479
        49.0004         44.0004
  -9094633.21748  -7087140.99747  22405620.4624   22405628.6084   22405620.096
        48.0004         43.0004
  -8611320.46147  -6655827.53447  23481962.3554   23481973.8804   23481962.000
        47.0004         42.0004
   -965295.99047   -727061.42146  24149142.4174   24149152.9144   24149142.264
        43.0004         38.0004
  -9541016.22748  -7418765.73547  22331315.6804   22331321.0034   22331316.461
        48.0004         44.0004
 -26497414.87848 -20585272.20148  20326794.0544   20326800.7434   20326793.607
        53.0004         49.0004
                                                                  25433414.340

 14  5 14  1  6  0.0000000  0 10G09G08G10G07G28G17G26G02G04G13
 -12545167.36049  -9768484.56148  20348459.6154   20348465.4154   20348459.560
        54.0004         49.0004
 -18149386.09048 -14136995.59448  20295306.0364   20295312.1104   20295306.347
        53.0004         48.0004
 -16530813.29848 -12870261.86147  22601064.0284   22601070.8644   22601064.580
        48.0004         43.0004
 -14427325.40948 -11212402.85147  22065506.6914   22065512.7524   22065506.775
        49.0004         45.0004
  -9153296.94748  -7132852.95547  22394455.8464   22394465.3514   22394456.812
        48.0004         43.0004
  -8577072.30247  -6629140.66147  23488479.7304   23488490.8644   23488479.216
        47.0004         42.0004
   -951688.98947   -716458.36046  24151731.3994   24151739.1674   24151731.426
        43.0004         38.0004
  -9602309.62748  -7466526.74747  22319652.3884   22319657.4494   22319652.526
        48.0004         44.0004
 -26511794.58248 -20596477.14948  20324058.0934   20324064.2544   20324057.992
        53.0004         49.0004
                                                                  25441966.430

 14  5 14  1  6 30.0000000  0  9G09G08G10G07G28G17G26G02G04
 -12498535.88249  -9732148.31348  20357333.5594   20357339.2824   20357333.522
        54.0004         49.0004
 -18096790.59448 -14096012.05548  20305314.6214   20305320.8344   20305314.898
        53.0004         48.0004
 -16602388.37448 -12926034.59347  22587443.8474   22587449.2594   22587444.127
        48.0004         43.0004
 -14332748.81048 -11138706.77247  22083504.4314   22083509.7334   22083503.964
        49.0004         44.0004
  -9211908.13648  -7178523.96047  22383303.8814   22383312.3584   22383303.925
        48.0004         43.0004
  -8542993.01947  -6602585.38247  23494964.2904   23494975.6404   23494963.932
        47.0004         42.0004
   -937969.23447   -705767.44146  24154342.4844   24154351.7604   24154341.513
        43.0004         38.0004
  -9663211.71548  -7513982.84547  22308063.5374   22308067.0414   22308063.599
        49.0004         44.0004
 -26525617.60748 -20607248.33348  20321427.5754   20321433.4894   20321426.939
        53.0004         49.0004
 14  5 14  1  7  0.0000000  0  9G09G08G10G07G28G17G26G02G04
 -12451402.21149  -9695420.74448  20366302.6044   20366308.1034   20366302.369
        54.0004         49.0004
 -18043620.80848 -14054581.02148  20315432.3834   20315438.5904   20315432.588
        53.0004         48.0004
 -16673982.33948 -12981822.04347  22573818.6784   22573826.0794   22573820.306
        48.0004         43.0004
 -14237915.53148 -11064810.68447  22101550.7444   22101555.6944   22101549.984
        49.0004         44.0004
  -9270463.25548  -7224151.29447  22372161.4004   22372168.9824   22372161.372
        48.0004         43.0004
  -8509083.07647  -6576162.04447  23501417.2804   23501429.2624   23501417.285
        47.0004         42.0004
   -924138.10547   -694989.73946  24156973.9064   24156983.2064   24156973.273
        43.0004         38.0004
  -9723720.04748  -7561132.12547  22296548.2824   22296552.7724   22296548.823
        49.0004         44.0004
 -26538883.04948 -20617585.03148  20318903.1884   20318909.6274   20318902.882
        53.0004         49.0004
 14  5 14  1  7 30.0000000  0  9G09G08G10G07G28G17G26G02G04
 -12403769.38149  -9658304.22548  20375366.7504   20375372.7414   20375366.735
        54.0004         49.0004
 -17989880.00948 -14012705.03848  20325658.5444   20325665.1394   20325658.882
        53.0004         48.0004
 -16745593.59248 -13037622.96847  22560192.3224   22560198.3034   22560193.805
        48.0004         43.0004
 -14142829.13848 -10990717.36747  22119644.9024   22119649.7094   22119644.235
        49.0004         44.0004
  -9328959.86948  -7269733.04347  22361029.8104   22361037.0694   22361029.632
        48.0004         43.0004
  -8475344.65747  -6549872.35247  23507838.0784   23507848.2844   23507837.551
        47.0004         42.0004
   -910198.63247   -684127.61646  24159625.9514   24159636.3614   24159626.005
        43.0004         39.0004
  -9783833.82348  -7607973.95247  22285109.1754   22285113.3674   22285110.072
        49.0004         44.0004
 -26551591.57248 -20627487.76948  20316485.0014   20316491.1404   20316484.521
        53.0004         49.0004
 14  5 14  1  8  0.0000000  0  9G09G08G10G07G28G17G26G02G04
 -12355640.43349  -9620801.12348  20384525.2494   20384531.1744   20384525.354
        54.0004         49.0004
 -17935571.43548 -13970386.63648  20335993.2534   20335999.3244   20335993.746
        53.0004         48.0004
 -16817220.41248 -13093436.01547  22546562.4444   22546568.2204   22546562.861
        48.0004         43.0004
 -14047493.54748 -10916429.88047  22137786.9264   22137790.6954   22137786.516
        49.0004         44.0004
  -9387396.20248  -7315267.80247  22349910.2474   22349916.7914   22349909.507
        48.0004         43.0004
  -8441779.55647  -6523717.71447  23514225.2404   23514235.5364   23514224.525
        47.0004         42.0004
   -896153.63047   -673183.27046  24162299.1694   24162308.1944   24162298.532
        43.0004         39.0004
  -9843552.59948  -7654507.98847  22273744.9434   22273749.0054   22273745.448
        49.0004         44.0004
 -26563743.70048 -20636956.95048  20314172.2384   20314178.8734   20314171.931
        53.0004         49.0004
 14  5 14  1  8 30.0000000  0  9G09G08G10G07G28G17G26G02G04
 -12307017.68849  -9582913.24448  20393778.0064   20393783.9194   20393777.791
        54.0004         49.0004
 -17880697.58148 -13927627.75548  20346435.2404   20346441.8604   20346435.614
        53.0004         48.0004
 -16888860.42048 -13149259.34147  22532929.6174   22532936.6234   22532929.501
        48.0004         43.0004
 -13951911.79148 -10841950.56247  22155975.3974   22155979.9424   22155974.680
        49.0004         44.0004
  -9445769.21948  -7360753.22147  22338801.5054   22338808.9554   22338801.517
        48.0004         43.0004
  -8408389.05147  -6497699.12747  23520577.7524   23520589.7294   23520578.391
        46.0004         42.0004
   -882005.52447   -662158.57146  24164990.3264   24164999.6384   24164990.626
        43.0004         38.0004
  -9902874.79848  -7700733.01247  22262457.8874   22262461.4074   22262457.168
        49.0004         44.0004
 -26575339.98548 -20645993.00748  20311965.9114   20311971.9624   20311965.350
        53.0004         49.0004
 14  5 14  1  9  0.0000000  0  9G09G08G10G07G28G17G26G02G04
 -12257901.97949  -9544641.23948  20403124.3024   20403130.0374   20403124.095
        54.0004         49.0004
 -17825258.97648 -13884428.81148  20356985.2774   20356991.4274   20356985.514
        53.0004         48.0004
 -16960509.41447 -13205089.67147  22519295.3604   22519302.1814   22519295.613
        47.0004         43.0004
 -13856085.27648 -10767280.52547  22174210.0504   22174214.6874   22174209.707
        48.0004         44.0004
  -9504074.35248  -7406185.73947  22327706.2514   22327713.0744   22327706.215
        48.0004         44.0004
  -8375172.73247  -6471816.27046  23526900.3574   23526909.9754   23526899.648
        46.0004         41.0004
   -867754.79847   -651053.92146  24167702.7324   24167712.7184   24167702.501
        43.0004         38.0004
  -9961797.39348  -7746646.65747  22251244.1324   22251247.7284   22251244.399
        49.0004         44.0004
 -26586378.41448 -20654594.36848  20309865.1474   20309871.1164   20309864.688
        53.0004         49.0004
 14  5 14  1  9 30.0000000  0  9G09G08G10G07G28G17G26G02G04
 -12208298.59749  -9505989.22748  20412563.4114   20412569.4544   20412563.424
        54.0004         49.0004
 -17769261.02848 -13840794.01048  20367640.7224   20367647.3374   20367641.275
        52.0004         48.0004
 -17032167.93947 -13260927.43047  22505658.9004   22505665.0424   22505659.555
        47.0004         43.0004
 -13760019.85948 -10692424.34447  22192490.7854   22192495.0804   22192490.942
        48.0004         44.0004
  -9562311.86348  -7451565.57347  22316623.7284   22316632.8814   22316624.237
        48.0004         44.0004
  -8342135.03847  -6446072.56946  23533186.8294   23533198.3214   23533186.211
        46.0004         41.0004
   -853406.71947   -639873.41546  24170432.8584   24170441.0224   24170432.084
        43.0004         38.0004
 -10020322.20148  -7792250.32747  22240107.5894   22240110.6884   22240107.202
        49.0004         44.0004
 -26596862.02348 -20662763.40748  20307870.1664   20307876.5994   20307869.587
        53.0004         49.0004
 14  5 14  1 10  0.0000000  0  9G09G08G10G07G28G17G26G02G04
 -12158206.43149  -9466956.34448  20422095.5314   20422101.5304   20422095.562
        54.0004         49.0004
 -17712702.56548 -13796722.44848  20378403.8304   20378410.0124   20378404.019
        52.0004         48.0004
 -17103829.89147 -13316767.86347  22492020.8064   22492028.7504   22492022.194
        47.0004         43.0004
 -13663715.13748 -10617381.68447  22210816.4594   22210822.5524   22210816.928
        48.0004         44.0004
  -9620475.38248  -7496887.73947  22305555.4274   22305564.4144   22305555.823
        48.0004         44.0004
  -8309273.48447  -6420466.13346  23539439.6714   23539450.5474   23539439.615
        46.0004         41.0004
   -838959.96147   -628616.02146  24173182.5034   24173191.0574   24173181.671
        43.0004         38.0004
 -10078444.17148  -7837540.10447  22229046.6584   22229050.3544   22229046.852
        49.0004         44.0004
 -26606787.52948 -20670497.55948  20305981.2994   20305987.2194   20305980.875
        53.0004         49.0004
 14  5 14  1 10 30.0000000  0  9G09G08G10G07G28G17G26G02G04
 -12107630.97249  -9427546.86748  20431719.9474   20431725.5974   20431719.775
        54.0004         49.0004
 -17655589.03848 -13752218.36148  20389272.1114   20389278.2254   20389272.436
        52.0004         48.0004
 -17175495.88647 -13372611.44347  22478383.8644   22478390.7324   22478384.505
        47.0004         43.0004
 -13567177.32248 -10542157.39247  22229186.6794   22229192.2834   22229187.513
        48.0004         44.0004
  -9678565.15648  -7542152.45647  22294501.2414   22294509.2814   22294501.683
        48.0004         44.0004
  -8276592.43747  -6395000.34646  23545659.5834   23545670.4294   23545659.048
        46.0004         41.0004
   -824419.80647   -617285.85746  24175948.6694   24175958.5274   24175948.140
        43.0004         38.0004
 -10136164.84448  -7882517.18447  22218062.5184   22218067.0224   22218062.889
        49.0004         45.0004
 -26616158.08348 -20677799.27948  20304198.0664   20304204.6354   20304197.723
        53.0004         49.0004
 14  5 14  1 11  0.0000000  0  9G09G08G10G07G28G17G26G02G04
 -12056573.09449  -9387761.48048  20441435.9394   20441441.8264   20441435.776
        54.0004         49.0004
 -17597921.52148 -13707282.60048  20400246.1144   20400251.8854   20400246.348
        52.0004         48.0004
 -17247162.19147 -13428455.27447  22464746.7534   22464753.8354   22464747.506
        47.0004         43.0004
 -13470407.91848 -10466752.65347  22247602.4084   22247607.2144   22247601.696
        48.0004         44.0004
  -9736576.63648  -7587356.15747  22283462.2374   22283470.8584   22283462.319
        48.0004         44.0004
  -8244091.83347  -6369675.16846  23551843.9334   23551854.3614   23551842.851
        46.0004         41.0004
   -809787.19247   -605883.62946  24178732.1894   24178741.8804   24178732.769
        43.0004         38.0004
 -10193481.87348  -7927179.73247  22207155.6394   22207159.6464   22207155.549
        49.0004         44.0004
 -26624972.35249 -20684667.53548  20302520.7604   20302527.3524   20302520.598
        54.0004         49.0004
 14  5 14  1 11 30.0000000  0  9G09G08G10G07G28G17G26G02G04
 -12005035.39649  -9347602.20148  20451242.7704   20451248.9774   20451242.846
        54.0004         49.0004
 -17539702.77848 -13661917.30748  20411324.4564   20411330.3364   20411324.669
        52.0004         48.0004
 -17318826.26647 -13484297.34947  22451108.6684   22451115.5754   22451109.672
        47.0004         43.0004
 -13373410.00048 -10391169.84147  22266060.0224   22266064.6004   22266059.954
        48.0004         44.0004
  -9794507.40248  -7632496.95447  22272437.8284   22272445.5324   22272438.013
        48.0004         44.0004
  -8211772.63547  -6344491.34546  23557993.1554   23558005.3154   23557993.153
        46.0004         41.0004
   -795064.25847   -594411.02746  24181533.6634   24181543.4474   24181533.618
        43.0004         38.0004
 -10250393.72648  -7971526.55547  22196325.5784   22196329.5544   22196326.164
        49.0004         44.0004
 -26633230.87549 -20691102.73848  20300949.0694   20300955.9534   20300948.721
        54.0004         49.0004
 14  5 14  1 12  0.0000000  0  9G09G08G10G07G28G17G26G02G04
 -11953020.42649  -9307071.02548  20461140.9824   20461146.8794   20461141.258
        54.0004         49.0004
 -17480935.10248 -13616124.27848  20422507.4604   20422513.9344   20422507.933
        52.0004         48.0004
 -17390485.46148 -13540135.63147  22437473.0064   22437480.2434   22437473.635
        48.0004         43.0004
 -13276186.90148 -10315411.55847  22284560.7494   22284566.3054   22284560.905
        48.0004         43.0004
  -9852354.25448  -7677572.36647  22261430.3674   22261438.9964   22261430.798
        48.0004         44.0004
  -8179635.96647  -6319449.75146  23564109.4524   23564121.2504   23564108.767
        46.0004         41.0004
   -780253.28047   -582869.82446  24184353.8354   24184362.3224   24184352.485
        43.0004         38.0004
 -10306899.02548  -8015556.59847  22185572.7814   22185576.2724   22185573.482
        49.0004         44.0004
 -26640933.40849 -20697104.70748  20299483.7784   20299489.9664   20299483.366
        54.0004         49.0004
 14  5 14  1 12 30.0000000  0  9G09G08G10G07G28G17G26G02G04
 -11900532.29549  -9266171.15048  20471129.3374   20471135.2734   20471129.128
        54.0004         49.0004
 -17421622.82748 -13569906.88248  20433794.1364   20433800.6004   20433794.716
        52.0004         48.0004
 -17462139.00248 -13595969.51047  22423836.9574   22423844.1884   22423838.370
        48.0004         43.0004
 -13178742.90148 -10239481.15547  22303103.2834   22303110.3574   22303103.840
        48.0004         43.0004
  -9910115.64648  -7722581.19047  22250437.8024   22250446.1974   22250438.949
        48.0004         44.0004
  -8147684.77847  -6294552.69946  23570190.1054   23570200.1784   23570188.747
        46.0004         41.0004
   -765358.20347   -571263.10346  24187187.8584   24187196.5234   24187186.574
        43.0004         38.0004
 -10362998.35648  -8059270.29947  22174897.8904   22174901.4844   22174897.943
        49.0004         45.0004
 -26648082.15849 -20702675.15548  20298123.2694   20298129.5044   20298122.853
        54.0004         49.0004
 14  5 14  1 13  0.0000000  0  9G09G08G10G07G28G17G26G02G04
 -11847572.39249  -9224903.65648  20481207.0554   20481212.6964   20481206.981
        54.0004         49.0004
 -17361767.61848 -13523266.42048  20445184.4994   20445190.2374   20445184.716
        52.0004         48.0004
 -17533783.36648 -13651796.23347  22410204.5654   22410210.6174   22410204.843
        48.0004         43.0004
 -13081080.18248 -10163380.32347  22321688.7614   22321694.0324   22321687.991
        48.0004         43.0004
  -9967788.43448  -7767520.96247  22239463.1484   22239472.0064   22239464.017
        48.0004         43.0004
  -8115918.99047  -6269800.12246  23576234.1464   23576244.7334   23576233.931
        46.0004         41.0004
   -750380.23247   -559591.77446  24190037.9124   24190046.0144   24190036.853
        43.0004         38.0004
 -10418689.27148  -8102665.75247  22164299.8754   22164304.1404   22164300.120
        49.0004         45.0004
 -26654676.05749 -20707813.25648  20296868.7014   20296874.7924   20296868.180
        54.0004         49.0004
 14  5 14  1 13 30.0000000  0  9G09G08G10G07G28G17G26G02G04
 -11794140.74549  -9183268.57648  20491374.5284   20491380.6174   20491374.624
        54.0004         49.0004
 -17301369.17148 -13476202.65648  20456677.6034   20456684.1344   20456677.952
        52.0004         48.0004
 -17605413.53248 -13707611.90147  22396572.4184   22396579.8534   22396574.248
        48.0004         43.0004
 -12983199.12348 -10087109.35747  22340314.4554   22340320.0894   22340314.114
        48.0004         43.0004
 -10025366.66848  -7812387.06147  22228506.8334   22228514.9484   22228506.956
        48.0004         43.0004
  -8084337.62447  -6245191.21846  23582243.0484   23582254.1114   23582243.241
        46.0004         41.0004
   -735318.94947   -547855.53046  24192902.5064   24192911.9984   24192902.746
        43.0004         38.0004
 -10473968.22048  -8145740.20047  22153780.3344   22153784.6634   22153780.688
        49.0004         45.0004
 -26660713.04049 -20712517.39048  20295719.4214   20295725.8304   20295718.964
        54.0004         49.0004
 14  5 14  1 14  0.0000000  0  9G09G08G10G07G28G17G26G02G04
 -11740244.86449  -9141271.75348  20501631.0054   20501636.5704   20501630.722
        54.0004         49.0004
 -17240434.89248 -13428721.36348  20468273.4074   20468279.1224   20468273.593
        52.0004         48.0004
 -17677031.42948 -13763418.00547  22382945.4864   22382952.1124   22382945.293
        48.0004         43.0004
 -12885107.61048 -10010674.39447  22358981.2314   22358985.5574   22358980.333
        48.0004         43.0004
 -10082852.36348  -7857181.04947  22217567.8614   22217575.3944   22217567.709
        48.0004         44.0004
  -8052946.41647  -6220730.51646  23588217.5504   23588228.5174   23588216.297
        46.0004         41.0004
   -720181.47247   -536059.92046  24195782.9774   24195792.3604   24195782.295
        43.0004         38.0004
 -10528838.52748  -8188496.21947  22143338.4284   22143343.3134   22143338.906
        49.0004         45.0004
 -26666198.30349 -20716791.61448  20294675.9194   20294682.0294   20294675.426
        54.0004         49.0004
 14  5 14  1 14 30.0000000  0  9G09G08G10G07G28G17G26G02G04
 -11685883.84349  -9098912.48448  20511975.5204   20511981.1064   20511975.384
        54.0004         49.0004
 -17178964.25448 -13380822.12448  20479970.4764   20479977.1074   20479970.990
        52.0004         48.0004
 -17748631.67648 -13819210.37047  22369320.0494   22369327.0624   22369320.343
        48.0004         43.0004
 -12786805.60448  -9934075.40947  22377687.1064   22377691.7744   22377686.575
        48.0004         43.0004
 -10140239.54848  -7901898.26647  22206647.5184   22206655.6634   22206647.433
        48.0004         44.0004
  -8021743.23847  -6196416.31246  23594154.6934   23594165.7094   23594154.292
        46.0004         41.0004
   -704966.87447   -524204.21646  24198678.4134   24198687.5294   24198678.210
        43.0004         38.0004
 -10583295.76548  -8230930.37547  22132976.2594   22132979.9684   22132975.957
        49.0004         45.0004
 -26671128.96249 -20720633.67848  20293737.4704   20293743.8734   20293737.104
        54.0004         49.0004
 14  5 14  1 15  0.0000000  0  9G09G08G10G07G28G17G26G02G04
 -11631062.14949  -9056194.25348  20522407.6664   20522413.4224   20522407.569
        54.0004         49.0004
 -17116961.91648 -13332508.57748  20491768.9394   20491775.3834   20491769.583
        52.0004         48.0004
 -17820213.52548 -13874988.40247  22355698.8694   22355705.0164   22355698.988
        48.0004         43.0004
 -12688297.81248  -9857316.08047  22396432.9144   22396438.6084   22396432.160
        48.0004         43.0004
 -10197527.03848  -7946537.80847  22195746.1504   22195754.5354   22195746.147
        49.0004         44.0004
  -7990730.96547  -6172250.88946  23600056.1714   23600068.2854   23600055.828
        46.0004         41.0004
   -689679.27947   -512291.63946  24201587.9774   24201596.1504   24201587.337
        42.0004         38.0004
 -10637340.85148  -8273043.36447  22122692.1364   22122695.0314   22122692.235
        49.0004         45.0004
 -26675507.16949 -20724045.26348  20292904.3544   20292910.6084   20292903.968
        54.0004         49.0004
 14  5 14  1 15 30.0000000  0  9G09G08G10G07G28G17G26G02G04
 -11575779.36049  -9013116.72648  20532927.6384   20532933.3974   20532927.801
        54.0004         49.0004
 -17054427.53548 -13283780.45548  20503668.8364   20503675.1434   20503669.566
        52.0004         48.0004
 -17891771.40148 -13930747.74647  22342081.0524   22342087.6864   22342082.361
        48.0004         43.0004
 -12589584.76748  -9780396.80747  22415216.6564   22415221.9474   22415216.576
        48.0004         43.0004
 -10254709.15148  -7991095.23647  22184863.0934   22184873.5284   22184864.548
        49.0004         44.0004
  -7959908.13247  -6148233.07846  23605920.7264   23605932.4224   23605921.396
        46.0004         41.0004
   -674318.13447   -500321.74346  24204510.3324   24204519.2674   24204509.695
        43.0004         38.0004
 -10690969.62948  -8314831.97447  22112486.2514   22112489.7034   22112486.613
        49.0004         45.0004
 -26679330.54249 -20727024.50948  20292176.9544   20292182.9764   20292176.666
        54.0004         49.0004
 14  5 14  1 16  0.0000000  0  9G09G08G10G07G28G17G26G02G04
 -11520040.98749  -8969684.19548  20543534.4534   20543540.0424   20543533.914
        54.0004         49.0004
 -16991366.76948 -13234642.15548  20515668.8644   20515675.0884   20515669.276
        52.0004         48.0004
 -17963305.66248 -13986488.68147  22328468.6164   22328474.5894   22328469.201
        48.0004         43.0004
 -12490672.02348  -9703321.92647  22434039.3274   22434044.4594   22434039.440
        48.0004         43.0004
 -10311785.68548  -8035570.40347  22174002.5394   22174010.6474   22174003.167
        48.0004         44.0004
  -7929278.34647  -6124365.71046  23611750.0574   23611761.5894   23611749.418
        46.0004         41.0004
   -658888.38847   -488298.37646  24207445.9254   24207456.0084   24207446.173
        43.0004         38.0004
 -10744183.68248  -8356297.40347  22102359.0834   22102363.7324   22102360.322
        49.0004         45.0004
 -26682602.30249 -20729573.92948  20291554.3184   20291560.5094   20291553.729
        54.0004         49.0004
 14  5 14  1 16 30.0000000  0  9G09G08G10G07G28G17G26G02G04
 -11463849.36349  -8925898.48048  20554227.1104   20554232.9404   20554226.939
        54.0004         49.0004
 -16927781.78848 -13185095.37548  20527768.8184   20527775.3584   20527769.263
        52.0004         48.0004
 -18034813.03548 -14042208.67147  22314860.7824   22314867.1524   22314862.137
        48.0004         44.0004
 -12391562.21048  -9626093.48847  22452899.7744   22452903.8974   22452898.956
        48.0004         43.0004
 -10368753.29648  -8079960.69947  22163161.6434   22163171.5674   22163162.760
        48.0004         44.0004
  -7898842.28247  -6100649.28946  23617541.6844   23617553.4214   23617541.368
        46.0004         41.0004
   -643391.80947   -476222.95246  24210394.6254   24210404.3434   24210394.214
        43.0004         38.0004
 -10796981.71048  -8397438.66147  22092313.1574   22092316.9574   22092312.841
        49.0004         45.0004
 -26685322.41149 -20731693.48948  20291036.8284   20291042.8964   20291036.414
        54.0004         49.0004
 14  5 14  1 17  0.0000000  0  9G09G08G10G07G28G17G26G02G04
 -11407206.34649  -8881761.03348  20565005.8024   20565011.5424   20565006.048
        54.0004         49.0004
 -16863674.64248 -13135141.71448  20539968.1514   20539973.6644   20539968.228
        52.0004         48.0004
 -18106290.23048 -14097905.13647  22301259.9444   22301265.1914   22301260.667
        48.0004         43.0004
 -12292257.84848  -9548713.45147  22471796.2734   22471799.6194   22471795.836
        48.0004         43.0004
 -10425608.37048  -8124263.28247  22152342.5644   22152351.3074   22152343.104
        48.0004         44.0004
  -7868600.55047  -6077084.29846  23623297.0504   23623308.5004   23623296.274
        46.0004         41.0004
   -627830.03547   -464096.72946  24213357.6334   24213365.5294   24213356.125
        43.0004         38.0004
 -10849361.77148  -8438254.23447  22082344.8584   22082347.9524   22082345.478
        49.0004         44.0004
 -26687490.56448 -20733382.95748  20290623.8104   20290630.5744   20290623.646
        53.0004         49.0004
 14  5 14  1 17 30.0000000  0  9G09G08G10G07G28G17G26G02G04
 -11350114.99449  -8837274.22648  20575869.7024   20575875.7364   20575869.720
        54.0004         49.0004
 -16799048.61548 -13084783.73348  20552266.0034   20552271.9374   20552266.336
        52.0004         48.0004
 -18177735.35348 -14153576.62547  22287663.6754   22287670.3494   22287664.546
        48.0004         44.0004
 -12192762.02848  -9471184.22447  22490730.2134   22490734.8844   22490729.501
        48.0004         43.0004
 -10482348.67648  -8168476.44447  22141545.7274   22141553.7454   22141545.739
        48.0004         44.0004
  -7838554.61347  -6053671.86946  23629014.1104   23629024.8064   23629013.993
        46.0004         41.0004
   -612205.75547   -451921.78346  24216329.4384   24216337.8584   24216329.887
        43.0004         38.0004
 -10901323.20948  -8478743.60347  22072457.2954   22072459.9214   22072457.049
        49.0004         45.0004
 -26689107.89848 -20734643.21148  20290315.8334   20290322.7204   20290315.761
        53.0004         49.0004
 14  5 14  1 18  0.0000000  0  9G09G08G10G07G28G17G26G02G04
 -11292577.05049  -8792439.43648  20586818.8734   20586824.3024   20586819.143
        54.0004         49.0004
 -16733905.45648 -13034022.79348  20564662.2484   20564668.5294   20564662.461
        52.0004         48.0004
 -18249144.74848 -14209220.27047  22274075.8954   22274082.3834   22274075.740
        48.0004         44.0004
 -12093077.17548  -9393507.70647  22509699.8374   22509704.1384   22509698.964
        48.0004         43.0004
 -10538970.03748  -8212596.93147  22130769.6994   22130778.9924   22130770.882
        48.0004         44.0004
  -7808704.36147  -6030411.92346  23634693.6664   23634705.6884   23634694.350
        46.0004         41.0004
   -596520.21047   -439699.11846  24219313.0894   24219322.3974   24219314.206
        43.0004         38.0004
 -10952863.88148  -8518905.10047  22062649.3044   22062653.8084   22062649.668
        49.0004         45.0004
 -26690173.88148 -20735473.84648  20290113.7284   20290119.7904   20290113.125
        53.0004         49.0004
 14  5 14  1 18 30.0000000  0  9G09G08G10G07G28G17G26G02G04
 -11234596.99549  -8747260.13348  20597852.3244   20597858.0554   20597852.358
        54.0004         49.0004
 -16668249.48848 -12982862.26948  20577155.7374   20577162.5164   20577156.481
        52.0004         48.0004
 -18320517.74348 -14264835.54747  22260492.7194   22260500.5004   22260494.000
        48.0004         44.0004
 -11993208.00547  -9315687.55847  22528703.4344   22528707.6734   22528703.068
        47.0004         43.0004
 -10595471.28348  -8256623.81447  22120019.1854   22120026.3644   22120019.246
        49.0004         44.0004
  -7779052.51347  -6007306.59546  23640337.8034   23640347.6194   23640337.058
        46.0004         41.0004
   -580777.37347   -427431.80346  24222309.6664   24222318.7174   24222309.868
        43.0004         38.0004
 -11003984.63648  -8558739.40247  22052920.8554   22052925.3804   22052920.848
        49.0004         45.0004
 -26690690.87748 -20735876.69448  20290014.5204   20290021.2894   20290014.404
        53.0004         49.0004
 14  5 14  1 19  0.0000000  0  9G09G08G10G07G28G17G26G02G04
 -11176177.04149  -8701738.05448  20608969.1994   20608974.9384   20608969.286
        54.0004         49.0004
 -16602083.24448 -12931304.12647  20589746.7494   20589753.4414   20589747.219
        52.0004         47.0004
 -18391851.20348 -14320420.03147  22246919.5974   22246925.7044   22246919.567
        48.0004         44.0004
 -11893157.03247  -9237725.74747  22547743.0604   22547747.6274   22547742.701
        47.0004         43.0004
 -10651849.01848  -8300554.45847  22109290.3594   22109298.5714   22109290.700
        49.0004         44.0004
  -7749599.73647  -5984356.38746  23645941.9444   23645952.8824   23645941.478
        46.0004         41.0004
   -564979.00947   -415121.21946  24225316.1014   24225324.2684   24225316.138
        43.0004         38.0004
 -11054683.97648  -8598245.32647  22043273.0264   22043277.3214   22043273.907
        49.0004         45.0004
 -26690659.06648 -20735851.90448  20290021.2434   20290027.6254   20290020.813
        53.0004         49.0004
 14  5 14  1 19 30.0000000  0 10G09G08G10G07G28G17G26G02G04G05
 -11117318.89849  -8655874.53348  20620169.4334   20620175.0894   20620169.347
        54.0004         49.0004
 -16535408.50148 -12879349.76347  20602435.1174   20602440.9654   20602435.229
        52.0004         47.0004
 -18463141.11748 -14375970.58747  22233353.0994   22233359.9714   22233353.776
        49.0004         44.0004
 -11792926.43847  -9159623.97547  22566815.7714   22566821.4134   22566815.849
        47.0004         43.0004
 -10708099.55048  -8344385.97247  22098586.3594   22098594.3754   22098586.765
        49.0004         44.0004
  -7720346.09847  -5961561.34146  23651507.8764   23651519.8394   23651508.161
        46.0004         41.0004
   -549126.45047   -402768.40746  24228332.7074   24228340.7454   24228332.067
        43.0004         38.0004
 -11104959.85948  -8637421.27547  22033705.7014   22033710.1874   22033706.567
        50.0004         45.0004
 -26690077.96648 -20735399.09748  20290131.2204   20290137.9714   20290130.650
        53.0004         49.0004
   -975895.28647   -716553.83545  25473884.5464   25473893.7164   25473882.291
        46.0004         35.0004
 14  5 14  1 20  0.0000000  0 10G09G08G10G07G28G17G26G02G04G05
 -11058026.72949  -8609672.81248  20631452.6074   20631458.0934   20631452.285
        54.0004         49.0004
 -16468229.55148 -12827002.51047  20615218.6844   20615224.8434   20615219.047
        52.0004         47.0004
 -18534386.32948 -14431486.31547  22219796.2094   22219802.1604   22219796.119
        49.0004         44.0004
 -11692520.47547  -9081385.54747  22585923.2364   22585928.5964   22585922.034
        47.0004         43.0004
 -10764221.02248  -8388116.93347  22087907.2294   22087914.8914   22087907.540
        49.0004         44.0004
  -7691293.98247  -5938923.32546  23657036.8514   23657047.5734   23657036.968
        46.0004         41.0004
   -533223.19447   -390376.09646  24231358.7964   24231367.0804   24231358.800
        43.0004         39.0004
 -11154812.58648  -8676267.50847  22024219.0324   22024222.9664   22024219.737
        50.0004         45.0004
 -26688949.55448 -20734519.80648  20290346.2664   20290352.9064   20290346.084
        53.0004         49.0004
  -1056450.10447   -779323.49346  25458552.1754   25458561.6984   25458553.246
        42.0004         36.0004
 14  5 14  1 20 30.0000000  0 10G09G08G10G07G28G17G26G02G04G05
 -10998302.00749  -8563134.02648  20642817.6884   20642823.2964   20642817.722
        54.0004         49.0004
 -16400548.20648 -12774263.78247  20628097.9924   20628103.6834   20628098.175
        52.0004         47.0004
 -18605583.05248 -14486964.25847  22206248.1634   22206253.7594   22206248.306
        49.0004         44.0004
 -11591941.16047  -9003012.04247  22605062.3864   22605067.1524   22605061.648
        47.0004         43.0004
 -10820209.68848  -8431744.39147  22077252.6694   22077261.0204   22077252.682
        49.0004         44.0004
  -7662443.32847  -5916442.29746  23662527.7324   23662538.8474   23662527.091
        46.0004         41.0004
   -517270.48247   -377945.24246  24234394.2874   24234402.1074   24234394.262
        43.0004         38.0004
 -11204240.10948  -8714782.40347  22014813.9714   22014817.9064   22014813.683
        50.0004         45.0004
 -26687273.53948 -20733213.81948  20290665.2874   20290671.9894   20290664.722
        53.0004         49.0004
  -1137221.11446   -842261.61046  25443183.3934   25443192.2434   25443182.165
        41.0004         36.0004
 14  5 14  1 21  0.0000000  0 10G09G08G10G07G28G17G26G02G04G05
 -10938147.38049  -8516260.25148  20654264.4554   20654270.3304   20654264.257
        54.0004         49.0004
 -16332366.83448 -12721135.42047  20641071.8904   20641078.8284   20641072.796
        52.0004         47.0004
 -18676728.51848 -14542402.25747  22192708.4074   22192716.3904   22192709.201
        49.0004         44.0004
 -11491191.01547  -8924505.43047  22624234.3934   22624239.7754   22624233.824
        47.0004         42.0004
 -10876062.16148  -8475265.72447  22066624.4754   22066631.4894   22066624.376
        49.0004         44.0004
  -7633794.55047  -5894118.57846  23667979.6694   23667991.0664   23667978.477
        45.0004         41.0004
   -501270.34847   -365477.44746  24237438.9814   24237447.5614   24237439.046
        43.0004         38.0004
 -11253241.22948  -8752965.05347  22005489.0894   22005492.8724   22005489.763
        50.0004         45.0004
 -26685050.38148 -20731481.47948  20291088.0344   20291094.4324   20291087.747
        53.0004         49.0004
  -1218207.52046   -905367.52845  25427773.0964   25427779.9744   25427770.262
        40.0004         35.0004
 14  5 14  1 21 30.0000000  0 10G09G08G10G07G28G17G26G02G04G05
 -10877567.50148  -8469055.11448  20665792.6184   20665798.2894   20665792.483
        53.0004         49.0004
 -16263690.37548 -12667621.28047  20654140.8104   20654146.7064   20654141.260
        52.0004         47.0004
 -18747822.27548 -14597799.97447  22179179.9814   22179187.1974   22179180.777
        49.0004         44.0004
 -11390275.25947  -8845869.77547  22643438.4354   22643442.2074   22643437.715
        47.0004         42.0004
 -10931777.51548  -8518680.23747  22056021.0044   22056030.4974   22056022.389
        49.0004         44.0004
  -7605351.04347  -5871954.80446  23673391.7474   23673402.6574   23673391.274
        45.0004         41.0004
   -485227.08647   -352976.03546  24240491.5814   24240499.3344   24240490.892
        43.0004         38.0004
 -11301817.08048  -8790816.30647  21996245.1564   21996249.4794   21996245.345
        50.0004         45.0004
 -26682282.84048 -20729324.94848  20291614.9674   20291621.1234   20291614.886
        53.0004         49.0004
  -1299409.96146   -968641.86046  25412319.4024   25412330.2694   25412318.834
        40.0004         36.0004
 14  5 14  1 22  0.0000000  0 10G09G08G10G07G28G17G26G02G04G05
 -10816564.65748  -8421520.39448  20677400.5944   20677406.9424   20677400.949
        53.0004         49.0004
 -16194521.27848 -12613723.26647  20667302.9384   20667309.2784   20667303.713
        52.0004         47.0004
 -18818860.78048 -14653154.63147  22165662.1704   22165667.9094   22165662.521
        49.0004         44.0004
 -11289196.39147  -8767107.00447  22662671.9964   22662678.1514   22662672.466
        47.0004         43.0004
 -10987352.21748  -8561985.12347  22045446.2354   22045454.4864   22045446.725
        49.0004         44.0004
  -7577113.11747  -5849951.21746  23678765.4784   23678776.5074   23678764.866
        45.0004         41.0004
   -469142.13647   -340442.15546  24243553.6424   24243558.6164   24243552.668
        43.0004         38.0004
 -11349966.21048  -8828335.07647  21987082.4004   21987086.3934   21987082.697
        50.0004         45.0004
 -26678970.96648 -20726744.25848  20292244.9314   20292251.3104   20292244.627
        53.0004         49.0004
  -1380826.22846  -1032082.78546  25396826.8614   25396834.4464   25396824.890
        41.0004         36.0004
 14  5 14  1 22 30.0000000  0 10G09G08G10G07G28G17G26G02G04G05
 -10755138.90348  -8373656.13348  20689089.8544   20689096.0574   20689089.798
        53.0004         49.0004
 -16124859.86048 -12559441.61947  20680559.0744   20680565.8494   20680559.701
        52.0004         47.0004
 -18889838.52748 -14708461.94847  22152155.4724   22152161.3084   22152155.877
        49.0004         44.0004
 -11187954.59847  -8688217.29847  22681938.6464   22681943.9824   22681938.145
        47.0004         43.0004
 -11042780.40748  -8605175.86147  22034898.4374   22034906.5984   22034898.599
        49.0004         44.0004
  -7549078.88447  -5828106.36346  23684099.8474   23684111.4184   23684099.800
        45.0004         41.0004
   -453015.02747   -327875.42946  24246621.7124   24246629.6034   24246621.196
        43.0004         38.0004
 -11397684.82948  -8865518.36647  21978002.1104   21978006.2074   21978002.784
        50.0004         45.0004
 -26675112.70948 -20723737.81248  20292979.1264   20292985.7424   20292979.023
        53.0004         49.0004
  -1462452.64346  -1095687.42746  25381291.1334   25381302.5864   25381291.170
        40.0004         36.0004
 14  5 14  1 23  0.0000000  0 10G09G08G10G07G28G17G26G02G04G05
 -10693295.89148  -8325466.73948  20700858.1554   20700863.7004   20700858.162
        53.0004         49.0004
 -16054711.96048 -12504780.90347  20693908.4854   20693914.4424   20693908.370
        52.0004         47.0004
 -18960755.78048 -14763722.12247  22138660.3164   22138665.6164   22138660.746
        49.0004         44.0004
 -11086555.85047  -8609205.27847  22701234.1164   22701240.0114   22701234.033
        47.0004         42.0004
 -11098062.32548  -8648252.61747  22024379.9234   22024387.3244   22024379.347
        49.0004         44.0004
  -7521252.03147  -5806423.10646  23689395.0764   23689407.0134   23689394.832
        45.0004         40.0004
   -436851.06047   -315279.96146  24249696.6334   24249705.2054   24249697.040
        43.0004         38.0004
 -11444975.07848  -8902367.86647  21969002.6744   21969006.8364   21969003.177
        50.0004         45.0004
 -26670712.05448 -20720308.72248  20293816.5804   20293823.2664   20293816.298
        53.0004         49.0004
  -1544291.20046  -1159457.46646  25365718.8024   25365727.2724   25365717.885
        41.0004         37.0004
 14  5 14  1 23 30.0000000  0 10G09G08G10G07G28G17G26G02G04G05
 -10631037.82648  -8276953.92648  20712705.7534   20712711.3764   20712705.395
        53.0004         49.0004
 -15984080.09448 -12449743.07647  20707349.2034   20707355.1644   20707349.498
        52.0004         47.0004
 -19031609.52148 -14818932.80547  22125177.1994   22125183.9434   22125177.665
        49.0004         44.0004
 -10985002.79547  -8530073.02647  22720558.7834   22720564.3894   22720558.132
        47.0004         42.0004
 -11153194.23648  -8691212.47347  22013886.2284   22013895.6054   22013887.574
        49.0004         44.0004
  -7493633.15547  -5784901.92446  23694650.9334   23694662.2294   23694649.984
        45.0004         40.0004
   -420651.90847   -302657.09446  24252779.2914   24252787.8744   24252778.951
        43.0004         38.0004
 -11491835.65048  -8938882.53747  21960085.3494   21960090.0994   21960086.137
        50.0004         45.0004
 -26665769.16248 -20716457.11248  20294757.4654   20294763.8654   20294756.863
        53.0004         49.0004
  -1626339.93246  -1223391.27446  25350105.3714   25350116.2734   25350104.677
        40.0004         36.0004
 14  5 14  1 24  0.0000000  0 10G09G08G10G07G28G17G26G02G04G05
 -10568367.77548  -8228120.08448  20724631.1174   20724636.6074   20724630.995
        53.0004         49.0004
 -15912967.16448 -12394330.38347  20720881.3904   20720887.8774   20720881.548
        52.0004         47.0004
 -19102397.00748 -14874091.85347  22111706.2114   22111712.7554   22111706.978
        49.0004         44.0004
 -10883298.30547  -8450822.75347  22739913.2014   22739917.7604   22739911.975
        47.0004         42.0004
 -11208173.44148  -8734053.35747  22003425.0724   22003432.7254   22003425.522
        49.0004         44.0004
  -7466223.21747  -5763543.54046  23699866.6124   23699877.3554   23699865.879
        45.0004         40.0004
   -404419.83047   -290008.54946  24255867.5264   24255877.2474   24255868.276
        43.0004         38.0004
 -11538265.63548  -8975061.68947  21951250.3554   21951254.1194   21951251.008
        50.0004         45.0004
 -26660284.86848 -20712183.63348  20295800.8814   20295807.0674   20295800.440
        53.0004         49.0004
  -1708597.63546  -1287487.86546  25334452.9034   25334461.0044   25334451.078
        40.0004         36.0004
 14  5 14  1 24 30.0000000  0 10G09G08G10G07G28G17G26G02G04G05
 -10505287.06148  -8178966.25048  20736634.8454   20736640.5074   20736634.946
        53.0004         49.0004
 -15841374.66548 -12338544.01347  20734504.8184   20734511.1304   20734505.021
        52.0004         47.0004
 -19173114.20148 -14929196.14247  22098250.6134   22098255.8574   22098249.965
        49.0004         44.0004
 -10781443.99147  -8371455.75547  22759294.6634   22759299.6914   22759294.875
        47.0004         42.0004
 -11262995.35548  -8776771.67447  21992993.2354   21993000.7794   21992993.380
        49.0004         44.0004
  -7439021.60147  -5742347.48146  23705042.4734   23705054.7374   23705042.433
        45.0004         41.0004
   -388155.63547   -277335.00346  24258962.5814   24258970.7034   24258962.343
        43.0004         38.0004
 -11584262.77548  -9010903.56647  21942497.7124   21942501.2654   21942497.892
        50.0004         45.0004
 -26654258.93048 -20707488.09048  20296947.4404   20296954.0944   20296947.276
        53.0004         49.0004
  -1791061.24146  -1351744.94346  25318761.0524   25318767.3784   25318758.701
        40.0004         36.0004
 14  5 14  1 25  0.0000000  0 10G09G08G10G07G28G17G26G02G04G05
 -10441800.08948  -8129495.84848  20748715.8304   20748721.7374   20748716.070
        53.0004         49.0004
 -15769307.06248 -12282387.42247  20748219.0444   20748224.7554   20748219.281
        52.0004         47.0004
 -19243759.84348 -14984244.68047  22084806.8914   22084813.6194   22084806.274
        49.0004         44.0004
 -10679444.26547  -8291975.44947  22778704.3434   22778710.1924   22778704.952
        47.0004         42.0004
 -11317658.75348  -8819366.47447  21982591.2724   21982598.3894   21982591.163
        49.0004         44.0004
  -7412030.81047  -5721315.71446  23710179.3404   23710190.8014   23710179.104
        45.0004         41.0004
   -371863.11947   -264639.36246  24262064.0474   24262071.9604   24262062.819
        43.0004         38.0004
 -11629827.83148  -9046408.77047  21933826.8684   21933830.0374   21933826.991
        50.0004         45.0004
 -26647693.56548 -20702372.21448  20298197.0364   20298203.2354   20298196.686
        53.0004         49.0004
  -1873731.46746  -1416163.00746  25303029.2634   25303033.4994   25303026.579
        40.0004         36.0004
 14  5 14  1 25 30.0000000  0 10G09G08G10G07G28G17G26G02G04G05
 -10377908.70248  -8079710.31148  20760873.7624   20760879.9684   20760874.066
        53.0004         49.0004
 -15696766.39648 -12225862.22047  20762022.9464   20762028.7694   20762023.293
        52.0004         47.0004
 -19314330.19948 -15039234.54947  22071377.5904   22071382.3184   22071377.660
        49.0004         44.0004
 -10577301.11847  -8212383.37647  22798141.8424   22798146.3894   22798141.084
        47.0004         42.0004
 -11372159.65748  -8861834.63847  21972219.8974   21972227.0544   21972219.721
        49.0004         45.0004
  -7385250.35947  -5700447.83946  23715275.8364   23715287.4084   23715274.686
        46.0004         41.0004
   -355543.26947   -251922.45146  24265169.6004   24265176.4894   24265168.787
        43.0004         38.0004
 -11674958.98748  -9081575.85847  21925238.3914   21925242.0244   21925238.800
        50.0004         45.0004
 -26640588.75748 -20696835.98948  20299548.6654   20299555.1194   20299548.333
        53.0004         49.0004
  -1956606.23046  -1480740.47746  25287257.9994   25287263.4194   25287257.504
        40.0004         36.0004
 14  5 14  1 26  0.0000000  0 10G09G08G10G07G28G17G26G02G04G05
 -10313617.99748  -8029613.61248  20773108.3504   20773113.8134   20773108.048
        53.0004         48.0004
 -15623757.97848 -12168972.53047  20775915.9324   20775921.8194   20775916.456
        52.0004         47.0004
 -19384824.56548 -15094165.19847  22057962.0824   22057969.2704   22057962.968
        49.0004         44.0004
 -10475019.61147  -8132683.50047  22817605.3794   22817611.0914   22817604.577
        46.0004         42.0004
 -11426496.93948  -8904175.30947  21961879.7724   21961887.1654   21961879.822
        49.0004         45.0004
  -7358683.49047  -5679746.40246  23720331.1044   23720342.0284   23720330.579
        46.0004         41.0004
   -339200.59247   -239187.74946  24268278.5724   24268286.9914   24268278.637
        43.0004         38.0004
 -11719657.73448  -9116406.00947  21916732.7764   21916736.7754   21916732.994
        50.0004         45.0004
 -26632947.38448 -20690881.66648  20301003.2244   20301009.4324   20301002.847
        53.0004         49.0004
  -2039685.85146  -1545477.52346  25271445.3394   25271454.9474   25271447.477
        40.0004         36.0004
 14  5 14  1 26 30.0000000  0 10G09G08G10G07G28G17G26G02G04G05
 -10248929.01148  -7979206.56848  20785418.3794   20785423.5504   20785418.097
        53.0004         48.0004
 -15550283.21048 -12111719.44747  20789897.5674   20789903.7084   20789898.000
        51.0004         47.0004
 -19455238.52448 -15149033.17547  22044562.6974   22044569.0244   22044563.574
        49.0004         44.0004
 -10372601.10947  -8052876.88047  22837094.4974   22837100.2574   22837094.676
        46.0004         42.0004
 -11480666.16348  -8946385.02747  21951571.5224   21951578.7144   21951571.653
        49.0004         45.0004
  -7332328.95947  -5659210.43446  23725346.0994   23725357.2924   23725345.433
        46.0004         41.0004
   -322835.48847   -226435.56646  24271392.3914   24271399.5734   24271391.979
        43.0004         38.0004
 -11763921.44048  -9150897.16047  21908309.0724   21908312.9474   21908309.887
        50.0004         45.0004
 -26624768.66048 -20684508.62748  20302559.2694   20302565.7684   20302558.901
        53.0004         49.0004
  -2122967.39046  -1610371.88545  25255599.9414   25255607.1184   25255600.380
        40.0004         35.0004
 14  5 14  1 27  0.0000000  0 10G09G08G10G07G28G17G26G02G04G05
 -10183844.08648  -7928491.00148  20797803.3414   20797808.8294   20797803.105
        53.0004         48.0004
 -15476344.37048 -12054104.75247  20803968.0934   20803974.0354   20803968.136
        51.0004         47.0004
 -19525568.91348 -15203836.05547  22031180.5084   22031185.9214   22031180.181
        49.0004         44.0004
 -10270048.28547  -7972965.58147  22856610.5434   22856615.7214   22856609.617
        46.0004         42.0004
 -11534663.72748  -8988460.99547  21941296.7634   21941302.7994   21941296.041
        49.0004         45.0004
  -7306187.40447  -5638840.41246  23730320.1544   23730331.8994   23730320.623
        46.0004         41.0004
   -306449.81047   -213667.36446  24274510.7934   24274518.0874   24274510.928
        43.0004         38.0004
 -11807748.76548  -9185048.27547  21899968.9924   21899972.7154   21899969.619
        50.0004         45.0004
 -26616053.24449 -20677717.38448  20304217.8594   20304224.4464   20304217.459
        54.0004         49.0004
  -2206449.22146  -1675422.36246  25239711.0514   25239717.0914   25239713.640
        40.0004         36.0004
 14  5 14  1 27 30.0000000  0 10G09G08G10G07G28G17G26G02G04G05
 -10118369.14648  -7877471.52948  20810262.6284   20810268.4654   20810262.983
        53.0004         48.0004
 -15401947.47048 -11996133.12347  20818125.3064   20818131.5204   20818125.381
        51.0004         47.0004
 -19595815.56848 -15258573.67247  22017812.6194   22017818.7444   22017812.511
        49.0004         44.0004
 -10167366.91147  -7892954.12147  22876149.7504   22876155.2214   22876149.330
        47.0004         42.0004
 -11588489.59148  -9030403.16247  21931053.0914   21931061.3484   21931053.600
        49.0004         45.0004
  -7280262.99647  -5618639.59246  23735254.5134   23735265.5554   23735253.697
        46.0004         41.0004
   -290048.66647   -200887.11946  24277631.5124   24277638.5214   24277630.863
        43.0004         38.0004
 -11851141.80148  -9218860.97847  21891712.4834   21891715.2614   21891712.176
        50.0004         45.0004
 -26606805.23349 -20670511.13648  20305977.7484   20305984.3034   20305977.502
        54.0004         49.0004
  -2290132.41146  -1740629.73746  25223788.3764   25223795.6154   25223789.033
        40.0004         36.0004
 14  5 14  1 28  0.0000000  0 10G09G08G10G07G28G17G26G02G04G05
 -10052501.83348  -7826146.31248  20822796.9694   20822802.3514   20822796.530
        53.0004         48.0004
 -15327090.62748 -11937803.10147  20832369.8424   20832376.0244   20832370.164
        51.0004         47.0004
 -19665970.85248 -15313240.11047  22004462.5004   22004467.7814   22004462.484
        49.0004         44.0004
 -10064554.99547  -7812840.94147  22895713.9014   22895718.7954   22895713.503
        47.0004         42.0004
 -11642135.53848  -9072205.13047  21920843.7884   21920851.9444   21920845.061
        49.0004         45.0004
  -7254550.91847  -5598604.23346  23740146.6624   23740157.6354   23740146.531
        46.0004         41.0004
   -273629.06747   -188092.49246  24280756.7814   24280763.9994   24280756.181
        43.0004         38.0004
 -11894095.34848  -9252331.21947  21883537.8174   21883541.5404   21883538.363
        50.0004         45.0004
 -26597020.53649 -20662886.69348  20307839.8354   20307846.0914   20307839.304
        54.0004         49.0004
  -2374011.35146  -1805989.63545  25207826.2984   25207832.9914   25207827.583
        40.0004         35.0004
 14  5 14  1 28 30.0000000  0 10G09G08G10G07G28G17G26G02G04G05
  -9986249.74448  -7774521.26548  20835404.1044   20835409.7624   20835404.352
        53.0004         48.0004
 -15251781.56348 -11879120.69347  20846701.1184   20846707.1614   20846701.173
        51.0004         47.0004
 -19736036.42648 -15367836.64047  21991129.1654   21991134.8414   21991129.579
        49.0004         44.0004
  -9961619.77847  -7732631.67947  22915302.5804   22915307.1134   22915301.596
        46.0004         42.0004
 -11695603.34648  -9113868.28647  21910669.5104   21910678.0194   21910670.105
        49.0004         45.0004
  -7229056.66147  -5578738.62146  23744998.7884   23745009.5094   23744998.045
        46.0004         41.0004
   -257197.80247   -175288.75946  24283881.8604   24283889.3754   24283882.706
        43.0004         38.0004
 -11936612.97948  -9285461.79047  21875447.9454   21875450.2404   21875447.720
        50.0004         45.0004
 -26586704.50949 -20654848.22448  20309802.6014   20309809.6564   20309802.459
        54.0004         49.0004
  -2458088.84546  -1871504.25346  25191828.3664   25191835.3254   25191827.085
        40.0004         36.0004
 14  5 14  1 29  0.0000000  0 10G09G08G10G07G28G17G26G02G04G05
  -9919614.12748  -7722597.37348  20848084.3924   20848090.0354   20848084.419
        53.0004         48.0004
 -15176021.68048 -11820087.00147  20861117.7164   20861123.2884   20861117.563
        51.0004         47.0004
 -19806007.93748 -15422359.86447  21977813.7194   21977819.8124   21977813.734
        49.0004         44.0004
  -9858562.53147  -7652327.33847  22934914.1314   22934917.9024   22934912.938
        46.0004         42.0004
 -11748888.25648  -9155388.92647  21900530.1404   21900537.9884   21900530.685
        50.0004         45.0004
  -7203779.09647  -5559041.85546  23749808.4344   23749819.7584   23749807.692
        46.0004         41.0004
   -240755.30847   -162476.27246  24287012.2524   24287019.2684   24287010.750
        43.0004         38.0004
 -11978692.14048  -9318250.70147  21867439.2494   21867442.7884   21867440.067
        50.0004         46.0004
 -26575856.74149 -20646395.41748  20311867.2254   20311873.2724   20311866.738
        54.0004         49.0004
  -2542361.78946  -1937171.15346  25175789.5344   25175796.3344   25175790.013
        41.0004         36.0004
 14  5 14  1 29 30.0000000  0 10G09G08G10G07G28G17G26G02G04G05
  -9852597.40748  -7670376.51548  20860837.2774   20860842.7534   20860837.354
        53.0004         48.0004
 -15099813.44348 -11760703.93847  20875619.1774   20875625.5464   20875619.550
        51.0004         46.0004
 -19875882.20148 -15476807.31147  21964517.4334   21964523.0574   21964517.720
        49.0004         44.0004
  -9755385.67747  -7571929.79047  22954546.9894   22954552.2234   22954546.588
        46.0004         42.0004
 -11801986.80748  -9196764.35247  21890425.3944   21890432.8754   21890425.941
        50.0004         45.0004
  -7178718.68247  -5539514.30546  23754576.8884   23754588.9924   23754577.179
        46.0004         41.0004
   -224303.34947   -149656.42146  24290140.9344   24290149.9004   24290141.926
        43.0004         38.0004
 -12020332.13848  -9350697.40747  21859516.3274   21859518.9274   21859516.284
        50.0004         45.0004
 -26564478.02449 -20637528.87648  20314032.3764   20314038.8124   20314031.852
        54.0004         49.0004
  -2626828.46146  -2002988.98346  25159716.3604   25159722.0284   25159716.887
        41.0004         36.0004
 14  5 14  1 30  0.0000000  0 10G09G08G10G07G28G17G26G02G04G05
  -9785203.78748  -7617861.96948  20873661.7094   20873667.1354   20873661.783
        53.0004         48.0004
 -15023161.62648 -11700975.23647  20890205.9924   20890211.8884   20890206.077
        51.0004         46.0004
 -19945657.72848 -15531177.81547  21951238.7894   21951245.5854   21951239.491
        49.0004         45.0004
  -9652093.61547  -7491442.47147  22974203.1644   22974207.9834   22974202.548
        46.0004         42.0004
 -11854897.38948  -9237993.31347  21880357.5414   21880365.1024   21880357.809
        49.0004         45.0004
  -7153877.41947  -5520157.51146  23759304.1494   23759315.7244   23759303.602
        46.0004         41.0004
   -207845.47347   -136831.97446  24293273.3294   24293282.1764   24293273.257
        42.0004         38.0004
 -12061533.57948  -9382802.37247  21851675.0874   21851678.3224   21851675.576
        50.0004         45.0004
 -26552570.51249 -20628250.29348  20316298.1954   20316304.6394   20316298.081
        54.0004         49.0004
  -2711488.78946  -2068957.70346  25143606.6674   25143611.4134   25143605.462
        41.0004         36.0004
 14  5 14  1 30 30.0000000  0 10G09G08G10G07G28G17G26G02G04G05
  -9717436.69048  -7565056.40548  20886557.7184   20886562.9664   20886557.430
        53.0004         48.0004
 -14946069.57748 -11640903.49347  20904876.3594   20904882.2194   20904876.089
        51.0004         46.0004
 -20015331.97648 -15585469.41747  21937980.4674   21937986.3554   21937980.833
        49.0004         45.0004
  -9548689.64247  -7410867.94247  22993879.9124   22993885.8074   22993879.809
        46.0004         42.0004
 -11907617.20948  -9279073.62947  21870325.2844   21870331.4284   21870324.855
        49.0004         45.0004
  -7129256.38247  -5500972.32246  23763990.0334   23764001.7544   23763989.169
        46.0004         41.0004
   -191384.17447   -124004.83846  24296405.7374   24296415.0824   24296406.830
        42.0004         38.0004
 -12102296.03348  -9414565.27847  21843918.9134   21843922.0994   21843919.048
        50.0004         45.0004
 -26540136.00149 -20618561.06748  20318664.2064   20318670.8284   20318664.209
        54.0004         49.0004
  -2796341.49446  -2135076.41946  25127457.3364   25127468.2024   25127458.265
        41.0004         36.0004
 14  5 14  1 31  0.0000000  0 10G09G08G10G07G28G17G26G02G04G05
  -9649296.51248  -7511960.12848  20899524.1644   20899529.9234   20899523.904
        53.0004         48.0004
 -14868537.89148 -11580489.17847  20919629.6484   20919635.8354   20919629.930
        51.0004         46.0004
 -20084899.65348 -15639677.96647  21924742.7034   21924748.6674   21924742.880
        49.0004         45.0004
  -9445174.27547  -7330206.62846  23013578.3764   23013583.1064   23013577.998
        46.0004         41.0004
 -11960140.83248  -9320001.06147  21860330.4294   21860337.4514   21860330.458
        49.0004         45.0004
  -7104853.96547  -5481957.47346  23768634.2444   23768644.5564   23768632.955
        46.0004         41.0004
   -174919.17447   -111174.85146  24299538.6454   24299547.3134   24299538.926
        42.0004         38.0004
 -12142616.40948  -9445983.70247  21836245.0324   21836248.5654   21836245.771
        50.0004         46.0004
 -26527173.22349 -20608460.19748  20321131.3484   20321137.6574   20321130.857
        54.0004         49.0004
  -2881382.90446  -2201342.03346  25111275.5084   25111282.8774   25111274.595
        40.0004         36.0004
 14  5 14  1 31 30.0000000  0 10G09G08G10G07G28G17G26G02G04G05
  -9580788.80048  -7458577.46348  20912560.7324   20912566.0334   20912560.817
        53.0004         48.0004
 -14790572.65248 -11519737.02747  20934465.9344   20934471.3274   20934465.875
        51.0004         46.0004
 -20154360.40348 -15693803.19147  21911524.9594   21911530.8294   21911525.196
        49.0004         45.0004
  -9341553.04447  -7249462.80647  23033296.2314   23033301.8734   23033296.758
        46.0004         42.0004
 -12012468.08448  -9360775.48647  21850372.3224   21850379.6784   21850372.530
        49.0004         45.0004
  -7080673.44047  -5463115.53646  23773235.4664   23773246.6064   23773234.070
        46.0004         41.0004
   -158455.45547    -98345.83746  24302671.7894   24302680.0954   24302671.453
        42.0004         37.0004
 -12182496.89748  -9477059.36047  21828656.1984   21828660.2734   21828657.207
        50.0004         46.0004
 -26513685.95849 -20597950.64248  20323698.1924   20323703.8884   20323697.655
        54.0004         49.0004
  -2966614.19046  -2267755.70746  25095055.1564   25095062.2954   25095056.095
        41.0004         37.0004
 14  5 14  1 32  0.0000000  0 10G09G08G10G07G28G17G26G02G04G05
  -9511914.26648  -7404908.96448  20925667.1304   20925672.7274   20925666.935
        53.0004         48.0004
 -14712174.71048 -11458647.71247  20949384.2114   20949390.8084   20949384.670
        51.0004         46.0004
 -20223709.44448 -15747841.38747  21898327.3264   21898334.1274   21898328.050
        49.0004         45.0004
  -9237826.85447  -7168637.20746  23053035.2274   23053040.0524   23053034.578
        46.0004         41.0004
 -12064593.81148  -9401392.87047  21840453.0434   21840461.2044   21840453.263
        49.0004         45.0004
  -7056713.25147  -5444445.29246  23777795.3004   23777806.4244   23777793.629
        45.0004         41.0004
   -141992.70547    -85517.59146  24305805.5544   24305811.3984   24305804.371
        42.0004         38.0004
 -12221935.02448  -9507790.31847  21821152.1994   21821155.8614   21821152.030
        50.0004         46.0004
 -26499673.19349 -20587031.60848  20326364.5494   20326370.8774   20326363.963
        54.0004         49.0004
  -3052031.65846  -2334314.41346  25078800.3774   25078807.4674   25078800.865
        41.0004         37.0004
 14  5 14  1 32 30.0000000  0 10G09G08G10G07G28G17G26G02G04G05
  -9442676.74948  -7350957.62248  20938842.1724   20938847.9594   20938842.379
        53.0004         48.0004
 -14633348.13648 -11397224.39347  20964384.5214   20964390.7474   20964384.926
        51.0004         46.0004
 -20292944.81048 -15801791.01747  21885152.9114   21885159.0444   21885153.480
        49.0004         45.0004
  -9133999.13947  -7087732.50146  23072793.3444   23072798.8694   23072792.118
        46.0004         41.0004
 -12116515.64048  -9441851.37047  21830572.2214   21830579.2934   21830572.787
        49.0004         45.0004
  -7032975.13847  -5425948.10046  23782311.3184   23782323.2244   23782311.357
        45.0004         41.0004
   -125534.14647    -72692.61446  24308936.2434   24308944.0074   24308936.209
        42.0004         37.0004
 -12260930.69448  -9538176.51447  21813731.4824   21813734.4914   21813731.840
        50.0004         46.0004
 -26485136.94449 -20575704.67148  20329130.7694   20329136.5984   20329130.372
        54.0004         49.0004
  -3137634.67747  -2401017.57646  25062511.5634   25062518.6204   25062510.740
        42.0004         37.0004
 14  5 14  1 33  0.0000000  0 10G09G08G10G07G28G17G26G02G04G05
  -9373080.85748  -7296727.02348  20952086.0184   20952091.3834   20952086.003
        53.0004         48.0004
 -14554097.27248 -11335470.45947  20979465.5254   20979471.5524   20979465.852
        51.0004         46.0004
 -20362064.77548 -15855650.71247  21871999.7034   21872004.7344   21872000.401
        50.0004         45.0004
  -9030074.29547  -7006752.11146  23092569.5174   23092574.9064   23092568.914
        46.0004         41.0004
 -12168231.84348  -9482149.65247  21820730.9794   21820739.1674   21820731.548
        50.0004         45.0004
  -7009460.72147  -5407625.19546  23786786.0254   23786798.0164   23786785.977
        46.0004         41.0004
   -109083.01747    -59873.41846  24312066.9674   24312074.5124   24312066.786
        42.0004         38.0004
 -12299484.82848  -9568218.65847  21806394.2904   21806398.1154   21806394.643
        50.0004         46.0004
 -26470079.98549 -20563971.97848  20331995.8114   20332002.3824   20331995.497
        54.0004         49.0004
  -3223423.65846  -2467865.87046  25046183.7884   25046191.7374   25046185.737
        41.0004         36.0004
 14  5 14  1 33 30.0000000  0 10G09G08G10G07G28G17G26G02G04G05
  -9303127.88448  -7242218.18548  20965397.6864   20965403.4664   20965397.624
        53.0004         48.0004
 -14474423.89648 -11273387.29947  20994626.3484   20994632.8314   20994627.020
        51.0004         46.0004
 -20431065.02448 -15909417.12547  21858868.9624   21858874.8614   21858869.325
        50.0004         45.0004
  -8926053.66047  -6925697.08446  23112363.8284   23112368.3874   23112363.929
        46.0004         41.0004
 -12219738.14048  -9522284.36147  21810929.8004   21810937.7314   21810930.044
        50.0004         45.0004
  -6986169.52847  -5389476.22246  23791218.2384   23791228.9554   23791218.214
        46.0004         41.0004
    -92640.08147    -47060.60946  24315196.5674   24315202.5234   24315196.044
        42.0004         38.0004
 -12337595.52048  -9597915.25747  21799142.1864   21799145.8424   21799142.921
        50.0004         46.0004
 -26454501.88649 -20551833.21048  20334960.0934   20334966.8674   20334959.782
        54.0004         49.0004
  -3309394.86146  -2534856.11046  25029825.8484   25029832.5474   25029825.588
        41.0004         36.0004
 14  5 14  1 34  0.0000000  0 10G09G08G10G07G28G17G26G02G04G05
  -9232821.07748  -7187433.62648  20978776.5174   20978782.3274   20978776.420
        53.0004         48.0004
 -14394331.54148 -11210977.66247  21009867.9544   21009874.3584   21009868.241
        51.0004         46.0004
 -20499943.09348 -15963088.33147  21845761.9164   21845768.4534   21845762.956
        50.0004         45.0004
  -8821940.49047  -6844569.95046  23132176.3434   23132181.6934   23132175.328
        46.0004         41.0004
 -12271031.53048  -9562253.18147  21801169.8984   21801176.3204   21801169.422
        50.0004         45.0004
  -6963102.19047  -5371501.67346  23795608.7204   23795619.4524   23795607.903
        46.0004         41.0004
    -76207.81647    -34256.12246  24318323.6424   24318331.4624   24318322.701
        43.0004         38.0004
 -12375262.39748  -9627266.02647  21791974.4954   21791977.7444   21791975.026
        50.0004         46.0004
 -26438404.48949 -20539289.79248  20338023.2754   20338029.4984   20338023.064
        54.0004         49.0004
  -3395547.18346  -2601987.46946  25013430.3694   25013436.3704   25013431.101
        41.0004         37.0004
 14  5 14  1 34 30.0000000  0 10G09G08G10G07G28G17G26G02G04G05
  -9162163.85848  -7132376.02148  20992222.5014   20992228.2464   20992222.513
        53.0004         48.0004
 -14313823.85748 -11148244.39147  21025188.1194   21025193.9334   21025188.177
        51.0004         46.0004
 -20568696.63948 -16016662.51847  21832679.2594   21832684.8534   21832679.561
        50.0004         45.0004
  -8717737.84047  -6763373.09646  23152005.7534   23152009.2224   23152005.083
        46.0004         41.0004
 -12322109.61548  -9602054.22447  21791449.0944   21791456.1974   21791449.072
        50.0004         45.0004
  -6940259.81247  -5353702.42246  23799954.9534   23799965.8434   23799954.324
        46.0004         41.0004
    -59788.74047    -21461.91346  24321446.8404   24321455.1774   24321446.615
        43.0004         38.0004
 -12412485.85848  -9656271.27447  21784891.7004   21784894.3924   21784891.481
        51.0004         46.0004
 -26421789.69249 -20526343.21248  20341185.2854   20341191.3004   20341184.688
        54.0004         49.0004
  -3481880.03947  -2669259.51646  24997001.7884   24997007.5654   24997002.420
        42.0004         37.0004
 14  5 14  1 35  0.0000000  0 10G09G08G10G07G28G17G26G02G04G05
  -9091160.87548  -7077048.98648  21005733.2044   21005739.0384   21005733.506
        53.0004         48.0004
 -14232905.70348 -11085191.26747  21040586.0554   21040592.0614   21040586.319
        51.0004         46.0004
 -20637324.26848 -16070138.58347  21819619.1774   21819625.1984   21819620.202
        50.0004         45.0004
  -8613450.60547  -6682110.32246  23171850.6474   23171855.4544   23171849.955
        45.0004         41.0004
 -12372970.97748  -9641686.39947  21781771.5184   21781777.8654   21781771.390
        50.0004         45.0004
  -6917644.85347  -5336080.37646  23804258.1444   23804270.0254   23804257.246
        45.0004         41.0004
    -43386.70547     -8680.95846  24324568.4484   24324575.4894   24324568.794
        43.0004         38.0004
 -12449266.73548  -9684931.64947  21777892.1004   21777894.9494   21777892.429
        51.0004         46.0004
 -26404660.23049 -20512995.59048  20344444.4824   20344451.1994   20344444.208
        54.0004         49.0004
  -3568393.07547  -2736671.94946  24980538.2304   24980546.4604   24980538.344
        42.0004         37.0004
 14  5 14  1 35 30.0000000  0 10G09G08G10G07G28G17G26G02G04G05
  -9019810.74448  -7021451.45348  21019311.4054   21019316.9174   21019311.349
        53.0004         48.0004
 -14151575.63148 -11021817.16447  21056063.1464   21056068.6634   21056062.892
        51.0004         46.0004
 -20705818.78348 -16123510.92147  21806585.7464   21806591.2404   21806585.515
        50.0004         45.0004
  -8509076.93347  -6600780.19046  23191711.7744   23191717.5734   23191711.970
        45.0004         41.0004
 -12423607.96748  -9681143.73547  21772135.2474   21772142.2834   21772135.025
        50.0004         45.0004
  -6895253.06847  -5318632.21346  23808518.9634   23808531.1514   23808518.128
        45.0004         41.0004
    -26999.25047      4088.59946  24327686.7544   24327694.3744   24327687.198
        43.0004         38.0004
 -12485600.32148  -9713243.48247  21770977.0274   21770981.2504   21770978.360
        51.0004         46.0004
 -26387013.06149 -20499244.56148  20347802.6814   20347809.2704   20347802.534
        54.0004         49.0004
  -3655080.66846  -2804220.50446  24964042.8394   24964049.1814   24964041.871
        41.0004         36.0004
 14  5 14  1 36  0.0000000  0 10G09G08G10G07G28G17G26G02G04G05
  -8948120.29648  -6965588.72848  21032952.9004   21032958.4784   21032953.148
        53.0004         48.0004
 -14069841.05448 -10958127.86647  21071615.7084   21071622.5974   21071616.441
        51.0004         46.0004
 -20774181.20848 -16176780.32547  21793576.1404   21793582.4094   21793576.889
        50.0004         45.0004
  -8404623.57247  -6519387.97746  23211589.0454   23211593.8084   23211588.440
        45.0004         41.0004
 -12474021.91448  -9720427.27247  21762541.3284   21762549.5574   21762541.427
        50.0004         45.0004
  -6873088.97947  -5301361.49646  23812736.3794   23812748.8014   23812736.878
        45.0004         41.0004
    -10632.47947     16842.06646  24330801.4684   24330808.3404   24330800.396
        43.0004         38.0004
 -12521490.29548  -9741209.65247  21764147.8844   21764151.8364   21764148.603
        51.0004         46.0004
 -26368853.68149 -20485094.40048  20351258.5644   20351264.8934   20351258.258
        54.0004         49.0004
  -3741944.69346  -2871906.47146  24947513.8174   24947520.8464   24947511.864
        41.0004         37.0004
 14  5 14  1 36 30.0000000  0 10G09G08G10G07G28G17G26G02G04G05
  -8876092.15748  -6909462.86848  21046659.8614   21046665.0924   21046659.942
        53.0004         48.0004
 -13987705.03948 -10894125.76147  21087246.2304   21087251.6584   21087246.643
        51.0004         46.0004
 -20842407.91248 -16229943.97547  21780593.3434   21780599.3394   21780593.851
        50.0004         45.0004
  -8300093.27047  -6437935.80946  23231479.7404   23231485.2864   23231479.521
        45.0004         41.0004
 -12524209.31648  -9759534.27747  21752990.7644   21752998.3984   21752990.930
        50.0004         45.0004
  -6851153.23047  -5284268.70746  23816911.1444   23816922.3044   23816910.338
        45.0004         41.0004
      5711.80747     29577.98646  24333911.4314   24333918.1134   24333911.173
        42.0004         38.0004
 -12556935.78348  -9768829.46347  21757402.7934   21757405.6204   21757403.265
        51.0004         46.0004
 -26350183.10449 -20470545.90648  20354811.3764   20354817.9874   20354810.807
        54.0004         49.0004
  -3828983.56946  -2939728.68346  24930949.9794   24930956.4894   24930948.678
        41.0004         36.0004
 14  5 14  1 37  0.0000000  0 10G09G08G10G07G28G17G26G02G04G05
  -8803727.48148  -6853074.78048  21060429.8904   21060435.5024   21060430.262
        52.0004         48.0004
 -13905168.52848 -10829811.58347  21102952.5694   21102958.3834   21102952.642
        51.0004         46.0004
 -20910494.20848 -16282998.22147  21767636.8094   21767642.5344   21767637.302
        50.0004         45.0004
  -8195486.58047  -6356424.11446  23251385.7374   23251391.9244   23251385.536
        45.0004         41.0004
 -12574164.90048  -9798460.65147  21743484.5494   21743492.3694   21743484.606
        50.0004         45.0004
  -6829444.02047  -5267352.42146  23821042.3664   23821053.9874   23821042.061
        46.0004         41.0004
     22033.70747     42296.48546  24337017.2154   24337022.8444   24337016.504
        42.0004         37.0004
 -12591934.09448  -9796100.83547  21750743.6094   21750746.9954   21750743.652
        51.0004         46.0004
 -26331000.52948 -20455598.45548  20358461.9974   20358467.9684   20358461.371
        53.0004         49.0004
  -3916193.65846  -3007684.34446  24914354.7644   24914361.6644   24914353.277
        41.0004         37.0004
 14  5 14  1 37 30.0000000  0 10G09G08G10G07G28G17G26G02G04G05
  -8731030.22348  -6796427.53548  21074264.4094   21074269.2474   21074263.941
        52.0004         48.0004
 -13822236.06348 -10765188.86747  21118734.4094   21118740.7984   21118734.367
        51.0004         46.0004
 -20978438.39448 -16335941.72947  21754707.2554   21754713.8244   21754707.910
        50.0004         45.0004
  -8090807.35947  -6274855.90646  23271306.1064   23271311.8194   23271305.836
        45.0004         41.0004
 -12623886.78048  -9837204.91647  21734021.7514   21734029.5224   21734022.415
        50.0004         45.0004
  -6807963.05747  -5250613.97946  23825129.6124   23825141.6974   23825129.058
        46.0004         41.0004
     38329.96747     54994.97846  24340118.3314   24340124.6674   24340117.084
        42.0004         37.0004
 -12626486.36848  -9823024.66647  21744168.4394   21744171.3964   21744168.532
        51.0004         46.0004
 -26311308.72948 -20440254.21048  20362208.8844   20362215.4594   20362208.589
        53.0004         49.0004
  -4003574.43946  -3075773.10946  24897725.5654   24897732.7004   24897725.014
        41.0004         37.0004
 14  5 14  1 38  0.0000000  0 10G09G08G10G07G28G17G26G02G04G05
  -8658005.17348  -6739524.86748  21088160.4264   21088165.4654   21088159.984
        52.0004         48.0004
 -13738912.42248 -10700261.33747  21134589.4584   21134596.0414   21134590.375
        51.0004         46.0004
 -21046239.13448 -16388773.46247  21741805.4984   21741811.0674   21741805.770
        50.0004         45.0004
  -7986060.22947  -6193234.78646  23291238.4504   23291243.8554   23291237.986
        45.0004         40.0004
 -12673373.65548  -9875766.06847  21724605.9264   21724612.9744   21724605.972
        50.0004         45.0004
  -6786712.14747  -5234054.79946  23829173.2314   23829185.0224   23829173.330
        45.0004         41.0004
     54596.88947     67670.61646  24343212.9534   24343219.8304   24343213.851
        42.0004         38.0004
 -12660593.51148  -9849601.63047  21737677.0164   21737681.4004   21737678.008
        51.0004         46.0004
 -26291110.76148 -20424515.54948  20366052.2394   20366058.9194   20366052.200
        53.0004         49.0004
  -4091125.93846  -3143994.77746  24881065.4694   24881071.1184   24881065.980
        41.0004         37.0004
 14  5 14  1 38 30.0000000  0 10G09G08G10G07G28G17G26G02G04G05
  -8584655.30948  -6682369.09148  21102118.1944   21102124.0624   21102118.052
        52.0004         48.0004
 -13655200.77448 -10635031.46947  21150519.3084   21150525.0634   21150519.982
        51.0004         46.0004
 -21113893.30048 -16441490.98747  21728930.5914   21728936.5684   21728931.431
        50.0004         45.0004
  -7881247.85447  -6111562.82046  23311183.5104   23311190.4954   23311182.931
        45.0004         40.0004
 -12722622.65248  -9914141.85947  21715233.7304   21715240.6904   21715233.703
        50.0004         45.0004
  -6765691.56147  -5217675.08546  23833173.4144   23833185.1964   23833173.483
        45.0004         41.0004
     70832.40647     80321.78546  24346302.7004   24346309.5644   24346301.911
        42.0004         38.0004
 -12694255.72948  -9875831.88047  21731271.7564   21731275.3274   21731272.427
        51.0004         46.0004
 -26270408.03448 -20408383.57648  20369992.1344   20369998.6034   20369991.866
        53.0004         49.0004
  -4178845.98346  -3212347.76846  24864372.2274   24864377.7064   24864372.485
        41.0004         37.0004
 14  5 14  1 39  0.0000000  0 10G09G08G10G07G28G17G26G02G04G05
  -8510980.16448  -6624959.84848  21116137.7394   21116143.3374   21116137.856
        52.0004         48.0004
 -13571101.16348 -10569499.28847  21166523.2634   21166529.8934   21166523.170
        51.0004         46.0004
 -21181394.75848 -16494089.51747  21716086.1504   21716092.7734   21716086.592
        50.0004         45.0004
  -7776369.57647  -6029839.50646  23331141.5724   23331145.7214   23331140.787
        45.0004         40.0004
 -12771627.16048  -9952327.12647  21705908.6934   21705915.4824   21705908.964
        50.0004         45.0004
  -6744899.22647  -5201473.25446  23837130.1834   23837141.7744   23837130.117
        45.0004         41.0004
     87037.85647     92949.54046  24349386.6764   24349393.3784   24349386.458
        42.0004         38.0004
 -12727468.91648  -9901712.24547  21724951.4744   21724954.9504   21724951.865
        51.0004         46.0004
 -26249198.77148 -20391856.89648  20374027.8664   20374034.4194   20374027.658
        53.0004         49.0004
  -4266729.64046  -3280828.30346  24847649.4824   24847651.7964   24847648.812
        41.0004         37.0004
 14  5 14  1 39 30.0000000  0 10G09G08G10G07G28G17G26G02G04G05
  -8436993.76648  -6567308.07147  21130216.7334   21130221.9454   21130216.826
        52.0004         47.0004
 -13486627.93048 -10503675.97547  21182597.8264   21182603.9114   21182598.418
        51.0004         46.0004
 -21248751.64848 -16546575.40147  21703267.7704   21703274.5834   21703268.733
        50.0004         45.0004
  -7671439.57047  -5948075.90546  23351108.4854   23351114.3204   23351109.203
        45.0004         40.0004
 -12820395.23748  -9990328.16547  21696628.6074   21696635.0524   21696627.949
        50.0004         45.0004
  -6724346.55947  -5185458.17646  23841041.1044   23841053.1604   23841040.773
        45.0004         41.0004
    103200.01747    105543.54446  24352462.1904   24352468.9284   24352461.686
        43.0004         38.0004
 -12760244.14148  -9927251.35747  21718715.0574   21718717.7104   21718714.767
        51.0004         46.0004
 -26227495.67548 -20374945.41548  20378158.2844   20378164.7234   20378157.782
        53.0004         49.0004
  -4354786.95946  -3349444.13046  24830892.4604   24830895.0914   24830892.147
        41.0004         37.0004
 14  5 14  1 40  0.0000000  0 10G09G08G10G07G28G17G26G02G04G05
  -8362678.90948  -6509400.36448  21144358.6764   21144364.3054   21144358.711
        52.0004         48.0004
 -13401764.20448 -10437548.37847  21198746.6494   21198752.7604   21198747.455
        50.0004         46.0004
 -21315940.88048 -16598930.63547  21690483.3864   21690488.7804   21690483.461
        50.0004         45.0004
  -7566440.11547  -5866258.16846  23371089.5074   23371095.3074   23371089.878
        45.0004         40.0004
 -12868903.82548 -10028127.01147  21687396.6264   21687404.9344   21687397.749
        50.0004         45.0004
  -6704013.24447  -5169614.01446  23844911.3284   23844922.5024   23844909.959
        46.0004         41.0004
    119337.05247    118117.98746  24355532.2314   24355539.9604   24355532.470
        42.0004         38.0004
 -12792560.84448  -9952433.18947  21712564.9764   21712568.5164   21712565.625
        51.0004         46.0004
 -26205280.15848 -20357634.64848  20382385.3644   20382392.0664   20382385.119
        53.0004         49.0004
  -4442996.39546  -3418178.49546  24814106.2804   24814111.8664   24814105.964
        41.0004         37.0004
 14  5 14  1 40 30.0000000  0 10G09G08G10G07G28G17G26G02G04G05
  -8288054.75148  -6451251.62848  21158558.8734   21158564.5244   21158558.854
        52.0004         48.0004
 -13316529.40348 -10371131.62247  21214966.3724   21214972.3004   21214966.890
        50.0004         46.0004
 -21382975.21048 -16651165.16347  21677726.1264   21677732.6164   21677726.773
        50.0004         45.0004
  -7461390.24147  -5784401.15046  23391080.9194   23391085.6614   23391079.931
        45.0004         40.0004
 -12917165.81348 -10065733.70447  21678213.2014   21678220.8384   21678213.416
        50.0004         46.0004
  -6683915.91247  -5153953.72646  23848734.4384   23848746.8134   23848734.537
        46.0004         41.0004
    135430.93747    130658.80446  24358594.2154   24358601.0044   24358594.198
        43.0004         38.0004
 -12824434.75848  -9977269.98347  21706499.4384   21706503.0714   21706499.566
        51.0004         46.0004
 -26182569.58048 -20339938.11048  20386707.0664   20386713.2874   20386706.786
        53.0004         49.0004
  -4531371.79147  -3487042.23746  24797288.3124   24797295.2324   24797288.463
        42.0004         37.0004
 14  5 14  1 41  0.0000000  0 10G09G08G10G07G28G17G26G02G04G05
  -8213117.41748  -6392858.87148  21172819.4424   21172825.1464   21172819.432
        52.0004         48.0004
 -13230919.78048 -10304422.80547  21231257.3744   21231263.8194   21231257.962
        50.0004         46.0004
 -21449844.93148 -16703271.42647  21665001.9174   21665007.6394   21665002.260
        50.0004         46.0004
  -7356285.63647  -5702501.48646  23411081.2104   23411086.0774   23411080.381
        45.0004         40.0004
 -12965171.30648 -10103140.53447  21669078.2824   21669085.7124   21669078.212
        50.0004         46.0004
  -6664048.74347  -5138472.78846  23852515.6514   23852527.0074   23852515.091
        46.0004         41.0004
    151486.46247    143169.71446  24361650.5904   24361656.3554   24361650.802
        43.0004         38.0004
 -12855858.83048 -10001756.25647  21700519.8844   21700522.7814   21700520.034
        51.0004         46.0004
 -26159358.72248 -20321851.75248  20391124.3884   20391130.8354   20391123.730
        53.0004         49.0004
  -4619904.56047  -3556028.65246  24780440.9864   24780445.6194   24780441.088
        42.0004         37.0004
 14  5 14  1 41 30.0000000  0 10G09G08G10G07G28G17G26G02G04G05
  -8137873.62248  -6334227.30647  21187137.8954   21187143.3404   21187137.492
        52.0004         47.0004
 -13144942.28748 -10237427.34247  21247618.7754   21247624.5654   21247618.996
        50.0004         46.0004
 -21516550.73148 -16755249.95547  21652308.0624   21652314.5634   21652308.482
        50.0004         45.0004
  -7251133.06247  -5620564.43946  23431091.2604   23431095.9874   23431090.538
        45.0004         40.0004
 -13012920.79148 -10140347.88147  21659991.7784   21659999.1134   21659991.938
        50.0004         45.0004
  -6644415.21247  -5123173.91146  23856251.1504   23856263.6484   23856251.227
        46.0004         41.0004
    167498.03847    155646.39346  24364696.8354   24364704.3084   24364695.810
        43.0004         38.0004
 -12886836.52548 -10025894.69947  21694625.1254   21694627.7284   21694625.460
        51.0004         46.0004
 -26135652.97048 -20303379.76348  20395635.4324   20395641.3084   20395634.941
        53.0004         49.0004
  -4708595.72746  -3625138.33346  24763562.9344   24763569.2664   24763563.029
        41.0004         37.0004
 14  5 14  1 42  0.0000000  0 10G09G08G10G07G28G17G26G02G04G05
  -8062324.93948  -6275358.17848  21201514.4334   21201519.3114   21201514.405
        52.0004         48.0004
 -13058598.99648 -10170146.83747  21264048.9504   21264055.4894   21264049.341
        50.0004         46.0004
 -21583088.54548 -16807097.58547  21639646.6064   21639651.7864   21639646.903
        50.0004         45.0004
  -7145933.32747  -5538590.63446  23451110.6484   23451115.6524   23451109.398
        45.0004         40.0004
 -13060410.07348 -10177352.46247  21650954.2034   21650962.2744   21650955.040
        50.0004         45.0004
  -6625014.49447  -5108056.46046  23859943.2444   23859955.8664   23859943.238
        46.0004         41.0004
    183464.89447    168088.20546  24367736.1814   24367740.6004   24367736.160
        43.0004         38.0004
 -12917366.43748 -10049684.22947  21688814.7624   21688818.0704   21688815.059
        51.0004         46.0004
 -26111452.62348 -20284522.38248  20400240.8884   20400247.2584   20400240.179
        53.0004         49.0004
  -4797443.39746  -3694370.00446  24746655.2294   24746658.8344   24746655.633
        41.0004         36.0004
 14  5 14  1 42 30.0000000  0 10G09G08G10G07G28G17G26G02G04G05
  -7986473.39248  -6216253.03747  21215948.0414   21215953.4734   21215948.147
        52.0004         47.0004
 -12971891.78148 -10102582.75747  21280548.4514   21280555.0014   21280549.492
        50.0004         45.0004
 -21649454.17248 -16858811.04247  21627017.4594   21627023.3074   21627017.692
        50.0004         46.0004
  -7040688.35547  -5456581.59246  23471137.3004   23471141.9964   23471137.278
        44.0004         40.0004
 -13107635.00048 -10214151.06247  21641968.5244   21641974.9074   21641968.144
        50.0004         45.0004
  -6605845.63347  -5093119.65846  23863591.2894   23863602.5164   23863590.600
        45.0004         41.0004
    199386.24447    180494.55546  24370765.1014   24370772.0664   24370765.187
        43.0004         39.0004
 -12947447.18548 -10073123.76047  21683090.7884   21683094.3314   21683091.410
        51.0004         46.0004
 -26086758.02148 -20265279.86948  20404939.8464   20404945.9584   20404939.405
        53.0004         49.0004
  -4886444.41846  -3763721.06046  24729719.2694   24729725.7504   24729718.500
        41.0004         37.0004
 14  5 14  1 43  0.0000000  0 10G09G08G10G07G28G17G26G02G04G05
  -7910325.47748  -6156916.96448  21230438.2854   21230443.8164   21230438.400
        52.0004         48.0004
 -12884827.65648 -10034740.55447  21297116.6644   21297122.8964   21297117.089
        50.0004         45.0004
 -21715647.95948 -16910390.59947  21614421.1794   21614426.7954   21614421.535
        50.0004         46.0004
  -6935404.56347  -5374542.30446  23491171.9024   23491177.6444   23491171.865
        44.0004         40.0004
 -13154595.99148 -10250743.99447  21633031.4134   21633038.3434   21633031.767
        50.0004         45.0004
  -6586912.51547  -5078366.55346  23867194.3304   23867204.9114   23867193.561
        45.0004         41.0004
    215256.45947    192861.07146  24373784.8414   24373790.9864   24373785.179
        43.0004         38.0004
 -12977081.86348 -10096215.69147  21677452.0234   21677454.8154   21677452.049
        51.0004         46.0004
 -26061574.34548 -20245656.26148  20409732.2774   20409738.1534   20409731.839
        53.0004         49.0004
  -4975600.78246  -3833193.32646  24712753.3204   24712759.4064   24712752.044
        41.0004         37.0004
 14  5 14  1 43 30.0000000  0 10G09G08G10G07G28G17G26G02G04G05
  -7833881.39448  -6097350.11548  21244985.6704   21244990.9964   21244985.684
        52.0004         48.0004
 -12797406.86548  -9966620.43847  21313752.5154   21313757.7884   21313752.632
        50.0004         45.0004
 -21781663.60048 -16961831.34947  21601858.2374   21601864.5464   21601859.064
        50.0004         46.0004
  -6830081.08247  -5292472.08946  23511214.3134   23511219.9134   23511213.722
        44.0004         40.0004
 -13201286.78148 -10287126.37547  21624147.6664   21624153.1024   21624147.200
        50.0004         46.0004
  -6568212.62047  -5063795.18046  23870753.2474   23870764.1064   23870752.477
        45.0004         41.0004
    231076.72147    205188.66546  24376794.7794   24376801.7754   24376795.095
        43.0004         38.0004
 -13006267.51348 -10118957.74847  21671897.7054   21671900.7684   21671898.197
        51.0004         46.0004
 -26035900.58548 -20225650.77748  20414617.5204   20414623.9224   20414617.177
        53.0004         49.0004
  -5064907.28246  -3902782.68046  24695756.6234   24695762.2764   24695758.154
        41.0004         36.0004
 14  5 14  1 44  0.0000000  0 10G09G08G10G07G28G17G26G02G04G05
  -7757146.92148  -6037556.98347  21259587.5844   21259593.2804   21259587.295
        52.0004         47.0004
 -12709635.56348  -9898227.20747  21330454.6154   21330460.2124   21330455.025
        50.0004         45.0004
 -21847501.19548 -17013133.35247  21589329.9274   21589335.6884   21589331.023
        50.0004         46.0004
  -6724723.91147  -5210375.61546  23531263.3644   23531267.5974   23531262.417
        44.0004         40.0004
 -13247707.66348 -10323298.43847  21615313.1994   21615320.6944   21615313.252
        50.0004         46.0004
  -6549749.42647  -5049408.25046  23874266.5494   23874276.9694   23874265.660
        45.0004         40.0004
    246842.06847    217473.47446  24379795.0874   24379802.6394   24379796.262
        43.0004         38.0004
 -13035007.09248 -10141352.20847  21666428.4864   21666432.6144   21666429.031
        51.0004         46.0004
 -26009740.94848 -20205266.68148  20419595.5884   20419601.8764   20419595.513
        53.0004         49.0004
  -5154365.17146  -3972490.01346  24678734.9754   24678739.2484   24678734.624
        41.0004         36.0004
 14  5 14  1 44 30.0000000  0 10G09G08G10G07G28G17G26G02G04G05
  -7680120.70348  -5977536.52047  21274245.1194   21274250.7884   21274245.317
        52.0004         47.0004
 -12621512.89348  -9829560.16947  21347224.1464   21347229.4544   21347224.136
        50.0004         45.0004
 -21913153.67148 -17064291.11147  21576836.8944   21576842.7804   21576837.310
        50.0004         46.0004
  -6619331.41247  -5128251.61246  23551319.4344   23551323.7204   23551318.188
        44.0004         40.0004
 -13293851.26948 -10359254.44847  21606531.7954   21606539.3734   21606532.637
        50.0004         46.0004
  -6531518.53747  -5035202.33746  23877735.2574   23877746.9164   23877734.329
        45.0004         40.0004
    262554.79547    229717.26146  24382785.5664   24382790.8274   24382785.131
        43.0004         38.0004
 -13063296.12148 -10163395.59247  21661045.9064   21661048.7954   21661045.838
        51.0004         46.0004
 -25983093.05448 -20184502.12348  20424666.4304   20424673.2574   20424666.224
        53.0004         49.0004
  -5243968.47947  -4042310.49546  24661684.2384   24661690.2964   24661683.146
        42.0004         37.0004
 14  5 14  1 45  0.0000000  0 10G09G08G10G07G28G17G26G02G04G05
  -7602809.81348  -5917294.23547  21288957.1134   21288961.9864   21288956.843
        52.0004         47.0004
 -12533046.10548  -9760624.98847  21364058.8584   21364064.6134   21364059.183
        50.0004         45.0004
 -21978621.77448 -17115305.19947  21564378.6544   21564384.8534   21564379.102
        50.0004         46.0004
  -6513909.75947  -5046104.90046  23571379.8124   23571384.6884   23571379.448
        44.0004         40.0004
 -13339718.25148 -10394994.90647  21597803.7294   21597811.9184   21597804.169
        50.0004         46.0004
  -6513524.12347  -5021180.70946  23881159.5924   23881169.7724   23881159.288
        45.0004         40.0004
    278209.16847    241915.60246  24385764.5314   24385771.0224   24385764.079
        43.0004         38.0004
 -13091138.23848 -10185090.74947  21655747.9224   21655750.3444   21655748.212
        51.0004         46.0004
 -25955962.43948 -20163361.42448  20429829.4954   20429835.5924   20429829.125
        53.0004         49.0004
  -5333719.22147  -4112246.03146  24644604.9434   24644611.1584   24644604.099
        42.0004         37.0004
 14  5 14  1 45 30.0000000  0 10G09G08G10G07G28G17G26G02G04G05
  -7525216.08048  -5856831.54947  21303722.2014   21303727.8014   21303722.228
        52.0004         47.0004
 -12444237.31948  -9691423.31747  21380958.4574   21380964.1354   21380958.899
        50.0004         45.0004
 -22043901.63748 -17166172.60847  21551956.3054   21551962.3864   21551956.607
        50.0004         46.0004
  -6408460.77247  -4963936.90246  23591446.3364   23591452.1084   23591445.895
        44.0004         40.0004
 -13385304.54748 -10430516.64447  21589129.0814   21589136.6774   21589129.459
        50.0004         46.0004
  -6495765.21447  -5007342.58946  23884539.3294   23884549.6724   23884539.058
        45.0004         40.0004
    293804.24047    254067.71946  24388731.8554   24388737.8834   24388731.493
        43.0004         38.0004
 -13118532.37448 -10206436.80547  21650534.5974   21650538.0164   21650534.825
        51.0004         46.0004
 -25928349.75848 -20141845.09448  20435083.9964   20435090.6864   20435083.738
        53.0004         49.0004
  -5423614.19247  -4182293.78246  24627498.7964   24627504.1724   24627498.270
        42.0004         37.0004
 14  5 14  1 46  0.0000000  0 10G09G08G10G07G28G17G26G02G04G05
  -7447344.54748  -5796152.40547  21318540.6334   21318546.3034   21318541.084
        52.0004         47.0004
 -12355091.84648  -9621959.29447  21397921.9564   21397928.3574   21397922.203
        50.0004         45.0004
 -22108991.97548 -17216892.33747  21539569.9244   21539576.7974   21539570.584
        50.0004         46.0004
  -6302989.19847  -4881751.30146  23611516.5824   23611521.5824   23611516.659
        44.0004         40.0004
 -13430609.04848 -10465818.80947  21580507.5234   21580515.7064   21580508.330
        50.0004         46.0004
  -6478244.67247  -4993690.20946  23887873.2274   23887883.1284   23887872.370
        44.0004         40.0004
    309336.06247    266170.54246  24391686.5784   24391693.1644   24391687.006
        43.0004         38.0004
 -13145480.56248 -10227435.38347  21645406.9674   21645409.2674   21645407.012
        51.0004         46.0004
 -25900258.73048 -20119956.02248  20440429.2644   20440436.0374   20440429.043
        53.0004         49.0004
  -5513653.53547  -4252454.07346  24610364.2184   24610369.6274   24610363.487
        42.0004         38.0004
 14  5 14  1 46 30.0000000  0 10G09G08G10G07G28G17G26G02G04G05
  -7369194.15048  -5735255.96147  21333412.0574   21333417.4374   21333412.020
        52.0004         47.0004
 -12265609.05748  -9552232.42947  21414950.0694   21414956.0314   21414950.320
        50.0004         45.0004
 -22173885.84248 -17267458.97647  21527221.0234   21527227.0944   21527221.687
        50.0004         46.0004
  -6197493.51347  -4799546.91846  23631592.4754   23631596.0354   23631591.863
        44.0004         40.0004
 -13475624.90348 -10500896.05047  21571942.0424   21571948.3744   21571942.092
        50.0004         46.0004
  -6460958.28947  -4980220.29246  23891162.6744   23891173.1284   23891162.400
        45.0004         40.0004
    324806.77547    278225.76646  24394631.7664   24394637.7054   24394631.072
        43.0004         38.0004
 -13171978.51648 -10248083.13447  21640364.2724   21640367.3784   21640364.107
        51.0004         46.0004
 -25871687.41948 -20097692.71448  20445866.5544   20445873.1824   20445866.181
        53.0004         49.0004
  -5603831.46947  -4322722.46646  24593203.3254   24593209.6974   24593203.349
        42.0004         37.0004
 14  5 14  1 47  0.0000000  0 11G09G08G10G07G28G17G26G02G04G05G30
  -7290771.50048  -5674147.37847  21348335.7834   21348341.2364   21348335.934
        52.0004         47.0004
 -12175795.58248  -9482247.88147  21432040.7934   21432046.9704   21432040.832
        49.0004         45.0004
 -22238583.41648 -17317872.65747  21514909.7434   21514915.8134   21514909.780
        50.0004         46.0004
  -6091979.95747  -4717328.59846  23651670.2664   23651675.9114   23651670.408
        44.0004         40.0004
 -13520352.42048 -10535748.62747  21563431.5914   21563437.1454   21563430.760
        50.0004         46.0004
  -6443909.83447  -4966935.77446  23894407.4114   23894418.0564   23894406.250
        45.0004         40.0004
    340210.98847    290229.16046  24397563.2594   24397567.1354   24397562.773
        43.0004         38.0004
 -13198029.79848 -10268382.82747  21635406.7754   21635409.1964   21635407.230
        51.0004         47.0004
 -25842640.84948 -20075059.07348  20451393.8364   20451400.4294   20451393.415
        53.0004         49.0004
  -5694149.97147  -4393100.38946  24576016.8304   24576021.4554   24576016.126
        42.0004         37.0004
  -1058573.00648   -828578.71647  21608919.5424   21608926.7734   21608919.373
        52.0004         47.0004
 14  5 14  1 47 30.0000000  0 11G09G08G10G07G28G17G26G02G04G05G30
  -7212076.76348  -5612826.77347  21363310.9704   21363316.0854   21363310.888
        52.0004         47.0004
 -12085651.79948  -9412005.96547  21449195.6834   21449200.8574   21449194.983
        49.0004         45.0004
 -22303078.87948 -17368128.85447  21502636.9434   21502642.6714   21502636.958
        51.0004         46.0004
  -5986447.95847  -4635095.91346  23671753.1024   23671756.9874   23671752.825
        44.0004         40.0004
 -13564786.00448 -10570372.14547  21554974.3734   21554981.8754   21554974.874
        50.0004         46.0004
  -6427096.58847  -4953834.53046  23897605.9384   23897617.3024   23897605.521
        44.0004         40.0004
    355549.69747    302181.52146  24400480.9604   24400487.1654   24400481.462
        43.0004         38.0004
 -13223631.76948 -10288332.42647  21630534.5104   21630537.8774   21630535.251
        51.0004         46.0004
 -25813117.94548 -20052054.26648  20457012.0514   20457018.8024   20457011.431
        53.0004         49.0004
  -5784603.52447  -4463583.37546  24558804.4434   24558808.5304   24558803.439
        42.0004         38.0004
   -979140.90548   -766683.55447  21624034.8344   21624041.7674   21624034.793
        51.0004         46.0004
 14  5 14  1 48  0.0000000  0 11G09G08G10G07G28G17G26G02G04G05G30
  -7133115.80448  -5551298.72447  21378336.5494   21378341.6534   21378336.641
        52.0004         47.0004
 -11995184.30148  -9341511.79547  21466410.2224   21466415.8344   21466410.361
        49.0004         45.0004
 -22367372.12748 -17418227.47647  21490401.9704   21490407.9254   21490402.464
        51.0004         46.0004
  -5880903.39747  -4552853.43346  23691837.7844   23691841.8554   23691837.457
        44.0004         39.0004
 -13608925.22748 -10604766.29647  21546575.1444   21546582.4044   21546575.486
        50.0004         46.0004
  -6410521.67047  -4940918.99646  23900760.6604   23900771.7804   23900759.760
        44.0004         40.0004
    370818.01247    314079.02846  24403385.6744   24403394.2244   24403386.499
        43.0004         38.0004
 -13248787.09248 -10307933.98247  21625747.6904   21625751.2924   21625748.061
        51.0004         46.0004
 -25783123.49748 -20028682.01948  20462719.6744   20462726.8364   20462719.504
        53.0004         49.0004
  -5875193.98847  -4534173.16446  24541564.8374   24541569.5884   24541563.924
        42.0004         37.0004
   -899438.17848   -704577.51447  21639201.6754   21639209.2854   21639201.392
        51.0004         46.0004
 14  5 14  1 48 30.0000000  0 11G09G08G10G07G28G17G26G02G04G05G30
  -7053892.38148  -5489566.16147  21393412.3594   21393417.1804   21393412.265
        52.0004         47.0004
 -11904397.00248  -9270768.42847  21483685.9844   21483691.4694   21483686.033
        49.0004         44.0004
 -22431460.95548 -17468166.80847  21478206.2564   21478212.9814   21478206.815
        51.0004         46.0004
  -5775349.30847  -4470603.53646  23711923.0684   23711928.3174   23711923.015
        44.0004         39.0004
 -13652767.92648 -10638929.39047  21538231.9804   21538239.6074   21538232.301
        50.0004         46.0004
  -6394185.74747  -4928189.69146  23903868.5214   23903880.8594   23903868.724
        44.0004         40.0004
    386013.35347    325919.67246  24406278.0994   24406284.7634   24406277.664
        43.0004         38.0004
 -13273496.62848 -10327188.16447  21621046.0944   21621049.0134   21621046.114
        51.0004         46.0004
 -25752659.97748 -20004944.26348  20468516.8314   20468523.5264   20468516.291
        53.0004         49.0004
  -5965919.85147  -4604868.51346  24524300.1394   24524304.7744   24524299.478
        42.0004         37.0004
   -819468.26048   -642263.26547  21654418.9394   21654426.7304   21654419.113
        51.0004         46.0004
 14  5 14  1 49  0.0000000  0 11G09G08G10G07G28G17G26G02G04G05G30
  -6974407.44048  -5427629.81047  21408538.0744   21408543.0964   21408537.640
        52.0004         47.0004
 -11813291.13448  -9199776.82747  21501023.2784   21501029.1734   21501023.700
        49.0004         44.0004
 -22495340.37248 -17517942.97247  21466049.8494   21466056.8554   21466050.934
        51.0004         46.0004
  -5669786.39247  -4388346.75446  23732012.1144   23732016.4654   23732010.997
        44.0004         39.0004
 -13696309.11448 -10672857.54147  21529946.1874   21529952.9374   21529947.126
        50.0004         46.0004
  -6378087.05347  -4915645.23446  23906931.9854   23906943.4344   23906931.746
        44.0004         39.0004
    401135.70747    337703.44246  24409155.0834   24409161.1124   24409155.583
        43.0004         38.0004
 -13297758.48948 -10346093.51347  21616429.0004   21616432.2674   21616429.725
        51.0004         46.0004
 -25721727.54748 -19980841.12248  20474403.1664   20474409.7544   20474402.845
        53.0004         49.0004
  -6056776.92747  -4675666.08246  24507009.4674   24507014.5854   24507009.150
        42.0004         37.0004
   -739232.04148   -579741.52047  21669687.9404   21669695.0904   21669687.682
        51.0004         46.0004
 14  5 14  1 49 30.0000000  0 11G09G08G10G07G28G17G26G02G04G05G30
  -6894664.39448  -5365492.34947  21423712.3984   21423717.9994   21423712.443
        52.0004         47.0004
 -11721870.41048  -9128539.88347  21518419.2514   21518425.3624   21518420.547
        49.0004         45.0004
 -22559007.46148 -17567553.68247  21453934.7534   21453940.7174   21453935.292
        51.0004         46.0004
  -5564217.54247  -4306085.35246  23752101.0624   23752106.2304   23752100.168
        44.0004         39.0004
 -13739545.84148 -10706548.44847  21521718.6734   21521725.6434   21521718.646
        50.0004         46.0004
  -6362226.52947  -4903286.38946  23909950.9384   23909961.7594   23909950.080
        44.0004         39.0004
    416182.94947    349428.67946  24412018.3614   24412025.0314   24412018.498
        43.0004         38.0004
 -13321573.19948 -10364650.42747  21611896.6134   21611900.3994   21611897.054
        51.0004         46.0004
 -25690328.26548 -19956374.20748  20480378.1904   20480384.8284   20480377.764
        53.0004         49.0004
  -6147763.45247  -4746564.43946  24489696.3674   24489700.8834   24489695.359
        42.0004         38.0004
   -658732.55248   -517014.62447  21685006.0574   21685013.8194   21685005.985
        51.0004         46.0004
 14  5 14  1 50  0.0000000  0 11G09G08G10G07G28G17G26G02G04G05G30
  -6814665.06448  -5303155.18447  21438935.1584   21438940.7544   21438935.425
        52.0004         47.0004
 -11630137.12248  -9057059.38247  21535876.3664   21535881.9644   21535876.629
        49.0004         45.0004
 -22622458.05748 -17616995.69947  21441861.0374   21441866.5184   21441860.931
        51.0004         46.0004
  -5458643.96047  -4223820.27546  23772191.0694   23772195.3094   23772190.249
        44.0004         39.0004
 -13782474.63648 -10739999.41547  21513549.7714   21513556.8294   21513550.010
        50.0004         46.0004
  -6346603.08847  -4891112.27446  23912923.8324   23912935.2904   23912922.928
        44.0004         40.0004
    431154.32047    361094.79246  24414867.1334   24414873.8674   24414867.777
        42.0004         38.0004
 -13344939.52148 -10382857.95347  21607450.5774   21607453.9964   21607451.035
        51.0004         46.0004
 -25658462.74748 -19931543.98748  20486441.8684   20486448.9644   20486441.777
        53.0004         49.0004
  -6238877.06747  -4817561.86346  24472358.9274   24472362.8924   24472356.846
        43.0004         39.0004
   -577971.42748   -454083.86047  21700374.1484   21700381.2984   21700374.591
        51.0004         46.0004
 14  5 14  1 50 30.0000000  0 11G09G08G10G07G28G17G26G02G04G05G30
  -6734416.37748  -5240623.71647  21454206.3454   21454211.3684   21454206.539
        52.0004         47.0004
 -11538097.97348  -8985340.55147  21553390.9304   21553396.4324   21553391.147
        49.0004         44.0004
 -22685692.65348 -17666269.40547  21429827.9844   21429833.2424   21429828.406
        51.0004         46.0004
  -5353072.21447  -4141556.60746  23792279.5264   23792285.6304   23792280.117
        43.0004         39.0004
 -13825095.42748 -10773210.38247  21505438.8054   21505447.1004   21505439.527
        51.0004         46.0004
  -6331220.16947  -4879125.57146  23915851.5274   23915862.1684   23915850.183
        44.0004         40.0004
    446044.42247    372697.57346  24417699.7534   24417706.4024   24417700.172
        42.0004         38.0004
 -13367861.29648 -10400719.09247  21603087.9714   21603091.6734   21603089.359
        51.0004         46.0004
 -25626136.78648 -19906354.98948  20492593.6394   20492600.4194   20492593.042
        53.0004         48.0004
  -6330119.22647  -4888659.49146  24454994.7524   24455000.4794   24454994.374
        43.0004         38.0004
   -496955.07848   -390954.22047  21715792.4164   21715799.0354   21715791.151
        51.0004         46.0004
 14  5 14  1 51  0.0000000  0 11G09G08G10G07G28G17G26G02G04G05G30
  -6653918.50448  -5177898.07547  21469524.8144   21469529.9004   21469524.652
        52.0004         47.0004
 -11445753.56048  -8913383.86047  21570963.0404   21570970.1224   21570963.350
        49.0004         44.0004
 -22748705.36848 -17715370.21647  21417837.1704   21417842.4644   21417837.093
        51.0004         46.0004
  -5247502.21947  -4059294.32946  23812369.7054   23812374.4664   23812369.601
        43.0004         39.0004
 -13867403.17848 -10806177.41047  21497388.0474   21497395.1994   21497388.975
        51.0004         46.0004
  -6316075.27247  -4867324.35746  23918732.8084   23918745.0354   23918732.310
        44.0004         40.0004
    460854.00347    384237.61646  24420519.0414   24420524.7264   24420519.182
        42.0004         38.0004
 -13390335.57748 -10418231.53947  21598812.0144   21598814.9864   21598812.058
        51.0004         46.0004
 -25593349.53948 -19880806.54548  20498832.8304   20498839.1534   20498832.499
        53.0004         49.0004
  -6421485.18247  -4959853.60446  24437608.3624   24437613.1404   24437608.734
        43.0004         38.0004
   -415683.53048   -327625.73147  21731257.4654   21731263.7184   21731256.779
        51.0004         46.0004
 14  5 14  1 51 30.0000000  0 11G09G08G10G07G28G17G26G02G04G05G30
  -6573174.85048  -5114980.91847  21484889.7924   21484894.6644   21484889.734
        52.0004         47.0004
 -11353107.92948  -8841192.44247  21588593.7414   21588599.1774   21588592.974
        49.0004         44.0004
 -22811494.11948 -17764296.51547  21405888.0954   21405894.6714   21405889.173
        51.0004         46.0004
  -5141936.85347  -3977035.64546  23832458.9154   23832463.2284   23832457.950
        43.0004         39.0004
 -13909395.16348 -10838898.39647  21489397.5464   21489404.3364   21489397.793
        51.0004         46.0004
  -6301169.32147  -4855709.32946  23921569.6314   23921580.3624   23921568.925
        44.0004         40.0004
    475580.72347    395713.08946  24423322.4784   24423327.9274   24423321.613
        42.0004         38.0004
 -13412363.79948 -10435396.38447  21594619.7574   21594623.8364   21594620.343
        51.0004         46.0004
 -25560103.29548 -19854900.44648  20505159.2944   20505166.0774   20505158.966
        53.0004         48.0004
  -6512973.13647  -5031142.75846  24420199.5424   24420203.7684   24420198.891
        43.0004         38.0004
   -334160.15948   -264101.02147  21746770.3064   21746776.9554   21746770.442
        51.0004         46.0004
 14  5 14  1 52  0.0000000  0 11G09G08G10G07G28G17G26G02G04G05G30
  -6492189.73648  -5051875.61847  21500300.8224   21500305.8094   21500300.626
        52.0004         47.0004
 -11260165.90448  -8768770.07647  21606279.6934   21606284.9914   21606279.857
        49.0004         44.0004
 -22874056.95648 -17813046.77747  21393983.2044   21393989.1674   21393983.296
        51.0004         46.0004
  -5036379.60447  -3894783.28746  23852546.4154   23852551.1714   23852544.670
        43.0004         38.0004
 -13951069.55948 -10871371.89447  21481467.4024   21481474.5014   21481467.430
        51.0004         46.0004
  -6286503.38347  -4844281.32246  23924359.5774   23924371.3824   23924359.386
        44.0004         40.0004
    490221.32847    407121.48446  24426107.0314   24426114.7854   24426106.361
        42.0004         38.0004
 -13433947.02648 -10452214.50547  21590513.4724   21590516.5134   21590514.114
        51.0004         46.0004
 -25526401.73148 -19828639.55448  20511572.4794   20511579.1894   20511572.056
        53.0004         48.0004
  -6604582.67347  -5102526.63346  24402766.1874   24402770.7874   24402765.370
        44.0004         39.0004
   -252389.07948   -200383.28747  21762331.1714   21762338.1044   21762330.905
        51.0004         46.0004
 14  5 14  1 52 30.0000000  0 11G09G08G10G07G28G17G26G02G04G05G30
  -6410965.71948  -4988584.15447  21515756.8664   21515762.6054   21515757.250
        51.0004         47.0004
 -11166930.14048  -8696118.82147  21624021.4314   21624027.0904   21624021.687
        49.0004         44.0004
 -22936390.15348 -17861618.10547  21382121.3724   21382127.2424   21382121.971
        51.0004         46.0004
  -4930832.88647  -3812539.14146  23872629.6194   23872635.2344   23872629.764
        43.0004         38.0004
 -13992422.95148 -10903595.27247  21473597.9434   21473604.6084   21473598.196
        51.0004         46.0004
  -6272076.83947  -4833039.85446  23927106.5614   23927117.6614   23927104.869
        44.0004         40.0004
    504774.62447    418461.82146  24428875.3624   24428883.6364   24428876.246
        42.0004         38.0004
 -13455084.64348 -10468685.36547  21586491.0844   21586494.0874   21586490.549
        51.0004         46.0004
 -25492246.02748 -19802024.78448  20518072.3534   20518079.0524   20518071.926
        53.0004         48.0004
  -6696311.10447  -5174003.18046  24385310.7124   24385315.8774   24385310.082
        44.0004         39.0004
   -170372.45048   -136474.20747  21777938.1724   21777945.3514   21777937.977
        51.0004         46.0004
 14  5 14  1 53  0.0000000  0 11G09G08G10G07G28G17G26G02G04G05G30
  -6329504.29848  -4925107.70147  21531258.2614   21531264.0574   21531258.702
        51.0004         47.0004
 -11073402.35948  -8623240.01247  21641818.8904   21641824.8494   21641819.377
        49.0004         44.0004
 -22998489.02848 -17910006.84247  21370304.4894   21370310.0874   21370304.824
        51.0004         46.0004
  -4825297.28547  -3730303.65946  23892712.3204   23892716.9694   23892711.998
        43.0004         38.0004
 -14033450.78448 -10935564.95947  21465790.5794   21465796.9084   21465790.835
        51.0004         46.0004
  -6257888.36947  -4821983.88646  23929805.8724   23929815.7534   23929805.066
        44.0004         39.0004
    519240.49147    429734.04946  24431629.1314   24431634.6214   24431629.296
        42.0004         38.0004
 -13475775.56748 -10484808.16247  21582553.0024   21582556.3724   21582554.043
        51.0004         46.0004
 -25457636.46348 -19775056.36748  20524658.1004   20524664.9634   20524657.856
        53.0004         48.0004
  -6788154.87647  -5245569.60346  24367832.9474   24367838.1444   24367832.632
        43.0004         39.0004
    -88111.42948    -72374.70447  21793591.8614   21793598.7054   21793592.026
        51.0004         46.0004
 14  5 14  1 53 30.0000000  0 11G09G08G10G07G28G17G26G02G04G05G30
  -6247812.49348  -4861451.72647  21546804.4574   21546809.1734   21546804.045
        51.0004         47.0004
 -10979589.86448  -8550139.35447  21659670.3434   21659676.3864   21659671.210
        49.0004         44.0004
 -23060354.60348 -17958213.79447  21358531.1714   21358537.7964   21358532.008
        51.0004         46.0004
  -4719779.48847  -3648082.05446  23912792.1154   23912796.5914   23912791.719
        43.0004         38.0004
 -14074154.21248 -10967281.85947  21458044.5344   21458051.9274   21458045.166
        51.0004         46.0004
  -6243942.22847  -4811116.76946  23932459.3664   23932469.7374   23932458.936
        44.0004         39.0004
    533612.79347    440933.36346  24434363.8404   24434370.2224   24434364.242
        42.0004         38.0004
 -13496024.29548 -10500586.40347  21578700.0624   21578703.0314   21578700.434
        51.0004         46.0004
 -25422579.22748 -19747739.12048  20531329.6944   20531336.3934   20531329.149
        53.0004         48.0004
  -6880116.13047  -5317227.66146  24350334.1324   24350338.0014   24350332.946
        43.0004         38.0004
     -5612.99848     -8090.19947  21809291.1894   21809297.8544   21809290.732
        51.0004         46.0004
 14  5 14  1 54  0.0000000  0 11G09G08G10G07G28G17G26G02G04G05G30
  -6165888.99048  -4797615.21147  21562394.0514   21562398.5694   21562393.801
        51.0004         47.0004
 -10885491.39948  -8476815.86747  21677578.2724   21677583.1794   21677577.705
        49.0004         44.0004
 -23121979.19948 -18006232.96747  21346805.0834   21346810.5194   21346805.546
        51.0004         46.0004
  -4614277.26547  -3565872.58446  23932868.4334   23932873.5734   23932867.983
        43.0004         38.0004
 -14114525.98048 -10998740.32247  21450362.2044   21450369.1864   21450362.604
        51.0004         46.0004
  -6230233.68847  -4800434.78846  23935067.5734   23935078.4304   23935067.598
        44.0004         39.0004
    547894.20747    452061.84946  24437082.0884   24437088.0574   24437080.328
        42.0004         38.0004
 -13515826.55448 -10516016.73047  21574931.5514   21574935.8174   21574932.299
        51.0004         46.0004
 -25387072.22548 -19720071.40048  20538086.3324   20538092.9474   20538085.762
        53.0004         48.0004
  -6972188.40447  -5388972.21446  24332812.1414   24332816.8514   24332812.286
        42.0004         37.0004
     77124.44848     56380.54947  21825035.1074   21825041.5874   21825035.052
        51.0004         46.0004
 14  5 14  1 54 30.0000000  0 11G09G08G10G07G28G17G26G02G04G05G30
  -6083739.72548  -4733602.77747  21578026.1644   21578030.7484   21578025.952
        51.0004         47.0004
 -10791113.44748  -8403274.59147  21695537.2494   21695542.3964   21695537.113
        49.0004         44.0004
 -23183363.18348 -18054064.64847  21335123.2974   21335129.8954   21335124.393
        51.0004         46.0004
  -4508796.54347  -3483679.87446  23952941.1054   23952946.2534   23952940.485
        43.0004         38.0004
 -14154566.11448 -11029940.37547  21442742.8414   21442749.9524   21442743.296
        51.0004         46.0004
  -6216765.76547  -4789940.30546  23937630.7224   23937641.8984   23937629.908
        44.0004         39.0004
    562080.01747    463115.84246  24439781.8064   24439787.0164   24439781.242
        42.0004         38.0004
 -13535185.52548 -10531101.64347  21571248.0834   21571251.1104   21571248.143
        51.0004         47.0004
 -25351120.35348 -19692057.02448  20544927.9384   20544935.0324   20544927.575
        53.0004         48.0004
  -7064372.45647  -5460803.81346  24315270.7174   24315275.0154   24315269.978
        43.0004         38.0004
    160095.23948    121033.12147  21840824.3674   21840831.1184   21840823.971
        50.0004         46.0004
 14  5 14  1 55  0.0000000  0 11G09G08G10G07G28G17G26G02G04G05G30
  -6001367.81648  -4669416.85847  21593701.2364   21593705.5154   21593700.756
        51.0004         46.0004
 -10696459.32548  -8329518.13247  21713549.2914   21713555.3684   21713549.329
        49.0004         44.0004
 -23244503.45148 -18101706.41747  21323489.2594   21323495.1234   21323489.845
        51.0004         46.0004
  -4403339.78447  -3401505.83146  23973008.7704   23973013.7484   23973008.727
        43.0004         38.0004
 -14194271.82148 -11060879.82647  21435187.0074   21435194.3234   21435187.175
        51.0004         46.0004
  -6203539.19247  -4779633.85846  23940147.6694   23940158.9074   23940146.866
        44.0004         40.0004
    576168.14747    474093.70346  24442462.1424   24442467.3234   24442461.962
        42.0004         38.0004
 -13554101.74748 -10545841.54847  21567648.8054   21567651.8004   21567648.924
        51.0004         47.0004
 -25314725.62148 -19663697.57348  20551853.5834   20551860.2314   20551853.219
        53.0004         48.0004
  -7156666.49547  -5532721.04346  24297707.8734   24297711.8974   24297706.842
        43.0004         39.0004
    243296.40648    185865.20847  21856656.6244   21856664.1224   21856656.496
        50.0004         46.0004
 14  5 14  1 55 30.0000000  0 11G09G08G10G07G28G17G26G02G04G05G30
  -5918774.06748  -4605058.08047  21609417.7604   21609423.0414   21609418.107
        51.0004         47.0004
 -10601530.46248  -8255547.57547  21731614.1924   21731619.9024   21731614.047
        49.0004         44.0004
 -23305394.64648 -18149154.10647  21311901.7264   21311907.7274   21311902.799
        51.0004         47.0004
  -4297907.33047  -3319350.71746  23993071.3374   23993075.6324   23993071.712
        43.0004         38.0004
 -14233638.06248 -11091554.76447  21427695.7034   21427702.6504   21427695.715
        51.0004         46.0004
  -6190551.26647  -4769513.36446  23942619.2094   23942630.4244   23942618.120
        44.0004         40.0004
    590159.08147    484995.86346  24445123.8924   24445129.7574   24445122.826
        42.0004         38.0004
 -13572573.32348 -10560234.97147  21564133.1404   21564136.2334   21564133.725
        51.0004         47.0004
 -25277888.13448 -19634993.11348  20558863.4224   20558870.2114   20558863.253
        53.0004         48.0004
  -7249066.26047  -5604720.58146  24280124.1434   24280128.0474   24280123.669
        44.0004         40.0004
    326727.31348    250876.31347  21872532.5074   21872539.5384   21872532.713
        50.0004         46.0004
 14  5 14  1 56  0.0000000  0 11G09G08G10G07G28G17G26G02G04G05G30
  -5835963.43548  -4540530.29847  21625176.3864   21625181.0974   21625176.299
        51.0004         47.0004
 -10506331.90748  -8181366.87947  21749728.8234   21749735.0974   21749729.413
        49.0004         44.0004
 -23366035.83348 -18196406.98847  21300362.6324   21300369.1934   21300363.179
        51.0004         47.0004
  -4192503.83247  -3237218.17946  24013129.4634   24013134.1254   24013128.839
        42.0004         38.0004
 -14272663.64348 -11121964.24947  21420269.3824   21420276.8874   21420269.659
        51.0004         46.0004
  -6177803.78147  -4759580.25246  23945044.8554   23945056.3664   23945044.114
        44.0004         40.0004
    604049.13447    495819.38846  24447767.4164   24447772.6744   24447767.705
        42.0004         38.0004
 -13590602.55548 -10574283.70947  21560702.5774   21560705.8114   21560703.358
        51.0004         47.0004
 -25240611.88548 -19605946.75948  20565957.4184   20565963.8794   20565956.917
        53.0004         48.0004
  -7341571.53647  -5676802.47546  24262521.2804   24262524.4174   24262520.600
        44.0004         39.0004
    410383.28948    316062.80447  21888452.3824   21888459.6394   21888451.958
        50.0004         46.0004
 14  5 14  1 56 30.0000000  0 11G09G08G10G07G28G17G26G02G04G05G30
  -5752938.64048  -4475835.63547  21640975.2464   21640980.1994   21640975.092
        51.0004         46.0004
 -10410866.83748  -8106978.50447  21767895.0574   21767900.9804   21767896.014
        49.0004         44.0004
 -23426423.54248 -18243462.35247  21288871.2224   21288876.8064   21288871.862
        51.0004         47.0004
  -4087131.28647  -3155109.74746  24033182.6564   24033184.8294   24033181.053
        42.0004         38.0004
 -14311345.78248 -11152106.11847  21412908.3044   21412915.3884   21412908.790
        51.0004         46.0004
  -6165296.54147  -4749834.32346  23947424.1944   23947435.2854   23947424.061
        44.0004         40.0004
    617836.64247    506562.98646  24450391.2914   24450396.6364   24450392.192
        42.0004         38.0004
 -13608189.58548 -10587987.88447  21557355.8374   21557359.3834   21557356.055
        51.0004         47.0004
 -25202898.74448 -19576559.97748  20573133.8254   20573140.8044   20573133.243
        53.0004         48.0004
  -7434180.08947  -5748964.84646  24244897.0794   24244902.5004   24244897.597
        43.0004         39.0004
    494261.73248    381422.63847  21904413.7414   21904420.0694   21904413.581
        50.0004         46.0004
 14  5 14  1 57  0.0000000  0 11G09G08G10G07G28G17G26G02G04G05G30
  -5669704.52948  -4410977.86647  21656814.7194   21656819.1104   21656814.248
        51.0004         46.0004
 -10315140.49448  -8032386.54547  21786112.3144   21786117.3234   21786111.805
        48.0004         44.0004
 -23486556.61748 -18290319.30047  21277428.2334   21277434.6014   21277428.882
        51.0004         47.0004
  -3981793.26247  -3073028.22546  24053226.6934   24053231.2164   24053226.397
        42.0004         38.0004
 -14349683.01048 -11181979.21947  21405613.0544   21405620.3964   21405613.398
        51.0004         46.0004
  -6153031.64247  -4740277.22846  23949759.1174   23949770.2834   23949758.752
        44.0004         40.0004
    631518.12347    517224.00346  24452994.1264   24453000.5834   24452993.458
        43.0004         38.0004
 -13625336.39448 -10601349.00047  21554093.1314   21554095.9094   21554093.456
        51.0004         47.0004
 -25164752.56748 -19546835.75948  20580392.9764   20580399.5914   20580392.255
        53.0004         48.0004
  -7526891.64647  -5821207.49146  24227256.2624   24227259.8604   24227255.183
        44.0004         39.0004
    578358.19148    446952.36447  21920416.6324   21920423.6574   21920416.608
        50.0004         46.0004
 14  5 14  1 57 30.0000000  0 11G09G08G10G07G28G17G26G02G04G05G30
  -5586260.96448  -4345956.88947  21672692.7844   21672698.2784   21672693.021
        51.0004         46.0004
 -10219153.13848  -7957591.19747  21804376.6694   21804382.9454   21804377.355
        48.0004         44.0004
 -23546428.86048 -18336973.00547  21266034.4014   21266040.6484   21266035.544
        51.0004         47.0004
  -3876489.37447  -2990973.29346  24073265.2304   24073269.4934   24073265.542
        42.0004         38.0004
 -14387669.24048 -11211578.81447  21398384.7434   21398391.3724   21398384.751
        51.0004         46.0004
  -6141005.51647  -4730906.20646  23952046.7844   23952058.5054   23952046.250
        44.0004         40.0004
    645095.06847    527803.53246  24455578.2554   24455583.4384   24455578.277
        43.0004         38.0004
 -13642040.18448 -10614364.89147  21550914.4794   21550917.4494   21550914.528
        52.0004         47.0004
 -25126172.25848 -19516773.25848  20587734.0554   20587741.8434   20587734.019
        53.0004         48.0004
  -7619700.54147  -5893525.97146  24209593.6394   24209599.0924   24209594.088
        44.0004         39.0004
    662672.98848    512652.21047  21936461.3764   21936467.6784   21936461.059
        50.0004         46.0004
