     2.11           OBSERVATION DATA    G (GPS)             RINEX VERSION / TYPE
teqc  2013Mar15     gpsops              20140528 00:23:08UTCPGM / RUN BY / DATE
Linux 2.4.21-27.ELsmp|Opteron|gcc -static|Linux x86_64|=+   COMMENT
BIT 2 OF LLI FLAGS DATA COLLECTED UNDER A/S CONDITION       COMMENT
GLPS                                                        MARKER NAME
42005M002                                                   MARKER NUMBER
GGN                 JPL                                     OBSERVER / AGENCY
ZR220013847         ASHTECH UZ-12       CQ00                REC # / TYPE / VERS
CR519992104         ASH701945B_M    SCIT                    ANT # / TYPE
   -33801.4662 -6377516.5323   -82154.3508                  APPROX POSITION XYZ
        0.0083        0.0000        0.0000                  ANTENNA: DELTA H/E/N
     1     1                                                WAVELENGTH FACT L1/2
     7    L1    L2    P1    P2    C1    S1    S2            # / TYPES OF OBSERV
    30.0000                                                 INTERVAL
                                                            COMMENT
This data is provided as a public service by NASA/JPL.      COMMENT
No warranty is expressed or implied regarding suitability   COMMENT
for use.  For further information, contact:                 COMMENT
Dave Stowers, NASA/JPL m/s 238-600                          COMMENT
4800 Oak Grove Drive, Pasadena CA 91109 USA                 COMMENT
                                                            COMMENT
Forced Modulo Decimation to 30 seconds                      COMMENT
 SNR is mapped to RINEX snr flag value [0-9]                COMMENT
  L1 & L2: min(max(int(snr_dBHz/6), 0), 9)                  COMMENT
pseudorange smoothing corrections not applied               COMMENT
  2014     5    27     0     0    0.0000000     GPS         TIME OF FIRST OBS
                                                            END OF HEADER
 14  5 27  0  0  0.0000000  0 10G20G28G10G08G26G02G06G17G04G07
  -2167188.07346  -1646588.27145  23995428.2734   23995439.8784   23995430.344
        39.0004         34.0004
  -7939270.87347  -6187684.54047  22683559.8594   22683569.1954   22683561.319
        47.0004         42.0004
 -12884230.94847 -10027473.96646  22964185.9614   22964193.4134   22964186.544
        46.0004         41.0004
 -17739152.53248 -13810188.01348  20137269.3324   20137275.7624   20137269.747
        53.0004         48.0004
  -2089671.72647  -1559609.72946  24100847.1374   24100856.7324   24100846.222
        43.0004         38.0004
  -9103730.73747  -7087005.49447  22601992.6534   22601996.9624   22601992.528
        47.0004         42.0004
  -2517245.12047  -1952338.72446  24438855.8524   24438868.7114   24438855.224
        43.0004         39.0004
 -10260888.76847  -7951911.56747  23320483.8384   23320492.4704   23320483.027
        47.0004         43.0004
 -27044898.51748 -20828547.49048  20439755.0024   20439761.1724   20439754.847
        53.0004         48.0004
 -15497926.04548 -12065144.29647  21637374.7254   21637379.4864   21637373.942
        50.0004         45.0004
 14  5 27  0  0 30.0000000  0 10G20G28G10G08G26G02G06G17G04G07
  -2130409.07946  -1617929.28145  24002427.7704   24002437.7534   24002429.605
        39.0004         34.0004
  -7998378.10347  -6233742.01147  22672313.8114   22672323.0584   22672313.619
        47.0004         42.0004
 -12954643.03547 -10082340.42046  22950788.4394   22950795.0364   22950788.156
        46.0004         41.0004
 -17697917.52048 -13778056.79748  20145116.4864   20145122.5954   20145116.586
        53.0004         48.0004
  -2079694.82047  -1551835.38946  24102745.4574   24102755.1954   24102744.389
        43.0004         38.0004
  -9173614.89347  -7141460.59447  22588693.9844   22588698.0634   22588694.466
        47.0004         42.0004
  -2416215.75447  -1873614.60346  24458081.2604   24458095.2594   24458080.547
        43.0004         39.0004
 -10222739.40747  -7922184.80947  23327743.9154   23327752.6954   23327742.796
        47.0004         43.0004
 -27073512.89248 -20850844.38348  20434309.9544   20434316.1214   20434309.720
        53.0004         48.0004
 -15410625.08048 -11997117.53847  21653987.9194   21653992.1624   21653987.222
        50.0004         45.0004
 14  5 27  0  1  0.0000000  0 10G20G28G10G08G26G02G06G17G04G07
  -2093290.09446  -1589005.38645  24009491.0084   24009503.4264   24009492.783
        39.0004         34.0004
  -8057497.28847  -6279808.79647  22661063.2254   22661071.0214   22661063.280
        47.0004         42.0004
 -13025132.78847 -10137267.41046  22937373.4514   22937380.9414   22937374.433
        46.0004         41.0004
 -17656066.65248 -13745445.70248  20153080.1594   20153086.0734   20153080.597
        53.0004         48.0004
  -2069547.24447  -1543928.04946  24104675.8284   24104685.7604   24104675.945
        43.0004         38.0004
  -9243142.29447  -7195637.70347  22575464.1284   22575466.8104   22575463.999
        47.0004         43.0004
  -2315116.34447  -1794835.90046  24477320.4754   24477333.7514   24477319.104
        43.0004         39.0004
 -10184722.92447  -7892561.59547  23334975.3004   23334987.1184   23334976.085
        47.0004         42.0004
 -27101578.95248 -20872714.02548  20428969.2744   20428975.2664   20428968.970
        53.0004         48.0004
 -15322990.78348 -11928831.04347  21670663.4224   21670668.5774   21670662.811
        50.0004         45.0004
 14  5 27  0  1 30.0000000  0 10G20G28G10G08G26G02G06G17G04G07
  -2055832.26646  -1559817.43545  24016619.2004   24016627.8214   24016620.815
        39.0004         34.0004
  -8116627.64047  -6325884.31147  22649811.7304   22649818.0894   22649811.098
        47.0004         42.0004
 -13095699.74347 -10192254.54046  22923945.3904   22923952.7104   22923945.686
        46.0004         41.0004
 -17613603.25248 -13712357.31048  20161160.7124   20161166.7334   20161161.157
        53.0004         48.0004
  -2059232.80047  -1535890.69046  24106639.0934   24106647.6104   24106637.773
        42.0004         38.0004
  -9312312.81447  -7249536.73147  22562301.4674   22562304.8514   22562301.470
        47.0004         43.0004
  -2213950.95747  -1716005.78046  24496570.3074   24496583.7644   24496570.410
        43.0004         39.0004
 -10146842.36447  -7863044.29747  23342185.4214   23342195.5794   23342184.980
        47.0004         42.0004
 -27129097.69548 -20894157.17848  20423732.9074   20423738.8164   20423731.822
        53.0004         48.0004
 -15235027.72248 -11860288.37747  21687402.0474   21687406.8674   21687401.735
        50.0004         45.0004
 14  5 27  0  2  0.0000000  0 10G20G28G10G08G26G02G06G17G04G07
  -2018035.66646  -1530365.48745  24023815.5504   24023823.9634   24023811.916
        38.0004         33.0004
  -8175767.08847  -6371966.88147  22638556.7184   22638565.7944   22638557.087
        47.0004         42.0004
 -13166342.26147 -10247300.55346  22910502.5294   22910509.0924   22910502.754
        46.0004         41.0004
 -17570529.72148 -13678793.48748  20169357.4884   20169363.4234   20169357.910
        53.0004         48.0004
  -2048754.06947  -1527725.30646  24108633.2494   24108642.0504   24108632.582
        42.0004         38.0004
  -9381125.07848  -7303156.59547  22549205.9924   22549210.7964   22549206.372
        48.0004         43.0004
  -2112722.44147  -1637126.45746  24515833.6674   24515847.3814   24515833.235
        43.0004         39.0004
 -10109099.82047  -7833634.54447  23349367.3264   23349377.5244   23349367.288
        47.0004         42.0004
 -27156068.86848 -20915173.65548  20418599.9514   20418606.1584   20418600.200
        53.0004         49.0004
 -15146739.31948 -11791492.18247  21704203.0484   21704207.8414   21704202.654
        50.0004         45.0004
 14  5 27  0  2 30.0000000  0 10G20G28G10G08G26G02G06G17G04G07
  -1979899.19346  -1500648.76845  24031068.6774   24031077.9054   24031071.225
        38.0004         34.0004
  -8234912.66947  -6418054.24747  22627302.3564   22627309.6824   22627302.161
        47.0004         42.0004
 -13237057.34247 -10302403.11746  22897044.2544   22897052.1684   22897046.101
        46.0004         41.0004
 -17526847.11148 -13644755.05648  20177669.8674   20177676.1474   20177670.030
        53.0004         48.0004
  -2038112.70947  -1519433.22846  24110656.8354   24110666.1584   24110656.734
        42.0004         38.0004
  -9449576.50748  -7356495.29247  22536181.6394   22536184.2524   22536180.441
        48.0004         43.0004
  -2011432.71047  -1558199.43346  24535109.1024   24535122.9514   24535108.499
        43.0004         38.0004
 -10071496.15247  -7804333.00947  23356523.1134   23356533.3654   23356523.239
        47.0004         42.0004
 -27182491.02548 -20935762.33048  20413572.1984   20413578.0164   20413571.778
        53.0004         49.0004
 -15058127.99448 -11722444.36347  21721065.8934   21721069.8104   21721064.826
        50.0004         45.0004
 14  5 27  0  3  0.0000000  0 10G20G28G10G08G26G02G06G17G04G07
  -9818508.92546  -7608656.31245  24038392.4444   24038404.4514   24038394.265
        39.0004         34.0004
  -8294047.35947  -6464133.13047  22616049.2514   22616056.6114   22616049.354
        47.0004         42.0004
 -13307829.21547 -10357549.93646  22883577.8804   22883584.9494   22883578.926
        46.0004         41.0004
 -17482543.74448 -13610232.92248  20186100.6084   20186106.6174   20186101.087
        53.0004         48.0004
  -2027297.07647  -1511005.34146  24112714.4984   24112725.2194   24112715.309
        42.0004         38.0004
  -9517651.71448  -7409540.82547  22523226.3134   22523230.6054   22523226.514
        48.0004         43.0004
  -1910070.39147  -1479215.84846  24554397.9144   24554410.9964   24554396.901
        43.0004         38.0004
 -10034019.34747  -7775130.31847  23363655.2624   23363665.5454   23363654.342
        47.0004         42.0004
 -27208350.19048 -20955912.30548  20408651.3944   20408657.3424   20408651.088
        53.0004         49.0004
 -14969182.93048 -11653136.48547  21737990.8694   21737995.3874   21737990.441
        50.0004         45.0004
 14  5 27  0  3 30.0000000  0 10G20G28G10G08G26G02G06G17G04G07
  -9779699.87846  -7578415.43545  24045780.9394   24045785.4724   24045780.219
        39.0004         34.0004
  -8353204.41047  -6510229.43047  22604792.3274   22604800.3994   22604791.938
        47.0004         43.0004
 -13378691.39147 -10412767.11747  22870092.9234   22870100.1364   22870094.363
        46.0004         42.0004
 -17437657.10448 -13575256.28648  20194642.1154   20194648.1704   20194642.435
        53.0004         48.0004
  -2016345.17547  -1502471.27146  24114798.9904   24114809.1014   24114798.650
        42.0004         38.0004
  -9585384.97348  -7462319.90747  22510336.0284   22510340.2844   22510336.713
        48.0004         43.0004
  -1808673.67047  -1400205.46046  24573692.5124   24573706.2984   24573691.832
        43.0004         38.0004
  -9996706.65447  -7746055.51547  23370755.5924   23370764.9234   23370754.882
        47.0004         43.0004
 -27233681.07848 -20975650.64048  20403831.0414   20403836.6844   20403830.743
        53.0004         49.0004
 -14879942.86048 -11583598.73647  21754973.3724   21754977.3804   21754972.322
        50.0004         45.0004
 14  5 27  0  4  0.0000000  0 10G20G28G10G08G26G02G06G17G04G07
  -9740545.22246  -7547905.28645  24053226.8044   24053241.3484   24053228.676
        38.0004         34.0004
  -8412354.95847  -6556320.65747  22593536.0824   22593543.2744   22593535.828
        47.0004         43.0004
 -13449615.18847 -10468032.29947  22856596.3724   22856604.2724   22856597.863
        46.0004         42.0004
 -17392162.51948 -13539805.92548  20203299.9654   20203305.5214   20203300.005
        53.0004         48.0004
  -2005232.70547  -1493812.08046  24116912.9004   24116924.1984   24116913.648
        42.0004         38.0004
  -9652747.82548  -7514810.36847  22497517.6874   22497522.1584   22497518.295
        48.0004         43.0004
  -1707218.35747  -1321149.40546  24592999.4794   24593013.1634   24592998.404
        43.0004         38.0004
  -9959533.05147  -7717089.09847  23377829.9444   23377839.3144   23377829.111
        47.0004         43.0004
 -27258456.75848 -20994956.33548  20399116.4764   20399122.5534   20399116.155
        53.0004         49.0004
 -14790384.04348 -11513812.60647  21772015.0414   21772020.3814   21772014.455
        50.0004         45.0004
 14  5 27  0  4 30.0000000  0 10G20G28G10G08G26G02G06G17G04G07
  -9701047.92046  -7517128.15445  24060745.8554   24060759.5884   24060746.354
        38.0004         34.0004
  -8471499.18047  -6602406.95847  22582280.0844   22582289.6304   22582281.017
        47.0004         43.0004
 -13520601.69547 -10523346.35947  22843088.7654   22843095.7754   22843088.891
        46.0004         42.0004
 -17346064.80248 -13503885.59048  20212071.5934   20212077.5734   20212071.786
        53.0004         48.0004
  -1993964.85947  -1485031.80346  24119057.7534   24119068.1184   24119057.494
        42.0004         38.0004
  -9719741.55048  -7567013.19747  22484769.8634   22484773.8244   22484769.639
        48.0004         43.0004
  -1605709.98947  -1242052.00846  24612316.1244   24612328.7594   24612314.390
        43.0004         38.0004
  -9922502.89147  -7688234.43847  23384876.6264   23384886.1164   23384875.434
        47.0004         43.0004
 -27282679.80348 -21013831.41748  20394507.3144   20394512.5314   20394506.684
        53.0004         49.0004
 -14700512.45048 -11443782.76047  21789117.0024   21789121.8224   21789116.898
        50.0004         45.0004
 14  5 27  0  5  0.0000000  0 10G20G28G10G08G26G02G06G17G04G07
  -9661206.56246  -7486082.90245  24068326.6874   24068340.2104   24068327.191
        38.0004         34.0004
  -8530633.76247  -6648485.73247  22571027.7374   22571035.7424   22571028.241
        47.0004         43.0004
 -13591647.60947 -10578706.71647  22829569.4924   22829576.0804   22829569.206
        46.0004         42.0004
 -17299365.20848 -13467496.26348  20220958.0274   20220963.8924   20220958.468
        53.0004         48.0004
  -1982542.84147  -1476131.40446  24121230.8704   24121241.3264   24121230.779
        42.0004         38.0004
  -9786363.55148  -7618926.37347  22472091.2044   22472095.3204   22472091.573
        48.0004         43.0004
  -1504149.94847  -1162914.34346  24631641.2944   24631655.0184   24631640.947
        43.0004         38.0004
  -9885616.91547  -7659492.12647  23391895.6094   23391903.8924   23391894.460
        47.0004         43.0004
 -27306348.30448 -21032274.37848  20390003.2014   20390008.9654   20390002.428
        53.0004         49.0004
 -14610330.36148 -11373510.96947  21806278.2634   21806283.4434   21806277.777
        50.0004         45.0004
 14  5 27  0  5 30.0000000  0 10G20G28G10G08G26G02G06G17G04G07
  -9621025.55746  -7454773.01545  24075977.0464   24075983.6554   24075975.032
        39.0004         34.0004
  -8589760.07047  -6694558.05747  22559776.4784   22559784.6104   22559776.584
        47.0004         43.0004
 -13662755.21047 -10634115.13247  22816038.0814   22816044.3174   22816038.742
        46.0004         42.0004
 -17252070.52448 -13430643.22448  20229957.7424   20229964.0114   20229958.403
        53.0004         48.0004
  -1970973.52947  -1467116.23346  24123433.7784   24123442.7184   24123433.022
        42.0004         38.0004
  -9852616.67648  -7670552.10447  22459484.4174   22459488.1014   22459484.624
        48.0004         43.0004
  -1402545.31247  -1083741.92846  24650976.0874   24650988.9374   24650975.168
        42.0004         38.0004
  -9848881.18847  -7630866.89447  23398886.1814   23398895.2364   23398885.125
        47.0004         42.0004
 -27329466.83448 -21050288.79348  20385603.6414   20385609.5004   20385603.259
        53.0004         49.0004
 -14519845.39748 -11303003.16847  21823496.7494   21823501.0254   21823496.542
        49.0004         45.0004
 14  5 27  0  6  0.0000000  0 10G20G28G10G08G26G02G06G17G04G07
  -9580502.48746                  24083687.5344                   24083685.842
        39.0004
  -8648873.74447  -6740620.54747  22548526.9284   22548534.7744   22548527.166
        47.0004         42.0004
 -13733920.32247 -10689568.36247  22802496.0624   22802502.4804   22802495.608
        46.0004         42.0004
 -17204180.60648 -13393326.37148  20239071.1654   20239076.9344   20239071.479
        53.0004         48.0004
  -1959257.11247  -1457986.42846  24125661.1364   24125672.3424   24125661.561
        42.0004         38.0004
  -9918497.26348  -7721887.54947  22446948.2654   22446952.0454   22446948.035
        48.0004         43.0004
  -1300896.52847  -1004535.10646  24670319.3604   24670333.4644   24670318.909
        42.0004         37.0004
  -9812295.23647  -7602358.35647  23405847.6714   23405857.8514   23405846.804
        47.0004         42.0004
 -27352032.56648 -21067872.45548  20381309.6824   20381315.1054   20381309.001
        53.0004         49.0004
 -14429058.59448 -11232260.17147  21840773.1724   21840777.4644   21840772.621
        50.0004         45.0004
 14  5 27  0  6 30.0000000  0 10G20G28G10G08G26G02G06G17G04G07
  -9539636.53146  -7391352.91745  24091463.2384   24091473.0464   24091463.482
        39.0004         34.0004
  -8707971.53247  -6786670.65547  22537280.7644   22537288.8034   22537281.208
        47.0004         43.0004
 -13805140.41947 -10745064.44747  22788941.9904   22788949.0304   22788943.383
        46.0004         42.0004
 -17155697.00648 -13355546.90048  20248297.4694   20248302.9234   20248297.474
        53.0004         48.0004
  -1947395.42147  -1448743.44246  24127919.4034   24127928.2534   24127920.012
        42.0004         38.0004
  -9984003.48448  -7772931.27547  22434481.4244   22434485.3824   22434482.468
        48.0004         44.0004
  -1199205.55347   -925295.41246  24689671.9804   24689685.2124   24689670.059
        42.0004         37.0004
  -9775859.63147  -7573966.97847  23412781.5664   23412791.6044   23412780.869
        47.0004         42.0004
 -27374044.90248 -21085024.89848  20377120.6564   20377126.4764   20377120.349
        53.0004         49.0004
 -14337972.62148 -11161284.04847  21858105.4884   21858110.8414   21858105.603
        49.0004         45.0004
 14  5 27  0  7  0.0000000  0 10G20G28G10G08G26G02G06G17G04G07
  -9498428.28146  -7359242.59145  24099302.0384   24099312.8364   24099303.424
        38.0004         34.0004
  -8767051.55847  -6832706.91847  22526038.6714   22526046.4794   22526038.684
        47.0004         43.0004
 -13876413.66647 -10800601.94047  22775378.1924   22775385.9944   22775379.639
        46.0004         42.0004
 -17106622.46148 -13317306.95848  20257635.6114   20257641.4324   20257636.135
        53.0004         48.0004
  -1935391.13347  -1439389.33546  24130204.6564   24130213.4054   24130202.879
        42.0004         38.0004
 -10049134.12948  -7823682.36047  22422087.9944   22422092.3394   22422087.814
        48.0004         44.0004
  -1097475.23147   -846025.03946  24709028.1684   24709043.0164   24709028.790
        42.0004         37.0004
  -9739576.81947  -7545694.65947  23419685.5484   23419695.3464   23419685.052
        47.0004         42.0004
 -27395503.86148 -21101746.14348  20373036.9574   20373042.9164   20373036.668
        53.0004         49.0004
 -14246590.75848 -11090077.36947  21875495.6704   21875500.6894   21875495.095
        49.0004         45.0004
 14  5 27  0  7 30.0000000  0 10G20G28G10G08G26G02G06G17G04G07
  -9456878.05446  -7326865.74445  24107211.1544   24107217.5274   24107211.428
        38.0004         34.0004
  -8826111.42347  -6878727.47147  22514799.2454   22514806.7714   22514799.802
        47.0004         43.0004
 -13947738.55347 -10856179.66447  22761806.7094   22761812.9694   22761807.169
        46.0004         42.0004
 -17056959.34348 -13278608.38848  20267086.3804   20267092.2774   20267086.508
        53.0004         48.0004
  -1923247.11247  -1429926.33846  24132513.8054   24132523.5184   24132514.109
        42.0004         38.0004
 -10113888.07948  -7874139.90347  22409766.1904   22409769.5514   22409765.797
        48.0004         44.0004
   -995708.50747   -766726.31246  24728395.2004   24728408.4984   24728394.605
        42.0004         37.0004
  -9703449.25547  -7517543.30847  23426560.1704   23426569.1384   23426559.677
        47.0004         42.0004
 -27416409.39248 -21118036.14048  20369058.6054   20369064.6654   20369058.462
        53.0004         49.0004
 -14154916.72348 -11018643.01947  21892940.0084   21892944.8824   21892940.122
        49.0004         45.0004
 14  5 27  0  8  0.0000000  0 10G20G28G10G08G26G02G06G17G04G07
  -9414985.73946  -7294222.34945  24115182.2004   24115190.0894   24115180.943
        38.0004         33.0004
  -8885148.75547  -6924730.45847  22503566.1444   22503572.4234   22503565.518
        47.0004         43.0004
 -14019113.12747 -10911796.12147  22748224.4954   22748231.0384   22748224.802
        46.0004         42.0004
 -17006710.18148 -13239453.15648  20276648.1424   20276654.5734   20276648.579
        53.0004         48.0004
  -1910965.88947  -1420356.43246  24134851.9264   24134861.4794   24134851.250
        42.0004         38.0004
 -10178264.26448  -7924303.08147  22397514.9534   22397518.4854   22397515.697
        48.0004         44.0004
   -893908.16746   -687401.40246  24747766.8824   24747779.6524   24747767.034
        41.0004         37.0004
  -9667477.97847  -7489513.73247  23433404.9334   23433415.0254   23433404.954
        46.0004         42.0004
 -27436761.76448 -21133895.10748  20365186.0994   20365191.9444   20365185.635
        53.0004         49.0004
 -14062953.97348 -10946983.68747  21910439.9574   21910444.9854   21910439.860
        49.0004         45.0004
 14  5 27  0  8 30.0000000  0 10G20G28G10G08G26G02G06G17G04G07
  -9372748.58646  -7261310.28945  24123219.9534   24123228.4734   24123220.547
        38.0004         34.0004
  -8944158.27047  -6970711.77747  22492336.1684   22492343.5374   22492335.965
        47.0004         43.0004
 -14090532.17247 -10967447.22947  22734633.8414   22734640.8094   22734634.345
        47.0004         42.0004
 -16955874.65748 -13199841.01948  20286322.2354   20286327.5194   20286322.411
        53.0004         48.0004
  -1898546.97747  -1410679.23446  24137214.2984   24137223.3924   24137214.375
        42.0004         38.0004
 -10242258.34848  -7974168.51947  22385338.1164   22385341.2064   22385337.623
        48.0004         44.0004
   -792073.97347   -608050.10746  24767145.9464   24767158.4694   24767144.769
        42.0004         37.0004
  -9631662.21147  -7461605.32047  23440221.1874   23440231.2294   23440221.183
        47.0004         42.0004
 -27456557.75648 -21149320.52848  20361418.9114   20361424.6784   20361418.548
        53.0004         49.0004
 -13970702.66748 -10875099.51347  21927996.1964   21927999.8774   21927994.619
        49.0004         45.0004
 14  5 27  0  9  0.0000000  0 10G20G28G10G08G26G02G06G17G04G07
  -9330170.10046  -7228132.22145  24131324.7444   24131328.1384   24131322.477
        39.0004         34.0004
  -9003140.66047  -7016671.94147  22481111.4774   22481118.7754   22481111.923
        47.0004         43.0004
 -14161997.01847 -11023134.01347  22721034.3324   22721040.7674   22721034.835
        46.0004         42.0004
 -16904458.30548 -13159776.28948  20296105.9944   20296111.9594   20296106.654
        53.0004         48.0004
  -1885996.04547  -1400899.18246  24139602.4664   24139613.3474   24139602.478
        42.0004         38.0004
 -10305871.88548  -8023737.43947  22373231.4094   22373237.0964   22373231.598
        48.0004         44.0004
   -690211.67647   -528676.92146  24786529.2784   24786542.2934   24786528.268
        42.0004         37.0004
  -9596006.56947  -7433821.69647  23447005.6254   23447016.2064   23447005.487
        47.0004         42.0004
 -27475800.51648 -21164314.86248  20357756.9644   20357763.2174   20357756.659
        53.0004         49.0004
 -13878169.26348 -10802995.52047  21945603.6454   21945608.9554   21945602.739
        49.0004         45.0004
 14  5 27  0  9 30.0000000  0 10G20G28G10G08G26G02G06G17G04G07
  -9287247.60646  -7194686.08745  24139489.6694   24139497.6674   24139491.039
        38.0004         34.0004
  -9062091.13147  -7062607.25047  22469892.9724   22469903.8044   22469893.964
        47.0004         43.0004
 -14233503.15047 -11078852.99347  22707426.4274   22707432.9584   22707427.369
        46.0004         42.0004
 -16852461.31148 -13119259.11048  20306001.2614   20306006.6224   20306001.389
        53.0004         48.0004
  -1873313.35747  -1391016.44046  24142015.1674   24142026.1014   24142015.955
        42.0004         37.0004
 -10369101.26348  -8073007.01347  22361199.3014   22361203.9094   22361200.442
        48.0004         43.0004
   -588321.52447   -449282.01346  24805918.6014   24805930.6484   24805917.654
        42.0004         37.0004
  -9560510.01047  -7406162.03446  23453760.8204   23453771.2654   23453760.132
        46.0004         41.0004
 -27494487.61948 -21178876.21548  20354201.3004   20354206.9014   20354200.693
        53.0004         49.0004
 -13785354.76248 -10730672.48947  21963265.3724   21963270.3674   21963265.131
        49.0004         44.0004
 14  5 27  0 10  0.0000000  0 10G20G28G10G08G26G02G06G17G04G07
                  -7160971.71345                  24147732.6144   24147721.759
                        33.0004
  -9121006.66247  -7108515.31847  22458682.3224   22458690.2424   22458682.649
        47.0004         43.0004
 -14305048.08147 -11134602.20047  22693812.7714   22693819.5304   22693813.335
        47.0004         42.0004
 -16799885.53748 -13078290.93548  20316005.6034   20316011.6404   20316006.083
        53.0004         48.0004
  -1860500.70247  -1381032.44046  24144453.4374   24144463.8494   24144454.072
        42.0004         38.0004
 -10431945.12148  -8121976.17447  22349241.2744   22349245.3134   22349241.191
        48.0004         43.0004
   -486405.64646   -369867.07846  24825312.2054   24825327.6124   24825311.645
        41.0004         37.0004
  -9525173.83747  -7378627.33547  23460485.2724   23460494.8224   23460484.799
        46.0004         42.0004
 -27512618.59548 -21193004.22148  20350750.7194   20350756.1764   20350750.302
        53.0004         49.0004
 -13692261.87248 -10658132.53347  21980980.1094   21980985.2714   21980979.877
        49.0004         44.0004
 14  5 27  0 10 30.0000000  0 10G20G28G10G08G26G02G06G17G04G07
  -9200375.99346                  24156016.4954                   24156020.613
        38.0004
  -9179890.89648  -7154399.00747  22447478.2444   22447484.7844   22447477.221
        48.0004         43.0004
 -14376636.05747 -11190384.93847  22680188.7904   22680196.1954   22680189.977
        47.0004         42.0004
 -16746739.82048 -13036878.64748  20326119.1514   20326124.5914   20326119.214
        53.0004         48.0004
  -1847566.99947  -1370954.10546  24146915.2174   24146924.1004   24146914.775
        42.0004         38.0004
 -10494408.24848  -8170648.66947  22337354.0274   22337358.7054   22337354.386
        48.0004         43.0004
   -384472.95846   -290439.03546  24844710.8494   24844723.0904   24844708.795
        41.0004         37.0004
  -9490006.25647  -7351224.00547  23467177.4174   23467187.0204   23467176.450
        46.0004         42.0004
 -27530199.76348 -21206703.80548  20347404.9644   20347410.5434   20347404.516
        53.0004         49.0004
 -13598900.52448 -10585383.39147  21998746.8574   21998752.1034   21998746.001
        49.0004         44.0004
 14  5 27  0 11  0.0000000  0 10G20G28G10G08G26G02G06G17G04G07
  -9156421.37846  -7092743.56945  24164387.3774   24164390.3814   24164385.544
        38.0004         34.0004
  -9238729.36447  -7200247.05047  22436280.2814   22436288.1074   22436280.626
        47.0004         43.0004
 -14448252.78547 -11246190.09047  22666561.1034   22666568.0084   22666562.261
        47.0004         42.0004
 -16693014.81348 -12995014.96648  20336342.3204   20336347.8694   20336342.758
        53.0004         48.0004
  -1834502.57847  -1360773.93146  24149400.5154   24149410.4544   24149400.179
        42.0004         38.0004
 -10556477.25448  -8219014.05647  22325543.1824   22325547.0994   22325543.427
        48.0004         44.0004
   -282513.95146   -210990.48346  24864111.0784   24864125.2734   24864111.090
        41.0004         37.0004
  -9454996.62647  -7323943.74547  23473838.9264   23473849.6044   23473838.776
        46.0004         42.0004
 -27547218.78748 -21219965.34948  20344166.3534   20344171.9504   20344166.438
        53.0004         49.0004
 -13505261.63148 -10512417.97847  22016565.8024   22016570.0884   22016564.873
        49.0004         44.0004
 14  5 27  0 11 30.0000000  0 10G20G28G10G08G26G02G06G17G04G07
  -9112126.33646  -7058227.92045  24172811.9134   24172819.8134   24172813.839
        38.0004         33.0004
  -9297528.74247  -7246064.63747  22425091.4504   22425097.4494   22425091.276
        47.0004         43.0004
 -14519905.83247 -11302023.53747  22652925.9304   22652933.4944   22652926.548
        47.0004         42.0004
 -16638722.15448 -12952708.95848  20346674.1854   20346679.4714   20346674.276
        53.0004         48.0004
  -1821319.20147  -1350501.04346  24151910.2164   24151919.2604   24151909.277
        42.0004         38.0004
 -10618160.19548  -8267078.61147  22313805.2504   22313809.6344   22313805.188
        48.0004         44.0004
   -180540.48646   -131530.66746  24883516.4384   24883530.6694   24883516.352
        41.0004         36.0004
  -9420156.33447  -7296795.44847  23480468.7264   23480480.0634   23480468.507
        47.0004         42.0004
 -27563685.30948 -21232796.38148  20341032.7834   20341038.8104   20341032.446
        53.0004         49.0004
 -13411357.79648 -10439246.11347  22034433.7854   22034439.2884   22034434.545
        49.0004         44.0004
 14  5 27  0 12  0.0000000  0 10G20G28G10G08G26G02G06G17G04G07
  -9067487.14346  -7023444.15745  24181310.1894   24181317.6314   24181309.681
        39.0004         34.0004
  -9356282.72347  -7291846.84447  22413910.4624   22413917.6554   22413910.934
        47.0004         43.0004
 -14591589.04347 -11357880.49447  22639285.9144   22639292.5814   22639285.935
        47.0004         42.0004
 -16583860.54048 -12909959.60748  20357113.7374   20357119.5954   20357114.005
        53.0004         48.0004
  -1808015.41647  -1340134.35046  24154441.2984   24154450.8914   24154441.644
        42.0004         38.0004
 -10679451.83648  -8314838.26147  22302141.7544   22302146.2844   22302141.764
        48.0004         44.0004
    -78551.28846    -52058.57446  24902924.6754   24902938.0184   24902924.113
        41.0004         36.0004
  -9385482.40147  -7269776.77747  23487067.3884   23487077.4844   23487067.250
        47.0004         42.0004
 -27579595.54448 -21245193.93548  20338005.1844   20338010.7914   20338004.951
        53.0004         49.0004
 -13317188.31248 -10365867.24947  22052354.9694   22052359.0544   22052353.552
        49.0004         44.0004
 14  5 27  0 12 30.0000000  0 10G20G28G10G08G26G02G06G17G04G07
  -9022503.57246  -6988392.00845  24189868.4934   24189876.2604   24189868.536
        39.0004         34.0004
  -9414987.99847  -7337591.09847  22402739.2034   22402745.8614   22402739.505
        47.0004         43.0004
 -14663299.51747 -11413758.70447  22625639.1084   22625645.7834   22625639.464
        47.0004         42.0004
 -16528431.78248 -12866768.32848  20367661.3374   20367667.1044   20367661.844
        52.0004         48.0004
  -1794593.16447  -1329675.33646  24156994.8284   24157005.6644   24156994.786
        43.0004         38.0004
 -10740350.46648  -8362291.66547  22290553.0044   22290557.6604   22290553.652
        48.0004         44.0004
     23451.73246     27424.26446  24922334.5684   24922350.2274   24922334.523
        40.0004         36.0004
  -9350975.98447  -7242888.64647  23493634.0714   23493644.0124   23493633.577
        47.0004         42.0004
 -27594948.87248 -21257157.53748  20335083.5404   20335089.3844   20335083.384
        53.0004         49.0004
 -13222755.93048 -10292283.54347  22070323.6984   22070329.0694   22070324.230
        49.0004         44.0004
 14  5 27  0 13  0.0000000  0 10G20G28G10G08G26G02G06G17G04G07
  -8977177.56746  -6953073.06345  24198494.3024   24198503.0814   24198494.682
        38.0004         33.0004
  -9473644.46547  -7383297.32947  22391577.2414   22391583.8764   22391577.574
        47.0004         43.0004
 -14735037.28647 -11469658.16847  22611987.9914   22611994.1474   22611989.104
        47.0004         42.0004
 -16472440.74048 -12823138.90548  20378315.9084   20378322.1674   20378316.277
        52.0004         48.0004
  -1781057.00047  -1319127.56446  24159571.4524   24159580.2294   24159571.894
        43.0004         38.0004
 -10800856.78348  -8409439.37747  22279040.0894   22279042.9284   22279039.139
        48.0004         44.0004
    125463.86046    106914.20845  24941746.9864   24941761.5034   24941746.964
        40.0004         35.0004
  -9316640.46147  -7216133.66947  23500167.4854   23500177.4054   23500167.402
        47.0004         42.0004
 -27609747.46748 -21268688.87948  20332267.6194   20332273.0894   20332267.142
        53.0004         49.0004
 -13128066.07648 -10218499.19947  22088342.5434   22088348.3624   22088342.819
        49.0004         44.0004
 14  5 27  0 13 30.0000000  0 10G20G28G10G08G26G02G06G17G04G07
  -8931508.28446  -6917486.61645  24207186.6134   24207191.0534   24207184.531
        38.0004         34.0004
  -9532248.04848  -7428962.35447  22380425.0614   22380433.3734   22380425.600
        48.0004         43.0004
 -14806798.93947 -11525576.25547  22598331.8874   22598338.7674   22598332.540
        47.0004         42.0004
 -16415889.02948 -12779072.59848  20389077.5394   20389083.3394   20389077.898
        52.0004         48.0004
  -1767408.23447  -1308492.04446  24162167.7814   24162178.1744   24162167.765
        43.0004         38.0004
 -10860968.49848  -8456279.60947  22267599.6134   22267603.5874   22267600.437
        48.0004         44.0004
    227483.73446    186410.20845  24961161.3094   24961175.3054   24961160.789
        40.0004         35.0004
  -9282476.51347  -7189512.38147  23506668.3174   23506679.2994   23506668.440
        47.0004         42.0004
 -27623990.29548 -21279787.15748  20329557.0744   20329563.2174   20329556.957
        53.0004         49.0004
 -13033120.74448 -10144515.77747  22106410.9434   22106415.5934   22106410.160
        49.0004         44.0004
 14  5 27  0 14  0.0000000  0 10G20G28G10G08G26G02G06G17G04G07
  -8885494.92246  -6881632.06345  24215942.7394   24215945.9084   24215941.776
        38.0004         34.0004
  -9590795.20748  -7474583.41847  22369283.3104   22369290.3974   22369284.540
        48.0004         43.0004
 -14878581.23947 -11581510.43147  22584670.7424   22584679.0864   22584672.064
        47.0004         42.0004
 -16358778.16648 -12734570.58648  20399945.1804   20399951.3384   20399945.516
        52.0004         48.0004
  -1753648.29647  -1297769.89946  24164786.6514   24164796.4684   24164786.533
        43.0004         38.0004
 -10920683.71448  -8502810.86847  22256235.8194   22256240.9894   22256236.757
        48.0004         44.0004
    329509.81146    265910.99745  24980576.5244   24980589.9214   24980575.450
        40.0004         35.0004
  -9248484.52547  -7163025.08447  23513137.4264   23513147.6974   23513136.660
        46.0004         42.0004
 -27637676.66448 -21290451.83348  20326952.7654   20326958.7764   20326952.383
        53.0004         49.0004
 -12937922.56948 -10070335.33047  22124527.0514   22124530.1564   22124525.555
        49.0004         44.0004
 14  5 27  0 14 30.0000000  0 10G20G28G10G08G26G02G06G17G04G07
  -8839137.91256  -6845509.72655  24224761.5685   24224769.0635   24224761.536
        38.0004         33.0004
  -9649284.06148  -7520159.06247  22358153.7544   22358161.5964   22358154.076
        48.0004         43.0004
 -14950382.36647 -11637459.26847  22571008.7724   22571014.8504   22571009.435
        47.0004         43.0004
 -16301111.06248 -12689635.14248  20410919.0924   20410924.7194   20410919.533
        52.0004         48.0004
  -1739780.11147  -1286963.40946  24167425.2864   24167434.4164   24167425.412
        43.0004         38.0004
 -10980001.31348  -8549032.29847  22244948.4394   22244953.6024   22244949.124
        49.0004         44.0004
    431539.18946    345414.41145  24999991.1434   25000004.1584   24999991.249
        39.0004         35.0004
  -9214666.19947  -7136673.12247  23519572.7614   23519582.8994   23519572.119
        46.0004         42.0004
 -27650806.82148 -21300683.09448  20324454.0094   20324459.7274   20324453.671
        53.0004         49.0004
 -12842474.88048  -9995960.47147  22142688.8924   22142693.6804   22142689.232
        48.0004         44.0004
 14  5 27  0 15  0.0000000  0 10G20G28G10G08G26G02G06G17G04G07
  -8792436.81346  -6809119.30045  24233649.2964   24233656.6884   24233650.340
        38.0004         34.0004
  -9707710.60748  -7565686.14347  22347035.4154   22347041.8064   22347035.777
        48.0004         43.0004
 -15022199.25347 -11693420.39047  22557342.5034   22557348.8744   22557343.233
        47.0004         43.0004
 -16242889.45348 -12644267.61248  20421998.1934   20422003.8034   20421998.404
        52.0004         48.0004
  -1725805.16147  -1276073.72846  24170084.2304   24170094.1844   24170084.253
        43.0004         38.0004
 -11038919.35548  -8594942.38747  22233737.6724   22233740.2124   22233737.400
        49.0004         44.0004
    533570.19446    424919.06645  25019408.2004   25019419.6574   25019406.958
        39.0004         34.0004
  -9181022.66347  -7110457.34847  23525974.9584   23525984.3664   23525974.621
        46.0004         42.0004
 -27663380.48648 -21310480.71748  20322061.4324   20322067.0084   20322061.083
        53.0004         49.0004
 -12746779.87648  -9921392.89247  22160899.6934   22160904.7274   22160898.716
        48.0004         44.0004
 14  5 27  0 15 30.0000000  0  9G28G10G08G26G02G06G17G04G07
  -9766065.52748  -7611157.41147  22335930.6544   22335937.9414   22335930.866
        48.0004         43.0004
 -15094022.96947 -11749386.83847  22543674.6704   22543680.1954   22543675.183
        47.0004         43.0004
 -16184109.29548 -12598464.85548  20433183.8184   20433189.4964   20433183.992
        52.0004         48.0004
  -1711719.12847  -1265097.48146  24172765.5874   24172774.9984   24172765.168
        43.0004         38.0004
 -11097429.75948  -8640534.83347  22222601.7994   22222605.7024   22222602.989
        48.0004         44.0004
    635607.15646    504428.34945  25038825.1164   25038839.3454   25038823.882
        39.0004         34.0004
  -9147548.54847  -7084373.58946  23532344.4724   23532354.8214   23532344.328
        46.0004         41.0004
 -27675390.79248 -21319839.36848  20319776.1404   20319781.5214   20319775.872
        53.0004         49.0004
 -12650834.25348  -9846630.02447  22179156.4324   22179160.3654   22179156.648
        48.0004         44.0004
 14  5 27  0 16  0.0000000  0 10G20G28G10G08G26G02G06G17G04G07
  -8698004.95446  -6735536.06945  24251619.6124   24251628.0824   24251619.210
        38.0004         33.0004
  -9824368.98748  -7656588.59947  22324836.3524   22324843.3384   22324836.579
        48.0004         43.0004
 -15165873.70647 -11805374.32947  22530001.6984   22530007.6594   22530002.561
        47.0004         43.0004
 -16124795.96248 -12552246.63548  20444470.7124   20444476.0594   20444470.880
        52.0004         48.0004
  -1697547.04947  -1254054.20146  24175462.8444   24175471.7674   24175461.942
        43.0004         38.0004
 -11155553.93448  -8685826.32547  22211541.6784   22211545.4184   22211542.251
        49.0004         44.0004
    737625.05046    583922.81445  25058240.6004   25058254.9084   25058237.328
        39.0004         34.0004
  -9114267.49247  -7058440.25646  23538676.9284   23538687.5694   23538677.406
        46.0004         41.0004
 -27686860.61048 -21328776.85948  20317593.4554   20317598.9054   20317592.864
        53.0004         49.0004
 -12554663.72348  -9771691.90347  22197457.2164   22197461.6394   22197457.414
        48.0004         44.0004
 14  5 27  0 16 30.0000000  0 10G20G28G10G08G26G02G06G17G04G07
  -8650274.59246  -6698343.63945  24260706.1374   24260709.7354   24260701.801
        38.0004         33.0004
  -9882595.35048  -7701959.69747  22313755.3054   22313763.0194   22313756.485
        48.0004         43.0004
 -15237726.31947 -11861363.29747  22516327.7694   22516335.6814   22516329.965
        47.0004         43.0004
 -16064929.23148 -12505597.19248  20455862.6934   20455868.4364   20455863.338
        52.0004         48.0004
  -1683268.35547  -1242927.81846  24178179.0714   24178188.4764   24178178.962
        43.0004         38.0004
 -11213267.79848  -8730798.09147  22200559.5324   22200563.5684   22200559.922
        49.0004         44.0004
    839644.32546    663418.34745  25077649.3754   25077665.9744   25077651.008
        39.0004         34.0004
  -9081158.15547  -7032640.74946  23544979.1714   23544988.4494   23544978.101
        46.0004         41.0004
 -27697767.28248 -21337275.53648  20315517.7464   20315523.2434   20315517.210
        53.0004         49.0004
 -12458248.63548  -9696563.22947  22215804.6774   22215809.4734   22215804.634
        48.0004         44.0004
 14  5 27  0 17  0.0000000  0 10G20G28G10G08G26G02G06G17G04G07
                  -6660882.93345                  24269861.1164   24269849.610
                        33.0004
  -9940747.78548  -7747273.19347  22302690.4614   22302697.4854   22302690.269
        48.0004         43.0004
 -15309584.61147 -11917356.67747  22502655.6514   22502661.8394   22502655.289
        47.0004         43.0004
 -16004517.63348 -12458523.18548  20467358.9494   20467364.4054   20467359.048
        52.0004         48.0004
  -1668891.44347  -1231724.91046  24180915.1194   24180924.2964   24180915.250
        43.0004         38.0004
 -11270576.17448  -8775453.90247  22189653.8654   22189657.6024   22189653.463
        49.0004         44.0004
    941656.50546    742908.35645  25097062.1504   25097080.4654   25097063.265
        38.0004         33.0004
  -9048227.65947  -7006980.58546  23551245.3384   23551255.2884   23551244.000
        46.0004         41.0004
 -27708116.94548 -21345340.17948  20313548.3964   20313554.1564   20313548.033
        53.0004         49.0004
 -12361598.08848  -9621251.07847  22234197.0814   22234201.7894   22234196.615
        48.0004         44.0004
 14  5 27  0 17 30.0000000  0 10G20G28G10G08G26G02G06G17G04G07
  -8553783.15946  -6623155.59045  24279061.1694   24279070.4504   24279064.392
        38.0004         33.0004
  -9998825.65948  -7792528.59647  22291637.5694   22291645.5194   22291638.442
        48.0004         43.0004
 -15381448.23147 -11973354.21947  22488979.6354   22488985.5974   22488979.875
        47.0004         43.0004
 -15943566.18348 -12411028.51048  20478957.6584   20478963.0194   20478957.669
        52.0004         48.0004
  -1654420.86047  -1220449.01746  24183668.1464   24183677.3304   24183668.547
        43.0004         38.0004
 -11327479.97448  -8819794.44247  22178825.2104   22178829.7844   22178825.783
        49.0004         44.0004
  -6833442.85646  -5315610.63945  25116474.7784   25116485.7924   25116473.290
        38.0004         33.0004
  -9015479.59447  -6981462.58846  23557475.8684   23557485.7394   23557475.737
        46.0004         41.0004
 -27717912.16748 -21352972.78648  20311684.4934   20311689.9704   20311683.919
        53.0004         49.0004
 -12264717.46448  -9545759.62347  22252632.9464   22252637.2484   22252632.121
        48.0004         43.0004
 14  5 27  0 18  0.0000000  0 10G20G28G10G08G26G02G06G17G04G07
  -8505022.63646  -6585160.39045  24288339.5194   24288350.2504   24288342.644
        38.0004         33.0004
 -10056824.52548  -7837722.43247  22280601.6404   22280608.3324   22280601.340
        48.0004         43.0004
 -15453313.55247 -12029353.07647  22475304.6414   22475309.6914   22475304.298
        47.0004         43.0004
 -15882075.86948 -12363113.94248  20490658.3784   20490664.1194   20490659.016
        52.0004         48.0004
  -1639857.50447  -1209100.83246  24186439.7464   24186447.9234   24186439.398
        43.0004         38.0004
 -11383976.73448  -8863817.82647  22168074.3824   22168079.2134   22168074.392
        49.0004         44.0004
  -6731454.63046  -5236139.28645  25135878.7224   25135894.5244   25135880.813
        38.0004         33.0004
  -8982913.69947  -6956086.54046  23563673.0234   23563682.3574   23563672.837
        46.0004         41.0004
 -27727151.77148 -21360172.45048  20309926.2144   20309931.9254   20309925.748
        53.0004         49.0004
 -12167608.54148  -9470090.29947  22271111.4754   22271116.3144   22271111.492
        48.0004         43.0004
 14  5 27  0 18 30.0000000  0 10G20G28G10G08G26G02G06G17G04G07
                  -6546898.89745                  24297697.6954   24297685.753
                        33.0004
 -10114743.44148  -7882853.95647  22269579.1474   22269587.0274   22269579.291
        48.0004         43.0004
 -15525179.65447 -12085352.55747  22461628.1374   22461634.4614   22461628.769
        47.0004         43.0004
 -15820050.98248 -12314782.82148  20502461.9324   20502466.3754   20502461.932
        52.0004         48.0004
  -1625205.00547  -1197683.18646  24189227.7184   24189236.6814   24189227.564
        43.0004         38.0004
 -11440066.33148  -8907523.92747  22157400.0894   22157404.8374   22157401.263
        49.0004         44.0004
  -6629482.67146  -5156680.62645  25155292.1104   25155298.7214   25155286.311
        37.0004         33.0004
  -8950533.01347  -6930854.81046  23569834.5164   23569844.9434   23569834.919
        46.0004         41.0004
 -27735837.03848 -21366940.16148  20308273.3994   20308279.4054   20308272.979
        53.0004         49.0004
 -12070275.66548  -9394246.45147  22289632.8394   22289638.4894   22289632.655
        48.0004         43.0004
 14  5 27  0 19  0.0000000  0 10G20G28G10G08G26G02G06G17G04G07
  -8406475.07546  -6508370.17045  24307095.3444   24307106.5144   24307095.947
        37.0004         33.0004
 -10172577.73448  -7927919.55047  22258573.5384   22258581.4064   22258574.055
        48.0004         44.0004
 -15597042.14147 -12141349.20447  22447952.9164   22447958.8194   22447953.230
        47.0004         43.0004
 -15757492.47248 -12266035.89448  20514365.7444   20514371.6814   20514366.024
        52.0004         48.0004
  -1610464.13647  -1186196.67146  24192034.2604   24192042.2514   24192032.944
        43.0004         38.0004
 -11495746.00148  -8950910.60147  22146805.1244   22146809.4394   22146805.690
        49.0004         44.0004
                  -5077235.07245                  25174699.2894   25174687.320
                        33.0004
  -8918336.72047  -6905766.76946  23575961.7004   23575971.4484   23575961.526
        46.0004         41.0004
 -27743966.99648 -21373275.16748  20306726.0964   20306731.8314   20306725.884
        53.0004         49.0004
 -11972720.30548  -9318229.24447  22308198.0124   22308201.2034   22308197.072
        48.0004         43.0004
 14  5 27  0 19 30.0000000  0 10G20G28G10G08G26G02G06G17G04G07
                  -6469574.49445                  24316579.6074   24316570.926
                        32.0004
 -10230325.00548  -7972917.34947  22247584.9084   22247590.7674   22247585.261
        48.0004         43.0004
 -15668898.95348 -12197341.43847  22434279.3964   22434285.6284   22434279.294
        48.0004         43.0004
 -15694403.71948 -12216875.79048  20526371.4874   20526377.0414   20526371.693
        52.0004         48.0004
  -1595637.48547  -1174643.33246  24194854.5224   24194861.6904   24194854.483
        43.0004         38.0004
 -11551015.08648  -8993977.34747  22136288.4324   22136291.5924   22136288.158
        49.0004         44.0004
                  -4997804.72455                  25194097.6555   25194085.415
                        32.0004
  -8886326.46347  -6880823.67846  23582053.1604   23582062.1634   23582052.678
        46.0004         41.0004
 -27751541.93248 -21379177.68648  20305284.7554   20305290.3964   20305284.562
        53.0004         49.0004
 -11874945.96948  -9242041.40947  22326802.4414   22326808.4094   22326803.167
        48.0004         43.0004
 14  5 27  0 20  0.0000000  0 10G20G28G10G08G26G02G06G17G04G07
                                                                  24326110.766

 -10287982.45648  -8017845.15047  22236612.4884   22236619.0734   22236613.289
        48.0004         43.0004
 -15740747.17848 -12253326.98847  22420607.0244   22420613.8294   22420607.064
        48.0004         43.0004
 -15630786.95548 -12167304.25148  20538476.9904   20538482.7284   20538477.277
        52.0004         48.0004
  -1580727.06347  -1163024.71046  24197691.2064   24197700.9594   24197691.225
        43.0004         38.0004
 -11605872.15848  -9036723.04547  22125848.0874   22125852.5634   22125848.740
        49.0004         44.0004
                  -4918391.19245                  25213493.9074   25213478.099
                        32.0004
  -8854503.29647  -6856026.37746  23588108.8404   23588118.1734   23588108.374
        46.0004         41.0004
 -27758562.07249 -21384647.89448  20303948.5694   20303954.7704   20303948.508
        54.0004         49.0004
 -11776955.52648  -9165685.17747  22345449.4734   22345454.7314   22345450.195
        48.0004         43.0004
 14  5 27  0 20 30.0000000  0  9G20G28G10G08G26G02G17G04G07
  -8256083.58346  -6391182.10445  24335714.4344   24335724.3614   24335713.700
        37.0004         32.0004
 -10345546.68948  -8062700.30247  22225658.6624   22225664.9834   22225658.893
        48.0004         44.0004
 -15812584.40948 -12309303.96547  22406936.1514   22406941.7194   22406936.998
        48.0004         43.0004
 -15566644.54148 -12117323.11248  20550682.8334   20550688.7014   20550683.415
        52.0004         48.0004
  -1565734.84647  -1151342.34446  24200545.0174   24200553.1844   24200545.099
        43.0004         38.0004
 -11660315.55648  -9079146.39047  22115488.3494   22115492.2044   22115488.716
        49.0004         44.0004
  -8822868.01847  -6831375.48747  23594128.6724   23594138.9994   23594128.479
        46.0004         42.0004
 -27765027.28449 -21389685.69548  20302718.5784   20302724.3474   20302718.294
        54.0004         49.0004
 -11678751.75148  -9089162.72847  22364138.2834   22364142.7354   22364137.782
        48.0004         43.0004
 14  5 27  0 21  0.0000000  0  9G20G28G10G08G26G02G17G04G07
                  -6351587.60745                  24345390.9504   24345383.535
                        32.0004
 -10403017.34148  -8107482.54247  22214722.3344   22214728.6354   22214722.637
        48.0004         44.0004
 -15884410.49148 -12365272.26947  22393268.4544   22393274.8774   22393268.726
        48.0004         43.0004
 -15501982.08148 -12066936.74348  20562987.7294   20562993.9034   20562987.947
        52.0004         48.0004
  -1550665.94747  -1139600.24546  24203410.7584   24203419.6904   24203410.761
        43.0004         38.0004
 -11714347.11548  -9121248.83147  22105206.1504   22105210.7524   22105206.965
        49.0004         45.0004
  -8791424.27647  -6806873.85646  23600112.6174   23600123.0864   23600111.905
        46.0004         41.0004
 -27770940.84148 -21394293.63548  20301593.1604   20301598.7734   20301592.663
        53.0004         49.0004
 -11580340.36948  -9012478.47047  22382865.2834   22382869.5844   22382864.841
        48.0004         43.0004
 14  5 27  0 21 30.0000000  0  9G20G28G10G08G26G02G17G04G07
                  -6311726.93845                  24355126.2434   24355118.552
                        32.0004
 -10460389.53848  -8152188.06947  22203805.0464   22203811.9774   22203805.108
        48.0004         44.0004
 -15956221.25348 -12421228.62447  22379602.3124   22379609.3274   22379603.670
        48.0004         43.0004
 -15436800.26748 -12016145.68547  20575391.2994   20575396.8794   20575391.923
        52.0004         47.0004
  -1535520.57847  -1127798.53746  24206294.5104   24206302.7454   24206294.135
        43.0004         38.0004
 -11767963.55248  -9163027.79347  22095003.8074   22095007.0304   22095003.860
        49.0004         44.0004
  -8760171.37647  -6782520.93146  23606059.4874   23606069.5474   23606059.395
        46.0004         41.0004
 -27776301.15748 -21398470.47848  20300572.9424   20300578.8934   20300572.920
        53.0004         49.0004
 -11481722.55148  -8935633.37647  22401631.9204   22401635.9734   22401631.075
        48.0004         43.0004
 14  5 27  0 22  0.0000000  0  9G20G28G10G08G26G02G17G04G07
  -8102617.10646  -6271597.91855  24364918.5134   24364925.1185   24364919.066
        37.0004         33.0004
 -10517657.37448  -8196812.26747  22192907.7434   22192914.0664   22192907.435
        49.0004         44.0004
 -16028010.78948 -12477168.43647  22365942.3974   22365949.0914   22365942.675
        48.0004         43.0004
 -15371098.82748 -11964949.71947  20587894.0554   20587899.6304   20587894.318
        52.0004         47.0004
  -1520297.76247  -1115936.49246  24209190.8284   24209199.5754   24209190.374
        43.0004         38.0004
 -11821160.50348  -9204479.89147  22084881.3214   22084884.2024   22084880.846
        49.0004         44.0004
  -8729107.39747  -6758315.20946  23611970.5914   23611980.1554   23611970.547
        46.0004         41.0004
 -27781105.26048 -21402213.90948  20299658.9264   20299664.3644   20299658.582
        53.0004         49.0004
 -11382898.22848  -8858627.35647  22420436.4904   22420440.6434   22420436.298
        48.0004         43.0004
 14  5 27  0 22 30.0000000  0  9G20G28G10G08G26G02G17G04G07
                  -6231206.62445                  24374785.2964   24374781.840
                        32.0004
 -10574825.41848  -8241358.69847  22182028.2804   22182033.5664   22182028.392
        49.0004         44.0004
 -16099783.96748 -12533095.50547  22352284.4874   22352290.1384   22352284.516
        48.0004         43.0004
 -15304887.55248 -11913356.48447  20600493.2004   20600499.1974   20600493.821
        52.0004         47.0004
  -1505007.30647  -1104021.72946  24212100.0584   24212108.7534   24212099.508
        43.0004         38.0004
 -11873944.31948  -9245610.06447  22074836.5304   22074839.8124   22074836.368
        49.0004         45.0004
  -8698241.02747  -6734263.47946  23617845.2574   23617854.0824   23617844.543
        46.0004         41.0004
 -27785360.95248 -21405530.00448  20298849.1534   20298854.5934   20298848.702
        53.0004         49.0004
 -11283877.63448  -8781468.39947  22439279.8394   22439285.1754   22439279.484
        48.0004         43.0004
 14  5 27  0 23  0.0000000  0  8G28G10G08G26G02G17G04G07
 -10631870.72548  -8285809.50047  22171173.0964   22171179.2734   22171173.138
        49.0004         44.0004
 -16171518.38148 -12588992.36847  22338633.5574   22338639.1724   22338633.884
        48.0004         43.0004
 -15238149.55948 -11861352.82347  20613193.2454   20613199.1304   20613193.849
        52.0004         47.0004
  -1489631.65047  -1092040.57446  24215026.7434   24215035.3904   24215025.685
        42.0004         38.0004
 -11926293.80948  -9286401.80147  22064874.7814   22064878.1314   22064875.013
        49.0004         44.0004
  -8667553.20447  -6710350.86446  23623684.3194   23623694.3294   23623683.790
        46.0004         41.0004
 -27789048.92948 -21408403.72748  20298147.4554   20298153.0874   20298147.126
        53.0004         49.0004
 -11184644.23448  -8704143.63247  22458162.7614   22458168.1084   22458163.025
        48.0004         43.0004
 14  5 27  0 23 30.0000000  0  8G28G10G08G26G02G17G04G07
 -10688821.17548  -8330186.38447  22160335.7164   22160341.5304   22160335.511
        48.0004         44.0004
 -16243242.02548 -12644880.84847  22324984.1854   22324990.7754   22324985.084
        48.0004         43.0004
 -15170918.35048 -11808964.83247  20625987.0214   20625992.6354   20625987.355
        52.0004         47.0004
  -1474203.19847  -1080018.28746  24217960.6214   24217970.5684   24217961.100
        42.0004         38.0004
 -11978238.67948  -9326878.24647  22054988.9904   22054993.4544   22054989.772
        49.0004         45.0004
  -8637075.23347  -6686601.77346  23629484.5664   23629493.6844   23629484.011
        46.0004         41.0004
 -27792199.87448 -21410858.98148  20297547.8504   20297553.1424   20297547.172
        53.0004         49.0004
 -11085231.24048  -8626678.90547  22477081.5014   22477085.0624   22477080.480
        48.0004         43.0004
 14  5 27  0 24  0.0000000  0  8G28G10G08G26G02G17G04G07
 -10745657.56148  -8374474.38047  22149519.4554   22149528.0454   22149520.092
        48.0004         44.0004
 -16314936.21848 -12700746.38047  22311341.8194   22311347.7674   22311342.190
        48.0004         43.0004
 -15103180.89448 -11756182.36247  20638876.8374   20638882.9024   20638877.307
        52.0004         47.0004
  -1458708.47047  -1067944.35546  24220910.3414   24220918.5714   24220910.153
        42.0004         38.0004
 -12029761.79348  -9367026.05447  22045185.4504   22045188.8704   22045185.505
        49.0004         45.0004
  -8606792.65847  -6663004.96746  23635247.1014   23635256.3134   23635246.228
        46.0004         41.0004
 -27794798.43448 -21412883.80748  20297052.9594   20297058.8004   20297052.898
        53.0004         49.0004
 -10985625.97548  -8549064.36947  22496035.5344   22496040.3244   22496035.141
        48.0004         43.0004
 14  5 27  0 24 30.0000000  0  9G28G10G08G26G02G17G04G05G07
 -10802378.68548  -8418672.56847  22138725.8404   22138731.8704   22138725.929
        48.0004         44.0004
 -16386599.98548 -12756588.19847  22297703.8804   22297710.2764   22297704.802
        48.0004         43.0004
 -15034941.06248 -11703008.43447  20651862.8344   20651868.1744   20651862.896
        52.0004         47.0004
  -1443151.05847  -1055821.56746  24223871.1794   24223879.1574   24223870.532
        42.0004         38.0004
 -12080863.44748  -9406845.45347  22035459.3764   22035463.1084   22035460.429
        49.0004         45.0004
  -8576707.37647  -6639561.88846  23640970.8734   23640982.1004   23640971.297
        46.0004         41.0004
 -27796846.66749 -21414479.80948  20296663.2164   20296668.9054   20296662.932
        54.0004         49.0004
   -975037.22346   -722093.42746  25487220.1754   25487228.6974   25487218.322
        40.0004         36.0004
 -10885832.71448  -8471303.34147  22515025.6074   22515029.5304   22515025.195
        48.0004         43.0004
 14  5 27  0 25  0.0000000  0  9G28G10G08G26G02G17G04G05G07
 -10858981.76048  -8462778.77047  22127955.5744   22127961.5744   22127954.931
        48.0004         44.0004
 -16458231.13348 -12812404.61247  22284073.5534   22284079.8784   22284073.906
        48.0004         43.0004
 -14966202.54748 -11649445.91947  20664943.4254   20664948.4874   20664943.287
        52.0004         47.0004
  -1427533.78747  -1043652.16746  24226842.8794   24226849.7354   24226842.017
        42.0004         37.0004
 -12131543.28748  -9446336.16947  22025816.1854   22025819.8604   22025816.740
        49.0004         45.0004
  -8546821.45647  -6616274.13846  23646658.7164   23646668.4364   23646657.783
        46.0004         41.0004
 -27798345.47249 -21415647.68348  20296378.2974   20296383.4054   20296377.860
        54.0004         49.0004
  -1054940.26446   -784355.25045  25472015.0654   25472020.9774   25472013.639
        40.0004         35.0004
 -10785855.11348  -8393398.66247  22534049.9034   22534055.1414   22534049.718
        48.0004         43.0004
 14  5 27  0 25 30.0000000  0  9G28G10G08G26G02G17G04G05G07
 -10915461.48148  -8506788.85547  22117206.9454   22117213.9274   22117207.161
        49.0004         44.0004
 -16529824.18548 -12868191.32047  22270450.0834   22270456.3694   22270450.229
        48.0004         43.0004
 -14896965.17848 -11595494.69047  20678118.2614   20678123.9804   20678118.934
        52.0004         47.0004
  -1411856.28947  -1031435.81846  24229825.4824   24229834.5134   24229825.412
        42.0004         38.0004
 -12181797.52748  -9485495.24447  22016253.3664   22016257.0864   22016253.314
        49.0004         45.0004
  -8517133.14247  -6593140.37846  23652308.2714   23652317.5814   23652308.067
        46.0004         41.0004
 -27799292.73149 -21416385.78448  20296197.8054   20296203.6934   20296197.649
        54.0004         49.0004
  -1135060.39746   -846786.21846  25456766.6274   25456775.6294   25456767.008
        41.0004         37.0004
 -10685693.67547  -8315350.74547  22553109.8794   22553115.1284   22553110.361
        47.0004         43.0004
 14  5 27  0 26  0.0000000  0  9G28G10G08G26G02G17G04G05G07
 -10971820.19248  -8550704.63347  22106482.1614   22106488.9974   22106482.409
        49.0004         44.0004
 -16601381.94748 -12923950.54147  22256831.5184   22256838.5904   22256833.462
        48.0004         44.0004
 -14827237.58048 -11541161.45747  20691387.3474   20691392.8854   20691387.638
        52.0004         47.0004
  -1396125.88047  -1019178.24446  24232818.7514   24232825.8124   24232819.215
        42.0004         38.0004
 -12231630.35648  -9524325.96447  22006770.7104   22006773.6094   22006770.651
        49.0004         45.0004
  -8487648.68047  -6570165.45846  23657919.1584   23657927.2994   23657918.943
        46.0004         41.0004
 -27799694.36849 -21416698.72648  20296121.2024   20296127.3114   20296121.067
        54.0004         49.0004
  -1215401.87646   -909389.66046  25441477.6834   25441487.0224   25441477.485
        40.0004         36.0004
 -10585356.53347  -8237165.90247  22572204.1054   22572208.1024   22572203.790
        47.0004         43.0004
 14  5 27  0 26 30.0000000  0  9G28G10G08G26G02G17G04G05G07
 -11028050.73248  -8594520.54147  22095782.0014   22095787.6914   22095782.030
        49.0004         44.0004
 -16672897.50848 -12979676.88447  22243223.6704   22243229.9904   22243224.190
        48.0004         44.0004
 -14757018.28148 -11486445.08547  20704749.5534   20704754.5364   20704749.842
        52.0004         47.0004
  -1380340.73747  -1006878.00446  24235822.6274   24235831.2704   24235822.272
        42.0004         38.0004
 -12281036.62748  -9562824.28547  21997367.9654   21997371.8254   21997368.562
        49.0004         45.0004
  -8458364.71047  -6547346.77246  23663491.2954   23663500.7894   23663490.685
        45.0004         41.0004
 -27799546.53349 -21416583.51048  20296149.6744   20296154.9434   20296149.292
        54.0004         49.0004
  -1295958.85646   -972161.02445  25426151.2204   25426157.3464   25426147.794
        40.0004         35.0004
 -10484842.25147  -8158843.04147  22591331.8024   22591335.0944   22591330.392
        47.0004         43.0004
 14  5 27  0 27  0.0000000  0  9G28G10G08G26G02G17G04G05G07
 -11084149.11848  -8638233.47247  22085106.6024   22085112.7914   22085106.809
        49.0004         44.0004
 -16744367.26648 -13035367.53047  22229623.6884   22229629.7944   22229624.063
        48.0004         44.0004
 -14686309.03448 -11431346.93747  20718205.0634   20718210.5184   20718205.148
        52.0004         47.0004
  -1364502.04147   -994536.03846  24238836.2924   24238844.6324   24238835.871
        42.0004         38.0004
 -12330014.54148  -9600988.83747  21988048.5354   21988051.9124   21988049.257
        49.0004         45.0004
  -8429281.38147  -6524684.43246  23669025.3874   23669033.9944   23669025.937
        45.0004         41.0004
 -27798849.21449 -21416040.12948  20296281.9854   20296287.6534   20296281.639
        54.0004         49.0004
  -1376729.39446  -1035098.81046  25410777.2294   25410785.5544   25410777.520
        40.0004         36.0004
 -10384153.33847  -8080384.10147  22610491.8004   22610497.2004   22610491.125
        47.0004         43.0004
 14  5 27  0 27 30.0000000  0  9G28G10G08G26G02G17G04G05G07
 -11140116.10648  -8681844.01147  22074456.5714   22074462.7434   22074456.639
        49.0004         44.0004
 -16815792.44348 -13091023.44547  22216032.3204   22216037.6774   22216032.307
        48.0004         44.0004
 -14615116.55048 -11375872.23447  20731752.4514   20731757.6614   20731752.763
        52.0004         47.0004
  -1348615.94847   -982157.15146  24241859.0814   24241867.5794   24241859.200
        42.0004         37.0004
 -12378566.60548  -9638821.54047  21978808.9614   21978812.8104   21978808.855
        50.0004         45.0004
  -8400403.31747  -6502182.04246  23674521.0124   23674530.7734   23674520.795
        45.0004         41.0004
 -27797606.63749 -21415071.86848  20296518.6324   20296524.0934   20296518.230
        54.0004         49.0004
  -1457716.24146  -1098205.12346  25395365.8804   25395375.4534   25395365.353
        41.0004         36.0004
 -10283296.36547  -8001794.20647  22629684.5594   22629688.5264   22629683.673
        47.0004         43.0004
 14  5 27  0 28  0.0000000  0  9G28G10G08G26G02G17G04G05G07
 -11195945.53848  -8725347.37847  22063831.8414   22063838.4264   22063832.739
        49.0004         44.0004
 -16887167.17248 -13146640.04147  22202449.6494   22202454.6334   22202450.002
        48.0004         44.0004
 -14543440.53948 -11320020.75947  20745391.3054   20745397.6804   20745392.167
        52.0004         47.0004
  -1332681.37747   -969740.47246  24244891.6124   24244901.2984   24244891.541
        42.0004         38.0004
 -12426688.84048  -9676319.31947  21969651.4814   21969655.5314   21969652.090
        50.0004         45.0004
  -8371728.44347  -6479837.96346  23679978.7184   23679987.9844   23679977.509
        45.0004         41.0004
 -27795816.44949 -21413676.90148  20296859.3584   20296865.1564   20296859.081
        54.0004         49.0004
  -1538914.93546  -1161476.52746  25379916.1044   25379924.3574   25379913.878
        41.0004         36.0004
 -10182271.20447  -7923073.25747  22648908.7204   22648913.0024   22648907.613
        47.0004         42.0004
 14  5 27  0 28 30.0000000  0  9G28G10G08G26G02G17G04G05G07
 -11251638.36948  -8768744.29647  22053234.4704   22053240.0954   22053234.633
        49.0004         44.0004
 -16958492.47548 -13202218.13347  22188876.4854   22188881.9934   22188876.790
        48.0004         44.0004
 -14471288.07948 -11263798.02747  20759121.8034   20759127.4404   20759122.262
        52.0004         47.0004
  -1316704.32647   -957290.69446  24247931.5284   24247940.6854   24247930.983
        42.0004         38.0004
 -12474384.20248  -9713484.47947  21960575.2294   21960579.3814   21960576.124
        50.0004         45.0004
  -8343261.57047  -6457655.97846  23685395.3154   23685404.2454   23685394.318
        45.0004         40.0004
 -27793483.05549 -21411858.65948  20297303.0604   20297308.8364   20297302.823
        54.0004         49.0004
  -1620327.83646  -1224914.84546  25364422.9904   25364430.2884   25364421.441
        41.0004         36.0004
 -10081084.66547  -7844226.56547  22668163.4484   22668168.5314   22668162.983
        47.0004         42.0004
 14  5 27  0 29  0.0000000  0  9G28G10G08G26G02G17G04G05G07
 -11307187.60748  -8812029.32447  22042663.4104   22042669.1944   22042663.510
        49.0004         44.0004
 -17029761.69048 -13257752.52247  22175314.1004   22175319.3184   22175315.191
        48.0004         44.0004
 -14398658.17048 -11207203.25547  20772943.3114   20772948.5094   20772943.300
        52.0004         47.0004
  -1300683.17647   -944806.54746  24250981.4434   24250986.9434   24250980.617
        42.0004         38.0004
 -12521647.83248  -9750313.22547  21951581.6304   21951585.2104   21951581.771
        50.0004         45.0004
  -8314999.31747  -6435633.43746  23690771.1914   23690783.3964   23690772.124
        45.0004         40.0004
 -27790603.28048 -21409614.66048  20297851.8154   20297856.8814   20297850.936
        53.0004         49.0004
  -1701949.91046  -1288516.15646  25348889.1354   25348897.9424   25348888.670
        41.0004         37.0004
  -9979735.67247  -7765253.27847  22687449.3434   22687453.7014   22687449.432
        47.0004         42.0004
 14  5 27  0 29 30.0000000  0  9G28G10G08G26G02G17G04G05G07
 -11362592.81148  -8855202.11647  22032119.6064   22032127.2484   22032120.272
        49.0004         44.0004
 -17100974.70948 -13313243.13147  22161762.7944   22161768.5934   22161763.839
        49.0004         44.0004
 -14325556.27748 -11150240.70147  20786853.7024   20786859.7424   20786854.251
        52.0004         47.0004
  -1284622.70547   -932291.78046  24254036.4914   24254044.7054   24254036.488
        42.0004         38.0004
 -12568481.39848  -9786806.84647  21942669.4484   21942672.4034   21942669.466
        50.0004         45.0004
  -8286945.38147  -6413773.21346  23696110.6264   23696121.5644   23696110.748
        45.0004         40.0004
 -27787180.29848 -21406947.38548  20298502.3954   20298508.2764   20298502.239
        53.0004         49.0004
  -1783782.71146  -1352281.67146  25333315.8634   25333324.1534   25333316.234
        41.0004         36.0004
  -9878229.86847  -7686157.80947  22706764.8334   22706770.1384   22706764.788
        47.0004         42.0004
 14  5 27  0 30  0.0000000  0  9G28G10G08G26G02G17G04G05G07
 -11417849.56648  -8898259.23547  22021605.2794   22021611.4484   22021605.519
        49.0004         44.0004
 -17172127.07048 -13368686.46347  22148222.6884   22148228.7874   22148223.655
        49.0004         44.0004
 -14251983.95648 -11092911.58447  20800854.0454   20800859.7724   20800854.341
        51.0004         47.0004
  -1268523.40547   -919746.73746  24257100.1454   24257108.1224   24257100.080
        43.0004         38.0004
 -12614882.39948  -9822963.41747  21933839.5554   21933843.1784   21933839.958
        50.0004         45.0004
  -8259098.80147  -6392074.56846  23701410.7254   23701420.1024   23701410.089
        45.0004         40.0004
 -27783213.38948 -21403856.27348  20299256.9714   20299263.2234   20299257.035
        53.0004         49.0004
  -1865822.85546  -1416208.74646  25317706.2224   25317712.6384   25317703.502
        41.0004         36.0004
  -9776568.80747  -7606941.35447  22726110.6834   22726115.0504   22726110.174
        47.0004         42.0004
 14  5 27  0 30 30.0000000  0 10G28G10G08G26G02G09G17G04G05G07
 -11472956.73448  -8941199.79347  22011118.6264   22011125.1974   22011118.496
        49.0004         45.0004
 -17243218.11248 -13424082.02047  22134695.4064   22134700.9774   22134695.449
        49.0004         44.0004
 -14177946.09848 -11035219.70747  20814942.6984   20814948.4344   20814943.303
        51.0004         47.0004
  -1252389.55747   -907174.80846  24260170.7714   24260176.9464   24260170.077
        42.0004         38.0004
 -12660851.77048  -9858783.64747  21925091.8334   21925095.0954   21925091.713
        50.0004         45.0004
    -95463.28748    -82209.49848  20709743.5954   20709748.8594   20709743.880
        53.0004         49.0004
  -8231462.77547  -6370539.98946  23706669.7144   23706678.9814   23706669.003
        45.0004         41.0004
 -27778705.31148 -21400343.47248  20300114.9954   20300120.8964   20300114.784
        53.0004         49.0004
  -1948071.48146  -1480298.29646  25302054.1484   25302060.2814   25302053.397
        41.0004         36.0004
  -9674757.34547  -7527607.70047  22745484.2694   22745489.7064   22745483.966
        47.0004         42.0004
 14  5 27  0 31  0.0000000  0 10G28G10G08G26G02G09G17G04G05G07
 -11527910.56548  -8984020.86547  22000660.4014   22000667.0034   22000661.217
        49.0004         44.0004
 -17314244.41048 -13479427.12347  22121178.9854   22121184.4424   22121179.745
        49.0004         44.0004
 -14103444.63248 -10977166.58147  20829120.3314   20829125.2964   20829120.491
        51.0004         47.0004
  -1236222.51347   -894576.96346  24263246.9354   24263256.1254   24263246.812
        42.0004         38.0004
 -12706388.06748  -9894266.42647  21916427.2434   21916429.8154   21916426.686
        50.0004         45.0004
    -32729.04448    -33325.62848  20721681.8824   20721687.0434   20721681.851
        53.0004         49.0004
  -8204037.14947  -6349169.34846  23711888.8514   23711897.7734   23711888.118
        45.0004         41.0004
 -27773656.16848 -21396409.06048  20301076.0404   20301081.8044   20301075.756
        53.0004         49.0004
  -2030526.41746  -1544548.63346  25286362.0604   25286369.5674   25286362.295
        41.0004         36.0004
  -9572797.54147  -7448158.46947  22764887.1414   22764891.2194   22764887.268
        47.0004         42.0004
 14  5 27  0 31 30.0000000  0 10G28G10G08G26G02G09G17G04G05G07
 -11582706.53848  -9026718.94047  21990233.5404   21990239.6284   21990234.085
        49.0004         45.0004
 -17385201.84748 -13534718.57247  22107676.1154   22107681.3314   22107676.667
        49.0004         44.0004
 -14028481.44348 -10918753.66847  20843385.3204   20843390.3784   20843385.415
        51.0004         47.0004
  -1220022.92447   -881953.78646  24266328.9274   24266336.6804   24266328.786
        42.0004         38.0004
 -12751489.14948  -9929410.06247  21907843.8284   21907847.1504   21907844.272
        50.0004         45.0004
     30415.99048     15878.33448  20733697.8524   20733703.2694   20733698.086
        53.0004         49.0004
  -8176821.35347  -6327962.22446  23717067.4114   23717076.3784   23717067.113
        46.0004         41.0004
 -27768065.11548 -21392052.38548  20302140.0664   20302145.5764   20302139.604
        53.0004         49.0004
  -2113184.85146  -1608957.51746  25270631.7974   25270639.8184   25270633.478
        41.0004         36.0004
  -9470691.05747  -7368594.93547  22784317.0324   22784320.5564   22784317.178
        47.0004         42.0004
 14  5 27  0 32  0.0000000  0 10G28G10G08G26G02G09G17G04G05G07
 -11637344.18548  -9069293.63547  21979836.7984   21979843.4394   21979836.771
        49.0004         45.0004
 -17456090.13348 -13589956.13647  22094186.2404   22094191.8004   22094187.188
        49.0004         44.0004
 -13953062.05648 -10859985.27747  20857736.8094   20857742.4664   20857737.195
        51.0004         47.0004
  -1203795.62647   -869309.01546  24269417.0294   24269423.1124   24269416.690
        42.0004         37.0004
 -12796156.41148  -9964215.66247  21899343.7914   21899347.9054   21899344.626
        50.0004         45.0004
     93966.54948     65398.29448  20745791.3564   20745796.0674   20745791.303
        53.0004         49.0004
  -8149818.66647  -6306921.15046  23722205.6354   23722215.4584   23722205.206
        46.0004         41.0004
 -27761935.48248 -21387276.03048  20303306.2824   20303311.9144   20303306.116
        53.0004         49.0004
  -2196048.38746  -1673526.21045  25254863.4914   25254872.4614   25254865.006
        40.0004         35.0004
  -9368443.18647  -7288921.22747  22803774.8074   22803778.5724   22803773.792
        47.0004         42.0004
 14  5 27  0 32 30.0000000  0 10G28G10G08G26G02G09G17G04G05G07
 -11691816.59848  -9111739.57847  21969470.4644   21969475.5864   21969470.706
        49.0004         44.0004
 -17526902.52948 -13645134.55947  22080711.4354   22080717.3924   22080711.903
        49.0004         44.0004
 -13877185.43348 -10800860.60247  20872175.6384   20872180.8624   20872176.172
        51.0004         46.0004
  -1187538.58047   -856641.05946  24272510.5774   24272517.9414   24272510.587
        42.0004         38.0004
 -12840385.05548  -9998679.48447  21890927.5554   21890931.4584   21890927.771
        50.0004         45.0004
    157924.03448    115235.33648  20757961.9044   20757966.7144   20757961.847
        53.0004         49.0004
  -8123025.82347  -6286043.60146  23727304.3284   23727313.9254   23727304.086
        46.0004         41.0004
 -27755264.24148 -21382077.64848  20304576.2464   20304581.8584   20304575.837
        53.0004         49.0004
  -2279110.98646  -1738250.02846  25239058.7454   25239064.5144   25239058.732
        40.0004         36.0004
  -9266052.86747  -7209136.52647  22823258.5404   22823262.8584   22823258.145
        46.0004         42.0004
 14  5 27  0 33  0.0000000  0 10G28G10G08G26G02G09G17G04G05G07
 -11746126.73448  -9154059.07547  21959135.2394   21959142.5134   21959135.911
        49.0004         45.0004
 -17597642.39148 -13700256.47047  22067250.4144   22067255.8584   22067250.772
        49.0004         44.0004
 -13800861.21448 -10741387.15047  20886699.9534   20886704.5544   20886699.977
        51.0004         46.0004
  -1171260.49047   -843956.70446  24275607.2954   24275614.9344   24275607.984
        42.0004         38.0004
 -12884180.88148 -10032806.04547  21882593.1534   21882597.0244   21882593.874
        50.0004         45.0004
    222278.89348    165382.02148  20770207.8734   20770213.0254   20770208.266
        53.0004         49.0004
  -8096449.97447  -6265335.13446  23732362.2664   23732371.2334   23732360.989
        46.0004         41.0004
 -27748058.57548 -21376462.82948  20305946.7824   20305952.9734   20305946.495
        53.0004         49.0004
  -2362377.74746  -1803132.95546  25223213.7424   25223221.1134   25223213.478
        41.0004         36.0004
  -9163529.47047  -7129248.13947  22842768.6864   22842772.5074   22842768.254
        46.0004         42.0004
 14  5 27  0 33 30.0000000  0 10G28G10G08G26G02G09G17G04G05G07
 -11800266.94748  -9196246.16447  21948833.0974   21948839.4174   21948833.171
        49.0004         45.0004
 -17668302.04448 -13755315.88047  22053803.6184   22053809.7664   22053804.290
        49.0004         44.0004
 -13724087.48548 -10681563.42847  20901309.2564   20901315.0154   20901309.679
        51.0004         46.0004
  -1154958.56847   -831253.77946  24278710.2344   24278718.4754   24278709.723
        42.0004         38.0004
 -12927538.36748 -10066591.03947  21874343.0894   21874346.1244   21874342.674
        50.0004         45.0004
    287033.55548    215840.23748  20782530.7604   20782535.5964   20782530.501
        53.0004         49.0004
  -8070087.26747  -6244792.74446  23737378.7444   23737388.0184   23737377.715
        46.0004         41.0004
 -27740314.70348 -21370428.63448  20307420.7614   20307426.4404   20307420.431
        53.0004         49.0004
  -2445842.49946  -1868170.15945  25207329.7294   25207335.9374   25207330.113
        40.0004         35.0004
  -9060870.89747  -7049254.40347  22862303.6334   22862307.0774   22862303.059
        46.0004         42.0004
 14  5 27  0 34  0.0000000  0 10G28G10G08G26G02G09G17G04G05G07
 -11854236.15048  -9238299.99447  21938562.7404   21938569.4114   21938562.642
        49.0004         45.0004
 -17738880.79048 -13810312.24847  22040372.8114   22040379.1984   22040373.788
        49.0004         44.0004
 -13646869.22148 -10621393.31847  20916003.2514   20916009.0544   20916003.543
        51.0004         46.0004
  -1138636.97647   -818535.51246  24281814.8224   24281823.4654   24281815.959
        42.0004         38.0004
 -12970458.36048 -10100035.13647  21866175.3524   21866178.7164   21866175.575
        50.0004         46.0004
    352183.10948    266606.16948  20794928.0044   20794933.0634   20794927.944
        53.0004         49.0004
  -8043939.86747  -6224418.13046  23742354.4214   23742364.5314   23742353.468
        46.0004         41.0004
 -27732035.43948 -21363977.24948  20308996.0254   20309001.7234   20308995.690
        53.0004         49.0004
  -2529505.98346  -1933362.21445  25191410.0504   25191415.5814   25191409.026
        40.0004         35.0004
  -8958082.15647  -6969159.22947  22881863.9974   22881867.3844   22881862.455
        46.0004         42.0004
 14  5 27  0 34 30.0000000  0 10G28G10G08G26G02G09G17G04G05G07
 -11908032.28048  -9280218.97247  21928324.6764   21928331.7194   21928325.917
        49.0004         45.0004
 -17809376.79648 -13865244.14747  22026958.1834   22026963.4114   22026958.918
        49.0004         45.0004
 -13569210.37848 -10560879.89947  20930781.5344   20930786.7314   20930781.836
        51.0004         46.0004
  -1122298.76947   -805804.31546  24284923.8334   24284932.8384   24284923.944
        42.0004         38.0004
 -13012941.06848 -10133138.49147  21858091.2284   21858093.8854   21858091.402
        50.0004         45.0004
    417723.77248    317676.85648  20807399.9504   20807405.2754   20807400.024
        53.0004         49.0004
  -8018009.90547  -6204212.95146  23747288.4504   23747297.9334   23747287.703
        46.0004         41.0004
 -27723222.59148 -21357110.08248  20310673.0764   20310679.0384   20310672.724
        53.0004         49.0004
  -2613367.47546  -1998708.54846  25175450.8934   25175457.3404   25175450.677
        40.0004         36.0004
  -8855167.08147  -6888965.62747  22901446.8804   22901451.8354   22901446.704
        46.0004         42.0004
 14  5 27  0 35  0.0000000  0 10G28G10G08G26G02G09G17G04G05G07
 -11961649.76048  -9321998.73947  21918122.8574   21918129.5354   21918123.015
        49.0004         45.0004
 -17879784.77848 -13920107.45147  22013560.2244   22013564.9674   22013560.716
        49.0004         45.0004
 -13491111.76848 -10500023.80747  20945643.1594   20945648.2354   20945643.491
        51.0004         46.0004
  -1105943.66847   -793059.94346  24288037.5824   24288043.9244   24288036.701
        42.0004         38.0004
 -13054983.40948 -10165898.70547  21850090.5174   21850093.7634   21850091.128
        50.0004         45.0004
    483655.07348    369051.94148  20819946.4304   20819950.9594   20819946.128
        53.0004         49.0004
  -7992295.89747  -6184176.04946  23752181.2854   23752191.7104   23752181.029
        46.0004         41.0004
 -27713874.72748 -21349826.02448  20312451.9994   20312457.4754   20312451.677
        53.0004         49.0004
  -2697423.19746  -2064206.26946  25159452.3434   25159461.5524   25159454.740
        41.0004         36.0004
  -8752126.13447  -6808673.94947  22921055.3944   22921059.1354   22921055.072
        46.0004         42.0004
 14  5 27  0 35 30.0000000  0 10G28G10G08G26G02G09G17G04G05G07
 -12015085.98748  -9363637.26947  21907954.8324   21907959.9714   21907954.066
        49.0004         45.0004
 -17950102.16648 -13974900.16047  22000179.3114   22000184.4884   22000179.401
        49.0004         45.0004
 -13412576.90248 -10438827.76447  20960587.7734   20960593.2894   20960587.710
        51.0004         46.0004
  -1089574.16947   -780304.36546  24291151.8324   24291158.2684   24291151.894
        42.0004         38.0004
 -13096585.11748 -10198315.56447  21842173.7144   21842177.0844   21842174.319
        50.0004         46.0004
    549973.79448    420728.90948  20832566.2524   20832571.0004   20832566.350
        53.0004         49.0004
  -7966798.37247  -6164307.83846  23757032.9454   23757042.8924   23757032.399
        46.0004         41.0004
 -27703993.18848 -21342126.11448  20314332.1954   20314337.7754   20314332.089
        53.0004         49.0004
  -2781672.17446  -2129854.59346  25143422.0574   25143430.2484   25143422.752
        41.0004         36.0004
  -8648962.75447  -6728286.86446  22940686.3334   22940691.7864   22940686.493
        46.0004         41.0004
 14  5 27  0 36  0.0000000  0 10G28G10G08G26G02G09G17G04G05G07
 -12068340.12648  -9405133.91047  21897820.6234   21897825.6874   21897820.251
        49.0004         45.0004
 -18020328.57448 -14029621.96947  21986816.2594   21986820.3924   21986816.332
        49.0004         45.0004
 -13333610.92948 -10377295.79847  20975614.3294   20975619.2754   20975614.600
        51.0004         46.0004
  -1073194.77547   -767541.06946  24294268.0594   24294276.4144   24294267.793
        42.0004         38.0004
 -13137748.18048 -10230390.62347  21834340.5924   21834344.4714   21834341.181
        50.0004         45.0004
    616674.67648    472703.66848  20845259.1784   20845263.9024   20845259.049
        53.0004         48.0004
  -7941520.67047  -6144610.92346  23761843.6904   23761853.0404   23761843.371
        46.0004         41.0004
 -27693581.60348 -21334013.18348  20316313.6404   20316318.9564   20316313.431
        53.0004         49.0004
  -2866115.21046  -2195654.10145  25127354.7244   25127360.6694   25127353.047
        40.0004         35.0004
  -8545681.85747  -6647808.19946  22960340.4124   22960343.4474   22960339.916
        46.0004         41.0004
 14  5 27  0 36 30.0000000  0 10G28G10G08G26G02G09G17G04G05G07
 -12121408.50048  -9446485.79847  21887721.2404   21887726.9464   21887721.180
        49.0004         45.0004
 -18090459.91648 -14084269.70947  21973470.0584   21973474.9694   21973469.963
        49.0004         45.0004
 -13254216.17948 -10315429.71947  20990722.8824   20990728.0334   20990722.700
        51.0004         46.0004
  -1056806.59747   -754770.93846  24297386.3454   24297394.3324   24297387.435
        43.0004         38.0004
 -13178470.53648 -10262122.28247  21826591.1674   21826594.8404   21826592.233
        50.0004         46.0004
    683755.90648    524974.80148  20858024.2144   20858028.6714   20858024.285
        53.0004         48.0004
  -7916462.52447  -6125085.08046  23766611.5614   23766621.8244   23766611.487
        46.0004         41.0004
 -27682639.69248 -21325487.01248  20318395.7324   20318401.1604   20318395.660
        53.0004         49.0004
  -2950750.02046  -2261603.06345  25111245.6554   25111255.4014   25111246.615
        40.0004         35.0004
  -8442285.50747  -6567239.57447  22980016.1224   22980020.3514   22980015.623
        46.0004         42.0004
 14  5 27  0 37  0.0000000  0 10G28G10G08G26G02G09G17G04G05G07
 -12174287.57948  -9487690.19647  21877658.4824   21877665.0444   21877658.987
        49.0004         45.0004
 -18160493.35248 -14138841.15847  21960142.6954   21960148.0524   21960143.369
        49.0004         45.0004
 -13174395.51648 -10253231.76947  21005911.7054   21005917.4344   21005912.082
        51.0004         46.0004
  -1040411.58347   -741995.48646  24300507.0974   24300514.3814   24300506.325
        43.0004         38.0004
 -13218751.36448 -10293509.89147  21818926.9644   21818929.8774   21818926.737
        50.0004         46.0004
    751214.87948    577540.27548  20870861.2104   20870866.2374   20870861.093
        53.0004         48.0004
  -7891624.13947  -6105730.47046  23771338.2844   23771348.6884   23771338.155
        45.0004         41.0004
 -27671168.57348 -21316548.47048  20320578.8474   20320584.1714   20320578.535
        53.0004         49.0004
  -3035575.20746  -2327700.36446  25095106.3484   25095112.4684   25095104.984
        40.0004         36.0004
  -8338776.44547  -6486583.11646  22999713.3084   22999716.5604   22999712.596
        46.0004         41.0004
 14  5 27  0 37 30.0000000  0 10G28G10G08G26G02G09G17G04G05G07
 -12226973.92748  -9528744.39547  21867632.7914   21867638.7054   21867632.958
        49.0004         45.0004
 -18230425.82848 -14193333.94847  21946835.0304   21946842.0454   21946835.659
        49.0004         45.0004
 -13094151.66348 -10190704.05147  21021181.5914   21021187.0164   21021182.317
        51.0004         46.0004
  -1024011.50847   -729216.05646  24303628.0164   24303636.1724   24303628.169
        43.0004         38.0004
 -13258589.70748 -10324552.70347  21811344.8724   21811348.6944   21811345.605
        50.0004         46.0004
    819048.87948    630397.98048  20883769.2384   20883773.9324   20883769.471
        53.0004         48.0004
  -7867005.68647  -6086547.25846  23776023.0574   23776033.7794   23776022.537
        45.0004         40.0004
 -27659168.73949 -21307197.94348  20322862.3584   20322867.9414   20322861.870
        54.0004         49.0004
  -3120588.45046  -2393944.21746  25078928.3274   25078935.7984   25078928.071
        41.0004         36.0004
  -8235156.95047  -6405840.61546  23019430.6974   23019435.3644   23019430.820
        46.0004         41.0004
 14  5 27  0 38  0.0000000  0 10G28G10G08G26G02G09G17G04G05G07
 -12279464.28248  -9569645.87747  21857644.3694   21857650.1064   21857644.476
        49.0004         45.0004
 -18300254.15848 -14247745.57447  21933547.1144   21933552.8024   21933547.354
        49.0004         45.0004
 -13013487.90048 -10127849.13347  21036532.0694   21036537.0394   21036532.119
        51.0004         46.0004
  -1007608.34047   -716434.24646  24306749.0284   24306757.3934   24306748.311
        42.0004         38.0004
 -13297984.96448 -10355250.25647  21803849.1954   21803852.4664   21803848.996
        50.0004         46.0004
    887255.13548    683545.75348  20896748.6654   20896753.7514   20896748.576
        53.0004         48.0004
  -7842608.02947  -6067536.09646  23780666.0174   23780675.2744   23780665.680
        45.0004         41.0004
 -27646641.41749 -21297436.38648  20325246.1684   20325251.7654   20325245.817
        54.0004         49.0004
  -3205788.05846  -2460333.27446  25062715.0754   25062720.6164   25062715.326
        41.0004         36.0004
  -8131430.10147  -6325014.47746  23039169.7074   23039173.2844   23039169.319
        46.0004         41.0004
 14  5 27  0 38 30.0000000  0 10G28G10G08G26G02G09G17G04G05G07
 -12331757.86148  -9610394.03347  21847692.9804   21847699.1114   21847693.128
        49.0004         45.0004
 -18369977.46948 -14302075.36847  21920278.5304   21920284.6804   21920279.335
        49.0004         45.0004
 -12932409.42648 -10064671.06047  21051960.5714   21051966.1574   21051960.570
        51.0004         46.0004
   -991206.20247   -703653.23546  24309869.9554   24309877.7074   24309869.724
        42.0004         38.0004
 -13336938.52148 -10385603.62147  21796436.1284   21796439.4994   21796436.220
        50.0004         46.0004
    955828.66448    736979.71248  20909797.9304   20909802.4254   20909797.898
        53.0004         48.0004
  -7818433.90047  -6048699.11246  23785266.2854   23785275.5674   23785265.416
        45.0004         41.0004
 -27633589.67449 -21287266.19048  20327729.6654   20327735.6494   20327729.372
        54.0004         49.0004
  -3291174.41546  -2526867.85346  25046466.4184   25046474.1064   25046466.780
        41.0004         36.0004
  -8027600.76447  -6244108.44046  23058927.3674   23058931.4994   23058926.758
        46.0004         41.0004
 14  5 27  0 39  0.0000000  0 10G28G10G08G26G02G09G17G04G05G07
 -12383849.49248  -9650984.82547  21837780.2614   21837786.2054   21837780.448
        50.0004         45.0004
 -18439591.02548 -14356319.64147  21907031.3094   21907037.0154   21907032.642
        49.0004         45.0004
 -12850917.51648 -10001170.83947  21067467.7964   21067473.1344   21067467.984
        51.0004         46.0004
   -974805.33247   -690873.20546  24312990.6884   24312998.5944   24312991.167
        42.0004         38.0004
 -13375447.87348 -10415610.87347  21789107.2534   21789111.0424   21789108.159
        50.0004         46.0004
   1024768.62448    790699.20048  20922916.2314   20922921.6134   20922916.350
        53.0004         48.0004
  -7794481.83447  -6030035.16546  23789824.0424   23789833.4064   23789823.730
        46.0004         41.0004
 -27620012.81749 -21276686.81448  20330313.4364   20330318.9144   20330313.033
        54.0004         49.0004
  -3376744.82246  -2593545.85746  25030183.5494   25030188.9704   25030182.734
        41.0004         36.0004
  -7923669.59447  -6163123.07046  23078704.2334   23078709.5724   23078704.061
        46.0004         41.0004
 14  5 27  0 39 30.0000000  0 10G28G10G08G26G02G09G17G04G05G07
 -12435736.47148  -9691416.14747  21827905.9504   21827912.3344   21827906.605
        50.0004         45.0004
 -18509092.02348 -14410476.21147  21893806.2894   21893811.6284   21893806.436
        49.0004         45.0004
 -12769015.24848  -9937350.85047  21083052.9884   21083058.5774   21083053.614
        50.0004         46.0004
   -958407.85147   -678095.82146  24316111.4754   24316117.5554   24316111.074
        42.0004         37.0004
 -13413512.47448 -10445271.55547  21781864.2764   21781867.7334   21781864.539
        50.0004         46.0004
   1094072.08048    844701.92948  20936104.7964   20936109.5534   20936104.595
        53.0004         48.0004
  -7770752.33547  -6011544.63046  23794340.1934   23794349.1564   23794339.568
        46.0004         41.0004
 -27605912.06749 -21265699.21548  20332996.4204   20333002.2204   20332996.404
        54.0004         49.0004
  -3462497.65446  -2660366.01146  25013865.8674   25013873.3964   25013864.374
        41.0004         36.0004
  -7819639.78047  -6082060.83546  23098501.7084   23098504.7644   23098500.312
        46.0004         41.0004
 14  5 27  0 40  0.0000000  0 10G28G10G08G26G02G09G17G04G05G07
 -12487418.15048  -9731687.48947  21818071.5294   21818077.6024   21818071.945
        50.0004         45.0004
 -18578480.51448 -14464545.12047  21880602.3494   21880607.4354   21880602.684
        49.0004         45.0004
 -12686708.83648  -9873215.95147  21098715.3134   21098720.7394   21098715.575
        50.0004         46.0004
   -942018.72047   -665324.91546  24319229.0344   24319236.8274   24319229.183
        42.0004         37.0004
 -13451134.76948 -10474587.58347  21774705.2154   21774707.6344   21774705.380
        50.0004         46.0004
   1163733.24948    898983.40348  20949360.8804   20949365.3544   20949360.652
        53.0004         48.0004
  -7747249.20147  -5993230.49946  23798812.1934   23798821.3894   23798811.648
        46.0004         41.0004
 -27591291.54849 -21254306.60148  20335778.8184   20335784.0024   20335778.549
        54.0004         49.0004
  -3548433.84346  -2727329.04246  24997511.7144   24997520.0444   24997511.485
        41.0004         37.0004
  -7715516.70547  -6000925.95046  23118315.7604   23118320.0064   23118314.583
        46.0004         41.0004
 14  5 27  0 40 30.0000000  0 10G28G10G08G26G02G09G17G04G05G07
 -12538889.31648  -9771794.80147  21808276.1144   21808282.7344   21808276.956
        50.0004         45.0004
 -18647751.03248 -14518522.09147  21867420.0244   21867425.7834   21867420.714
        49.0004         45.0004
 -12603999.15548  -9808766.80747  21114454.2854   21114459.5074   21114454.426
        50.0004         46.0004
   -925637.65747   -652560.32446  24322346.5104   24322354.9764   24322346.810
        42.0004         37.0004
 -13488311.74848 -10503556.60647  21767630.5004   21767633.5644   21767630.727
        50.0004         46.0004
   1233751.43648    953543.06948  20962684.6684   20962689.4604   20962684.532
        53.0004         48.0004
  -7723970.29347  -5975091.07546  23803241.8934   23803251.5334   23803241.070
        45.0004         41.0004
 -27576149.93149 -21242507.93148  20338660.2514   20338665.6994   20338659.827
        54.0004         49.0004
  -3634549.35046  -2794431.79846  24981125.0674   24981129.6904   24981123.698
        41.0004         37.0004
  -7611300.95647  -5919718.82646  23138147.6074   23138151.4364   23138146.263
        46.0004         41.0004
 14  5 27  0 41  0.0000000  0 10G28G10G08G26G02G09G17G04G05G07
 -12590146.02648  -9811735.00347  21798522.4194   21798529.3994   21798523.257
        50.0004         45.0004
 -18716899.50348 -14572403.97147  21854261.8774   21854267.4234   21854261.954
        49.0004         45.0004
 -12520888.45148  -9744005.18547  21130270.4364   21130274.7444   21130270.233
        50.0004         46.0004
   -909265.70147   -639802.82346  24325462.4764   24325469.2644   24325463.042
        42.0004         38.0004
 -13525042.21248 -10532177.69847  21760641.4324   21760644.1534   21760641.403
        50.0004         46.0004
   1304124.78848   1008379.48948  20976076.0524   20976080.8024   20976075.919
        53.0004         48.0004
  -7700915.33447  -5957126.15646  23807628.4824   23807637.8264   23807628.231
        45.0004         41.0004
 -27560487.56849 -21230303.49248  20341640.8714   20341646.5034   20341640.548
        54.0004         49.0004
  -3720841.74946  -2861672.39046  24964703.8664   24964709.1064   24964701.761
        41.0004         37.0004
  -7506994.65847  -5838441.15546  23157996.4094   23157999.8374   23157995.326
        46.0004         41.0004
 14  5 27  0 41 30.0000000  0 10G28G10G08G26G02G09G17G04G05G07
 -12641188.47648  -9851508.23647  21788808.9074   21788815.0534   21788809.663
        50.0004         45.0004
 -18785926.33548 -14626191.06547  21841125.7624   21841131.7964   21841126.849
        49.0004         45.0004
 -12437382.72548  -9678935.75247  21146160.4254   21146165.6414   21146160.761
        50.0004         46.0004
   -892908.43047   -627056.76146  24328574.9144   24328581.9584   24328574.775
        42.0004         38.0004
 -13561328.73248 -10560452.86647  21753734.9434   21753738.5524   21753735.924
        50.0004         46.0004
   1374846.98348   1063487.73348  20989534.2304   20989539.0654   20989534.309
        53.0004         48.0004
  -7678088.14447  -5939338.72946  23811973.1004   23811982.5004   23811972.593
        45.0004         41.0004
 -27544309.16849 -21217696.94848  20344719.3824   20344724.6914   20344718.886
        54.0004         49.0004
  -3807312.94746  -2929052.31046  24948246.3114   24948254.9204   24948246.876
        41.0004         36.0004
  -7402603.41447  -5757097.29546  23177859.5374   23177864.4494   23177860.216
        45.0004         41.0004
 14  5 27  0 42  0.0000000  0 10G28G10G08G26G02G09G17G04G05G07
 -12692012.68448  -9891111.42747  21779138.7984   21779143.8144   21779138.802
        50.0004         45.0004
 -18854827.88648 -14679880.53147  21828014.3724   21828020.4734   21828015.283
        49.0004         45.0004
 -12353484.34348  -9613560.34747  21162125.7074   21162130.7544   21162126.069
        50.0004         46.0004
   -876566.64247   -614322.75346  24331685.6174   24331692.1514   24331684.903
        43.0004         38.0004
 -13597169.70848 -10588380.86147  21746914.9054   21746918.9384   21746915.678
        50.0004         46.0004
   1445915.87848   1118866.13448  21003058.2494   21003062.8824   21003057.931
        53.0004         48.0004
  -7655488.18247  -5921728.36446  23816274.3434   23816282.4034   23816273.276
        45.0004         41.0004
 -27527614.95448 -21204688.46248  20347896.1024   20347901.8004   20347895.689
        53.0004         49.0004
  -3893959.89646  -2996569.17146  24931758.5904   24931764.7084   24931758.616
        41.0004         37.0004
  -7298129.29847  -5675688.85446  23197740.9634   23197744.6744   23197740.971
        45.0004         41.0004
 14  5 27  0 42 30.0000000  0 10G28G10G08G26G02G09G17G04G05G07
 -12742611.85148  -9930539.26447  21769509.1694   21769515.1574   21769509.376
        50.0004         45.0004
 -18923597.78048 -14733467.41447  21814928.8274   21814933.6304   21814929.085
        50.0004         45.0004
 -12269193.46348  -9547879.11147  21178165.6914   21178171.2664   21178166.299
        50.0004         46.0004
   -860239.13847   -601599.90046  24334792.0304   24334799.2764   24334791.827
        43.0004         38.0004
 -13632561.63848 -10615958.93847  21740180.0584   21740183.9404   21740180.636
        50.0004         46.0004
   1517332.06748   1174515.14748  21016647.9324   21016652.8824   21016648.271
        53.0004         48.0004
  -7633112.79647  -5904292.97946  23820531.6634   23820541.3474   23820530.944
        45.0004         41.0004
 -27510402.77848 -21191276.37948  20351171.5644   20351176.9834   20351171.127
        53.0004         49.0004
  -3980778.36246  -3064219.70946  24915237.6564   24915244.4304   24915237.738
        41.0004         37.0004
  -7193571.80747  -5594215.45146  23217638.6774   23217642.0834   23217637.653
        45.0004         41.0004
 14  5 27  0 43  0.0000000  0 10G28G10G08G26G02G09G17G04G05G07
 -12792988.69448  -9969793.86047  21759922.8894   21759928.6664   21759923.407
        50.0004         45.0004
 -18992238.83548 -14786953.90747  21801866.5004   21801871.6344   21801866.788
        50.0004         45.0004
 -12184518.97848  -9481898.95747  21194278.1304   21194283.9564   21194279.121
        50.0004         46.0004
   -843933.73247   -588894.23646  24337894.1284   24337901.5334   24337893.603
        43.0004         38.0004
 -13667509.74548 -10643191.19047  21733531.3364   21733533.9574   21733531.011
        50.0004         46.0004
   1589087.03848   1230428.15248  21030302.7444   21030307.2624   21030302.394
        53.0004         48.0004
  -7610967.96447  -5887037.24346  23824745.4914   23824755.2014   23824745.161
        46.0004         41.0004
 -27492679.81248 -21177466.27648  20354543.8534   20354549.5554   20354543.567
        53.0004         49.0004
  -4067771.92147  -3132006.68946  24898683.8754   24898688.1954   24898682.959
        42.0004         37.0004
  -7088939.43047  -5512683.68746  23237548.6124   23237553.8544   23237548.267
        45.0004         41.0004
 14  5 27  0 43 30.0000000  0 10G28G10G08G26G02G09G17G04G05G07
 -12843136.69948 -10008870.13947  21750379.3214   21750385.8414   21750380.320
        50.0004         45.0004
 -19060744.55048 -14840334.93647  21788829.4234   21788835.7904   21788830.439
        50.0004         45.0004
 -12099460.47348  -9415619.57147  21210464.2244   21210470.3494   21210465.351
        50.0004         46.0004
   -827648.80447   -576204.54446  24340993.7584   24340999.4644   24340993.439
        43.0004         38.0004
 -13702010.05948 -10670074.50347  21726964.7384   21726968.9614   21726964.989
        51.0004         46.0004
   1661181.26848   1286605.51248  21044021.3614   21044026.5004   21044021.632
        53.0004         48.0004
  -7589050.69747  -5869958.83146  23828915.6674   23828926.5774   23828915.715
        45.0004         41.0004
 -27474443.66848 -21163256.29748  20358014.2124   20358019.5964   20358013.952
        53.0004         49.0004
  -4154935.31047  -3199925.96146  24882096.1264   24882102.3444   24882096.926
        42.0004         37.0004
  -6984231.18047  -5431092.81346  23257474.0324   23257478.5264   23257473.735
        45.0004         41.0004
 14  5 27  0 44  0.0000000  0 10G28G10G08G26G02G09G17G04G05G07
 -12893053.51548 -10047766.28047  21740881.7944   21740887.4014   21740881.152
        50.0004         45.0004
 -19129112.49148 -14893608.60047  21775819.9914   21775825.6494   21775820.617
        50.0004         45.0004
 -12014021.93148  -9349044.04847  21226723.0514   21226728.4034   21226723.434
        50.0004         45.0004
   -811387.19447   -563533.02346  24344087.4764   24344094.7704   24344087.675
        43.0004         38.0004
 -13736062.90748 -10696609.14447  21720484.7064   21720487.6044   21720485.178
        51.0004         46.0004
   1733611.27248   1343044.52148  21057804.7304   21057809.1964   21057804.564
        53.0004         48.0004
  -7567361.90947  -5853058.45246  23833043.3274   23833052.7374   23833042.647
        45.0004         40.0004
 -27455696.50348 -21148648.11548  20361581.9484   20361587.2624   20361581.363
        53.0004         49.0004
  -4242267.57946  -3267976.85246  24865477.3634   24865483.5524   24865478.335
        41.0004         37.0004
  -6879450.58947  -5349445.56646  23277412.9614   23277417.5144   23277413.001
        45.0004         41.0004
 14  5 27  0 44 30.0000000  0 10G28G10G08G26G02G09G17G04G05G07
 -12942736.97148 -10086480.57947  21731426.8114   21731432.1204   21731426.660
        50.0004         45.0004
 -19197340.67248 -14946773.37647  21762836.3814   21762841.5054   21762837.240
        50.0004         45.0004
 -11928207.51548  -9282175.63047  21243053.0154   21243058.4434   21243053.226
        50.0004         45.0004
   -795151.79047   -550881.91146  24347176.2714   24347184.9854   24347176.204
        42.0004         38.0004
 -13769668.65048 -10722795.39947  21714090.1404   21714093.3824   21714090.376
        51.0004         46.0004
   1806373.18048   1399742.15548  21071650.5394   21071655.2764   21071650.616
        53.0004         48.0004
  -7545903.06247  -5836337.24946  23837126.0444   23837136.4444   23837126.142
        45.0004         40.0004
 -27436440.56848 -21133643.49048  20365245.8624   20365251.4454   20365245.547
        53.0004         49.0004
  -4329768.30347  -3336159.02246  24848826.3464   24848833.1574   24848827.086
        42.0004         37.0004
  -6774601.67447  -5267745.08346  23297366.1114   23297369.2284   23297364.411
        45.0004         40.0004
 14  5 27  0 45  0.0000000  0 10G28G10G08G26G02G09G17G04G05G07
 -12992191.00448 -10125016.11847  21722016.5254   21722021.4194   21722016.265
        50.0004         45.0004
 -19265432.94148 -14999832.24147  21749879.2524   21749884.5574   21749879.657
        50.0004         45.0004
 -11842027.29348  -9215022.17547  21259452.3724   21259458.4434   21259453.077
        50.0004         45.0004
   -778951.58147   -538258.22946  24350260.7164   24350266.7744   24350260.298
        42.0004         38.0004
 -13802834.04348 -10748638.52447  21707778.6014   21707782.0324   21707778.789
        51.0004         46.0004
   1879456.75548   1456690.43448  21085557.9964   21085563.6884   21085557.768
        53.0004         48.0004
  -7524681.89547  -5819801.25546  23841164.9474   23841174.3524   23841164.155
        45.0004         40.0004
 -27416684.37048 -21118249.05548  20369005.7184   20369011.1574   20369005.256
        53.0004         49.0004
  -4417442.39846  -3404476.31446  24832144.0604   24832149.1414   24832143.246
        41.0004         37.0004
  -6669693.81347  -5185998.65746  23317327.3904   23317332.2184   23317327.706
        45.0004         40.0004
 14  5 27  0 45 30.0000000  0 10G28G10G08G26G02G09G17G04G05G07
 -13041396.82148 -10163358.23147  21712651.4884   21712658.2434   21712652.155
        50.0004         45.0004
 -19333370.48448 -15052770.54247  21736951.1654   21736956.0564   21736951.410
        50.0004         45.0004
 -11755468.94248  -9147574.07647  21275923.8864   21275929.4294   21275924.574
        50.0004         45.0004
   -762772.85647   -525651.28446  24353337.5374   24353343.3544   24353336.298
        42.0004         38.0004
 -13835543.05048 -10774126.01947  21701554.1054   21701557.0914   21701554.410
        51.0004         46.0004
   1952875.11048   1513899.58048  21099529.2744   21099533.8374   21099529.047
        53.0004         48.0004
  -7503682.87847  -5803438.35946  23845161.3974   23845171.0304   23845160.582
        45.0004         41.0004
 -27396413.60748 -21102453.65448  20372862.6254   20372868.5194   20372862.450
        53.0004         49.0004
  -4505272.58246  -3472915.21146  24815429.8844   24815435.5304   24815429.583
        41.0004         37.0004
  -6564713.93847  -5104196.13346  23337305.3254   23337310.0254   23337305.148
        45.0004         40.0004
 14  5 27  0 46  0.0000000  0 10G28G10G08G26G02G09G17G04G05G07
 -13090360.53048 -10201511.69447  21703334.5164   21703340.1544   21703335.240
        50.0004         45.0004
 -19401159.80648 -15105593.34847  21724051.1344   21724056.5864   21724051.528
        50.0004         45.0004
 -11668544.74348  -9079840.90447  21292465.7524   21292470.6314   21292465.769
        50.0004         45.0004
   -746626.93647   -513069.89546  24356411.3414   24356417.5694   24356410.675
        42.0004         38.0004
 -13867804.59348 -10799264.84547  21695415.3294   21695418.1674   21695415.547
        51.0004         46.0004
   2026615.81648   1571359.91148  21113561.5214   21113566.1004   21113561.367
        53.0004         48.0004
  -7482915.61447  -5787256.06046  23849113.3144   23849123.1204   23849112.645
        45.0004         41.0004
 -27375639.00048 -21086265.65048  20376816.1964   20376821.6694   20376815.682
        53.0004         49.0004
  -4593266.18047  -3541481.46446  24798685.3494   24798689.4374   24798684.517
        42.0004         37.0004
  -6459673.99747  -5022346.80746  23357292.8514   23357297.7574   23357293.800
        45.0004         40.0004
 14  5 27  0 46 30.0000000  0 10G28G10G08G26G02G09G17G04G05G07
 -13139078.34448 -10239473.55447  21694064.1764   21694069.8154   21694063.692
        50.0004         45.0004
 -19468797.39648 -15158297.92547  21711179.6724   21711185.8044   21711180.229
        50.0004         46.0004
 -11581257.23348  -9011824.62847  21309075.1244   21309080.4514   21309075.702
        50.0004         45.0004
   -730515.14447   -500515.12446  24359476.6844   24359483.1004   24359476.399
        43.0004         38.0004
 -13899617.53048 -10824054.10847  21689360.6964   21689364.3094   21689361.643
        51.0004         46.0004
   2100676.33548   1629069.44748  21127654.2964   21127659.4464   21127654.535
        52.0004         48.0004
  -7462379.86547  -5771254.15946  23853020.6634   23853031.0004   23853020.320
        45.0004         41.0004
 -27354361.28748 -21069685.61848  20380865.0964   20380870.8104   20380864.849
        53.0004         49.0004
  -4681421.04647  -3610173.38846  24781908.9954   24781915.1654   24781908.977
        42.0004         37.0004
  -6354576.41047  -4940452.55646  23377293.4714   23377298.0704   23377292.606
        45.0004         40.0004
 14  5 27  0 47  0.0000000  0 10G28G10G08G26G02G09G17G04G05G07
 -13187547.55048 -10277241.69947  21684840.2814   21684846.1924   21684840.844
        50.0004         45.0004
 -19536280.49048 -15210882.11347  21698338.5794   21698343.4314   21698338.764
        50.0004         45.0004
 -11493610.31248  -8943528.28447  21325754.3844   21325758.9014   21325754.759
        50.0004         45.0004
   -714439.85647   -487988.78546  24362535.9814   24362541.5734   24362535.122
        43.0004         38.0004
 -13930982.28248 -10848494.13247  21683392.8654   21683395.9104   21683393.082
        51.0004         46.0004
   2175053.75048   1687025.91148  21141807.8234   21141812.9704   21141807.955
        52.0004         48.0004
  -7442076.65147  -5755433.46446  23856884.1144   23856893.3294   23856883.481
        45.0004         41.0004
 -27332582.25048 -21052714.94148  20385009.6434   20385015.0734   20385009.288
        53.0004         49.0004
  -4769735.79947  -3678989.90546  24765103.6174   24765109.0954   24765102.557
        42.0004         37.0004
  -6249424.16047  -4858515.72046  23397302.7094   23397307.3524   23397302.705
        45.0004         40.0004
 14  5 27  0 47 30.0000000  0 10G28G10G08G26G02G09G17G04G05G07
 -13235765.61948 -10314814.15547  21675665.0484   21675670.2314   21675664.905
        50.0004         45.0004
 -19603606.27748 -15263343.73047  21685526.7544   21685531.5084   21685527.331
        50.0004         46.0004
 -11405607.92148  -8874954.97347  21342500.7534   21342505.2464   21342501.133
        50.0004         45.0004
   -698403.40347   -475492.69946  24365586.2844   24365593.5304   24365586.201
        43.0004         38.0004
 -13961899.00448 -10872585.04647  21677509.4084   21677513.0114   21677510.213
        51.0004         46.0004
   2249744.58148   1745226.59748  21156021.2514   21156025.8704   21156020.987
        52.0004         48.0004
  -7422006.24347  -5739794.17346  23860703.8004   23860712.8174   23860702.881
        45.0004         41.0004
 -27310303.95548 -21035355.23848  20389248.9654   20389254.4284   20389248.816
        53.0004         49.0004
  -4858209.13547  -3747930.00346  24748266.9054   24748272.5974   24748266.789
        42.0004         37.0004
  -6144220.01447  -4776538.44446  23417322.7084   23417326.4844   23417322.451
        45.0004         40.0004
 14  5 27  0 48  0.0000000  0 10G28G10G08G26G02G09G17G04G05G07
 -13283728.85648 -10352188.03947  21666537.9454   21666543.3304   21666537.473
        50.0004         45.0004
 -19670771.60648 -15315680.31447  21672745.2224   21672750.9904   21672746.103
        50.0004         46.0004
 -11317252.58248  -8806106.61747  21359313.2134   21359319.3554   21359313.935
        50.0004         45.0004
   -682407.42547   -463028.16846  24368631.0734   24368637.1844   24368631.362
        43.0004         38.0004
 -13992367.08548 -10896326.36947  21671711.2284   21671714.8504   21671711.242
        51.0004         46.0004
   2324746.09748   1803669.37348  21170293.5674   21170298.2214   21170293.377
        52.0004         48.0004
  -7402168.79247  -5724336.40646  23864478.3154   23864487.7414   23864477.672
        45.0004         41.0004
 -27287527.59148 -21017607.42348  20393583.1854   20393588.5814   20393582.849
        53.0004         49.0004
  -4946838.62547  -3816991.78046  24731400.8774   24731407.1484   24731400.979
        42.0004         37.0004
  -6038966.61547  -4694522.78446  23437351.5064   23437355.0554   23437351.516
        45.0004         40.0004
 14  5 27  0 48 30.0000000  0 10G28G10G08G26G02G09G17G04G05G07
 -13331434.35648 -10389361.09047  21657459.1074   21657465.6604   21657459.813
        50.0004         45.0004
 -19737773.26948 -15367889.36247  21659996.0514   21660000.8194   21659996.031
        50.0004         46.0004
 -11228547.47148  -8736985.71647  21376193.6914   21376198.1264   21376194.019
        50.0004         45.0004
   -666453.66447   -450596.53146  24371665.8334   24371672.5354   24371665.624
        43.0004         38.0004
 -14022385.85348 -10919717.58047  21665999.2674   21666002.9254   21665999.827
        51.0004         46.0004
   2400055.69648   1862352.21848  21184623.8124   21184629.2264   21184624.270
        52.0004         48.0004
  -7382564.66547  -5709060.47046  23868209.7534   23868218.5934   23868208.429
        45.0004         41.0004
 -27264254.32448 -20999472.40648  20398012.1384   20398017.0194   20398011.571
        53.0004         49.0004
  -5035622.65747  -3886173.96146  24714506.9774   24714510.9554   24714505.127
        42.0004         37.0004
  -5933666.45247  -4612470.67946  23457390.0584   23457393.1544   23457389.867
        44.0004         40.0004
 14  5 27  0 49  0.0000000  0 10G28G10G08G26G02G09G17G04G05G07
 -13378879.02848 -10426330.89247  21648430.7504   21648437.1934   21648431.328
        50.0004         45.0004
 -19804608.29148 -15419968.56247  21647276.9614   21647282.0144   21647277.619
        50.0004         46.0004
 -11139495.77048  -8667594.74747  21393139.8574   21393145.0434   21393140.120
        50.0004         45.0004
   -650544.22847   -438199.41546  24374692.8404   24374701.5724   24374693.769
        43.0004         38.0004
 -14051955.13048 -10942758.53847  21660372.0124   21660375.2484   21660372.369
        51.0004         46.0004
   2475670.14148   1921272.59948  21199013.4104   21199017.9694   21199013.577
        52.0004         48.0004
  -7363193.88147  -5693966.33846  23871895.3914   23871904.2394   23871894.573
        45.0004         41.0004
 -27240486.12848 -20980951.73948  20402535.1884   20402540.3634   20402534.464
        53.0004         49.0004
  -5124559.35247  -3955475.12246  24697582.1514   24697585.9434   24697580.688
        42.0004         37.0004
  -5828322.07047  -4530384.12646  23477435.9384   23477439.3684   23477436.121
        44.0004         40.0004
 14  5 27  0 49 30.0000000  0 11G28G10G08G26G02G09G17G04G05G30G07
 -13426060.66348 -10463095.74147  21639452.7794   21639458.3334   21639452.715
        50.0004         45.0004
 -19871274.85848 -15471916.50147  21634590.5054   21634596.4364   21634591.655
        50.0004         45.0004
 -11050102.07648  -8597937.29247  21410150.6954   21410156.3944   21410151.144
        50.0004         45.0004
   -634682.32447   -425839.36846  24377712.2154   24377718.4954   24377712.520
        43.0004         38.0004
 -14081076.07748 -10965450.15347  21654830.9534   21654833.4144   21654831.242
        51.0004         46.0004
   2551585.29148   1980427.29947  21213459.6994   21213463.6334   21213459.154
        52.0004         47.0004
  -7344058.26347  -5679055.45546  23875536.5264   23875545.1714   23875536.206
        45.0004         41.0004
 -27216225.48648 -20962047.34548  20407151.4334   20407156.8934   20407151.316
        53.0004         49.0004
  -5213648.10947  -4024894.75846  24680628.4594   24680633.7424   24680627.244
        42.0004         37.0004
  -1350295.45748  -1057347.19647  21471215.6004   21471221.9244   21471215.867
        52.0004         47.0004
  -5722937.68247  -4448266.38846  23497489.7134   23497494.4374   23497489.429
        44.0004         40.0004
 14  5 27  0 50  0.0000000  0 11G28G10G08G26G02G09G17G04G05G30G07
 -13472976.61748 -10499653.55947  21630525.1394   21630530.6484   21630525.089
        50.0004         45.0004
 -19937770.10448 -15523730.93847  21621937.6364   21621942.3114   21621937.869
        50.0004         45.0004
 -10960369.77148  -8528015.98747  21427226.8034   21427231.4054   21427226.588
        50.0004         45.0004
   -618869.99547   -413517.94046  24380722.1434   24380728.2824   24380721.009
        42.0004         38.0004
 -14109748.80048 -10987792.50147  21649374.0124   21649377.0564   21649374.596
        51.0004         46.0004
   2627797.93748   2039813.81447  21227962.1154   21227966.7604   21227962.116
        52.0004         47.0004
  -7325158.20147  -5664328.11546  23879133.0774   23879142.4034   23879132.464
        45.0004         41.0004
 -27191474.36348 -20942760.75748  20411861.4444   20411866.9844   20411861.211
        53.0004         49.0004
  -5302887.38247  -4094431.69346  24663647.6304   24663652.7314   24663645.997
        42.0004         37.0004
  -1273515.32348   -997518.49047  21485826.2824   21485832.8584   21485826.469
        52.0004         47.0004
  -5617516.09347  -4366119.67246  23517550.8824   23517555.2564   23517550.516
        44.0004         40.0004
 14  5 27  0 50 30.0000000  0 11G28G10G08G26G02G09G17G04G05G30G07
 -13519621.54548 -10536000.19147  21621648.7824   21621654.2454   21621648.817
        50.0004         46.0004
 -20004088.79648 -15575407.80747  21609316.7374   21609322.5784   21609317.728
        50.0004         46.0004
 -10870299.99648  -8457831.70947  21444366.6574   21444370.9324   21444366.602
        50.0004         45.0004
   -603107.01347   -401234.95346  24383719.9744   24383726.3214   24383720.149
        42.0004         38.0004
 -14137970.97448 -11009783.76647  21644003.6814   21644006.5984   21644004.205
        51.0004         46.0004
   2704307.33248   2099431.56047  21242521.1314   21242526.3604   21242521.506
        52.0004         47.0004
  -7306491.56647  -5649782.66446  23882684.8744   23882694.4714   23882684.283
        45.0004         40.0004
 -27166231.98748 -20923091.38248  20416665.2504   20416670.6724   20416664.741
        53.0004         49.0004
  -5392272.73047  -4164082.44346  24646637.0834   24646643.5004   24646636.643
        42.0004         37.0004
  -1196435.82348   -937456.51347  21500494.3274   21500501.1324   21500493.958
        52.0004         47.0004
  -5512057.45847  -4283944.08146  23537618.9214   23537624.4804   23537618.626
        44.0004         40.0004
 14  5 27  0 51  0.0000000  0 11G28G10G08G26G02G09G17G04G05G30G07
 -13565994.78848 -10572135.11947  21612823.9564   21612829.5414   21612824.105
        50.0004         46.0004
 -20070229.96048 -15626946.34247  21596730.7444   21596735.5744   21596731.359
        50.0004         46.0004
 -10779897.99548  -8387388.56247  21461569.4574   21461574.0644   21461569.326
        50.0004         45.0004
   -587397.45947   -388993.59546  24386709.9074   24386716.7284   24386710.518
        43.0004         38.0004
 -14165744.67648 -11031425.57847  21638718.9054   21638721.8154   21638719.070
        51.0004         46.0004
   2781108.49948   2159276.66747  21257136.4424   21257140.8384   21257136.136
        52.0004         47.0004
  -7288060.85347  -5635421.06246  23886191.0704   23886201.8244   23886192.072
        45.0004         40.0004
 -27140502.27748 -20903042.26548  20421561.4344   20421566.9634   20421560.996
        53.0004         49.0004
  -5481804.93047  -4233847.63346  24629600.8544   24629605.5724   24629600.098
        42.0004         38.0004
  -1119061.84448   -877165.06847  21515218.1154   21515224.6044   21515218.163
        51.0004         47.0004
  -5406566.50947  -4201743.30546  23557693.9384   23557696.4884   23557692.931
        44.0004         39.0004
 14  5 27  0 51 30.0000000  0 11G28G10G08G26G02G09G17G04G05G30G07
 -13612093.15448 -10608055.86547  21604051.7444   21604057.4884   21604052.177
        50.0004         46.0004
 -20136190.60348 -15678344.21247  21584178.4744   21584184.2954   21584179.563
        50.0004         46.0004
 -10689167.54248  -8316689.47347  21478835.0754   21478839.4984   21478834.619
        49.0004         45.0004
   -571743.41047   -376795.51046  24389687.0684   24389694.9244   24389687.843
        43.0004         38.0004
 -14193069.84348 -11052717.88847  21633519.4094   21633521.9744   21633519.255
        51.0004         46.0004
   2858198.22048   2219346.61747  21271806.2784   21271810.0514   21271806.051
        52.0004         47.0004
  -7269866.56547  -5621243.68546  23889654.8184   23889663.0124   23889654.206
        45.0004         40.0004
 -27114287.07448 -20882614.83948  20426549.7614   20426555.3474   20426549.604
        53.0004         49.0004
  -5571481.93147  -4303725.65346  24612534.3094   24612539.0194   24612533.979
        43.0004         38.0004
  -1041396.33048   -816646.45447  21529997.2584   21530003.7714   21529996.915
        51.0004         47.0004
  -5301046.39647  -4119519.80846  23577773.6034   23577777.3774   23577772.753
        44.0004         39.0004
 14  5 27  0 52  0.0000000  0 11G28G10G08G26G02G09G17G04G05G30G07
 -13657912.80348 -10643759.42147  21595332.6774   21595337.9044   21595332.613
        50.0004         46.0004
 -20201967.02448 -15729598.52447  21571662.2384   21571667.2574   21571662.339
        50.0004         46.0004
 -10598111.11048  -8245736.37447  21496162.2374   21496166.6274   21496162.350
        49.0004         45.0004
   -556146.00647   -364641.55146  24392656.1974   24392662.5564   24392655.841
        43.0004         38.0004
 -14219945.41548 -11073659.85447  21628404.2824   21628407.4584   21628405.178
        51.0004         46.0004
   2935574.11148   2279639.55547  21286529.8444   21286534.4364   21286530.085
        52.0004         47.0004
  -7251908.18047  -5607250.11446  23893071.9134   23893081.4454   23893071.569
        45.0004         40.0004
 -27087587.10848 -20861809.67448  20431630.5034   20431636.3494   20431630.011
        53.0004         49.0004
  -5661301.18347  -4373714.52546  24595441.7384   24595448.5974   24595442.568
        43.0004         38.0004
   -963441.11748   -755902.10047  21544831.8744   21544838.4554   21544831.741
        51.0004         47.0004
  -5195498.60647  -4037274.74746  23597857.3234   23597862.7134   23597857.659
        44.0004         39.0004
 14  5 27  0 52 30.0000000  0 11G28G10G08G26G02G09G17G04G05G30G07
 -13703451.35848 -10679243.94447  21586666.2394   21586671.4814   21586667.040
        50.0004         46.0004
 -20267556.96248 -15780707.53647  21559180.6444   21559185.6284   21559181.570
        50.0004         45.0004
 -10506732.77448  -8174532.44547  21513549.9024   21513555.0654   21513550.585
        49.0004         45.0004
   -540607.87647   -352533.79746  24395613.6704   24395620.9474   24395613.364
        43.0004         38.0004
 -14246372.32748 -11094252.23047  21623375.9904   21623378.7724   21623375.879
        51.0004         46.0004
   3013232.36948   2340152.52347  21301307.8724   21301312.5084   21301307.796
        52.0004         47.0004
  -7234186.57547  -5593441.05646  23896443.5724   23896453.7044   23896444.015
        45.0004         40.0004
 -27060405.02748 -20840628.84048  20436802.7514   20436808.8204   20436802.734
        53.0004         49.0004
  -5751261.42847  -4443813.28146  24578324.4034   24578328.7094   24578323.889
        43.0004         38.0004
   -885199.72748   -694934.75447  21559720.4414   21559726.8284   21559720.478
        51.0004         47.0004
  -5089926.72247  -3955010.91846  23617947.3244   23617950.7024   23617947.231
        44.0004         39.0004
 14  5 27  0 53  0.0000000  0 11G28G10G08G26G02G09G17G04G05G30G07
 -13748707.44448 -10714508.36647  21578054.5654   21578060.3334   21578054.797
        50.0004         46.0004
 -20332958.52748 -15831669.76547  21546735.2244   21546739.7054   21546735.649
        50.0004         46.0004
 -10415036.74248  -8103080.96047  21530999.2544   21531004.6524   21530999.705
        49.0004         45.0004
   -525132.19447   -340474.68446  24398557.8574   24398565.7984   24398557.818
        43.0004         38.0004
 -14272351.74348 -11114495.90447  21618431.8494   21618434.7894   21618432.296
        51.0004         46.0004
   3091168.91548   2400882.32847  21316138.7834   21316143.7614   21316138.919
        52.0004         47.0004
  -7216703.28447  -5579817.69346  23899771.3384   23899780.4024   23899771.041
        45.0004         40.0004
 -27032743.80148 -20819074.64748  20442066.9674   20442072.6074   20442066.762
        53.0004         49.0004
  -5841361.82647  -4514021.24846  24561177.5734   24561183.3974   24561178.152
        43.0004         38.0004
   -806676.21548   -633747.56447  21574662.9554   21574668.5064   21574662.838
        51.0004         47.0004
  -4984334.35447  -3872731.12246  23638040.1244   23638045.4174   23638040.662
        44.0004         39.0004
 14  5 27  0 53 30.0000000  0 11G28G10G08G26G02G09G17G04G05G30G07
 -13793675.48548 -10749548.33347  21569497.6464   21569502.8294   21569497.993
        50.0004         46.0004
 -20398166.22948 -15882480.92547  21534326.1944   21534332.1094   21534326.763
        50.0004         46.0004
 -10323024.02548  -8031382.71347  21548509.2124   21548513.7334   21548509.877
        49.0004         45.0004
   -509718.40847   -328463.80546  24401490.4024   24401497.6964   24401490.832
        43.0004         38.0004
 -14297881.01748 -11134388.81647  21613573.8594   21613576.9614   21613574.468
        51.0004         46.0004
   3169383.21948   2461828.57047  21331022.0554   21331027.0214   21331022.210
        52.0004         47.0004
  -7199455.68147  -5566377.97446  23903054.3314   23903062.9734   23903053.101
        45.0004         40.0004
 -27004602.68848 -20797146.51948  20447422.0574   20447427.5784   20447421.434
        53.0004         49.0004
  -5931598.69147  -4584335.54546  24544006.5274   24544010.1164   24544006.195
        43.0004         38.0004
   -727870.72248   -572340.66147  21589659.2664   21589665.5814   21589659.175
        51.0004         47.0004
  -4878721.69547  -3790435.51846  23658138.3114   23658143.6324   23658138.206
        44.0004         39.0004
 14  5 27  0 54  0.0000000  0 11G28G10G08G26G02G09G17G04G05G30G07
 -13838352.42348 -10784361.47147  21560995.5424   21561001.0104   21560995.958
        50.0004         46.0004
 -20463177.13148 -15933138.73847  21521955.4144   21521960.6884   21521955.978
        50.0004         46.0004
 -10230698.26948  -7959440.53847  21566078.5414   21566083.1854   21566078.458
        49.0004         45.0004
   -494368.69947   -316502.85446  24404411.5504   24404418.2104   24404411.939
        43.0004         38.0004
 -14322960.57248 -11153931.30747  21608802.2534   21608804.0964   21608802.129
        51.0004         46.0004
   3247871.88948   2522988.60547  21345958.3054   21345962.9964   21345958.303
        52.0004         47.0004
  -7182444.55147  -5553122.51046  23906290.3914   23906299.4584   23906290.288
        44.0004         40.0004
 -26975983.71248 -20774846.02848  20452867.9184   20452873.8454   20452867.899
        53.0004         49.0004
  -6021970.19547  -4654754.75946  24526810.3154   24526814.3144   24526809.309
        43.0004         38.0004
   -648786.34648   -510716.44547  21604708.2464   21604714.9544   21604708.142
        51.0004         47.0004
  -4773091.81147  -3708126.49146  23678238.7664   23678244.2024   23678239.013
        44.0004         39.0004
 14  5 27  0 54 30.0000000  0 11G28G10G08G26G02G09G17G04G05G30G07
 -13882738.88348 -10818948.25847  21552550.0664   21552554.9354   21552549.200
        50.0004         46.0004
 -20527992.00348 -15983643.80047  21509621.7574   21509626.8514   21509621.697
        50.0004         46.0004
 -10138066.74748  -7887260.10047  21583704.6804   21583710.1314   21583705.280
        49.0004         44.0004
   -479088.86247   -304596.37246  24407319.7914   24407326.1984   24407319.016
        43.0004         38.0004
 -14347594.38548 -11173126.46447  21604113.7184   21604117.0954   21604113.514
        51.0004         46.0004
   3326628.28748   2584357.25847  21360945.5894   21360949.5224   21360944.993
        52.0004         47.0004
  -7165673.76447  -5540054.33546  23909481.6004   23909490.7194   23909481.260
        44.0004         39.0004
 -26946892.49048 -20752177.55348  20458404.0584   20458409.4064   20458403.615
        53.0004         49.0004
  -6112478.05047  -4725280.23746  24509585.8804   24509591.1154   24509585.670
        42.0004         38.0004
   -569429.68748   -448880.06147  21619809.9094   21619815.6694   21619809.704
        51.0004         47.0004
  -4667450.85447  -3625808.83046  23698341.3924   23698346.6294   23698341.640
        44.0004         39.0004
 14  5 27  0 55  0.0000000  0 11G28G10G08G26G02G09G17G04G05G30G07
 -13926827.89148 -10853303.27047  21544159.8474   21544164.7894   21544159.588
        50.0004         46.0004
 -20592603.73348 -16033990.57347  21497326.4804   21497331.2724   21497326.757
        50.0004         46.0004
 -10045128.25548  -7814840.47147  21601391.0354   21601395.4614   21601391.445
        49.0004         44.0004
   -463876.41847   -292742.38746  24410214.3794   24410220.5044   24410213.990
        43.0004         38.0004
 -14371778.09148 -11191970.88147  21599511.6364   21599514.7844   21599512.694
        51.0004         46.0004
   3405653.60648   2645935.45647  21375982.9414   21375987.9544   21375982.911
        52.0004         47.0004
  -7149138.95047  -5527170.04246  23912627.7024   23912638.4354   23912628.144
        44.0004         40.0004
 -26917326.48348 -20729139.12448  20464030.3874   20464035.8354   20464029.938
        53.0004         49.0004
  -6203115.99347  -4795907.07146  24492338.2974   24492344.1634   24492337.725
        42.0004         38.0004
   -489799.23348   -386830.32347  21634963.0464   21634968.9524   21634962.352
        51.0004         47.0004
  -4561797.26147  -3543481.32246  23718446.5344   23718450.4644   23718446.727
        44.0004         39.0004
 14  5 27  0 55 30.0000000  0 11G28G10G08G26G02G09G17G04G05G30G07
 -13970619.36448 -10887426.42747  21535826.3174   21535831.9374   21535826.150
        50.0004         46.0004
 -20657012.03848 -16084178.83247  21485069.4654   21485075.1004   21485070.146
        50.0004         46.0004
  -9951889.01348  -7742186.47347  21619133.5604   21619138.2954   21619134.000
        49.0004         44.0004
   -448736.12547   -280944.62246  24413095.5744   24413101.6634   24413094.578
        43.0004         38.0004
 -14395514.68648 -11210466.90847  21594994.6894   21594997.8944   21594995.211
        51.0004         46.0004
   3484941.91248   2707718.57947  21391071.6284   21391075.8494   21391070.759
        52.0004         47.0004
  -7132843.61147  -5514472.34046  23915728.8984   23915738.2524   23915728.650
        44.0004         40.0004
 -26887290.60748 -20705734.55748  20469746.0544   20469751.5904   20469745.471
        53.0004         49.0004
  -6293884.91847  -4866635.95746  24475065.5644   24475069.5434   24475065.217
        42.0004         38.0004
   -409900.61748   -324571.62847  21650167.3294   21650173.2554   21650166.888
        51.0004         47.0004
  -4456136.63147  -3461148.32446  23738553.6014   23738558.2484   23738553.568
        44.0004         39.0004
 14  5 27  0 56  0.0000000  0 11G28G10G08G26G02G09G17G04G05G30G07
 -14014108.41448 -10921313.94047  21527550.1654   21527555.7974   21527550.702
        50.0004         46.0004
 -20721212.14148 -16134204.86147  21472853.1014   21472858.4434   21472853.540
        50.0004         46.0004
  -9858350.57348  -7669299.34747  21636933.7124   21636937.8704   21636933.633
        49.0004         44.0004
   -433668.20747   -269203.25546  24415962.4984   24415969.4934   24415962.108
        43.0004         38.0004
 -14418802.41848 -11228613.17147  21590563.5974   21590566.0744   21590563.390
        51.0004         46.0004
   3564491.95048   2769705.65347  21406208.9344   21406213.4934   21406208.715
        52.0004         47.0004
  -7116786.08647  -5501959.95646  23918784.3294   23918793.9064   23918784.315
        44.0004         40.0004
 -26856784.60048 -20681963.66048  20475551.1024   20475556.5764   20475550.632
        53.0004         49.0004
  -6384781.04347  -4937463.96446  24457768.7564   24457773.7274   24457767.840
        43.0004         38.0004
   -329734.85648   -262104.77047  21665421.8704   21665428.4624   21665421.977
        51.0004         47.0004
  -4350469.51647  -3378810.28046  23758661.5074   23758664.8284   23758660.705
        43.0004         39.0004
 14  5 27  0 56 30.0000000  0 11G28G10G08G26G02G09G17G04G05G30G07
 -14057293.55248 -10954964.62847  21519332.1924   21519337.6374   21519332.230
        50.0004         46.0004
 -20785202.62048 -16184067.54047  21460675.9204   21460681.0194   21460676.277
        51.0004         46.0004
  -9764517.77048  -7596182.85647  21654789.4154   21654793.3484   21654789.427
        49.0004         44.0004
   -418676.13547   -257520.99446  24418815.4734   24418820.9574   24418814.984
        43.0004         38.0004
 -14441643.11448 -11246411.09247  21586217.1674   21586219.3994   21586217.042
        51.0004         46.0004
   3644299.15448   2831893.11747  21421395.3544   21421400.1194   21421395.859
        52.0004         47.0004
  -7100968.05747  -5489634.19046  23921794.2694   23921804.9284   23921794.240
        44.0004         40.0004
 -26825812.41448 -20657829.50148  20481444.8824   20481450.1764   20481444.665
        53.0004         49.0004
  -6475804.27647  -5008391.03446  24440446.8304   24440451.7424   24440447.207
        43.0004         38.0004
   -249306.36148   -199433.19147  21680726.9574   21680733.5844   21680726.817
        51.0004         47.0004
  -4244800.27247  -3296470.58846  23778769.4584   23778773.6554   23778769.451
        43.0004         39.0004
 14  5 27  0 57  0.0000000  0 11G28G10G08G26G02G09G17G04G05G30G07
 -14100171.74848 -10988376.15147  21511172.5934   21511177.6134   21511173.242
        50.0004         46.0004
 -20848980.08048 -16233764.23247  21448539.2734   21448544.2294   21448539.806
        51.0004         46.0004
  -9670393.94848  -7522839.57947  21672700.3644   21672705.0244   21672700.106
        49.0004         44.0004
   -403761.52847   -245899.10746  24421652.6694   24421659.1264   24421653.410
        43.0004         38.0004
 -14464036.78248 -11263860.69147  21581955.7304   21581958.0414   21581956.245
        51.0004         46.0004
   3724360.80148   2894278.85147  21436630.5944   21436635.0804   21436630.675
        52.0004         47.0004
  -7085389.34047  -5477494.90246  23924759.2524   23924769.0864   23924758.623
        44.0004         40.0004
 -26794375.33748 -20633333.09348  20487427.4414   20487432.5264   20487426.878
        53.0004         49.0004
  -6566952.57647  -5079415.54746  24423101.9754   24423107.7574   24423101.585
        44.0004         39.0004
   -168617.68548   -136558.87147  21696081.5184   21696088.2234   21696081.711
        51.0004         47.0004
  -4139131.39447  -3214131.17646  23798878.0654   23798882.5134   23798877.701
        43.0004         39.0004
 14  5 27  0 57 30.0000000  0 11G28G10G08G26G02G09G17G04G05G30G07
 -14142739.41848 -11021545.69147  21503072.2674   21503077.8504   21503072.526
        50.0004         46.0004
 -20912540.73448 -16283291.98747  21436443.7604   21436449.8884   21436444.491
        51.0004         46.0004
  -9575981.82348  -7449271.67447  21690666.2214   21690671.5954   21690666.623
        49.0004         44.0004
   -388925.55247   -234338.49146  24424475.8874   24424482.8654   24424475.788
        43.0004         38.0004
 -14485982.59148 -11280961.30047  21577778.6804   21577782.2984   21577778.712
        51.0004         46.0004
   3804674.58648   2956861.04847  21451913.9124   21451918.6104   21451913.830
        52.0004         47.0004
  -7070049.40947  -5465541.67846  23927678.2294   23927687.3404   23927677.812
        44.0004         40.0004
 -26762474.70948 -20608475.47748  20493497.4714   20493503.4364   20493497.173
        53.0004         49.0004
  -6658223.18047  -5150535.35246  24405733.9654   24405738.4224   24405733.712
        44.0004         39.0004
    -87670.85648    -73483.39247  21711485.5624   21711491.5364   21711485.195
        51.0004         47.0004
  -4033464.33647  -3131793.18046  23818985.9084   23818990.0224   23818985.758
        43.0004         39.0004
 14  5 27  0 58  0.0000000  0 11G28G10G08G26G02G09G17G04G05G30G07
 -14184994.17748 -11054471.41647  21495031.4094   21495036.9094   21495031.752
        50.0004         46.0004
 -20975882.20048 -16332648.95247  21424390.3554   21424395.8364   21424391.257
        51.0004         46.0004
  -9481285.45448  -7375482.25647  21708686.4824   21708690.5054   21708686.888
        49.0004         44.0004
   -374170.80047   -222841.14546  24427284.4374   24427289.3324   24427284.144
        42.0004         38.0004
 -14507481.46248 -11297713.64347  21573688.5994   21573690.2844   21573688.966
        51.0004         46.0004
   3885236.37848   3019636.50047  21467244.3454   21467248.9234   21467244.313
        52.0004         47.0004
  -7054948.96847  -5453775.08046  23930551.5284   23930561.0684   23930550.942
        44.0004         40.0004
 -26730113.12448 -20583258.67648  20499655.8944   20499661.4094   20499655.336
        53.0004         49.0004
  -6749614.46147  -5221749.20846  24388343.5594   24388346.4554   24388342.272
        44.0004         40.0004
     -6469.42948    -10209.52647  21726937.1784   21726943.7204   21726937.104
        51.0004         47.0004
  -3927802.25447  -3049459.07146  23839092.8744   23839096.4704   23839092.582
        43.0004         39.0004
 14  5 27  0 58 30.0000000  0 11G28G10G08G26G02G09G17G04G05G30G07
 -14226932.99548 -11087150.94747  21487050.4064   21487056.5424   21487050.758
        50.0004         46.0004
 -21039001.58648 -16381832.86447  21412379.4804   21412384.5844   21412380.065
        51.0004         46.0004
  -9386308.10848  -7301473.92147  21726759.9634   21726764.5564   21726760.214
        49.0004         44.0004
   -359499.37247   -211408.75246  24430076.3254   24430081.2904   24430076.040
        43.0004         38.0004
 -14528533.95948 -11314118.17347  21569681.4224   21569684.2464   21569682.159
        51.0004         46.0004
   3966043.27148   3082602.93947  21482621.7024   21482627.3204   21482621.642
        52.0004         47.0004
  -7040088.06447  -5442195.13546  23933378.8744   23933389.0004   23933379.194
        44.0004         40.0004
 -26697292.84348 -20557684.44548  20505901.4014   20505907.0444   20505901.042
        53.0004         49.0004
  -6841124.80247  -5293055.83146  24370928.5064   24370932.2704   24370927.901
        44.0004         39.0004
     74983.60748     53260.40047  21742437.0744   21742443.7234   21742437.146
        51.0004         47.0004
  -3822148.26647  -2967131.25746  23859197.5924   23859202.0654   23859197.751
        43.0004         39.0004
 14  5 27  0 59  0.0000000  0 11G28G10G08G26G02G09G17G04G05G30G07
 -14268552.66648 -11119581.79447  21479130.6394   21479135.8504   21479131.148
        51.0004         46.0004
 -21101895.58648 -16430841.14847  21400411.0834   21400416.0224   21400412.024
        51.0004         46.0004
  -9291052.45548  -7227248.70847  21744887.0174   21744891.1974   21744887.172
        49.0004         44.0004
   -344912.40447   -200042.16346  24432852.2694   24432858.5074   24432851.458
        43.0004         38.0004
 -14549139.64148 -11330174.53147  21565761.0784   21565763.8014   21565761.039
        51.0004         47.0004
   4047092.75148   3145758.40647  21498044.7554   21498048.9434   21498044.624
        52.0004         47.0004
  -7025466.63447  -5430801.78846  23936162.1254   23936171.1804   23936161.535
        44.0004         39.0004
 -26664014.96448 -20531753.64748  20512233.7734   20512239.7954   20512233.397
        53.0004         49.0004
  -6932751.40047  -5364453.03946  24353492.3074   24353497.2854   24353491.765
        44.0004         39.0004
    156686.16948    116924.76047  21757984.8604   21757991.1774   21757984.517
        51.0004         46.0004
  -3716504.12547  -2884811.11746  23879302.0954   23879305.1734   23879301.205
        43.0004         39.0004
 14  5 27  0 59 30.0000000  0 11G28G10G08G26G02G09G17G04G05G30G07
 -14309851.51248 -11151762.64947  21471271.8664   21471276.8624   21471272.001
        51.0004         46.0004
 -21164562.29548 -16479672.32847  21388485.8344   21388491.2624   21388486.490
        51.0004         46.0004
  -9195523.48348  -7152810.51947  21763064.7774   21763069.6614   21763065.264
        49.0004         44.0004
   -330413.17047   -188743.92446  24435610.4964   24435616.6774   24435610.045
        43.0004         38.0004
 -14569300.14848 -11345884.00447  21561924.4664   21561926.9704   21561925.010
        51.0004         47.0004
   4128380.51048   3209099.55247  21513513.5154   21513518.3104   21513513.262
        52.0004         47.0004
  -7011085.93447  -5419596.03946  23938898.6244   23938908.7734   23938898.302
        44.0004         40.0004
 -26630283.11248 -20505469.10548  20518652.5924   20518658.6674   20518652.239
        53.0004         48.0004
  -7024493.82847  -5435940.51046  24336034.2434   24336038.5224   24336033.423
        43.0004         39.0004
    238634.08448    180780.30247  21773578.9134   21773584.7034   21773578.444
        51.0004         46.0004
  -3610873.56647  -2802501.59046  23899402.4454   23899405.7164   23899401.544
        43.0004         39.0004
 14  5 27  1  0  0.0000000  0 11G28G10G08G26G02G09G17G04G05G30G07
 -14350825.63448 -11183690.46947  21463474.7194   21463480.1674   21463475.065
        51.0004         46.0004
 -21226997.89148 -16528323.41647  21376605.0804   21376609.4584   21376605.799
        51.0004         46.0004
  -9099723.86048  -7078161.43947  21781294.7014   21781299.7304   21781295.588
        48.0004         44.0004
   -316002.77347   -177514.93446  24438352.5274   24438359.5074   24438352.357
        43.0004         38.0004
 -14589015.04548 -11361246.24547  21558172.9464   21558175.6424   21558172.834
        51.0004         47.0004
   4209904.11248   3272624.46347  21529026.2184   21529031.0434   21529026.671
        51.0004         47.0004
  -6996945.41847  -5408577.42946  23941589.1544   23941598.7374   23941588.608
        44.0004         40.0004
 -26596098.51148 -20478831.76648  20525158.0494   20525163.0964   20525157.390
        53.0004         48.0004
  -7116349.52447  -5507516.25046  24318555.3524   24318558.1524   24318553.871
        43.0004         38.0004
    320825.14648    244825.31247  21789219.0554   21789225.4664   21789219.028
        51.0004         46.0004
  -3505258.74947  -2720204.32746  23919499.6954   23919503.1954   23919499.437
        43.0004         39.0004
 14  5 27  1  0 30.0000000  0 11G28G10G08G26G02G09G17G04G05G30G07
 -14391472.44048 -11215363.24447  21455739.4534   21455745.2254   21455740.367
        51.0004         46.0004
 -21289199.26348 -16576791.98847  21364768.8344   21364773.4674   21364769.004
        51.0004         46.0004
  -9003656.61448  -7003303.83247  21799576.6524   21799580.5844   21799576.839
        48.0004         44.0004
   -301682.97347   -166356.53646  24441077.4024   24441083.5324   24441078.297
        42.0004         38.0004
 -14608284.65348 -11376261.50747  21554505.9934   21554508.6214   21554506.204
        51.0004         47.0004
   4291660.59748   3336330.84247  21544584.3664   21544589.0544   21544584.248
        51.0004         47.0004
  -6983044.60347  -5397745.59846  23944235.5604   23944244.8984   23944234.754
        44.0004         40.0004
 -26561463.22148 -20451843.24548  20531748.7804   20531754.6184   20531748.560
        53.0004         48.0004
  -7208315.83447  -5579178.18146  24301054.2504   24301058.3744   24301053.373
        43.0004         38.0004
    403256.68348    309057.70647  21804905.2834   21804911.4814   21804905.230
        51.0004         46.0004
  -3399661.75647  -2637920.96746  23939593.8264   23939597.9234   23939593.856
        43.0004         39.0004
 14  5 27  1  1  0.0000000  0 11G28G10G08G26G02G09G17G04G05G30G07
 -14431789.17648 -11246778.81347  21448067.4344   21448072.9924   21448067.886
        51.0004         46.0004
 -21351163.52848 -16625075.80747  21352976.9554   21352982.0164   21352977.707
        51.0004         47.0004
  -8907325.32648  -6928240.46847  21817908.1064   21817912.2494   21817907.432
        48.0004         44.0004
   -287455.83047   -155270.32846  24443785.4874   24443791.2994   24443784.240
        43.0004         38.0004
 -14627109.62448 -11390930.30347  21550924.1694   21550925.9224   21550924.090
        51.0004         47.0004
   4373646.51948   3400216.00447  21560185.7644   21560189.5064   21560185.871
        51.0004         47.0004
  -6969384.16247  -5387101.07146  23946834.2374   23946844.0894   23946833.784
        44.0004         40.0004
 -26526379.09748 -20424504.98948  20538424.9094   20538430.9134   20538424.787
        53.0004         48.0004
  -7300391.37247  -5650925.22446  24283532.1834   24283537.0774   24283531.945
        43.0004         38.0004
    485925.70348    373475.14647  21820636.7234   21820643.0624   21820636.649
        51.0004         46.0004
  -3294085.32647  -2555653.62946  23959685.0934   23959688.6004   23959684.813
        43.0004         39.0004
 14  5 27  1  1 30.0000000  0 11G28G10G08G26G02G09G17G04G05G30G07
 -14471773.56948 -11277935.41947  21440458.8794   21440463.5514   21440459.160
        51.0004         46.0004
 -21412888.88648 -16673173.46547  21341231.2014   21341236.7004   21341231.649
        51.0004         47.0004
  -8810734.56948  -6852974.91447  21836287.4454   21836292.5914   21836288.130
        48.0004         44.0004
   -273324.31647   -144258.65046  24446473.5414   24446479.5454   24446474.280
        43.0004         38.0004
 -14645491.12348 -11405253.53647  21547425.8254   21547428.5654   21547426.055
        51.0004         47.0004
   4455857.90548   3464276.85347  21575830.1544   21575834.2224   21575829.907
        51.0004         47.0004
  -6955964.80847  -5376644.39846  23949387.1444   23949397.9634   23949387.393
        44.0004         40.0004
 -26490849.72648 -20396819.78748  20545186.4104   20545191.5544   20545185.735
        53.0004         48.0004
  -7392574.93647  -5722756.46046  24265989.7344   24265995.3664   24265989.794
        43.0004         38.0004
    568828.27748    438074.57547  21836412.7944   21836418.8694   21836412.312
        51.0004         46.0004
  -3188533.08647  -2473405.14846  23979771.6764   23979775.1504   23979770.099
        43.0004         39.0004
 14  5 27  1  2  0.0000000  0 11G28G10G08G26G02G09G17G04G05G30G07
 -14511421.61948 -11308829.94247  21432914.1644   21432919.6164   21432914.243
        51.0004         46.0004
 -21474371.09748 -16721081.65747  21329530.7374   21329536.2324   21329531.831
        51.0004         47.0004
  -8713886.39548  -6777508.78647  21854717.3024   21854722.5194   21854717.829
        48.0004         44.0004
   -259288.96947   -133321.90946  24449144.1874   24449150.9244   24449145.018
        43.0004         38.0004
 -14663427.99448 -11419230.29547  21544012.0124   21544015.7884   21544012.620
        51.0004         47.0004
   4538293.08148   3528512.08047  21591516.7264   21591521.3854   21591516.871
        51.0004         47.0004
  -6942785.92847  -5366375.11346  23951895.5624   23951906.0474   23951894.745
        44.0004         40.0004
 -26454875.79648 -20368788.17348  20552031.8364   20552037.3864   20552031.560
        53.0004         49.0004
  -7484863.71447  -5794669.69146  24248427.6014   24248432.8434   24248427.741
        43.0004         39.0004
    651962.79648    502854.74047  21852232.6634   21852239.1744   21852232.383
        51.0004         46.0004
  -3083006.35347  -2391176.54246  23999851.6114   23999856.0084   23999850.941
        43.0004         38.0004
 14  5 27  1  2 30.0000000  0 11G28G10G08G26G02G09G17G04G05G30G07
 -14550731.17948 -11339460.69847  21425433.6514   21425438.9864   21425433.825
        51.0004         46.0004
 -21535607.18848 -16768798.06647  21317878.2944   21317883.0304   21317879.030
        51.0004         47.0004
  -8616784.63148  -6701845.06547  21873195.6154   21873199.5554   21873195.632
        48.0004         44.0004
   -245352.08847   -122461.88446  24451795.1254   24451803.0174   24451795.277
        43.0004         38.0004
 -14680921.33848 -11432861.46547  21540683.3364   21540686.4284   21540684.025
        51.0004         47.0004
   4620948.52148   3592918.93747  21607245.1204   21607249.8254   21607245.709
        51.0004         47.0004
  -6929847.29947  -5356293.03146  23954357.6994   23954367.9364   23954357.217
        45.0004         40.0004
 -26418459.76848 -20340412.07648  20558961.8814   20558966.9274   20558961.357
        53.0004         48.0004
  -7577255.41147  -5866663.10746  24230846.8294   24230850.2504   24230846.033
        44.0004         39.0004
    735326.15548    567813.22447  21868095.9694   21868101.5864   21868095.980
        51.0004         46.0004
  -2977508.06147  -2308970.11246  24019928.3454   24019932.4394   24019926.691
        43.0004         38.0004
 14  5 27  1  3  0.0000000  0 11G28G10G08G26G02G09G17G04G05G30G07
 -14589698.68148 -11369824.92547  21418018.8444   21418023.6604   21418018.687
        51.0004         46.0004
 -21596593.86848 -16816320.13647  21306272.8104   21306277.8284   21306273.481
        51.0004         47.0004
  -8519431.97548  -6625985.83247  21891720.5044   21891725.7764   21891721.026
        48.0004         44.0004
   -231514.74547   -111679.41846  24454430.4624   24454435.4934   24454430.101
        43.0004         38.0004
 -14697971.36348 -11446147.18047  21537438.7044   21537441.6204   21537439.254
        51.0004         47.0004
   4703821.60348   3657495.39447  21623015.5504   21623020.5284   21623015.743
        51.0004         47.0004
  -6917148.48647  -5346397.83246  23956773.8184   23956784.0794   23956773.512
        44.0004         40.0004
 -26381603.31848 -20311692.78548  20565975.0914   20565980.5294   20565974.671
        53.0004         48.0004
  -7669747.83647  -5938735.01846  24213245.7034   24213250.0504   24213245.108
        44.0004         39.0004
    818915.97548    632948.17247  21884002.5844   21884009.2194   21884002.595
        51.0004         46.0004
  -2872039.99347  -2226787.21146  24039997.1454   24040001.2364   24039997.043
        43.0004         38.0004
 14  5 27  1  3 30.0000000  0 11G28G10G08G26G02G09G17G04G05G30G07
 -14628323.55648 -11399922.17147  21410668.2524   21410674.1374   21410668.412
        51.0004         46.0004
 -21657330.00948 -16863646.98447  21294714.8424   21294719.8734   21294715.842
        51.0004         47.0004
  -8421834.07648  -6549935.50047  21910292.2874   21910297.1654   21910293.326
        48.0004         44.0004
   -217781.10347   -100977.79146  24457043.6914   24457049.2564   24457044.290
        43.0004         38.0004
 -14714580.20948 -11459089.12447  21534278.4854   21534281.0144   21534278.805
        51.0004         47.0004
   4786907.33748   3722237.55347  21638826.5834   21638830.6824   21638826.421
        51.0004         46.0004
  -6904692.03247  -5336691.47846  23959144.0324   23959154.2934   23959144.097
        44.0004         40.0004
 -26344310.75448 -20282633.66648  20573071.8804   20573077.4284   20573071.498
        53.0004         48.0004
  -7762340.64047  -6010885.13746  24195626.4214   24195630.4854   24195625.499
        44.0004         39.0004
    902727.26748    698255.69047  21899951.3804   21899958.2344   21899951.245
        50.0004         46.0004
  -2766606.78547  -2144631.49746  24060061.2184   24060064.8904   24060060.938
        43.0004         38.0004
 14  5 27  1  4  0.0000000  0 11G28G10G08G26G02G09G17G04G05G30G07
 -14666600.55048 -11429748.34247  21403384.4884   21403389.9354   21403384.761
        51.0004         46.0004
 -21717810.48748 -16910774.60647  21283205.7634   21283210.9064   21283206.538
        51.0004         47.0004
  -8323991.65548  -6473694.64147  21928911.6034   21928917.5474   21928912.209
        48.0004         43.0004
   -204150.45847    -90356.39146  24459636.6644   24459643.4564   24459636.292
        43.0004         38.0004
 -14730745.87548 -11471685.73547  21531202.3944   21531205.3884   21531202.648
        51.0004         47.0004
   4870205.01348   3787144.86247  21654677.0014   21654681.9814   21654677.324
        51.0004         46.0004
  -6892474.93547  -5327171.63246  23961469.6654   23961478.5924   23961469.069
        44.0004         40.0004
 -26306581.71148 -20253234.43648  20580251.0194   20580257.2954   20580250.690
        53.0004         48.0004
  -7855029.81847  -6083110.35746  24177987.3464   24177992.1654   24177987.157
        44.0004         39.0004
    986759.70848    763735.54147  21915941.9184   21915948.6344   21915941.898
        50.0004         46.0004
  -2661208.35047  -2062502.88046  24080118.7094   24080122.5954   24080117.544
        43.0004         38.0004
 14  5 27  1  4 30.0000000  0 11G28G10G08G26G02G09G17G04G05G30G07
 -14704528.71648 -11459302.69847  21396166.8234   21396171.8034   21396167.064
        51.0004         46.0004
 -21778034.70848 -16957702.55147  21271745.9604   21271750.7554   21271746.285
        51.0004         47.0004
  -8225910.57548  -6397267.80147  21947576.7404   21947581.4164   21947576.176
        48.0004         43.0004
   -190626.90747    -79818.45046  24462209.5864   24462216.1344   24462210.127
        43.0004         38.0004
 -14746471.25348 -11483939.26147  21528209.5274   21528212.7984   21528209.984
        51.0004         47.0004
   4953709.33148   3852213.18447  21670567.9324   21670572.2804   21670567.545
        51.0004         46.0004
  -6880499.94847  -5317840.44446  23963747.7994   23963756.6414   23963747.556
        44.0004         40.0004
 -26268420.74148 -20223498.63848  20587512.9144   20587518.6694   20587512.762
        53.0004         48.0004
  -7947815.20947  -6155410.55246  24160330.7924   24160335.4324   24160330.298
        44.0004         39.0004
   1071008.16748    829383.70947  21931974.0744   21931980.3724   21931974.080
        50.0004         46.0004
  -2555849.62447  -1980405.20846  24100166.7534   24100170.1624   24100166.351
        43.0004         38.0004
 14  5 27  1  5  0.0000000  0 11G28G10G08G26G02G09G17G04G05G30G07
 -14742102.57748 -11488580.96947  21389016.8074   21389021.8164   21389017.061
        51.0004         46.0004
 -21837996.57748 -17004426.06947  21260334.9474   21260340.1664   21260335.845
        51.0004         47.0004
  -8127591.48948  -6320655.50847  21966286.5334   21966291.0924   21966285.772
        48.0004         43.0004
   -177209.68447    -69363.37446  24464764.0304   24464770.5394   24464763.209
        43.0004         38.0004
 -14761754.58548 -11495848.34047  21525301.8854   21525304.2904   21525301.719
        51.0004         47.0004
   5037419.84248   3917442.17747  21686497.3214   21686501.7874   21686497.374
        51.0004         46.0004
  -6868763.99147  -5308695.51546  23965980.7344   23965990.1514   23965980.998
        45.0004         40.0004
 -26229827.17148 -20193425.75648  20594857.4564   20594862.8124   20594857.074
        53.0004         48.0004
  -8040692.20047  -6227782.11346  24142657.3224   24142661.1984   24142656.785
        44.0004         39.0004
   1155472.44548    895200.04747  21948046.6244   21948052.9844   21948046.816
        50.0004         46.0004
  -2450530.26447  -1898338.20946  24120207.8854   24120211.6734   24120207.447
        43.0004         38.0004
 14  5 27  1  5 30.0000000  0 11G28G10G08G26G02G09G17G04G05G30G07
 -14779323.24248 -11517584.02147  21381933.7724   21381939.1744   21381934.066
        51.0004         46.0004
 -21897696.51048 -17050945.48447  21248975.3164   21248979.8294   21248975.408
        51.0004         46.0004
  -8029041.31448  -6243863.15247  21985037.5824   21985044.1414   21985038.808
        48.0004         43.0004
   -163903.86547    -58995.09446  24467294.8614   24467301.0124   24467294.770
        43.0004         38.0004
 -14776599.31648 -11507415.65047  21522476.6724   21522479.3474   21522477.069
        51.0004         47.0004
   5121330.19848   3982826.89047  21702464.6484   21702469.5674   21702465.202
        51.0004         46.0004
  -6857270.46147  -5299739.49146  23968168.6664   23968178.2524   23968168.230
        45.0004         40.0004
 -26190806.82848 -20163020.32148  20602282.4754   20602288.4324   20602282.201
        53.0004         48.0004
  -8133661.96047  -6300225.98946  24124965.1524   24124969.4334   24124965.193
        44.0004         39.0004
   1240146.34748    961179.72547  21964160.9594   21964166.1034   21964160.111
        50.0004         46.0004
  -2345256.25147  -1816306.55946  24140242.7194   24140245.3734   24140240.716
        43.0004         38.0004
 14  5 27  1  6  0.0000000  0 11G28G10G08G26G02G09G17G04G05G30G07
 -14816184.88748 -11546307.31547  21374919.4014   21374924.5124   21374919.391
        51.0004         46.0004
 -21957128.86948 -17097256.39747  21237665.3364   21237670.6474   21237666.191
        51.0004         47.0004
  -7930260.54448  -6166891.10747  22003836.1764   22003840.6104   22003836.370
        48.0004         43.0004
   -150708.60347    -48712.96346  24469806.3604   24469811.5444   24469805.314
        43.0004         38.0004
 -14791003.21448 -11518639.45247  21519735.2694   21519738.6234   21519736.016
        51.0004         47.0004
   5205440.08848   4048367.08747  21718470.3714   21718474.9464   21718470.458
        51.0004         46.0004
  -6846016.88847  -5290970.45146  23970309.9854   23970320.0784   23970309.406
        45.0004         40.0004
 -26151359.10848 -20132281.86648  20609789.3234   20609794.6194   20609788.866
        53.0004         48.0004
  -8226719.46647  -6372738.23246  24107256.2084   24107261.5754   24107256.976
        44.0004         39.0004
   1325029.69348   1027322.61547  21980313.0624   21980319.3464   21980312.666
        50.0004         46.0004
  -2240027.14347  -1734309.87546  24160265.9304   24160268.5774   24160265.448
        42.0004         38.0004
 14  5 27  1  6 30.0000000  0 11G28G10G08G26G02G09G17G04G05G30G07
 -14852686.22448 -11574749.85647  21367973.0174   21367977.6984   21367973.526
        51.0004         46.0004
 -22016292.32548 -17143357.77747  21226406.9334   21226412.3964   21226407.373
        51.0004         47.0004
  -7831254.23848  -6089743.32147  22022676.2644   22022681.5964   22022676.375
        48.0004         43.0004
   -137627.18347    -38519.53646  24472295.0604   24472301.0034   24472294.853
        43.0004         38.0004
 -14804968.86648 -11529521.76647  21517077.9744   21517080.5944   21517078.329
        51.0004         47.0004
   5289744.75248   4114059.05647  21734512.4084   21734517.7204   21734512.953
        51.0004         46.0004
  -6835004.56947  -5282389.39246  23972405.5034   23972414.9074   23972405.500
        45.0004         40.0004
 -26111487.99648 -20101213.49248  20617376.4254   20617382.3404   20617376.093
        53.0004         48.0004
  -8319864.43547  -6445318.62846  24089532.2834   24089535.8414   24089531.595
        44.0004         40.0004
   1410118.08348   1093625.28147  21996504.6444   21996511.2774   21996504.326
        50.0004         46.0004
  -2134846.91247  -1652351.30446  24180280.9394   24180284.0124   24180280.171
        42.0004         38.0004
 14  5 27  1  7  0.0000000  0 11G28G10G08G26G02G09G17G04G05G30G07
 -14888824.74848 -11602909.68447  21361095.8714   21361101.5764   21361096.442
        51.0004         46.0004
 -22075183.94848 -17189247.33747  21215199.9864   21215205.5044   21215201.044
        51.0004         47.0004
  -7732025.73648  -6012422.38347  22041558.3934   22041565.6854   22041559.625
        48.0004         43.0004
   -124661.52047    -28416.32146  24474762.4484   24474768.3634   24474763.432
        43.0004         38.0004
 -14818496.50548 -11540062.77247  21514503.8184   21514506.0094   21514504.057
        51.0004         47.0004
   5374241.08248   4179900.37847  21750592.7314   21750595.9594   21750592.595
        51.0004         46.0004
  -6824233.32447  -5273996.18346  23974455.2304   23974464.8894   23974454.785
        45.0004         40.0004
 -26071195.71348 -20069816.93848  20625044.0824   20625049.5924   20625043.637
        53.0004         48.0004
  -8413094.91847  -6517965.67046  24071790.9294   24071794.8914   24071789.403
        44.0004         39.0004
   1495408.63248   1160085.46447  22012734.8924   22012741.1714   22012734.730
        50.0004         45.0004
  -2029718.07747  -1570432.78346  24200287.1114   24200289.1644   24200285.967
        42.0004         38.0004
 14  5 27  1  7 30.0000000  0 11G28G10G08G26G02G09G17G04G05G30G07
 -14924595.62148 -11630783.03447  21354289.3494   21354294.6944   21354289.808
        51.0004         46.0004
 -22133798.77748 -17234921.22147  21204046.1754   21204050.8364   21204046.735
        51.0004         47.0004
  -7632576.08448  -5934929.13447  22060484.0154   22060489.2354   22060484.296
        48.0004         43.0004
   -111811.31547    -18403.07746  24477207.9624   24477214.1104   24477207.776
        43.0004         38.0004
 -14831585.10948 -11550261.67547  21512013.3494   21512016.0344   21512013.324
        51.0004         47.0004
   5458927.85048   4245890.08747  21766707.9914   21766712.5644   21766707.364
        51.0004         46.0004
  -6813701.20347  -5265789.30946  23976459.2484   23976468.4844   23976458.434
        45.0004         40.0004
 -26030482.79648 -20038092.61548  20632791.2574   20632797.0094   20632790.848
        53.0004         48.0004
  -8506406.56447  -6590675.94646  24054034.3404   24054038.9544   24054033.107
        44.0004         40.0004
   1580900.41448   1226702.45047  22029003.0234   22029009.5294   22029003.052
        50.0004         45.0004
  -1924641.16147  -1488554.71546  24220282.8324   24220285.3384   24220280.893
        42.0004         38.0004
 14  5 27  1  8  0.0000000  0 11G28G10G08G26G02G09G17G04G05G30G07
 -14959998.76348 -11658369.84147  21347551.4124   21347557.7984   21347552.153
        51.0004         46.0004
 -22192136.83648 -17280379.43647  21192944.4624   21192949.9024   21192945.594
        51.0004         47.0004
  -7532912.10148  -5857268.89247  22079449.2244   22079453.1754   22079449.317
        48.0004         43.0004
    -99081.47847     -8483.61646  24479629.8774   24479635.9644   24479629.007
        43.0004         38.0004
 -14844238.08948 -11560121.13747  21509605.5664   21509607.8394   21509605.684
        51.0004         47.0004
   5543799.28848   4312023.69847  21782858.2434   21782861.4124   21782857.847
        50.0004         46.0004
  -6803411.23447  -5257771.11946  23978418.2374   23978426.7724   23978417.704
        45.0004         40.0004
 -25989354.31948 -20006044.48148  20640617.3974   20640623.5994   20640617.617
        53.0004         48.0004
  -8599800.20447  -6663450.11646  24036262.8574   24036266.4064   24036261.050
        44.0004         40.0004
   1666587.59148   1293471.69847  22045308.2034   22045314.9424   22045308.433
        50.0004         45.0004
  -1819621.32347  -1406721.12546  24240266.5944   24240272.8384   24240266.317
        42.0004         38.0004
 14  5 27  1  8 30.0000000  0 11G28G10G08G26G02G09G17G04G05G30G07
 -14995029.89748 -11685666.77247  21340885.9974   21340891.8284   21340886.679
        51.0004         46.0004
 -22250192.84048 -17325617.86947  21181896.6474   21181902.4634   21181897.601
        51.0004         47.0004
  -7433034.87348  -5779442.46247  22098455.5804   22098461.0204   22098455.271
        48.0004         43.0004
    -86471.44947      1342.48146  24482028.8894   24482035.4824   24482028.928
        43.0004         38.0004
 -14856454.07048 -11569640.07347  21507280.8924   21507283.7294   21507280.946
        51.0004         47.0004
   5628854.42548   4378300.44947  21799043.5554   21799048.1334   21799043.300
        50.0004         46.0004
  -6793360.86247  -5249939.63146  23980329.0674   23980339.8774   23980329.734
        45.0004         40.0004
 -25947810.32548 -19973672.57448  20648523.1884   20648529.3534   20648522.821
        53.0004         48.0004
  -8693271.40547  -6736284.72646  24018474.8444   24018479.3234   24018474.428
        44.0004         40.0004
   1752469.55948   1360392.72647  22061651.5974   22061658.1144   22061651.420
        50.0004         45.0004
  -1714659.07747  -1324932.41446  24260241.1094   24260243.7724   24260240.084
        42.0004         38.0004
 14  5 27  1  9  0.0000000  0 11G28G10G08G26G02G09G17G04G05G30G07
 -15029688.19948 -11712673.17847  21334290.4954   21334295.9324   21334290.431
        51.0004         46.0004
 -22307966.11948 -17370635.99647  21170902.7084   21170908.4314   21170903.635
        52.0004         47.0004
  -7332949.98847  -5701454.22947  22117500.3504   22117505.1494   22117501.010
        47.0004         43.0004
    -73985.34147     11072.01646  24484405.6554   24484411.1354   24484406.277
        43.0004         38.0004
 -14868235.96248 -11578820.75747  21505038.3134   21505041.3954   21505038.994
        51.0004         47.0004
   5714087.80748   4444716.09047  21815263.0514   21815267.5644   21815262.727
        50.0004         46.0004
  -6783551.86847  -5242296.23146  23982196.5484   23982205.7254   23982195.755
        44.0004         40.0004
 -25905855.58148 -19940980.59748  20656506.9574   20656512.5834   20656506.880
        53.0004         48.0004
  -8786820.70447  -6809180.16846  24000673.2874   24000678.0744   24000672.224
        45.0004         40.0004
   1838541.14048   1427461.50847  22078029.9804   22078036.8164   22078030.495
        50.0004         45.0004
  -1609758.90947  -1243192.06946  24280201.7514   24280206.5504   24280201.952
        42.0004         37.0004
 14  5 27  1  9 30.0000000  0 11G28G10G08G26G02G09G17G04G05G30G07
 -15063967.73348 -11739384.45047  21327767.5144   21327772.2044   21327767.704
        51.0004         46.0004
 -22365450.03448 -17415428.64547  21159964.1424   21159969.4034   21159964.971
        52.0004         47.0004
  -7232657.18847  -5623303.97447  22136586.3794   22136589.9654   22136585.861
        47.0004         43.0004
    -61621.40447     20706.34246  24486758.4964   24486763.6754   24486758.148
        43.0004         38.0004
 -14879581.12748 -11587661.13647  21502879.6374   21502882.6774   21502880.012
        51.0004         47.0004
   5799500.01048   4511271.07247  21831516.0554   21831520.0414   21831516.202
        50.0004         46.0004
  -6773981.70847  -5234838.93646  23984018.0024   23984027.8754   23984017.578
        45.0004         40.0004
 -25863488.96048 -19907967.67948  20664569.0824   20664574.6454   20664568.861
        53.0004         48.0004
  -8880442.08847  -6882131.79546  23982857.3674   23982861.4464   23982856.100
        45.0004         40.0004
   1924803.02748   1494678.58147  22094445.1774   22094452.3314   22094445.666
        50.0004         45.0004
  -1504919.62047  -1161499.18046  24300151.9844   24300155.8944   24300152.759
        42.0004         37.0004
 14  5 27  1 10  0.0000000  0 11G28G10G08G26G02G09G17G04G05G30G07
 -15097870.16248 -11765801.87047  21321315.4844   21321320.7344   21321316.074
        51.0004         46.0004
 -22422646.29548 -17459997.14947  21149080.2564   21149085.3004   21149080.780
        52.0004         47.0004
  -7132164.54947  -5544998.01447  22155708.0644   22155713.8944   22155709.024
        47.0004         43.0004
    -49385.87047     30240.62146  24489086.8424   24489092.3174   24489086.296
        43.0004         39.0004
 -14890494.70548 -11596165.21947  21500802.3784   21500805.5094   21500803.311
        51.0004         47.0004
   5885083.53848   4577959.55147  21847802.4674   21847806.1964   21847802.365
        50.0004         46.0004
  -6764654.00947  -5227570.57746  23985792.7664   23985802.6824   23985791.927
        45.0004         40.0004
 -25820717.31848 -19874639.16348  20672708.3744   20672714.5924   20672708.286
        53.0004         48.0004
  -8974137.91247  -6955141.45046  23965028.0414   23965031.5534   23965026.961
        45.0004         40.0004
   2011247.89848   1562038.22747  22110895.6344   22110901.8154   22110895.314
        50.0004         45.0004
  -1400148.20647  -1079859.18546  24320090.3914   24320093.8974   24320089.762
        42.0004         38.0004
 14  5 27  1 10 30.0000000  0 11G28G10G08G26G02G09G17G04G05G30G07
 -15131388.17948 -11791919.74947  21314937.2594   21314942.9074   21314937.656
        51.0004         46.0004
 -22479547.53748 -17504335.76847  21138252.4034   21138257.9234   21138253.241
        52.0004         47.0004
  -7031471.00347  -5466535.49247  22174869.8074   22174876.0364   22174870.476
        47.0004         43.0004
    -37275.93047     39677.03846  24491392.3454   24491397.3394   24491391.198
        43.0004         39.0004
 -14900972.79348 -11604329.95347  21498808.9114   21498811.6704   21498809.114
        51.0004         47.0004
   5970839.75048   4644782.59747  21864121.7574   21864124.9284   21864121.094
        50.0004         46.0004
  -6755564.02947  -5220487.44346  23987522.2244   23987531.7334   23987522.045
        45.0004         40.0004
 -25777538.58648 -19840993.43748  20680925.2884   20680930.9374   20680924.734
        53.0004         48.0004
  -9067901.39647  -7028203.82146  23947185.3834   23947188.9914   23947184.666
        45.0004         40.0004
   2097877.35448   1629541.71947  22127381.0724   22127386.5884   22127380.748
        50.0004         45.0004
  -1295442.43347   -998270.33046  24340015.0164   24340018.6344   24340014.537
        42.0004         37.0004
 14  5 27  1 11  0.0000000  0 11G28G10G08G26G02G09G17G04G05G30G07
 -15164522.82848 -11817738.89747  21308631.7624   21308636.8414   21308632.449
        51.0004         46.0004
 -22536154.46648 -17548445.05347  21127480.3024   21127485.3474   21127480.776
        52.0004         47.0004
  -6930583.69147  -5387921.99747  22194068.8584   22194073.4034   22194069.128
        47.0004         43.0004
    -25297.10947     49011.28046  24493671.3944   24493676.1204   24493670.343
        43.0004         38.0004
 -14911019.93648 -11612158.89347  21496897.4434   21496899.7784   21496897.695
        51.0004         47.0004
   6056761.71348   4711734.79047  21880472.0494   21880476.2814   21880471.567
        50.0004         46.0004
  -6746715.12747  -5213592.17446  23989206.5384   23989215.3404   23989205.944
        45.0004         40.0004
 -25733958.73748 -19807035.14448  20689218.0244   20689224.0074   20689217.704
        53.0004         48.0004
  -9161734.28447  -7101320.27646  23929329.6044   23929333.7034   23929329.474
        45.0004         40.0004
   2184684.79748   1697183.89547  22143899.4364   22143905.7334   22143899.487
        50.0004         45.0004
  -1190808.43047   -916737.39146  24359925.0024   24359929.9164   24359925.741
        42.0004         37.0004
 14  5 27  1 11 30.0000000  0 11G28G10G08G26G02G09G17G04G05G30G07
 -15197269.29648 -11843255.57247  21302401.0644   21302405.9724   21302401.110
        51.0004         46.0004
 -22592461.70648 -17592320.81247  21116765.1664   21116770.6594   21116766.059
        52.0004         47.0004
  -6829503.38547  -5309158.10347  22213302.8264   22213308.5714   22213304.036
        47.0004         43.0004
    -13448.84947     58243.77846  24495925.6004   24495930.6754   24495924.912
        43.0004         39.0004
 -14920634.73748 -11619650.93947  21495067.6414   21495070.3384   21495067.724
        52.0004         47.0004
   6142848.80948   4778815.66447  21896853.6844   21896857.6274   21896853.096
        50.0004         45.0004
  -6738105.55947  -5206883.40146  23990845.2444   23990854.1504   23990844.358
        45.0004         41.0004
 -25689978.03848 -19772764.51448  20697587.0864   20697593.4404   20697587.020
        53.0004         48.0004
  -9255632.12047  -7174487.34046  23911460.5264   23911465.0524   23911459.905
        45.0004         40.0004
   2271669.70748   1764964.35347  22160452.0644   22160458.4884   22160451.985
        50.0004         45.0004
  -1086246.33147   -835260.48846  24379823.1854   24379828.4634   24379823.576
        42.0004         37.0004
 14  5 27  1 12  0.0000000  0 11G28G10G08G26G02G09G17G04G05G30G07
 -15229625.33548 -11868468.01747  21296243.6254   21296248.1314   21296243.717
        51.0004         46.0004
 -22648466.56748 -17635960.94847  21106107.7524   21106113.5074   21106108.434
        52.0004         47.0004
  -6728233.63447  -5230246.59447  22232574.8494   22232578.0224   22232574.349
        47.0004         42.0004
     -1732.99547     67373.10746  24498153.8614   24498158.8984   24498154.861
        43.0004         39.0004
 -14929818.23648 -11626806.90347  21493320.5394   21493322.7934   21493320.298
        52.0004         47.0004
   6229097.85948   4846022.72547  21913266.3024   21913270.1294   21913266.240
        50.0004         46.0004
  -6729735.08447  -5200360.93246  23992437.4014   23992447.0804   23992436.834
        45.0004         41.0004
 -25645598.93148 -19738183.42948  20706032.6734   20706038.4424   20706032.270
        53.0004         48.0004
  -9349592.66147  -7247703.26246  23893581.5794   23893584.8294   23893580.334
        45.0004         40.0004
   2358829.01648   1832880.71947  22177038.0474   22177044.3444   22177038.024
        50.0004         45.0004
   -981758.51647   -753841.45546  24399707.3074   24399709.7784   24399706.625
        42.0004         37.0004
 14  5 27  1 12 30.0000000  0 11G28G10G08G26G02G09G17G04G05G30G07
 -15261589.70448 -11893375.26147  21290160.8674   21290165.3304   21290161.277
        51.0004         46.0004
 -22704168.11948 -17679364.74947  21095507.9324   21095513.5954   21095509.172
        52.0004         47.0004
  -6626779.70647  -5151191.57647  22251879.8164   22251886.4564   22251881.026
        47.0004         42.0004
      9846.91447     76396.50946  24500358.5614   24500362.8934   24500357.422
        43.0004         39.0004
 -14938572.80348 -11633628.64547  21491653.3284   21491657.2754   21491654.287
        52.0004         47.0004
   6315503.97348   4913352.18347  21929708.2064   21929712.2124   21929708.669
        50.0004         45.0004
  -6721604.94347  -5194025.73246  23993984.6754   23993994.0054   23993983.921
        45.0004         41.0004
 -25600825.66048 -19703295.19848  20714552.2934   20714558.2694   20714552.302
        53.0004         48.0004
  -9443615.50347  -7320967.73646  23875688.6404   23875692.5534   23875688.918
        45.0004         40.0004
   2446158.22848   1900929.46847  22193656.4784   22193662.0384   22193656.459
        50.0004         45.0004
   -877349.00247   -672483.46046  24419575.2604   24419579.6194   24419574.326
        42.0004         37.0004
 14  5 27  1 13  0.0000000  0 11G28G10G08G26G02G09G17G04G05G30G07
 -15293158.57448 -11917974.32047  21284153.1424   21284158.4694   21284153.479
        51.0004         46.0004
 -22759561.85548 -17722528.69147  21084967.0874   21084972.2164   21084967.719
        52.0004         47.0004
  -6525143.38147  -5071994.42847  22271221.6704   22271225.7854   22271221.533
        47.0004         42.0004
     21290.54047     85313.70646  24502535.5644   24502541.0144   24502535.904
        43.0004         38.0004
 -14946897.96348 -11640115.77447  21490069.5514   21490072.8194   21490069.896
        52.0004         47.0004
   6402065.40948   4980802.66847  21946180.0444   21946184.7204   21946180.503
        50.0004         45.0004
  -6713713.79847  -5187876.76946  23995486.6004   23995495.2624   23995485.954
        45.0004         41.0004
 -25555659.35048 -19668100.71248  20723147.3774   20723153.6354   20723147.077
        53.0004         48.0004
  -9537697.22047  -7394278.08346  23857785.7834   23857788.9294   23857785.622
        45.0004         41.0004
   2533655.69548   1969109.33047  22210305.8794   22210312.6234   22210306.255
        49.0004         45.0004
   -773018.87947   -591187.32046  24439429.2784   24439432.4654   24439427.761
        42.0004         37.0004
 14  5 27  1 13 30.0000000  0 11G28G10G08G26G02G09G17G04G05G30G07
 -15324328.71348 -11942262.68847  21278222.4244   21278227.7244   21278222.333
        51.0004         46.0004
 -22814644.24348 -17765450.02247  21074485.5124   21074490.0254   21074485.956
        52.0004         47.0004
  -6423327.48347  -4992657.35747  22290596.1654   22290600.0724   22290596.298
        47.0004         42.0004
     32596.74547     94123.82446  24504687.1574   24504693.2424   24504687.207
        43.0004         39.0004
 -14954794.13448 -11646268.63047  21488567.2404   21488570.5014   21488567.414
        52.0004         47.0004
   6488780.00048   5048372.49347  21962681.9174   21962686.5254   21962681.999
        50.0004         45.0004
  -6706060.78847  -5181913.36046  23996942.1284   23996951.9674   23996942.306
        45.0004         41.0004
 -25510101.99648 -19632601.51648  20731816.6464   20731822.7674   20731816.418
        53.0004         48.0004
  -9631834.42747  -7467631.65546  23839871.1224   23839876.3844   23839871.405
        45.0004         41.0004
   2621319.22448   2037418.58247  22226987.6524   22226993.7794   22226987.885
        49.0004         45.0004
   -668769.97747   -509954.46946  24459266.8744   24459270.4674   24459265.620
        42.0004         37.0004
 14  5 27  1 14  0.0000000  0 11G28G10G08G26G02G09G17G04G05G30G07
 -15355099.40948 -11966239.79947  21272366.5324   21272371.6154   21272366.646
        51.0004         46.0004
 -22869414.34248 -17808128.01247  21064062.8424   21064068.3434   21064063.870
        52.0004         47.0004
  -6321337.26847  -4913184.44047  22310004.9524   22310009.7714   22310003.941
        47.0004         42.0004
     43762.15447    102824.23346  24506811.6824   24506818.3184   24506811.474
        43.0004         39.0004
 -14962264.22048 -11652089.48047  21487145.4214   21487148.2694   21487145.922
        52.0004         47.0004
   6575642.74748   5116057.77047  21979210.7774   21979215.8834   21979211.008
        50.0004         45.0004
  -6698647.19947  -5176136.51546  23998353.0164   23998362.2354   23998353.419
        45.0004         41.0004
 -25464157.67348 -19596800.78548  20740559.9504   20740564.5644   20740559.299
        52.0004         48.0004
  -9726027.26747  -7541028.59746  23821947.2544   23821951.6024   23821946.613
        45.0004         41.0004
   2709144.25948   2105853.68347  22243701.3424   22243707.1464   22243700.844
        49.0004         45.0004
   -564605.93347   -428787.75346  24479089.0804   24479093.6284   24479088.029
        42.0004         37.0004
 14  5 27  1 14 30.0000000  0 11G28G10G08G26G02G09G17G04G05G30G07
 -15385467.70648 -11989903.34947  21266587.5354   21266592.3154   21266587.848
        51.0004         46.0004
 -22923868.42748 -17850559.75247  21053700.2734   21053705.9844   21053701.290
        52.0004         47.0004
  -6219175.38047  -4833577.77047  22329444.1054   22329449.3634   22329445.144
        47.0004         42.0004
     54785.64347    111414.05546  24508909.3184   24508915.5554   24508909.372
        43.0004         39.0004
 -14969308.28448 -11657578.35447  21485804.8214   21485808.2934   21485805.259
        52.0004         47.0004
   6662651.24248   5183856.60647  21995768.7354   21995772.1534   21995768.197
        50.0004         45.0004
  -6691472.73347  -5170546.00446  23999718.7834   23999727.3004   23999718.472
        45.0004         41.0004
 -25417828.38848 -19560700.08848  20749376.2434   20749381.9314   20749375.626
        52.0004         48.0004
  -9820272.66547  -7614466.49246  23804014.1944   23804017.0304   23804013.121
        45.0004         41.0004
   2797128.44948   2174412.81147  22260443.2324   22260449.5584   22260443.743
        49.0004         45.0004
   -460528.92247   -347688.86146  24498893.5914   24498896.7564   24498893.328
        42.0004         37.0004
 14  5 27  1 15  0.0000000  0 11G28G10G08G26G02G09G17G04G05G30G07
 -15415423.70648 -12013245.63447  21260887.1284   21260892.0124   21260887.268
        51.0004         47.0004
 -22977996.59348 -17892737.53647  21043400.2664   21043405.7774   21043401.118
        52.0004         47.0004
  -6116838.34047  -4753834.60547  22348919.1104   22348923.8534   22348918.818
        47.0004         42.0004
     65672.54147    119897.41546  24510981.9914   24510986.0734   24510982.034
        43.0004         39.0004
 -14975920.20348 -11662730.49347  21484546.6354   21484549.9154   21484547.435
        52.0004         47.0004
   6749809.49348   5251772.13947  22012353.9434   22012358.8874   22012354.122
        50.0004         45.0004
  -6684529.74447  -5165135.88246  24001039.2964   24001049.4594   24001038.991
        45.0004         41.0004
 -25371109.54648 -19524295.83348  20758266.2214   20758272.1654   20758265.820
        52.0004         48.0004
  -9914561.00047  -7687937.84946  23786070.2444   23786075.3274   23786070.428
        45.0004         41.0004
   2885276.03948   2243099.26247  22277217.2284   22277224.0034   22277217.407
        49.0004         45.0004
   -356533.84547   -266653.80646  24518682.9374   24518688.0064   24518682.949
        42.0004         37.0004
 14  5 27  1 15 30.0000000  0 11G28G10G08G26G02G09G17G04G05G30G07
 -15444977.49148 -12036274.50247  21255263.0404   21255267.3194   21255263.419
        51.0004         47.0004
 -23031808.28848 -17934668.71847  21033160.2774   21033165.5234   21033161.114
        52.0004         47.0004
  -6014341.63947  -4673967.04247  22368422.1264   22368428.2674   22368423.422
        46.0004         42.0004
     76408.57147    128263.25046  24513025.2394   24513030.2344   24513024.053
        43.0004         39.0004
 -14982113.55148 -11667556.48347  21483368.5524   21483370.7664   21483368.455
        52.0004         47.0004
   6837101.97648   5319792.27647  22028965.4994   22028969.1144   22028965.377
        50.0004         45.0004
  -6677830.12047  -5159915.38846  24002314.2024   24002324.2904   24002314.500
        45.0004         41.0004
 -25324016.21448 -19487599.78048  20767227.8034   20767233.6764   20767227.313
        52.0004         48.0004
 -10008902.85047  -7761450.90546  23768117.3664   23768121.3814   23768116.959
        45.0004         40.0004
   2973571.62948   2311901.02947  22294019.5954   22294025.6904   22294019.658
        49.0004         45.0004
   -252635.68146   -185694.27346  24538454.2014   24538458.9774   24538454.450
        41.0004         37.0004
 14  5 27  1 16  0.0000000  0 11G28G10G08G26G02G09G17G04G05G30G07
 -15474120.40048 -12058983.20647  21249717.4314   21249722.5184   21249717.625
        51.0004         47.0004
 -23085294.52148 -17976346.29447  21022982.5904   21022987.2824   21022982.980
        52.0004         47.0004
  -5911682.52947  -4593972.91547  22387959.6444   22387962.3944   22387958.868
        46.0004         42.0004
     86998.48747    136515.22246  24515038.9884   24515043.9874   24515038.750
        43.0004         39.0004
 -14987883.09348 -11672052.22147  21482270.2854   21482273.3654   21482270.667
        52.0004         47.0004
   6924531.78348   5387919.41147  22045602.5764   22045606.3094   22045602.317
        50.0004         45.0004
  -6671368.13947  -5154880.07846  24003543.9804   24003553.3344   24003543.840
        45.0004         41.0004
 -25276544.67248 -19450609.00948  20776261.5794   20776266.8064   20776260.982
        52.0004         48.0004
 -10103289.76847  -7834999.07846  23750156.4394   23750160.4764   23750155.692
        45.0004         40.0004
   3062018.74148   2380820.86947  22310849.7754   22310855.6324   22310850.439
        49.0004         45.0004
   -148830.50747   -104807.21546  24558208.5954   24558210.6044   24558207.611
        42.0004         37.0004
 14  5 27  1 16 30.0000000  0 11G28G10G08G26G02G09G17G04G05G30G07
 -15502850.96548 -12081370.60547  21244249.6004   21244254.6314   21244250.053
        51.0004         46.0004
 -23138453.45148 -18017768.82947  21012866.2744   21012871.4154   21012867.409
        52.0004         47.0004
  -5808865.38547  -4513855.64947  22407523.7854   22407528.7314   22407524.837
        46.0004         42.0004
     97439.61547    144651.24546  24517025.8984   24517031.5694   24517026.005
        43.0004         38.0004
 -14993230.83548 -11676219.29647  21481253.1554   21481255.4924   21481253.778
        52.0004         47.0004
   7012094.87948   5456150.41147  22062265.4564   22062269.8494   22062265.276
        50.0004         45.0004
  -6665144.04847  -5150030.12846  24004729.0734   24004737.7404   24004728.055
        45.0004         41.0004
 -25228698.39448 -19413326.23448  20785365.9064   20785371.9134   20785365.836
        52.0004         48.0004
 -10197720.44947  -7908581.36246  23732186.4064   23732190.0004   23732186.205
        45.0004         41.0004
   3150613.40448   2449855.68147  22327709.3554   22327715.7334   22327709.481
        49.0004         44.0004
    -45121.28247    -23994.89646  24577945.4374   24577947.9054   24577942.710
        42.0004         37.0004
 14  5 27  1 17  0.0000000  0 11G28G10G08G26G02G09G17G04G05G30G07
 -15531166.15648 -12103434.33047  21238861.8924   21238866.7344   21238861.965
        51.0004         47.0004
 -23191281.89348 -18058933.84547  21002813.5784   21002818.6344   21002814.174
        52.0004         47.0004
  -5705893.22147  -4433617.59146  22427119.6044   22427124.4904   22427119.422
        46.0004         41.0004
    107730.57047    152670.26146  24518985.0934   24518990.5374   24518983.792
        43.0004         39.0004
 -14998157.32248 -11680058.11147  21480315.4094   21480318.5524   21480315.497
        52.0004         47.0004
   7099788.68648   5524483.25847  22078953.0704   22078956.6544   22078953.048
        50.0004         45.0004
  -6659157.08147  -5145364.95746  24005867.4894   24005877.4974   24005867.674
        45.0004         41.0004
 -25180479.70848 -19375753.28148  20794541.9994   20794547.8004   20794541.786
        52.0004         48.0004
 -10292192.22347  -7982195.65646  23714210.0614   23714213.9004   23714208.669
        45.0004         41.0004
   3239353.15248   2519003.54647  22344595.8474   22344602.4404   22344595.830
        49.0004         44.0004
     58489.84447     56740.97746  24597660.2254   24597663.4814   24597659.132
        42.0004         37.0004
 14  5 27  1 17 30.0000000  0 11G28G10G08G26G02G09G17G04G05G30G07
 -15559062.73348 -12125171.87547  21233553.5204   21233557.5484   21233553.507
        51.0004         47.0004
 -23243776.15648 -18099838.45447  20992824.5964   20992829.6814   20992825.120
        52.0004         47.0004
  -5602768.48147  -4353260.64547  22446743.2764   22446748.3594   22446743.482
        46.0004         42.0004
    117870.55647    160571.63046  24520913.8624   24520917.5904   24520913.192
        43.0004         38.0004
 -15002662.89348 -11683568.94347  21479457.9604   21479461.0804   21479458.462
        52.0004         47.0004
   7187611.21548   5592916.41347  22095664.5584   22095668.9764   22095664.741
        50.0004         45.0004
  -6653406.16047  -5140883.70846  24006962.1574   24006971.7714   24006961.879
        45.0004         41.0004
 -25131890.33248 -19337891.47848  20803788.2604   20803794.1144   20803787.949
        52.0004         48.0004
 -10386701.77847  -8055839.40446  23696224.8644   23696229.5224   23696224.413
        46.0004         41.0004
   3328236.07148   2588262.97747  22361509.7254   22361515.7584   22361509.853
        49.0004         44.0004
    162001.64447    137399.46046  24617356.3594   24617360.2044   24617356.448
        42.0004         37.0004
 14  5 27  1 18  0.0000000  0 11G28G10G08G26G02G09G17G04G05G30G07
 -15586539.60148 -12146582.36547  21228324.3214   21228329.3774   21228324.767
        51.0004         47.0004
 -23295934.72248 -18140481.49247  20982899.2694   20982903.6464   20982899.447
        52.0004         47.0004
  -5499495.75147  -4272788.36447  22466395.4834   22466400.0704   22466395.490
        46.0004         42.0004
    127856.62647    168353.06446  24522813.1864   24522818.8074   24522813.392
        43.0004         38.0004
 -15006749.89448 -11686753.62547  21478680.1194   21478683.0814   21478680.441
        52.0004         47.0004
   7275558.12248   5661446.49047  22112400.5834   22112404.6774   22112400.455
        50.0004         45.0004
  -6647892.44047  -5136587.29846  24008011.3274   24008021.1504   24008010.838
        46.0004         41.0004
 -25082933.95548 -19299743.69448  20813104.3214   20813110.0444   20813104.215
        52.0004         48.0004
 -10481248.18147  -8129511.85846  23678232.1574   23678237.0924   23678232.251
        46.0004         41.0004
   3417258.04348   2657630.75547  22378450.1794   22378456.6244   22378449.777
        49.0004         44.0004
    265410.51147    217977.72946  24637035.7514   24637039.8394   24637034.375
        42.0004         37.0004
 14  5 27  1 18 30.0000000  0 11G28G10G08G26G02G09G17G04G05G30G07
 -15613592.59548 -12167662.57047  21223176.6064   21223181.1424   21223176.735
        51.0004         47.0004
 -23347752.88048 -18180859.27247  20973038.0124   20973043.3514   20973038.842
        52.0004         47.0004
  -5396076.72647  -4192202.10746  22486075.2864   22486079.8204   22486075.727
        46.0004         41.0004
    137689.01147    176014.73046  24524686.2714   24524690.2404   24524685.224
        43.0004         38.0004
 -15010417.36748 -11689611.39147  21477982.4664   21477985.2404   21477982.397
        52.0004         47.0004
   7363628.09448   5730072.45647  22129158.7794   22129165.1434   22129159.745
        49.0004         45.0004
  -6642613.67747  -5132473.96546  24009015.9234   24009025.4434   24009015.827
        46.0004         41.0004
 -25033611.67848 -19261310.80048  20822490.3414   20822495.9624   20822489.903
        52.0004         48.0004
 -10575827.09847  -8203209.64346  23660235.1664   23660239.3464   23660234.373
        46.0004         41.0004
   3506417.87448   2727105.96347  22395417.3584   22395422.8464   22395416.553
        49.0004         44.0004
    368715.75146    298475.27546  24656693.2074   24656698.2564   24656693.248
        41.0004         37.0004
 14  5 27  1 19  0.0000000  0 11G28G10G08G26G02G09G17G04G05G30G07
 -15640222.17848 -12188412.84047  21218109.1884   21218113.6444   21218109.385
        51.0004         47.0004
 -23399230.73348 -18220971.87747  20963242.3914   20963247.4174   20963242.888
        52.0004         47.0004
  -5292517.57847  -4111506.65746  22505781.6994   22505786.3264   22505782.414
        46.0004         41.0004
    147363.09347    183553.04746  24526525.8794   24526531.2784   24526524.301
        43.0004         38.0004
 -15013669.74348 -11692145.71347  21477363.4384   21477365.8144   21477364.000
        52.0004         47.0004
   7451815.01748   5798789.55047  22145941.0914   22145946.4664   22145941.103
        49.0004         45.0004
  -6637572.68547  -5128545.91346  24009976.0904   24009984.6534   24009975.079
        46.0004         41.0004
 -24983928.95948 -19222597.03648  20831944.4784   20831950.7364   20831944.210
        52.0004         48.0004
 -10670439.59947  -8276933.62046  23642231.8484   23642234.8204   23642230.703
        45.0004         41.0004
   3595709.89248   2796684.16347  22412408.0624   22412414.7824   22412408.150
        49.0004         44.0004
    471912.60846    378888.38046  24676331.6384   24676334.6084   24676331.506
        41.0004         37.0004
 14  5 27  1 19 30.0000000  0 11G28G10G08G26G02G09G17G04G05G30G07
 -15666422.79348 -12208828.84947  21213123.6064   21213127.9824   21213123.776
        51.0004         47.0004
 -23450362.47448 -18260814.78247  20953511.9584   20953517.1224   20953512.607
        52.0004         47.0004
  -5188818.55747  -4030702.21146  22525515.1094   22525519.9224   22525515.406
        46.0004         41.0004
    156880.32947    190969.16446  24528336.5044   24528342.1544   24528335.798
        43.0004         38.0004
 -15016505.00648 -11694355.01447  21476823.6374   21476826.6054   21476824.164
        51.0004         47.0004
   7540119.01448   5867597.87647  22162744.1334   22162748.7764   22162745.022
        49.0004         45.0004
  -6632765.79247  -5124800.27646  24010889.8264   24010899.3704   24010889.733
        46.0004         41.0004
 -24933885.15148 -19183601.91348  20841467.6634   20841474.0564   20841467.244
        52.0004         48.0004
 -10765080.30447  -8350679.56346  23624220.9894   23624225.1564   23624221.057
        45.0004         41.0004
   3685134.29148   2866365.52447  22429424.8044   22429431.2824   22429425.306
        49.0004         44.0004
    575001.79946    459217.56046  24695948.0274   24695953.5874   24695948.936
        41.0004         36.0004
 14  5 27  1 20  0.0000000  0 11G28G10G08G26G02G09G17G04G05G30G07
 -15692193.55848 -12228909.91847  21208219.3284   21208223.9454   21208219.165
        51.0004         47.0004
 -23501146.29248 -18300386.58847  20943848.5464   20943853.1584   20943849.034
        52.0004         47.0004
  -5084984.04047  -3949792.19646  22545273.3704   22545278.5954   22545273.863
        46.0004         41.0004
    166237.75047    198260.73446  24530116.6494   24530122.2264   24530117.651
        43.0004         38.0004
 -15018925.48948 -11696241.10547  21476363.4044   21476365.8784   21476363.694
        52.0004         47.0004
   7628535.88248   5936494.14947  22179569.7854   22179574.6874   22179569.836
        49.0004         45.0004
  -6628194.03047  -5121237.85346  24011760.0074   24011769.0864   24011759.935
        46.0004         41.0004
 -24883484.41448 -19144328.65548  20851058.6854   20851064.4274   20851058.493
        52.0004         48.0004
 -10859747.73847  -8424446.33646  23606206.3694   23606211.5964   23606206.326
        45.0004         41.0004
   3774686.93148   2936146.80947  22446467.1694   22446473.0514   22446466.897
        49.0004         44.0004
    677979.84746    539460.14346  24715545.5104   24715550.0284   24715544.761
        41.0004         36.0004
 14  5 27  1 20 30.0000000  0 11G28G10G08G26G02G09G17G04G05G30G07
 -15717531.58748 -12248653.78447  21203398.0184   21203402.5944   21203397.850
        51.0004         47.0004
 -23551578.78648 -18339684.63047  20934251.6814   20934256.5054   20934251.763
        52.0004         47.0004
  -4981016.65647  -3868778.62946  22565058.0524   22565063.2714   22565058.076
        46.0004         41.0004
    175434.42447    205427.04646  24531866.9114   24531872.0604   24531867.217
        43.0004         38.0004
 -15020931.56048 -11697804.28047  21475981.3804   21475983.8964   21475981.913
        52.0004         47.0004
   7717063.12548   6005476.43547  22196416.5304   22196419.8774   22196415.947
        49.0004         45.0004
  -6623856.41547  -5117857.88946  24012585.0464   24012594.5064   24012584.840
        46.0004         41.0004
 -24832728.89748 -19104778.94948  20860716.6634   20860723.1494   20860716.532
        52.0004         48.0004
 -10954438.75747  -8498231.48946  23588187.7014   23588191.1564   23588187.116
        45.0004         41.0004
   3864365.68148   3006026.36947  22463531.9224   22463538.2044   22463531.975
        49.0004         44.0004
    780845.19346    619614.92046  24735119.9294   24735123.9864   24735119.653
        41.0004         36.0004
 14  5 27  1 21  0.0000000  0 11G28G10G08G26G02G09G17G04G05G30G07
 -15742435.23448 -12268059.17347  21198658.5644   21198663.6544   21198658.575
        51.0004         47.0004
 -23601658.41548 -18378707.71247  20924722.0504   20924726.2164   20924722.075
        52.0004         47.0004
  -4876920.97047  -3787665.09046  22584866.7534   22584871.5674   22584867.326
        46.0004         41.0004
    184467.72947    212466.06446  24533586.2304   24533591.1424   24533585.504
        43.0004         38.0004
 -15022525.63248 -11699046.42147  21475677.9044   21475681.3664   21475678.454
        52.0004         47.0004
   7805696.72548   6074541.59047  22213282.6764   22213287.1434   22213282.746
        49.0004         45.0004
  -6619753.39847  -5114660.71946  24013365.4284   24013375.8354   24013365.378
        46.0004         41.0004
 -24781621.85648 -19064955.33448  20870443.0434   20870448.4634   20870442.378
        52.0004         48.0004
 -11049152.22447  -8572034.14246  23570164.6854   23570167.6954   23570164.069
        46.0004         41.0004
   3954166.63148   3076001.14747  22480620.8624   22480626.0904   22480619.759
        49.0004         44.0004
    883594.68846    699679.42245  24754672.4874   24754675.3014   24754671.644
        40.0004         35.0004
 14  5 27  1 21 30.0000000  0 11G28G10G08G26G02G09G17G04G05G30G07
 -15766902.43348 -12287124.47447  21194002.4404   21194007.3664   21194002.892
        51.0004         47.0004
 -23651382.70148 -18417453.90347  20915258.8754   20915264.4924   20915259.895
        52.0004         47.0004
  -4772700.57047  -3706454.38646  22604699.2884   22604703.8354   22604699.854
        46.0004         41.0004
    193335.64447    219376.22046  24535273.6964   24535278.0754   24535272.383
        42.0004         38.0004
 -15023709.58648 -11699968.98447  21475452.4874   21475455.4534   21475452.998
        52.0004         47.0004
   7894433.55148   6143687.18647  22230168.3194   22230172.6064   22230168.692
        49.0004         45.0004
  -6615884.52547  -5111645.99946  24014102.3814   24014111.4564   24014101.583
        46.0004         41.0004
 -24730166.71248 -19024860.46048  20880234.2694   20880240.1304   20880233.611
        52.0004         48.0004
 -11143886.42447  -8645852.94446  23552137.0704   23552140.2894   23552136.653
        46.0004         41.0004
   4044086.56348   3146068.63647  22497731.3674   22497737.4074   22497731.245
        49.0004         44.0004
    986225.71546    779651.56645  24774204.5064   24774206.9954   24774202.381
        39.0004         34.0004
 14  5 27  1 22  0.0000000  0 11G28G10G08G26G02G09G17G04G05G30G07
 -15790929.26348 -12305846.62547  21189430.1924   21189435.0914   21189430.329
        51.0004         47.0004
 -23700746.79948 -18455919.43448  20905865.2824   20905870.6644   20905866.088
        52.0004         48.0004
  -4668356.73847  -3625147.48846  22624554.9584   22624559.9904   22624555.792
        45.0004         41.0004
    202038.76647    226157.93546  24536930.0224   24536934.9584   24536930.837
        43.0004         38.0004
 -15024482.28448 -11700571.08847  21475306.3004   21475308.8984   21475306.829
        52.0004         47.0004
   7983272.48548   6212912.35147  22247073.7904   22247077.5684   22247074.032
        49.0004         44.0004
  -6612248.37347  -5108812.62246  24014794.0544   24014802.8664   24014793.775
        46.0004         41.0004
 -24678363.86548 -18984494.65948  20890092.0904   20890097.8504   20890091.428
        52.0004         48.0004
 -11238636.76747  -8719684.31946  23534105.9684   23534110.7464   23534106.104
        46.0004         41.0004
   4134124.82248   3216228.33247  22514865.7764   22514870.5874   22514865.538
        48.0004         44.0004
   1088738.20446    859531.34645  24793709.7704   24793714.3884   24793710.169
        40.0004         35.0004
 14  5 27  1 22 30.0000000  0 11G28G10G08G26G02G09G17G04G05G30G07
 -15814513.74548 -12324224.09347  21184942.3794   21184946.8234   21184942.442
        51.0004         47.0004
 -23749748.20548 -18494102.34447  20896540.8794   20896546.0964   20896541.693
        52.0004         47.0004
  -4563893.17347  -3543747.29646  22644434.0544   22644439.4354   22644434.564
        45.0004         41.0004
    210574.97147    232809.58546  24538554.1264   24538558.9674   24538553.754
        43.0004         38.0004
 -15024845.31348 -11700853.97247  21475236.5694   21475239.4454   21475237.272
        52.0004         47.0004
   8072210.16248   6282214.45047  22263998.2444   22264002.2134   22263998.401
        49.0004         44.0004
  -6608844.31447  -5106160.09646  24015441.9834   24015451.5314   24015441.223
        46.0004         41.0004
 -24626216.54648 -18943860.43448  20900015.3914   20900021.1884   20900014.915
        52.0004         48.0004
 -11333401.66047  -8793527.03847  23516073.7444   23516077.2554   23516072.705
        46.0004         42.0004
   4224278.04048   3286477.59947  22532021.2534   22532027.3064   22532020.679
        48.0004         44.0004
   1191129.57546    939316.76245  24813194.8094   24813199.7844   24813194.765
        39.0004         35.0004
 14  5 27  1 23  0.0000000  0 11G28G10G08G26G02G09G17G04G05G30G07
 -15837654.66648 -12342255.93247  21180538.1824   21180543.0684   21180538.782
        51.0004         47.0004
 -23798385.47148 -18532001.50648  20887286.0594   20887290.7444   20887286.166
        52.0004         48.0004
  -4459314.07847  -3462257.08846  22664334.6754   22664339.8594   22664335.588
        45.0004         41.0004
    218941.75147    239329.23646  24540144.2164   24540151.1994   24540145.544
        43.0004         38.0004
 -15024801.30948 -11700819.68747  21475245.4484   21475247.8204   21475245.533
        52.0004         47.0004
   8161242.31348   6351590.16147  22280940.2794   22280944.1094   22280940.782
        49.0004         44.0004
  -6605672.95747  -5103688.89646  24016044.9494   24016055.3304   24016045.290
        46.0004         41.0004
 -24573728.31448 -18902960.56548  20910003.0794   20910009.6444   20910003.284
        52.0004         48.0004
 -11428179.59447  -8867379.92246  23498038.0504   23498041.4844   23498036.876
        46.0004         41.0004
   4314542.46048   3356813.52247  22549197.6044   22549204.2484   22549197.624
        48.0004         44.0004
   1293396.46146   1019005.14845  24832654.5784   24832660.5604   24832655.809
        39.0004         35.0004
 14  5 27  1 23 30.0000000  0 11G28G10G08G26G02G09G17G04G05G30G07
 -15860349.96348 -12359940.53147  21176219.8884   21176223.9274   21176220.070
        51.0004         47.0004
 -23846655.95648 -18569614.86448  20878100.2884   20878105.0174   20878100.971
        52.0004         48.0004
  -4354623.02347  -3380679.63446  22684256.8084   22684261.9664   22684257.911
        45.0004         41.0004
    227137.26447    245715.42046  24541705.7464   24541711.4564   24541705.163
        43.0004         38.0004
 -15024351.36348 -11700469.08547  21475330.7454   21475333.6474   21475331.262
        52.0004         47.0004
   8250366.06448   6421037.25347  22297899.7384   22297904.9664   22297900.247
        49.0004         44.0004
  -6602734.34647  -5101399.05846  24016604.6244   24016614.1014   24016604.272
        46.0004         41.0004
 -24520902.24048 -18861797.44248  20920055.7094   20920062.3454   20920055.525
        52.0004         48.0004
 -11522967.96647  -8941240.93747  23480000.0624   23480004.4394   23479999.158
        46.0004         42.0004
   4404915.10848   3427233.77347  22566394.8264   22566401.6564   22566394.915
        48.0004         43.0004
   1395537.07346   1098595.12445  24852091.5904   24852097.7814   24852092.325
        39.0004         35.0004
 14  5 27  1 24  0.0000000  0 11G28G10G08G26G02G09G17G04G05G30G07
 -15882595.23248 -12377274.45847  21171986.3544   21171991.1944   21171986.699
        51.0004         47.0004
 -23894554.97348 -18606938.76948  20868985.2344   20868989.9204   20868985.768
        52.0004         48.0004
  -4249821.17947  -3299015.84446  22704199.9354   22704204.3914   22704200.603
        45.0004         41.0004
    235162.09547    251968.59646  24543233.4014   24543238.4934   24543232.685
        43.0004         38.0004
 -15023495.03048 -11699801.81847  21475493.8114   21475496.3274   21475494.085
        52.0004         47.0004
   8339580.59648   6490555.08947  22314877.4924   22314881.7374   22314877.440
        49.0004         44.0004
  -6600025.77847  -5099288.47046  24017119.7444   24017129.3614   24017119.734
        46.0004         41.0004
 -24467738.73248 -18820371.38348  20930172.9124   20930178.9284   20930172.437
        52.0004         48.0004
 -11617762.33247  -9015106.62546  23461960.9104   23461965.1814   23461960.616
        46.0004         41.0004
   4495395.19948   3497737.75147  22583612.8684   22583619.6374   22583612.331
        48.0004         43.0004
   1497551.09546   1178086.46645  24871508.2734   24871509.1104   24871505.234
        39.0004         35.0004
 14  5 27  1 24 30.0000000  0 11G28G10G08G26G02G09G17G04G05G30G07
 -15904390.01848 -12394257.36447  21167839.2214   21167843.8804   21167839.517
        51.0004         47.0004
 -23942081.60948 -18643972.50448  20859941.6234   20859946.0504   20859941.781
        52.0004         48.0004
  -4144913.45947  -3217269.57546  22724163.3744   22724167.9744   22724164.018
        45.0004         41.0004
    243012.86047    258086.14946  24544726.9864   24544731.3104   24544726.936
        43.0004         38.0004
 -15022235.29348 -11698820.21047  21475733.2414   21475736.1264   21475733.861
        52.0004         47.0004
   8428881.04448   6560139.87047  22331870.1264   22331874.3454   22331870.489
        49.0004         44.0004
  -6597548.81947  -5097358.37246  24017590.9144   24017601.1094   24017590.761
        46.0004         41.0004
 -24414242.73048 -18778686.23247  20940352.4834   20940358.9804   20940352.426
        52.0004         47.0004
 -11712562.30147  -9088976.69647  23443921.0884   23443925.4884   23443920.436
        46.0004         42.0004
   4585978.09048   3568321.83447  22600849.8614   22600855.8924   22600849.945
        48.0004         43.0004
  -4702245.42846  -3652923.91745  24890890.1544   24890897.0204   24890892.453
        39.0004         34.0004
 14  5 27  1 25  0.0000000  0 11G28G10G08G26G02G09G17G04G05G30G07
 -15925732.95248 -12410888.17447  21163778.0684   21163782.2504   21163778.050
        51.0004         47.0004
 -23989233.81048 -18680714.47148  20850968.1654   20850973.5914   20850969.039
        52.0004         48.0004
  -4039903.88547  -3135443.91546  22744145.2204   22744151.3994   22744146.447
        45.0004         41.0004
    250687.44247    264066.41546  24546187.5934   24546191.3684   24546186.696
        43.0004         38.0004
 -15020574.00548 -11697525.70947  21476049.8784   21476052.8234   21476050.214
        52.0004         47.0004
   8518263.90548   6629788.86947  22348878.5134   22348882.6884   22348879.352
        49.0004         44.0004
  -6595303.36747  -5095608.65846  24018019.3574   24018028.1104   24018018.705
        46.0004         41.0004
 -24360417.17848 -18736744.29647  20950594.7964   20950601.5504   20950594.979
        52.0004         47.0004
 -11807366.20847  -9162849.81047  23425880.3954   23425883.8034   23425879.636
        46.0004         42.0004
   4676660.38548   3638983.37147  22618106.9104   22618112.9934   22618106.492
        48.0004         43.0004
  -4600495.18846  -3573638.13845  24910252.8074   24910259.6114   24910255.019
        39.0004         35.0004
 14  5 27  1 25 30.0000000  0 11G28G10G08G26G02G09G17G04G05G30G07
 -15946619.02948 -12427162.99347  21159803.4464   21159807.9734   21159803.400
        51.0004         47.0004
 -24036005.93648 -18717160.27848  20842068.1684   20842072.8004   20842068.663
        52.0004         48.0004
  -3934793.21947  -3053539.49746  22764147.9394   22764152.7724   22764148.294
        45.0004         41.0004
    258187.02147    269910.30046  24547613.0964   24547618.3014   24547612.670
        43.0004         38.0004
 -15018509.87248 -11695917.30147  21476442.3054   21476445.0864   21476442.763
        52.0004         47.0004
   8607728.95448   6699501.91547  22365903.9154   22365907.8984   22365903.753
        49.0004         44.0004
  -6593286.20947  -5094036.84346  24018402.6414   24018412.1154   24018402.371
        46.0004         41.0004
 -24306262.22748 -18694545.68947  20960900.9784   20960906.8164   20960900.506
        52.0004         47.0004
 -11902168.82447  -9236721.93447  23407840.3314   23407843.8914   23407839.673
        46.0004         42.0004
   4767442.06448   3709722.36047  22635380.8454   22635387.9844   22635381.230
        48.0004         43.0004
  -4498877.53256  -3494455.61655  24929595.1055   24929597.7425   24929592.270
        39.0004         34.0004
 14  5 27  1 26  0.0000000  0 11G28G10G08G26G02G09G17G04G05G30G07
 -15967048.85148 -12443082.28747  21155915.8524   21155919.8134   21155915.625
        51.0004         47.0004
 -24082397.91448 -18753309.86848  20833239.6744   20833244.8244   20833240.453
        52.0004         48.0004
  -3829587.03147  -2971560.63546  22784167.6444   22784172.9524   22784168.353
        45.0004         41.0004
    265507.34147    275614.51746  24549006.9844   24549012.7164   24549007.476
        43.0004         38.0004
 -15016047.10448 -11693998.27247  21476911.0494   21476913.6274   21476911.606
        52.0004         47.0004
   8697270.25348   6769274.36947  22382942.0514   22382947.7424   22382943.239
        49.0004         44.0004
  -6591499.55847  -5092644.63246  24018742.6114   24018751.6084   24018742.218
        46.0004         41.0004
 -24251783.48548 -18652094.77047  20971268.0944   20971273.6594   20971267.491
        52.0004         47.0004
 -11996970.40747  -9310593.24247  23389800.1334   23389803.7194   23389799.736
        47.0004         42.0004
   4858317.57248   3780534.44647  22652674.5164   22652680.1494   22652674.002
        48.0004         43.0004
  -4397397.33746  -3415380.24945  24948902.5534   24948910.0274   24948903.518
        39.0004         34.0004
 14  5 27  1 26 30.0000000  0 11G28G10G08G26G02G09G17G04G05G30G07
 -15987019.00048 -12458643.39747  21152115.5754   21152119.9434   21152115.481
        51.0004         47.0004
 -24128405.86948 -18789160.21948  20824484.3244   20824489.5954   20824485.365
        52.0004         48.0004
  -3724287.43947  -2889509.01646  22804206.0934   22804211.6304   22804206.709
        45.0004         41.0004
    272648.18747    281178.88346  24550366.1344   24550371.5954   24550366.004
        43.0004         38.0004
 -15013185.81448 -11691768.69947  21477455.6484   21477457.6014   21477455.769
        52.0004         47.0004
   8786886.29648   6839105.06847  22399996.0094   22399999.5604   22399996.173
        49.0004         44.0004
  -6589941.76947  -5091430.75946  24019039.5174   24019048.3594   24019038.165
        46.0004         41.0004
 -24196982.01448 -18609392.38047  20981696.3074   20981701.7334   20981696.064
        52.0004         47.0004
 -12091767.27547  -9384460.88347  23371760.4694   23371765.2734   23371759.679
        47.0004         42.0004
   4949285.36048   3851418.44547  22669984.8884   22669991.1784   22669984.964
        48.0004         43.0004
  -4296055.25146  -3336412.53545  24968187.2964   24968192.8124   24968187.488
        39.0004         34.0004
 14  5 27  1 27  0.0000000  0 11G28G10G08G26G02G09G17G04G05G30G07
 -16006526.90548 -12473844.31047  21148402.8144   21148407.8184   21148403.234
        51.0004         47.0004
 -24174026.78048 -18824708.98248  20815803.5904   20815808.5584   20815804.016
        52.0004         48.0004
  -3618897.20547  -2807386.75546  22824260.9234   22824266.1504   22824261.261
        45.0004         41.0004
    279608.43947    286602.52246  24551690.8634   24551695.2604   24551689.439
        43.0004         38.0004
 -15009927.02148 -11689229.39147  21478076.0964   21478077.9424   21478076.704
        52.0004         47.0004
   8876574.61348   6908992.08247  22417064.5894   22417067.7244   22417063.515
        48.0004         44.0004
  -6588611.93647  -5090394.50746  24019291.5834   24019300.6784   24019291.655
        46.0004         41.0004
 -24141860.57448 -18566440.65947  20992185.3634   20992191.8504   20992185.180
        52.0004         47.0004
 -12186556.41747  -9458322.51147  23353723.0604   23353726.9384   23353722.561
        47.0004         42.0004
   5040343.17848   3922372.59547  22687312.6714   22687318.8904   22687313.054
        48.0004         43.0004
  -4194853.12046  -3257553.83745  24987447.8524   24987452.5474   24987447.188
        39.0004         34.0004
 14  5 27  1 27 30.0000000  0 11G28G10G08G26G02G09G17G04G05G30G07
 -16025570.97648 -12488683.80047  21144778.9444   21144783.8164   21144779.112
        51.0004         47.0004
 -24219258.37048 -18859954.37148  20807195.9414   20807201.1224   20807196.761
        52.0004         48.0004
  -3513420.10347  -2725196.80146  22844333.3804   22844337.2414   22844333.180
        45.0004         41.0004
    286386.10147    291883.89546  24552979.1544   24552985.5214   24552979.323
        43.0004         38.0004
 -15006272.48148 -11686381.70847  21478771.3554   21478774.1384   21478771.310
        52.0004         47.0004
   8966331.78848   6978932.75447  22434143.0784   22434147.4504   22434143.484
        48.0004         44.0004
  -6587509.90347  -5089535.76946  24019501.0974   24019510.5934   24019501.430
        46.0004         41.0004
 -24086422.36148 -18523242.10347  21002734.4384   21002741.9114   21002734.788
        52.0004         47.0004
 -12281336.05647  -9532176.72147  23335687.0334   23335690.8484   23335686.597
        47.0004         42.0004
   5131487.60848   3993394.24147  22704657.3824   22704662.4254   22704656.990
        48.0004         43.0004
  -4093793.21446  -3178805.95545  25006678.0574   25006681.7174   25006678.394
        39.0004         34.0004
 14  5 27  1 28  0.0000000  0 11G28G10G08G26G02G09G17G04G05G30G07
 -16044148.80748 -12503159.98847  21141243.8194   21141248.8544   21141243.941
        51.0004         47.0004
 -24264097.67948 -18894894.09348  20798663.4704   20798668.4524   20798664.204
        52.0004         48.0004
  -3407858.86947  -2642941.29546  22864420.4964   22864424.5644   22864420.879
        45.0004         41.0004
    292980.11747    297022.16446  24554235.0704   24554238.8334   24554234.456
        43.0004         38.0004
 -15002223.18548 -11683226.42047  21479541.3544   21479544.3814   21479542.069
        52.0004         47.0004
   9056155.28948   7048925.11047  22451236.0694   22451240.6734   22451236.415
        48.0004         44.0004
  -6586634.60847  -5088853.71746  24019668.2814   24019677.1354   24019667.775
        46.0004         41.0004
 -24030669.59048 -18479798.44547  21013344.4764   21013351.2564   21013344.105
        52.0004         47.0004
 -12376103.20347  -9606021.21247  23317653.9714   23317656.9404   23317652.593
        47.0004         42.0004
   5222716.41747   4064481.63147  22722017.5684   22722023.0324   22722016.859
        47.0004         43.0004
  -3992877.23946  -3100170.25745  25025882.7154   25025886.5694   25025882.099
        39.0004         35.0004
 14  5 27  1 28 30.0000000  0 11G28G10G08G26G02G09G17G04G05G30G07
 -16062258.02748 -12517271.02247  21137797.6354   21137802.2284   21137797.592
        51.0004         47.0004
 -24308541.69048 -18929525.78648  20790205.9574   20790210.9464   20790206.370
        52.0004         48.0004
  -3302216.27047  -2560622.37746  22884523.9144   22884527.4624   22884524.036
        45.0004         41.0004
    299389.37847    302016.45246  24555454.6854   24555460.1214   24555455.301
        43.0004         38.0004
 -14997780.46548 -11679764.57147  21480387.4464   21480389.9974   21480387.514
        52.0004         47.0004
   9146042.60748   7118967.18247  22468341.6964   22468346.2344   22468341.813
        48.0004         44.0004
  -6585985.15147  -5088347.62246  24019791.4734   24019801.0414   24019791.297
        45.0004         41.0004
 -23974604.89748 -18436111.72947  21024013.1634   21024019.4384   21024013.027
        52.0004         47.0004
 -12470855.09847  -9679853.80947  23299622.8514   23299625.4784   23299621.760
        46.0004         42.0004
   5314027.14947   4135632.85847  22739392.5004   22739399.8004   22739392.416
        47.0004         43.0004
  -3892107.09546  -3021648.19745  25045056.5614   25045060.8004   25045057.890
        39.0004         35.0004
 14  5 27  1 29  0.0000000  0 11G28G10G08G26G02G09G17G04G05G30G07
 -16079897.22948 -12531015.80647  21134440.7594   21134445.8414   21134441.183
        51.0004         47.0004
 -24352588.70048 -18963848.13348  20781824.4254   20781829.7314   20781825.032
        52.0004         48.0004
  -3196496.51547  -2478243.34346  22904640.1814   22904645.6964   22904641.271
        45.0004         40.0004
    305611.66947    306865.04546  24556638.9274   24556643.1234   24556639.338
        43.0004         38.0004
 -14992946.57648 -11675997.92047  21481306.4534   21481309.7404   21481307.500
        52.0004         47.0004
   9235989.92448   7189056.01547  22485458.1804   22485461.9114   22485458.142
        48.0004         44.0004
  -6585561.86447  -5088017.76546  24019872.1564   24019881.6564   24019871.677
        45.0004         41.0004
 -23918231.75648 -18392184.65847  21034740.8114   21034747.1754   21034740.384
        52.0004         47.0004
 -12565589.77847  -9753672.99847  23281594.9444   23281598.2464   23281594.549
        46.0004         42.0004
   5405416.24847   4206845.14447  22756783.4544   22756789.7724   22756783.598
        47.0004         43.0004
  -3791485.58946  -2943241.97146  25064205.8844   25064209.9524   25064205.608
        40.0004         36.0004
 14  5 27  1 29 30.0000000  0 11G28G10G08G26G02G09G17G04G05G30G07
 -16097064.63848 -12544392.96547  21131173.9474   21131178.4974   21131174.262
        51.0004         47.0004
 -24396236.03048 -18997859.04148  20773517.8404   20773523.3934   20773518.713
        52.0004         48.0004
  -3090702.63147  -2395806.54746  22924773.6534   22924778.1884   22924773.509
        45.0004         40.0004
    311645.41547    311566.72746  24557786.4724   24557791.3734   24557785.971
        43.0004         38.0004
 -14987723.11448 -11671927.70947  21482301.0224   21482303.9514   21482301.478
        52.0004         47.0004
   9325994.34748   7259189.35647  22502584.2844   22502589.0284   22502585.161
        48.0004         44.0004
  -6585364.04147  -5087863.59646  24019909.6374   24019918.8954   24019909.694
        45.0004         41.0004
 -23861552.83248 -18348019.32247  21045526.4894   21045532.6414   21045526.399
        52.0004         47.0004
 -12660305.15247  -9827477.14147  23263571.3384   23263575.9724   23263571.314
        47.0004         42.0004
   5496880.95247   4278116.34147  22774189.7094   22774195.2104   22774189.204
        47.0004         43.0004
  -3691014.47146  -2864952.91245  25083324.2074   25083326.6564   25083324.292
        40.0004         35.0004
 14  5 27  1 30  0.0000000  0 11G28G10G08G26G02G09G17G04G05G30G07
 -16113758.53148 -12557401.15047  21127997.6454   21128001.7024   21127997.572
        51.0004         47.0004
 -24439481.70048 -19031556.96548  20765289.0714   20765293.8874   20765289.747
        52.0004         48.0004
  -2984838.11047  -2313314.71446  22944918.7724   22944922.5054   22944919.086
        45.0004         40.0004
    317488.80147    316120.05746  24558898.6754   24558904.6354   24558897.467
        43.0004         39.0004
 -14982112.08348 -11667555.49147  21483369.0044   21483372.0234   21483369.306
        52.0004         47.0004
   9416052.61848   7329364.65147  22519722.5674   22519727.0414   22519722.646
        48.0004         44.0004
  -6585391.78647  -5087885.19946  24019904.7014   24019914.4214   24019904.107
        45.0004         41.0004
 -23804571.70648 -18303618.51047  21056369.2294   21056376.0204   21056369.267
        52.0004         47.0004
 -12754999.05447  -9901264.55747  23245551.6004   23245555.5084   23245550.798
        47.0004         42.0004
   5588418.06447   4349443.97347  22791607.9394   22791614.1524   22791608.169
        47.0004         43.0004
  -3590695.97146  -2786782.78246  25102416.4244   25102419.4444   25102414.969
        40.0004         36.0004
 14  5 27  1 30 30.0000000  0 11G28G10G08G26G02G09G17G04G05G30G07
 -16129973.85048 -12570036.41747  21124911.2854   21124916.3844   21124911.601
        51.0004         47.0004
 -24482319.56748 -19064937.12248  20757137.4754   20757142.3694   20757137.706
        52.0004         48.0004
  -2878903.27047  -2230768.07946  22965076.4314   22965082.0764   22965077.948
        45.0004         40.0004
    323143.62147    320526.48246  24559974.0984   24559979.1794   24559974.358
        43.0004         39.0004
 -14976111.41648 -11662879.66447  21484510.8434   21484513.5834   21484511.225
        52.0004         47.0004
   9506165.27748   7399582.32547  22536869.8444   22536875.5934   22536870.630
        48.0004         44.0004
  -6585641.19747  -5088079.52546  24019857.0224   24019866.9594   24019856.742
        45.0004         41.0004
 -23747287.74348 -18258981.71547  21067270.1334   21067276.5074   21067270.174
        52.0004         47.0004
 -12849665.21847  -9975030.35047  23227536.7254   23227540.6994   23227536.521
        47.0004         42.0004
   5680028.09347   4420828.41547  22809041.3674   22809046.8694   22809041.011
        47.0004         42.0004
  -3490529.24446  -2708730.90545  25121476.3064   25121481.8614   25121475.047
        40.0004         35.0004
 14  5 27  1 31  0.0000000  0 11G28G10G08G26G02G09G17G04G05G30G07
 -16145712.26048 -12582300.06947  21121916.3324   21121920.6164   21121916.878
        51.0004         47.0004
 -24524750.67848 -19098000.32648  20749062.8264   20749067.6914   20749063.581
        52.0004         48.0004
  -2772904.65047  -2148171.75746  22985248.4024   22985252.6644   22985248.149
        45.0004         40.0004
    328604.72247    324781.93146  24561013.6364   24561019.2104   24561013.235
        43.0004         38.0004
 -14969726.44548 -11657904.38347  21485725.6014   21485728.0544   21485726.002
        52.0004         47.0004
   9596325.54048   7469837.09147  22554028.6674   22554032.2944   22554027.786
        48.0004         43.0004
  -6586115.34747  -5088448.97146  24019766.2424   24019776.2764   24019766.451
        45.0004         40.0004
 -23689707.41048 -18214113.97947  21078227.9614   21078234.0414   21078227.342
        52.0004         47.0004
 -12944305.85247 -10048776.25447  23209527.5484   23209531.1594   23209527.260
        46.0004         42.0004
   5771704.53947   4492264.60947  22826486.2154   22826491.9854   22826486.203
        47.0004         43.0004
  -3390519.82846  -2630801.62545  25140507.3454   25140511.7904   25140507.171
        40.0004         35.0004
 14  5 27  1 31 30.0000000  0 11G28G10G08G26G02G09G17G04G05G30G07
 -16160969.87748 -12594189.08147  21119013.2304   21119017.7144   21119013.255
        51.0004         47.0004
 -24566771.02848 -19130743.45548  20741066.8274   20741071.8774   20741067.475
        53.0004         48.0004
  -2666843.61347  -2065526.78346  23005431.2614   23005435.5524   23005431.285
        44.0004         40.0004
    333872.48947    328886.74546  24562015.7384   24562021.1464   24562015.245
        43.0004         39.0004
 -14962956.95248 -11652629.46147  21487014.2594   21487016.8274   21487014.514
        52.0004         47.0004
   9686532.08148   7540127.91147  22571193.8104   22571197.0664   22571193.603
        48.0004         43.0004
  -6586811.76047  -5088991.59946  24019633.4874   24019644.5774   24019633.771
        45.0004         40.0004
 -23631831.88248 -18169016.22947  21089241.4304   21089247.1644   21089240.718
        52.0004         47.0004
 -13038916.30947 -10122498.64347  23191523.9864   23191527.6274   23191523.058
        46.0004         42.0004
   5863446.58247   4563751.91947  22843944.6264   22843951.0924   22843944.033
        47.0004         42.0004
  -3290667.68646  -2552994.89445  25159507.3564   25159513.5214   25159508.586
        40.0004         35.0004
 14  5 27  1 32  0.0000000  0 10G28G10G08G26G02G09G17G04G05G30
 -16175744.89948 -12605702.04347  21116201.1224   21116206.0784   21116201.555
        51.0004         47.0004
 -24608377.72648 -19163164.26048  20733149.1194   20733154.4734   20733149.703
        53.0004         48.0004
  -2560723.15047  -1982835.49946  23025625.4584   23025628.8574   23025625.663
        44.0004         40.0004
    338945.74147    332839.98946  24562981.1154   24562986.6254   24562981.418
        43.0004         38.0004
 -14955804.56748 -11647056.19647  21488375.0774   21488378.1004   21488375.330
        52.0004         47.0004
   9776782.69248   7610453.08947  22588366.8434   22588371.6714   22588367.598
        48.0004         43.0004
  -6587730.02247  -5089707.10646  24019460.1094   24019468.7094   24019459.176
        45.0004         40.0004
 -23573663.68848 -18123690.43147  21100310.3404   21100316.2894   21100309.869
        52.0004         47.0004
 -13133493.66847 -10196195.25347  23173526.2294   23173530.0354   23173525.177
        47.0004         42.0004
   5955251.61247   4635288.31047  22861414.8814   22861420.4104   22861414.218
        47.0004         42.0004
 14  5 27  1 32 30.0000000  0 10G28G10G08G26G02G09G17G04G05G30
 -16190036.43948 -12616838.26247  21113481.8074   21113486.3614   21113481.839
        51.0004         47.0004
 -24649569.17848 -19195261.49348  20725311.1114   20725315.9004   20725311.548
        53.0004         48.0004
  -2454547.34047  -1900101.09846  23045830.0054   23045834.8324   23045830.324
        44.0004         40.0004
    343822.07447    336639.78346  24563908.6554   24563915.2824   24563909.554
        43.0004         39.0004
 -14948271.73148 -11641186.47047  21489808.6454   21489811.4834   21489808.907
        52.0004         47.0004
   9867073.57548   7680809.63647  22605549.5414   22605552.2184   22605548.996
        48.0004         43.0004
  -6588869.88147  -5090595.29046  24019242.8014   24019252.1204   24019242.374
        45.0004         40.0004
 -23515206.42448 -18078139.37647  21111433.8644   21111440.4354   21111433.873
        52.0004         47.0004
 -13228036.30147 -10269864.80247  23155534.6704   23155538.9954   23155534.640
        47.0004         42.0004
   6047116.03247   4706870.98547  22878895.8174   22878902.1994   22878895.143
        47.0004         42.0004
 14  5 27  1 33  0.0000000  0 10G28G10G08G26G02G09G17G04G05G30
 -16203840.35148 -12627594.51647  21110855.7164   21110859.5204   21110855.457
        51.0004         47.0004
 -24690341.18348 -19227031.88748  20717552.1594   20717557.1684   20717552.560
        53.0004         48.0004
  -2348317.64147  -1817324.70946  23066045.1084   23066046.6944   23066045.221
        44.0004         40.0004
    348502.00547    340286.53646  24564799.0674   24564805.2994   24564799.113
        43.0004         39.0004
 -14940358.14648 -11635020.05847  21491314.3734   21491317.0554   21491314.586
        52.0004         47.0004
   9957403.64048   7751196.71247  22622737.5614   22622743.1164   22622738.346
        48.0004         43.0004
  -6590228.86947  -5091654.22846  24018984.1734   24018993.4074   24018983.589
        45.0004         41.0004
 -23456461.39848 -18032364.09747  21122612.8814   21122619.9134   21122612.483
        52.0004         47.0004
 -13322539.96347 -10343503.97647  23137551.3754   23137555.8434   23137551.277
        47.0004         42.0004
   6139038.91447   4778499.20947  22896386.8564   22896394.0954   22896387.528
        47.0004         42.0004
 14  5 27  1 33 30.0000000  0 10G28G10G08G26G02G09G17G04G05G30
 -16217156.71848 -12637970.86647  21108321.2754   21108325.4614   21108321.289
        51.0004         47.0004
 -24730692.69948 -19258474.62748  20709873.1084   20709878.5624   20709874.113
        53.0004         48.0004
  -2242038.69647  -1734509.95146  23086269.0944   23086274.1124   23086268.847
        44.0004         39.0004
    352982.30447    343777.74646  24565651.7454   24565657.9384   24565650.820
        43.0004         38.0004
 -14932067.15248 -11628559.56247  21492891.9534   21492895.0604   21492892.410
        52.0004         47.0004
  10047768.14548   7821610.63347  22639934.2114   22639939.5424   22639933.860
        48.0004         43.0004
  -6591808.29147  -5092884.92446  24018683.8914   24018692.9004   24018683.050
        45.0004         40.0004
 -23397433.13448 -17986368.11547  21133846.3574   21133851.9304   21133845.755
        51.0004         47.0004
 -13417003.81847 -10417112.14247  23119575.6974   23119579.8814   23119575.269
        47.0004         42.0004
   6231015.80147   4850169.51847  22913889.2114   22913895.3914   22913890.087
        47.0004         42.0004
 14  5 27  1 34  0.0000000  0 10G28G10G08G26G02G09G17G04G05G30
 -16229982.85548 -12647965.21847  21105880.4504   21105884.2214   21105880.468
        51.0004         47.0004
 -24770620.34448 -19289587.07948  20702275.1614   20702280.6794   20702276.019
        53.0004         48.0004
  -2135712.60247  -1651658.44346  23106502.1204   23106506.8764   23106501.392
        44.0004         40.0004
    357262.63847    347113.11746  24566466.2804   24566472.4614   24566466.082
        43.0004         39.0004
 -14923399.50348 -11621805.57147  21494541.4184   21494544.3224   21494541.726
        52.0004         47.0004
  10138165.44848   7892050.10347  22657136.3074   22657140.5884   22657136.152
        48.0004         43.0004
  -6593606.33747  -5094285.99246  24018341.3404   24018350.5034   24018341.094
        45.0004         40.0004
 -23338123.47948 -17940152.86347  21145131.5504   21145138.6984   21145131.778
        51.0004         47.0004
 -13511424.38847 -10490686.58447  23101608.4144   23101611.7444   23101607.723
        47.0004         42.0004
   6323044.98847   4921880.57347  22931403.0454   22931409.1464   22931402.682
        47.0004         42.0004
 14  5 27  1 34 30.0000000  0 10G28G10G08G26G02G09G17G04G05G30
 -16242317.90348 -12657576.90647  21103532.6914   21103537.2604   21103532.848
        51.0004         47.0004
 -24810122.60148 -19320368.06248  20694758.4694   20694763.1664   20694758.674
        53.0004         48.0004
  -2029343.59447  -1568773.50846  23126743.6674   23126747.7954   23126743.015
        44.0004         40.0004
    361340.81047    350290.96846  24567242.7904   24567247.2494   24567242.393
        43.0004         39.0004
 -14914357.84848 -11614760.14747  21496262.2184   21496264.5894   21496262.312
        52.0004         47.0004
  10228591.77048   7962512.19147  22674343.8914   22674348.1884   22674343.947
        48.0004         43.0004
  -6595623.21647  -5095857.56246  24017958.4304   24017967.5494   24017957.420
        45.0004         40.0004
 -23278536.14548 -17893721.24747  21156470.9424   21156477.9724   21156470.812
        51.0004         47.0004
 -13605800.05447 -10564226.03047  23083649.8004   23083652.5644   23083648.995
        47.0004         42.0004
   6415122.86547   4993629.57047  22948925.1254   22948931.0004   22948924.505
        47.0004         42.0004
 14  5 27  1 35  0.0000000  0 10G28G10G08G26G02G09G17G04G05G30
 -16254159.43348 -12666804.03547  21101279.5134   21101283.9244   21101279.534
        51.0004         47.0004
 -24849196.92948 -19350815.59248  20687322.7504   20687327.5404   20687323.499
        53.0004         48.0004
  -1922934.20247  -1485857.10746  23146991.8664   23146996.8414   23146992.376
        44.0004         39.0004
    365215.60047    353310.32946  24567980.5604   24567984.9284   24567980.113
        43.0004         39.0004
 -14904943.58148 -11607424.37547  21498053.1914   21498056.6704   21498054.205
        52.0004         47.0004
  10319044.46848   8032994.82747  22691556.9564   22691560.3624   22691556.672
        48.0004         43.0004
  -6597858.14247  -5097599.04146  24017532.4224   24017541.6624   24017532.215
        45.0004         40.0004
 -23218673.58048 -17847075.15647  21167862.7994   21167868.9134   21167862.807
        51.0004         47.0004
 -13700127.58247 -10637727.97247  23065699.0694   23065702.0784   23065698.825
        47.0004         42.0004
   6507247.02047   5065414.63147  22966454.5914   22966461.4704   22966455.365
        46.0004         42.0004
 14  5 27  1 35 30.0000000  0 10G28G10G08G26G02G09G17G04G05G30
 -16265504.65748 -12675644.43047  21099120.3344   21099124.7394   21099120.609
        51.0004         47.0004
 -24887839.18448 -19380926.44248  20679969.2174   20679974.3394   20679969.980
        53.0004         48.0004
  -1816486.36747  -1402910.73146  23167249.1914   23167254.5154   23167248.455
        44.0004         39.0004
    368887.24247    356171.38746  24568679.6444   24568684.6444   24568679.240
        43.0004         38.0004
 -14895156.82848 -11599798.35747  21499915.9294   21499918.2024   21499916.292
        51.0004         47.0004
  10409522.16748   8103496.94347  22708774.3314   22708778.4254   22708773.588
        48.0004         43.0004
  -6600308.78747  -5099508.62646  24017066.2624   24017075.0884   24017065.627
        45.0004         40.0004
 -23158537.40748 -17800215.86847  21179306.7594   21179312.7074   21179306.164
        51.0004         47.0004
 -13794403.56147 -10711189.75047  23047758.5824   23047761.5574   23047758.397
        47.0004         43.0004
   6599416.21147   5137234.78147  22983994.5544   22984000.0464   22983994.569
        46.0004         42.0004
 14  5 27  1 36  0.0000000  0 11G24G28G10G08G26G02G09G17G04G05G30
  -1009202.30348   -749162.56446  24612157.6944   24612172.3754   24612155.804
        51.0004         36.0004
 -16276357.10248 -12684100.85047  21097055.5394   21097060.6034   21097055.588
        51.0004         47.0004
 -24926052.37548 -19410702.95248  20672697.7884   20672702.7554   20672698.232
        53.0004         48.0004
  -1710008.22347  -1319940.75646  23187510.4524   23187515.3484   23187510.585
        44.0004         39.0004
    372349.00647    358868.92746  24569337.9814   24569342.0624   24569337.392
        43.0004         39.0004
 -14885004.47948 -11591887.45447  21501847.9964   21501850.7014   21501848.304
        52.0004         47.0004
  10500016.84848   8174012.29047  22725993.5994   22725998.8584   22725994.347
        48.0004         43.0004
  -6602979.70347  -5101589.82846  24016557.8554   24016567.1344   24016557.470
        45.0004         40.0004
 -23098135.61048 -17753149.60647  21190800.7344   21190807.0244   21190800.202
        51.0004         47.0004
 -13888630.47947 -10784613.28947  23029828.5914   23029832.4234   23029828.020
        47.0004         43.0004
   6691622.49147   5209083.83947  23001541.7204   23001547.0604   23001541.160
        46.0004         42.0004
 14  5 27  1 36 30.0000000  0 11G24G28G10G08G26G02G09G17G04G05G30
  -1074807.83547   -800283.45146  24599672.0634   24599688.0974   24599670.766
        46.0004         37.0004
 -16286711.16248 -12692168.91047  21095085.0154   21095089.8184   21095085.228
        51.0004         47.0004
 -24963829.97148 -19440140.03748  20665508.9834   20665513.5564   20665509.650
        53.0004         48.0004
  -1603499.29447  -1236946.77846  23207777.9704   23207784.2874   23207778.910
        44.0004         39.0004
    375603.32247    361404.80946  24569956.0494   24569960.6154   24569956.435
        43.0004         38.0004
 -14874484.54248 -11583690.11847  21503850.3894   21503853.0014   21503850.414
        52.0004         47.0004
  10590529.50448   8244541.64747  22743218.7734   22743222.7814   22743218.367
        48.0004         43.0004
  -6605866.41247  -5103839.18446  24016007.9554   24016017.7194   24016007.643
        45.0004         40.0004
 -23037467.35748 -17705875.71247  21202345.3414   21202351.6834   21202344.951
        51.0004         47.0004
 -13982801.68647 -10857993.41947  23011908.6504   23011911.6944   23011907.831
        47.0004         43.0004
   6783866.96347   5280962.65047  23019094.3774   23019100.0084   23019094.574
        46.0004         42.0004
 14  5 27  1 37  0.0000000  0 11G24G28G10G08G26G02G09G17G04G05G30
  -1140087.13147   -851150.12746  24587248.6494   24587264.1294   24587248.878
        43.0004         37.0004
 -16296563.82548 -12699846.27947  21093209.9594   21093214.8634   21093210.307
        51.0004         47.0004
 -25001168.31348 -19469234.84248  20658403.9124   20658408.9714   20658404.353
        53.0004         48.0004
  -1496961.01647  -1153929.93246  23228052.5474   23228057.0754   23228052.136
        44.0004         39.0004
    378650.67747    363779.41446  24570536.7824   24570541.5004   24570536.552
        43.0004         38.0004
 -14863597.36348 -11575206.62647  21505921.6674   21505924.4334   21505922.096
        52.0004         47.0004
  10681058.79448   8315083.95747  22760445.1034   22760449.5214   22760445.330
        48.0004         43.0004
  -6608966.61847  -5106254.89846  24015418.2944   24015428.2824   24015417.886
        45.0004         40.0004
 -22976533.95548 -17658395.20847  21213940.5784   21213946.8624   21213940.350
        51.0004         46.0004
 -14076913.24647 -10931327.07747  22993999.5164   22994003.3124   22993998.298
        47.0004         43.0004
   6876148.60847   5352870.42047  23036654.6424   23036660.2054   23036654.854
        46.0004         42.0004
 14  5 27  1 37 30.0000000  0 11G24G28G10G08G26G02G09G17G04G05G30
  -1205037.15047   -901760.22346  24574889.8124   24574904.8124   24574889.241
        42.0004         37.0004
 -16305911.34348 -12707130.02647  21091431.0364   21091435.9124   21091431.638
        51.0004         47.0004
 -25038063.15048 -19497984.06248  20651383.0594   20651387.7744   20651383.620
        53.0004         48.0004
  -1390394.55047  -1070891.12346  23248331.0234   23248336.1194   23248331.451
        44.0004         39.0004
    381491.28747    365992.91746  24571077.5804   24571082.4214   24571076.722
        43.0004         38.0004
 -14852342.87248 -11566436.91047  21508063.5734   21508065.9064   21508063.657
        52.0004         47.0004
  10771603.62548   8385638.39547  22777674.3184   22777680.6934   22777675.052
        48.0004         43.0004
  -6612277.83347  -5108835.04446  24014787.9974   24014796.8614   24014787.747
        45.0004         40.0004
 -22915336.38548 -17610708.86347  21225586.2924   21225592.5684   21225585.981
        51.0004         46.0004
 -14170960.74347 -11004610.81847  22976102.6724   22976106.0034   22976102.283
        47.0004         43.0004
   6968466.51747   5424806.45347  23054221.8174   23054228.4554   23054222.168
        46.0004         42.0004
 14  5 27  1 38  0.0000000  0 11G24G28G10G08G26G02G09G17G04G05G30
  -1269658.35446   -952114.09546  24562592.3994   24562606.8634   24562591.800
        41.0004         37.0004
 -16314753.13148 -12714019.69747  21089748.9764   21089752.8494   21089748.850
        51.0004         47.0004
 -25074512.84048 -19526386.41548  20644446.8594   20644451.4474   20644447.225
        53.0004         48.0004
  -1283804.15547   -987833.67846  23268613.6054   23268618.9344   23268615.292
        44.0004         40.0004
    384122.91847    368043.58446  24571577.3844   24571582.9954   24571577.389
        43.0004         38.0004
 -14840723.90948 -11557383.19647  21510274.5734   21510277.0154   21510274.748
        52.0004         47.0004
  10862160.34648   8456202.08647  22794907.7194   22794911.9094   22794907.319
        48.0004         43.0004
  -6615800.09847  -5111579.64446  24014117.0194   24014127.2894   24014117.283
        44.0004         40.0004
 -22853878.65948 -17562819.80247  21237282.0254   21237287.6834   21237281.156
        51.0004         47.0004
 -14264942.68647 -11077843.48247  22958217.9234   22958221.9754   22958218.075
        47.0004         43.0004
   7060816.92447   5496767.80547  23071795.9254   23071801.6554   23071796.099
        46.0004         42.0004
 14  5 27  1 38 30.0000000  0 11G24G28G10G08G26G02G09G17G04G05G30
  -1333949.17346  -1002210.51546  24550357.3224   24550371.2484   24550357.153
        41.0004         36.0004
 -16323087.40448 -12720513.89847  21088162.5404   21088167.2194   21088162.906
        51.0004         47.0004
 -25110514.83648 -19554439.91548  20637595.7144   20637600.6334   20637596.329
        53.0004         48.0004
  -1177192.13547   -904759.37146  23288901.7814   23288907.5524   23288902.563
        44.0004         39.0004
    386544.74547    369930.76446  24572038.6924   24572043.9344   24572038.272
        43.0004         38.0004
 -14828742.14448 -11548046.76847  21512554.5704   21512557.5754   21512554.861
        52.0004         47.0004
  10952726.64847   8526773.24347  22812140.5094   22812146.9754   22812141.365
        47.0004         43.0004
  -6619532.20047  -5114487.74946  24013407.8234   24013416.9924   24013407.379
        44.0004         40.0004
 -22792163.18948 -17514729.89647  21249025.0204   21249031.8124   21249025.086
        51.0004         46.0004
 -14358856.01947 -11151022.67247  22940347.8964   22940350.7464   22940346.943
        47.0004         43.0004
   7153197.72847   5568752.84547  23089375.2764   23089381.7544   23089375.368
        46.0004         42.0004
 14  5 27  1 39  0.0000000  0 11G24G28G10G08G26G02G09G17G04G05G30
  -1397912.06946  -1052051.40846  24538185.1774   24538200.7784   24538185.231
        41.0004         37.0004
 -16330915.75148 -12726613.87247  21086672.9804   21086677.7984   21086673.279
        51.0004         47.0004
 -25146070.26348 -19582145.44248  20630830.1354   20630834.6824   20630830.212
        53.0004         48.0004
  -1070564.91647   -821673.23446  23309192.3934   23309196.6524   23309193.433
        44.0004         39.0004
    388752.12447    371650.83646  24572457.9574   24572463.5984   24572458.449
        43.0004         38.0004
 -14816401.94648 -11538431.05247  21514902.7044   21514905.4314   21514902.846
        52.0004         47.0004
  11043296.56347   8597347.20347  22829376.2274   22829381.3464   22829376.971
        47.0004         43.0004
  -6623476.95747  -5117561.56746  24012657.7804   24012665.7294   24012656.695
        44.0004         40.0004
 -22730196.36848 -17466444.12947  21260817.6864   21260823.9604   21260817.060
        51.0004         46.0004
 -14452701.34148 -11224148.87547  22922488.8884   22922492.6764   22922488.844
        48.0004         43.0004
   7245602.96447   5640756.92847  23106959.9344   23106966.8224   23106959.622
        46.0004         42.0004
 14  5 27  1 39 30.0000000  0 11G24G28G10G08G26G02G09G17G04G05G30
  -1461543.73246  -1101634.22046  24526076.8914   24526092.1354   24526076.519
        41.0004         37.0004
 -16338233.64448 -12732316.10147  21085280.9354   21085284.6464   21085280.689
        51.0004         47.0004
 -25181174.18148 -19609499.14448  20624149.6104   20624154.4874   20624150.196
        53.0004         48.0004
   -963923.46547   -738576.01346  23329486.2014   23329489.3514   23329486.480
        44.0004         39.0004
    390746.25847    373204.74446  24572838.3644   24572842.8074   24572838.149
        43.0004         38.0004
 -14803702.73848 -11528535.58747  21517319.2934   21517322.3504   21517319.670
        52.0004         47.0004
  11133869.88047   8667923.83547  22846612.5674   22846616.3024   22846612.350
        47.0004         43.0004
  -6627630.55947  -5120798.11946  24011866.8414   24011876.5524   24011866.211
        44.0004         40.0004
 -22667978.33348 -17417962.62047  21272657.1714   21272664.1244   21272656.750
        51.0004         46.0004
 -14546473.74348 -11297218.25747  22904645.3794   22904648.1044   22904644.254
        48.0004         43.0004
   7338032.35347   5712779.82347  23124548.5684   23124554.3394   23124548.248
        46.0004         42.0004
 14  5 27  1 40  0.0000000  0 11G24G28G10G08G26G02G09G17G04G05G30
  -1524843.08947  -1150958.06146  24514031.9374   24514046.7314   24514030.076
        42.0004         37.0004
 -16345039.85448 -12737619.60947  21083985.2704   21083990.1424   21083985.852
        51.0004         47.0004
 -25215824.10148 -19636499.08348  20617555.6384   20617560.8554   20617556.473
        53.0004         48.0004
   -857269.85847   -655469.32146  23349781.9724   23349786.0184   23349782.083
        44.0004         39.0004
    392526.11547    374591.69146  24573176.6594   24573180.8704   24573176.281
        43.0004         38.0004
 -14790646.46948 -11518361.89047  21519804.1454   21519806.1104   21519804.253
        52.0004         47.0004
  11224444.06847   8738501.13347  22863849.0424   22863852.7064   22863848.019
        47.0004         43.0004
  -6631992.40147  -5124196.92846  24011036.5744   24011045.5334   24011035.753
        44.0004         40.0004
 -22605511.85748 -17369287.51547  21284543.8194   21284550.7774   21284543.975
        51.0004         47.0004
 -14640170.24348 -11370228.49347  22886814.4024   22886817.5344   22886814.718
        48.0004         43.0004
   7430483.63447   5784819.77847  23142141.3994   23142147.3774   23142141.487
        46.0004         42.0004
 14  5 27  1 40 30.0000000  0 11G24G28G10G08G26G02G09G17G04G05G30
  -1587811.58847  -1200024.09546  24502049.7344   24502063.8734   24502048.000
        42.0004         37.0004
 -16351334.76248 -12742524.69747  21082787.3064   21082791.5984   21082787.525
        51.0004         47.0004
 -25250019.81348 -19663145.08948  20611048.5264   20611053.9274   20611049.255
        53.0004         48.0004
   -750609.43747   -572357.30346  23370078.1314   23370083.2514   23370078.460
        44.0004         39.0004
    394088.55147    375809.20846  24573473.3944   24573478.1974   24573473.637
        43.0004         38.0004
 -14777236.86348 -11507912.86747  21522355.8704   21522358.6354   21522355.942
        52.0004         47.0004
  11315014.20147   8809075.27047  22881082.1874   22881087.5824   22881083.198
        47.0004         43.0004
  -6636563.74047  -5127758.98246  24010166.0164   24010174.8374   24010165.747
        44.0004         40.0004
 -22542801.91948 -17320422.69847  21296477.6564   21296483.5214   21296477.663
        51.0004         46.0004
 -14733790.31348 -11443179.17147  22868999.9024   22869003.3024   22868999.202
        48.0004         43.0004
   7522952.21747   5856873.22547  23159737.0334   23159743.7794   23159737.698
        46.0004         42.0004
 14  5 27  1 41  0.0000000  0 11G24G28G10G08G26G02G09G17G04G05G30
  -1650446.05246  -1248829.84446  24490128.7014   24490145.5194   24490128.634
        41.0004         37.0004
 -16357115.24448 -12747028.94247  21081687.3774   21081691.7474   21081687.764
        51.0004         47.0004
 -25283757.31348 -19689434.04648  20604628.9324   20604633.6504   20604629.238
        53.0004         48.0004
   -643943.19747   -489240.76646  23390376.0424   23390380.5534   23390376.625
        44.0004         39.0004
    395433.95647    376857.61946  24573729.9764   24573734.1224   24573729.387
        42.0004         38.0004
 -14763474.03048 -11497188.60647  21524974.7144   21524977.7794   21524974.653
        51.0004         47.0004
  11405579.35947   8879645.53647  22898316.4734   22898321.9874   22898317.163
        47.0004         43.0004
  -6641341.55247  -5131481.91746  24009257.5494   24009266.0504   24009256.152
        44.0004         39.0004
 -22479849.47048 -17271368.91647  21308456.9084   21308463.5374   21308456.588
        51.0004         46.0004
 -14827329.06448 -11516066.47747  22851199.9944   22851203.5314   22851199.472
        48.0004         43.0004
   7615437.15047   5928939.40747  23177335.8024   23177343.3294   23177336.597
        46.0004         42.0004
 14  5 27  1 41 30.0000000  0 11G24G28G10G08G26G02G09G17G04G05G30
  -1712748.40247  -1297376.82346  24478274.1144   24478290.0654   24478273.460
        42.0004         37.0004
 -16362382.05948 -12751132.91747  21080684.7134   21080689.1084   21080685.135
        51.0004         47.0004
 -25317036.77748 -19715366.09448  20598295.9794   20598300.9844   20598296.469
        53.0004         48.0004
   -537276.50447   -406123.86746  23410673.3634   23410677.6734   23410674.740
        44.0004         39.0004
    396558.78147    377734.14246  24573943.8614   24573948.2194   24573943.521
        42.0004         38.0004
 -14749362.37848 -11486192.53447  21527659.5554   21527662.2964   21527660.131
        51.0004         47.0004
  11496134.55447   8950208.03147  22915548.2474   22915554.1454   22915549.002
        47.0004         43.0004
  -6646327.74947  -5135367.24546  24008308.9994   24008317.6764   24008308.317
        44.0004         39.0004
 -22416659.90448 -17222130.36447  21320481.6014   21320488.4324   21320481.392
        51.0004         46.0004
 -14920786.88548 -11588890.72247  22833415.8554   22833419.0874   22833414.959
        48.0004         43.0004
   7707933.46447   6001014.45647  23194937.9134   23194944.9164   23194937.997
        46.0004         42.0004
 14  5 27  1 42  0.0000000  0 11G24G28G10G08G26G02G09G17G04G05G30
  -1774712.52747  -1345660.22046  24466481.9404   24466496.2884   24466480.683
        42.0004         37.0004
 -16367128.50648 -12754831.41947  21079781.8384   21079786.5614   21079781.907
        51.0004         47.0004
 -25349850.50248 -19740935.23148  20592051.7704   20592056.2884   20592052.135
        53.0004         48.0004
   -430607.27847   -323004.99646  23430972.5214   23430977.2084   23430973.055
        44.0004         39.0004
    397467.09047    378441.95046  24574115.4464   24574122.0564   24574116.568
        42.0004         38.0004
 -14734898.54948 -11474922.03847  21530412.4114   21530415.2354   21530412.530
        51.0004         47.0004
  11586682.33247   9020764.75247  22932778.0124   22932783.7034   22932779.031
        47.0004         42.0004
  -6651516.12847  -5139410.11246  24007320.7844   24007330.6774   24007320.733
        44.0004         39.0004
 -22353230.95248 -17172705.27647  21332551.9904   21332558.4144   21332551.451
        51.0004         46.0004
 -15014156.00248 -11661645.85947  22815648.6954   22815651.3694   22815647.114
        48.0004         43.0004
   7800443.90147   6073100.51446  23212541.9994   23212548.6764   23212542.160
        46.0004         41.0004
 14  5 27  1 42 30.0000000  0 11G24G28G10G08G26G02G09G17G04G05G30
  -1836342.71147  -1393683.40846  24454752.8384   24454769.3794   24454752.902
        42.0004         37.0004
 -16371357.66448 -12758126.83547  21078977.5364   21078981.3114   21078976.914
        51.0004         47.0004
 -25382200.71748 -19766143.19548  20585895.2674   20585900.1394   20585896.175
        53.0004         48.0004
   -323942.77447   -239889.79546  23451270.7804   23451276.1124   23451270.780
        44.0004         39.0004
    398153.04347    378976.47846  24574245.9814   24574252.2824   24574247.798
        43.0004         38.0004
 -14720088.44148 -11463381.71247  21533230.3704   21533233.4764   21533230.810
        51.0004         47.0004
  11677215.44247   9091310.03647  22950006.1464   22950011.7294   22950007.550
        47.0004         42.0004
  -6656910.38047  -5143613.40046  24006294.7074   24006304.3214   24006294.402
        44.0004         39.0004
 -22289569.83848 -17123099.29347  21344666.2454   21344673.4804   21344665.699
        51.0004         46.0004
 -15107437.81748 -11734332.96347  22797898.3014   22797900.1344   22797896.286
        48.0004         43.0004
   7892961.33347   6145192.02046  23230147.5074   23230154.2324   23230147.869
        46.0004         41.0004
 14  5 27  1 43  0.0000000  0 11G24G28G10G08G26G02G09G17G04G05G30
  -1897635.82247  -1441443.94646  24443090.4854   24443104.3924   24443089.167
        42.0004         37.0004
 -16375066.89348 -12761017.10947  21078271.4344   21078275.5404   21078271.595
        51.0004         47.0004
 -25414084.15648 -19790987.43648  20579828.5654   20579833.4004   20579828.968
        53.0004         48.0004
   -217284.60047   -156779.53646  23471565.8344   23471570.5214   23471567.136
        44.0004         39.0004
    398617.01447    379338.06446  24574334.8604   24574339.6284   24574335.828
        43.0004         38.0004
 -14704932.98348 -11451572.29147  21536115.3464   21536118.0354   21536115.020
        51.0004         47.0004
  11767732.63647   9161842.91347  22967233.5604   22967236.9484   22967232.446
        47.0004         42.0004
  -6662507.91047  -5147975.08046  24005229.5724   24005238.6364   24005229.476
        44.0004         40.0004
 -22225677.99948 -17073313.51747  21356824.8544   21356830.3484   21356824.168
        51.0004         46.0004
 -15200628.29148 -11806948.88847  22780163.2934   22780165.9414   22780162.904
        48.0004         43.0004
   7985484.60547   6217288.08046  23247754.4234   23247761.0784   23247754.259
        46.0004         41.0004
 14  5 27  1 43 30.0000000  0 11G24G28G10G08G26G02G09G17G04G05G30
  -1958591.22047  -1488941.32346  24431489.3964   24431503.7604   24431489.765
        42.0004         37.0004
 -16378254.41748 -12763500.86447  21077664.9064   21077668.8194   21077664.878
        51.0004         47.0004
 -25445498.09348 -19815465.82848  20573850.4594   20573855.6164   20573851.518
        53.0004         48.0004
   -110635.41647    -73676.28946  23491862.0944   23491866.7274   23491861.952
        43.0004         39.0004
    398857.94347    379525.84646  24574380.3874   24574385.2834   24574381.704
        43.0004         38.0004
 -14689433.90748 -11439495.10947  21539063.8434   21539067.0494   21539064.162
        51.0004         47.0004
  11858231.44747   9232361.47647  22984453.3014   22984457.5164   22984453.824
        47.0004         42.0004
  -6668307.57447  -5152494.27646  24004125.7894   24004135.2184   24004125.985
        44.0004         40.0004
 -22161558.37048 -17023350.24147  21369025.7434   21369032.3254   21369025.653
        51.0004         46.0004
 -15293724.61048 -11879491.45447  22762448.1014   22762451.6124   22762446.861
        48.0004         43.0004
   8078011.37047   6289386.85046  23265362.1144   23265367.0964   23265362.361
        46.0004         41.0004
 14  5 27  1 44  0.0000000  0 11G24G28G10G08G26G02G09G17G04G05G30
  -2019208.38147  -1536175.13546  24419953.7544   24419970.1634   24419953.317
        42.0004         37.0004
 -16380919.01148 -12765577.14147  21077157.3824   21077161.5804   21077157.800
        51.0004         47.0004
 -25476440.47548 -19839576.78148  20567962.4974   20567968.0854   20567962.878
        53.0004         48.0004
     -3998.47447      9417.42446  23512153.1314   23512158.6174   23512153.903
        43.0004         39.0004
    398874.61747    379538.87246  24574383.8954   24574387.9884   24574384.372
        43.0004         38.0004
 -14673592.78348 -11427151.39847  21542078.3514   21542081.1844   21542078.839
        51.0004         47.0004
  11948709.23847   9302863.66047  23001670.7954   23001675.0154   23001671.036
        47.0004         42.0004
  -6674308.99947  -5157170.69146  24002983.7704   24002992.1624   24002983.719
        44.0004         40.0004
 -22097213.53148 -16973211.48147  21381270.3594   21381277.3394   21381270.201
        51.0004         46.0004
 -15386724.24148 -11951958.68347  22744749.1124   22744752.9154   22744749.730
        48.0004         43.0004
   8170538.96047   6361486.28846  23282968.9934   23282975.1614   23282969.018
        46.0004         41.0004
 14  5 27  1 44 30.0000000  0 11G24G28G10G08G26G02G09G17G04G05G30
  -2079486.58847  -1583144.82846  24408482.9384   24408498.9014   24408483.470
        42.0004         37.0004
 -16383059.03148 -12767244.65547  21076750.4334   21076755.0684   21076750.473
        51.0004         47.0004
 -25506908.98448 -19863318.47548  20562164.4284   20562169.4874   20562164.882
        53.0004         48.0004
    102623.81247     92499.70646  23532443.2084   23532448.0444   23532443.537
        43.0004         39.0004
    398666.05847    379376.41046  24574345.3804   24574348.7014   24574344.459
        43.0004         38.0004
 -14657411.76448 -11414542.83647  21545158.0724   21545160.9024   21545157.752
        51.0004         47.0004
  12039163.49747   9373347.50647  23018883.8194   23018887.9774   23018884.238
        47.0004         42.0004
  -6680510.41147  -5162002.94446  24001804.4054   24001813.2124   24001803.616
        44.0004         40.0004
 -22032646.55648 -16922899.62147  21393557.5084   21393564.7174   21393557.123
        51.0004         46.0004
 -15479624.13648 -12024348.18347  22727072.4194   22727075.9064   22727071.481
        48.0004         43.0004
   8263065.13047   6433584.60146  23300575.7264   23300582.5734   23300576.543
        46.0004         41.0004
 14  5 27  1 45  0.0000000  0 11G24G28G10G08G26G02G09G17G04G05G30
  -2139425.79447  -1629850.38646  24397077.4214   24397091.2784   24397076.535
        42.0004         37.0004
 -16384673.97648 -12768503.02047  21076442.5894   21076447.3394   21076443.055
        51.0004         47.0004
 -25536902.14048 -19886689.77448  20556456.7424   20556462.0354   20556457.689
        53.0004         48.0004
    209227.73147    175567.68846  23552729.6774   23552735.6034   23552729.719
        43.0004         39.0004
    398230.52147    379037.06846  24574261.5864   24574266.3744   24574261.333
        42.0004         38.0004
 -14640893.57248 -11401671.54447  21548301.0894   21548304.0674   21548301.504
        52.0004         47.0004
  12129591.08847   9443810.55847  23036091.2114   23036096.3034   23036091.961
        47.0004         42.0004
  -6686912.21047  -5166991.32746  24000585.5534   24000593.9814   24000585.244
        44.0004         40.0004
 -21967860.66348 -16872417.18047  21405885.9344   21405892.2994   21405885.177
        51.0004         46.0004
 -15572422.37248 -12096658.47147  22709412.9674   22709416.0154   22709412.735
        48.0004         43.0004
   8355586.63147   6505679.28346  23318182.2674   23318190.2004   23318182.322
        45.0004         41.0004
 14  5 27  1 45 30.0000000  0 11G24G28G10G08G26G02G09G17G04G05G30
  -2199023.24147  -1676289.61246  24385736.9194   24385749.6774   24385735.445
        42.0004         37.0004
 -16385760.31348 -12769349.48247  21076236.3654   21076240.0624   21076236.562
        51.0004         47.0004
 -25566416.21248 -19909687.75948  20550840.4244   20550845.5944   20550840.980
        53.0004         48.0004
    315812.38147    258620.65546  23573011.0544   23573017.3204   23573011.948
        43.0004         39.0004
    397568.67647    378521.38746  24574134.2954   24574137.9224   24574135.183
        43.0004         38.0004
 -14624038.03648 -11388537.38547  21551508.5904   21551511.4034   21551508.673
        52.0004         47.0004
  12219991.07647   9514252.12147  23053293.8754   23053299.2404   23053294.448
        47.0004         42.0004
  -6693511.39847  -5172133.52346  23999329.5874   23999339.0644   23999329.548
        44.0004         40.0004
 -21902857.24648 -16821765.24147  21418255.5534   21418262.0724   21418254.962
        50.0004         46.0004
 -15665114.50748 -12168886.08147  22691774.2074   22691777.6634   22691773.707
        48.0004         43.0004
   8448102.79847   6577769.80246  23335788.3434   23335793.8074   23335788.366
        45.0004         41.0004
 14  5 27  1 46  0.0000000  0 11G24G28G10G08G26G02G09G17G04G05G30
  -2258278.70247  -1722462.37946  24374459.5184   24374473.8604   24374459.640
        42.0004         37.0004
 -16386317.49648 -12769783.61947  21076130.3764   21076134.4014   21076130.325
        51.0004         47.0004
 -25595449.32748 -19932310.96748  20545316.1094   20545320.8614   20545316.298
        53.0004         48.0004
    422374.07547    341655.73346  23593288.4384   23593293.9014   23593289.009
        43.0004         39.0004
    396678.73647    377827.96346  24573967.7054   24573971.6564   24573966.128
        42.0004         38.0004
 -14606847.87848 -11375142.48347  21554779.6624   21554782.8854   21554780.135
        52.0004         47.0004
  12310360.28447   9584669.68847  23070491.3614   23070496.4204   23070490.756
        47.0004         42.0004
  -6700307.15847  -5177428.90046  23998036.6684   23998045.3634   23998035.765
        44.0004         40.0004
 -21837639.57348 -16770946.34647  21430665.6934   21430672.1954   21430666.106
        50.0004         46.0004
 -15757698.34248 -12241029.30647  22674155.9214   22674159.0394   22674155.520
        48.0004         43.0004
   8540610.51247   6649853.73046  23353392.1324   23353396.9064   23353392.193
        45.0004         41.0004
 14  5 27  1 46 30.0000000  0 11G24G28G10G08G26G02G09G17G04G05G30
  -2317194.09447  -1768370.15846  24363249.1494   24363262.3814   24363247.878
        42.0004         38.0004
 -16386346.97048 -12769806.55147  21076124.3974   21076128.3344   21076124.715
        51.0004         47.0004
 -25624001.75648 -19954559.61948  20539882.3444   20539887.2174   20539883.192
        53.0004         48.0004
    528907.77147    424668.98946  23613562.9874   23613566.9224   23613562.479
        43.0004         38.0004
    395557.41547    376954.25446  24573752.9414   24573757.1764   24573752.846
        42.0004         38.0004
 -14589327.29048 -11361490.10747  21558113.7104   21558117.2394   21558114.213
        52.0004         47.0004
  12400693.79547   9655059.43447  23087680.4274   23087686.1014   23087680.706
        47.0004         42.0004
  -6707301.21347  -5182878.78546  23996705.4134   23996714.1204   23996705.429
        44.0004         40.0004
 -21772212.91048 -16719964.60047  21443116.4654   21443123.4884   21443116.121
        50.0004         46.0004
 -15850173.33848 -12313087.72047  22656559.0174   22656562.7374   22656558.262
        48.0004         44.0004
   8633105.02847   6721927.37646  23370992.9164   23370998.6574   23370993.029
        45.0004         41.0004
 14  5 27  1 47  0.0000000  0 11G24G28G10G08G26G02G09G17G04G05G30
  -2375764.83447  -1814009.36746  24352103.3634   24352116.8594   24352102.694
        42.0004         38.0004
 -16385843.57548 -12769414.26647  21076220.4414   21076224.2434   21076220.683
        51.0004         47.0004
 -25652067.44348 -19976428.99348  20534541.3484   20534546.3394   20534542.261
        53.0004         48.0004
    635414.87747    507661.52746  23633830.2034   23633835.1764   23633830.286
        43.0004         39.0004
    394207.62347    375902.49846  24573496.2794   24573501.4764   24573496.384
        42.0004         38.0004
 -14571474.34748 -11347578.75347  21561511.3724   21561514.1054   21561511.549
        51.0004         47.0004
  12490993.10747   9725422.54647  23104863.5454   23104868.7894   23104864.153
        47.0004         42.0004
  -6714488.55347  -5188479.28246  23995338.3574   23995347.1644   23995337.669
        44.0004         40.0004
 -21706576.02748 -16668819.05547  21455607.3804   21455613.2614   21455606.302
        50.0004         46.0004
 -15942532.87648 -12385056.16947  22638983.7794   22638985.8864   22638983.424
        48.0004         44.0004
   8725587.82547   6793991.89346  23388591.4134   23388597.7974   23388591.939
        45.0004         41.0004
 14  5 27  1 47 30.0000000  0 11G24G28G10G08G26G02G09G17G04G05G30
  -2433993.66647  -1859382.18246  24341023.0254   24341036.3194   24341021.776
        42.0004         38.0004
 -16384809.86848 -12768608.74247  21076416.5444   21076420.5414   21076417.288
        51.0004         47.0004
 -25679648.11648 -19997920.43448  20529293.5414   20529298.1854   20529293.787
        53.0004         48.0004
    741888.89647    590628.28246  23654090.6524   23654096.6764   23654091.564
        43.0004         39.0004
    392624.48347    374668.91646  24573194.8744   24573198.5334   24573195.065
        42.0004         38.0004
 -14553294.60048 -11333412.74347  21564970.5474   21564973.6754   21564970.925
        51.0004         47.0004
  12581251.82347   9795754.01047  23122040.5834   23122043.9584   23122039.975
        47.0004         42.0004
  -6721871.79047  -5194232.42646  23993932.6254   23993942.2454   23993932.880
        45.0004         40.0004
 -21640735.61848 -16617514.90947  21468135.0884   21468142.4774   21468135.431
        50.0004         46.0004
 -16034777.82648 -12456935.33247  22621428.9054   22621432.3804   22621429.201
        48.0004         44.0004
   8818052.78347   6866042.50446  23406187.6674   23406193.9234   23406186.864
        45.0004         41.0004
 14  5 27  1 48  0.0000000  0 11G24G28G10G08G26G02G09G17G04G05G30
  -2491876.56247  -1904485.43246  24330007.7054   24330021.1014   24330006.016
        42.0004         38.0004
 -16383240.24248 -12767385.62247  21076715.4984   21076719.8084   21076715.732
        51.0004         47.0004
 -25706737.96448 -20019029.41348  20524137.9074   20524143.2944   20524138.918
        53.0004         48.0004
    848330.72247    673569.96246  23674345.2024   23674351.9384   23674346.667
        43.0004         39.0004
    390810.78747    373255.68146  24572851.3894   24572854.4124   24572850.068
        42.0004         38.0004
 -14534786.42548 -11318990.81347  21568492.7224   21568495.6474   21568492.779
        51.0004         47.0004
  12671471.21247   9866054.83047  23139207.7024   23139212.6694   23139208.408
        46.0004         42.0004
  -6729446.28647  -5200134.61346  23992491.5804   23992499.5884   23992490.914
        45.0004         40.0004
 -21574690.55148 -16566051.29547  21480703.8204   21480710.6374   21480703.474
        50.0004         46.0004
 -16126901.76548 -12528720.20147  22603899.2244   22603901.9704   22603898.432
        48.0004         44.0004
   8910501.10447   6938080.14646  23423779.0774   23423786.3764   23423779.462
        45.0004         41.0004
 14  5 27  1 48 30.0000000  0 11G24G28G10G08G26G02G09G17G04G05G30
  -2549416.20347  -1949321.20046  24319056.1004   24319071.5744   24319056.884
        42.0004         38.0004
 -16381137.42048 -12765747.03747  21077115.9994   21077119.6244   21077116.089
        51.0004         47.0004
 -25733338.26248 -20039756.92348  20519076.3494   20519081.2454   20519076.898
        53.0004         48.0004
    954734.00147    756481.58846  23694593.5384   23694599.6234   23694594.081
        43.0004         38.0004
    388762.01947    371659.28046  24572460.7284   24572465.2934   24572459.251
        42.0004         38.0004
 -14515955.27548 -11304317.21247  21572076.2674   21572078.7964   21572076.504
        51.0004         47.0004
  12761645.21847   9936320.29347  23156367.4824   23156371.4204   23156367.508
        46.0004         42.0004
  -6737214.30847  -5206187.58746  23991013.3054   23991020.9114   23991012.717
        44.0004         40.0004
 -21508447.33248 -16514433.28347  21493309.2894   21493317.2824   21493309.155
        50.0004         46.0004
 -16218905.83248 -12600411.65947  22586391.8014   22586394.0744   22586390.399
        49.0004         44.0004
   9002926.95747   7010100.28046  23441367.1674   23441373.1954   23441367.413
        45.0004         40.0004
 14  5 27  1 49  0.0000000  0 11G24G28G10G08G26G02G09G17G04G05G30
  -2606609.14647  -1993886.82746  24308173.1504   24308187.3194   24308173.166
        42.0004         38.0004
 -16378497.50348 -12763689.92347  21077618.2374   21077622.2804   21077618.275
        51.0004         47.0004
 -25759444.16848 -20060099.19748  20514108.7114   20514113.6654   20514109.428
        53.0004         48.0004
   1061098.96447    839363.36746  23714835.0594   23714840.6454   23714835.148
        43.0004         38.0004
    386480.06347    369881.16946  24572025.4094   24572028.7124   24572025.230
        42.0004         38.0004
 -14496799.97548 -11289391.03447  21575721.4534   21575724.4314   21575721.451
        51.0004         47.0004
  12851774.37147  10006550.80147  23173518.5174   23173522.3634   23173518.184
        46.0004         42.0004
  -6745171.66147  -5212388.11046  23989498.7064   23989508.4944   23989498.636
        44.0004         40.0004
 -21442005.99348 -16462660.87747  21505952.4354   21505960.0774   21505952.270
        50.0004         46.0004
 -16310783.80948 -12672004.86547  22568908.2154   22568910.6654   22568906.727
        49.0004         44.0004
   9095330.81147   7082103.27846  23458950.9594   23458956.6724   23458951.282
        45.0004         40.0004
 14  5 27  1 49 30.0000000  0 11G24G28G10G08G26G02G09G17G04G05G30
  -2663457.35847  -2038183.83546  24297355.7124   24297369.8374   24297354.388
        42.0004         38.0004
 -16375321.74348 -12761215.27347  21078222.5944   21078226.4854   21078222.497
        51.0004         47.0004
 -25785056.53848 -20080056.89448  20509234.7094   20509239.4174   20509235.139
        53.0004         48.0004
   1167420.26747    922211.11546  23735066.1514   23735069.5134   23735067.756
        43.0004         38.0004
    383961.22447    367918.47646  24571547.2784   24571550.0824   24571546.606
        42.0004         38.0004
 -14477325.34848 -11274216.02647  21579427.7124   21579430.1224   21579427.488
        51.0004         47.0004
  12941853.39347  10076742.24647  23190660.3364   23190664.3804   23190660.153
        46.0004         42.0004
  -6753319.36947  -5218736.95746  23987948.3494   23987957.5064   23987948.257
        45.0004         40.0004
 -21375371.81548 -16410738.22047  21518633.1284   21518640.3274   21518632.736
        50.0004         45.0004
 -16402535.57848 -12743499.72347  22551447.3374   22551451.0254   22551447.149
        49.0004         44.0004
   9187707.55747   7154085.15946  23476530.2284   23476535.8334   23476530.091
        45.0004         40.0004
 14  5 27  1 50  0.0000000  0 11G24G28G10G08G26G02G09G17G04G05G30
  -2719959.00547  -2082210.80546  24286604.3604   24286617.0934   24286603.403
        42.0004         38.0004
 -16371607.58248 -12758321.08947  21078929.3444   21078933.6454   21078929.151
        51.0004         47.0004
 -25810171.48548 -20099626.99048  20504455.5354   20504460.5624   20504456.059
        53.0004         48.0004
   1273696.40647   1005023.67046  23755291.5734   23755294.6594   23755291.168
        43.0004         38.0004
    381206.05347    365771.61546  24571022.1564   24571025.4244   24571022.025
        42.0004         38.0004
 -14457531.92648 -11258792.60747  21583193.7314   21583197.0764   21583194.323
        51.0004         47.0004
  13031881.45547  10146893.98047  23207791.6424   23207795.6154   23207792.397
        46.0004         42.0004
  -6761656.06447  -5225233.06746  23986361.9324   23986372.0714   23986361.834
        45.0004         40.0004
 -21308546.37348 -16358666.51947  21531349.7864   21531356.4924   21531349.245
        50.0004         46.0004
 -16494156.85548 -12814892.90947  22534012.1564   22534015.5354   22534012.054
        49.0004         44.0004
   9280056.41447   7226045.30146  23494102.8824   23494110.2154   23494103.283
        45.0004         41.0004
 14  5 27  1 50 30.0000000  0 11G24G28G10G08G26G02G09G17G04G05G30
  -2776110.93847  -2125965.26146  24275918.8384   24275929.4504   24275917.268
        42.0004         38.0004
 -16367351.88548 -12755004.92847  21079738.8224   21079743.5254   21079739.114
        51.0004         47.0004
 -25834785.11048 -20118806.44648  20499771.6154   20499777.0784   20499772.279
        53.0004         48.0004
   1379926.74847   1087800.54746  23775507.0234   23775511.1614   23775506.484
        43.0004         38.0004
    378215.56647    363441.41146  24570452.5994   24570456.9294   24570452.892
        42.0004         38.0004
 -14437419.76848 -11243120.82247  21587021.0054   21587024.0634   21587021.231
        51.0004         47.0004
  13121858.09647  10217005.65047  23224913.5484   23224918.1234   23224913.962
        46.0004         42.0004
  -6770178.29647  -5231873.74846  23984740.4204   23984749.6004   23984739.400
        45.0004         40.0004
 -21241530.17748 -16306446.19447  21544102.1964   21544109.5934   21544102.098
        50.0004         46.0004
 -16585643.13948 -12886180.90747  22516602.4114   22516605.4674   22516602.418
        49.0004         44.0004
   9372376.97547   7297983.39546  23511671.7364   23511676.7664   23511671.691
        45.0004         41.0004
 14  5 27  1 51  0.0000000  0 11G24G28G10G08G26G02G09G17G04G05G30
  -2831916.17347  -2169449.56646  24265297.5224   24265312.0174   24265297.915
        42.0004         37.0004
 -16362557.02048 -12751268.63647  21080651.2024   21080655.0044   21080651.541
        51.0004         47.0004
 -25858898.97848 -20137596.47948  20495182.7434   20495188.2594   20495183.464
        53.0004         49.0004
   1486105.15947   1170536.97046  23795710.5904   23795715.0774   23795710.721
        42.0004         38.0004
    374985.46747    360924.48646  24569838.0424   24569843.5504   24569837.041
        42.0004         38.0004
 -14416994.26548 -11227204.87847  21590908.3074   21590910.7514   21590908.491
        51.0004         47.0004
  13211777.28247  10287072.53647  23242025.2834   23242030.0874   23242024.698
        46.0004         42.0004
  -6778888.08347  -5238660.57346  23983083.5864   23983091.5284   23983082.778
        45.0004         40.0004
 -21174329.73948 -16254082.30547  21556890.8194   21556897.0544   21556889.992
        50.0004         45.0004
 -16676994.72848 -12957363.93547  22499219.6824   22499222.4864   22499219.274
        49.0004         45.0004
   9464663.46847   7369894.94646  23529233.6734   23529239.6184   23529233.083
        45.0004         41.0004
 14  5 27  1 51 30.0000000  0 11G24G28G10G08G26G02G09G17G04G05G30
  -2887373.25847  -2212662.59946  24254745.1554   24254758.9134   24254745.628
        42.0004         37.0004
 -16357220.65348 -12747110.39447  21081666.6464   21081670.8044   21081666.904
        51.0004         47.0004
 -25882509.71848 -20155994.46648  20490690.0614   20490695.0714   20490690.704
        53.0004         49.0004
   1592230.49947   1253232.01146  23815905.5534   23815910.9454   23815905.814
        42.0004         37.0004
    371516.27247    358221.27246  24569177.4094   24569182.2574   24569177.746
        42.0004         38.0004
 -14396256.19248 -11211045.36947  21594853.8914   21594857.0044   21594854.210
        51.0004         47.0004
  13301638.07047  10357093.94346  23259124.3174   23259128.8254   23259124.456
        46.0004         41.0004
  -6787783.05547  -5245591.71846  23981390.0734   23981400.2324   23981389.833
        45.0004         40.0004
 -21106946.23648 -16201575.76147  21569712.0454   21569720.2844   21569712.640
        50.0004         45.0004
 -16768207.52248 -13028438.82247  22481863.3794   22481865.5594   22481862.462
        49.0004         45.0004
   9556915.00447   7441779.26046  23546788.5384   23546794.0284   23546787.623
        45.0004         41.0004
 14  5 27  1 52  0.0000000  0 11G24G28G10G08G26G02G09G17G04G05G30
  -2942481.12147  -2255603.49746  24244258.0184   24244271.6704   24244256.587
        42.0004         37.0004
 -16351341.79748 -12742529.43647  21082785.2114   21082789.3344   21082785.512
        51.0004         47.0004
 -25905615.51148 -20173998.98748  20486292.8654   20486298.1004   20486293.904
        53.0004         49.0004
   1698300.26047   1335883.74946  23836089.4964   23836096.8204   23836090.695
        42.0004         37.0004
    367806.86347    355330.86846  24568470.5724   24568477.1654   24568471.824
        42.0004         38.0004
 -14375207.25648 -11194643.62747  21598859.7324   21598862.1814   21598860.143
        51.0004         47.0004
  13391437.89647  10427067.83347  23276213.5274   23276218.5834   23276213.641
        46.0004         42.0004
  -6796861.97347  -5252666.19146  23979662.2684   23979671.8164   23979662.269
        45.0004         40.0004
 -21039382.50048 -16148928.76747  21582570.3684   21582576.8954   21582569.663
        50.0004         45.0004
 -16859278.81548 -13099403.45147  22464531.5934   22464535.5034   22464531.708
        49.0004         45.0004
   9649129.12447   7513634.41046  23564336.4524   23564342.1094   23564335.885
        45.0004         40.0004
 14  5 27  1 52 30.0000000  0 11G24G28G10G08G26G02G09G17G04G05G30
  -2997239.26647  -2298271.88646  24233838.1114   24233850.3024   24233838.272
        42.0004         37.0004
 -16344918.67048 -12737524.37347  21084007.5354   21084011.7894   21084008.261
        51.0004         47.0004
 -25928213.85348 -20191608.09648  20481992.8914   20481997.9184   20481993.337
        53.0004         49.0004
   1804312.18947   1418490.43046  23856262.6704   23856268.6384   23856263.836
        42.0004         37.0004
    363856.73647    352252.88946  24567720.7794   24567725.8304   24567720.313
        42.0004         38.0004
 -14353849.41048 -11178001.18147  21602924.2174   21602926.9184   21602924.406
        51.0004         47.0004
  13481174.79047  10496992.68246  23293288.5784   23293294.1554   23293290.466
        46.0004         41.0004
  -6806122.95647  -5259882.52546  23977900.6154   23977908.8504   23977900.303
        45.0004         40.0004
 -20971641.08548 -16096143.32847  21595460.7984   21595468.3494   21595460.471
        50.0004         45.0004
 -16950205.27648 -13170255.22847  22447230.2804   22447233.3694   22447229.077
        49.0004         45.0004
   9741303.92347   7585458.92146  23581875.6564   23581882.1004   23581876.186
        45.0004         40.0004
 14  5 27  1 53  0.0000000  0 11G24G28G10G08G26G02G09G17G04G05G30
  -3051647.61047  -2340667.72346  24223483.2564   24223497.2014   24223482.758
        42.0004         38.0004
 -16337951.62948 -12732095.48347  21085333.6314   21085337.6014   21085333.810
        51.0004         47.0004
 -25950303.70848 -20208820.97548  20477789.3464   20477794.5024   20477789.910
        53.0004         49.0004
   1910262.81047   1501049.33846  23876425.6634   23876430.1734   23876425.697
        42.0004         37.0004
    359664.31747    348986.09646  24566922.1554   24566927.8894   24566922.804
        42.0004         38.0004
 -14332185.46948 -11161120.21347  21607046.5664   21607049.3564   21607047.116
        51.0004         47.0004
  13570845.81347  10566866.20946  23310353.8804   23310357.9984   23310353.900
        46.0004         41.0004
  -6815565.70347  -5267240.50246  23976103.5564   23976112.9274   23976102.646
        45.0004         40.0004
 -20903725.47448 -16043222.16647  21608384.0814   21608392.0744   21608384.170
        50.0004         45.0004
 -17040984.72548 -13240992.44547  22429954.9244   22429958.2654   22429954.539
        49.0004         45.0004
   9833436.33647   7657250.40046  23599409.0424   23599414.3284   23599407.940
        45.0004         41.0004
 14  5 27  1 53 30.0000000  0 11G24G28G10G08G26G02G09G17G04G05G30
  -3105704.85547  -2382789.94646  24213197.3624   24213210.6424   24213196.306
        43.0004         38.0004
 -16330438.61848 -12726241.16447  21086762.9494   21086767.2794   21086763.168
        51.0004         47.0004
 -25971882.45048 -20225635.58948  20473683.1394   20473688.0034   20473683.661
        53.0004         49.0004
   2016150.58247   1583559.28546  23896575.0574   23896580.1854   23896575.188
        42.0004         37.0004
    355229.67747    345530.56246  24566080.3434   24566084.0194   24566078.440
        42.0004         38.0004
 -14310216.40248 -11144001.49147  21611226.8564   21611230.3254   21611227.298
        51.0004         47.0004
  13660449.33947  10636687.14046  23327404.1954   23327407.8124   23327404.217
        46.0004         41.0004
  -6825188.04847  -5274738.42646  23974273.2084   23974282.0464   23974272.385
        45.0004         40.0004
 -20835637.73448 -15990166.88547  21621341.4684   21621348.4374   21621341.383
        50.0004         45.0004
 -17131613.57348 -13311612.31247  22412708.4934   22412711.7994   22412708.171
        49.0004         45.0004
   9925525.01647   7729007.79346  23616931.5814   23616937.9684   23616932.036
        45.0004         40.0004
 14  5 27  1 54  0.0000000  0 11G24G28G10G08G26G02G09G17G04G05G30
  -3159412.73647  -2424639.96146  24202976.1404   24202988.6704   24202976.443
        43.0004         38.0004
 -16322380.32848 -12719961.95247  21088297.0174   21088300.5524   21088296.999
        51.0004         47.0004
 -25992949.89248 -20242051.78748  20469674.0374   20469678.8924   20469674.702
        53.0004         49.0004
   2121971.20347   1666016.88846  23916712.2854   23916716.8544   23916712.331
        42.0004         37.0004
    350550.13447    341884.21346  24565187.2764   24565192.8554   24565187.354
        42.0004         38.0004
 -14287946.05548 -11126647.99247  21615464.8914   21615468.4714   21615465.239
        51.0004         47.0004
  13749981.37847  10706452.36446  23344442.1164   23344446.5644   23344441.688
        46.0004         41.0004
  -6834990.54447  -5282376.72046  23972406.7724   23972415.6914   23972406.458
        45.0004         41.0004
 -20767382.08848 -15936980.75747  21634329.7904   21634337.9284   21634330.143
        50.0004         45.0004
 -17222090.51148 -13382113.81347  22395491.3994   22395494.8754   22395491.141
        50.0004         45.0004
  10017565.92547   7800727.95746  23634447.3944   23634452.9864   23634447.362
        45.0004         40.0004
 14  5 27  1 54 30.0000000  0 11G24G28G10G08G26G02G09G17G04G05G30
  -3212768.84047  -2466215.86046  24192822.4604   24192834.7494   24192822.027
        43.0004         38.0004
 -16313774.67848 -12713256.22147  21089933.8614   21089938.4124   21089934.444
        51.0004         47.0004
 -26013502.75948 -20258067.01848  20465763.1184   20465767.8454   20465763.506
        53.0004         49.0004
   2227723.16147   1748420.99346  23936835.7394   23936840.8674   23936836.230
        42.0004         37.0004
    345626.21947    338047.43846  24564250.7204   24564256.1254   24564250.776
        42.0004         37.0004
 -14265375.22048 -11109060.35247  21619759.8994   21619763.5334   21619760.311
        51.0004         47.0004
  13839440.99047  10776161.14646  23361465.3714   23361469.4634   23361465.183
        46.0004         41.0004
  -6844970.67447  -5290153.42846  23970507.2134   23970516.6064   23970507.292
        45.0004         40.0004
 -20698960.26148 -15883665.13147  21647350.4734   21647357.6344   21647350.220
        50.0004         45.0004
 -17312411.62048 -13452493.88847  22378303.8364   22378307.4674   22378303.426
        50.0004         45.0004
  10109558.10147   7872410.16446  23651953.0284   23651958.3644   23651952.886
        45.0004         40.0004
 14  5 27  1 55  0.0000000  0 11G24G28G10G08G26G02G09G17G04G05G30
  -3265770.76147  -2507515.76946  24182738.1644   24182750.8414   24182736.553
        43.0004         38.0004
 -16304619.00348 -12706121.90047  21091676.1294   21091680.6864   21091676.759
        51.0004         47.0004
 -26033537.58748 -20273678.58748  20461950.5364   20461955.3224   20461950.934
        53.0004         49.0004
   2333405.44347   1830770.78946  23956947.3414   23956952.1434   23956947.013
        42.0004         37.0004
    340458.65247    334020.80846  24563267.5144   24563272.3694   24563267.522
        42.0004         38.0004
 -14242504.26248 -11091238.85247  21624112.6164   21624115.6314   21624112.586
        51.0004         47.0004
  13928827.26247  10845812.79246  23378475.5684   23378479.0134   23378475.233
        46.0004         41.0004
  -6855125.68447  -5298066.40346  23968575.4294   23968584.1594   23968574.923
        45.0004         40.0004
 -20630373.24948 -15830220.79547  21660402.5454   21660409.4334   21660402.170
        50.0004         45.0004
 -17402572.17248 -13522748.85247  22361146.8324   22361150.7364   22361147.030
        50.0004         45.0004
  10201500.94047   7944053.93446  23669448.9424   23669454.8694   23669448.758
        45.0004         40.0004
 14  5 27  1 55 30.0000000  0 11G24G28G10G08G26G02G09G17G04G05G30
  -3318420.60247  -2548541.33046  24172717.8984   24172729.6854   24172716.749
        43.0004         38.0004
 -16294914.37448 -12698559.82347  21093522.7494   21093527.0904   21093523.200
        51.0004         47.0004
 -26053054.27648 -20288886.40848  20458236.2584   20458241.3764   20458237.163
        53.0004         49.0004
   2439013.93247   1913063.08546  23977042.9064   23977047.2994   23977043.529
        42.0004         37.0004
    335044.94147    329802.36046  24562238.9944   24562242.7904   24562237.563
        42.0004         38.0004
 -14219337.11548 -11073186.55847  21628520.7284   21628523.9904   21628521.209
        51.0004         47.0004
  14018135.95047  10915403.97946  23395470.1514   23395473.9784   23395470.204
        46.0004         41.0004
  -6865456.02247  -5306116.00646  23966609.0394   23966618.1184   23966608.594
        45.0004         40.0004
 -20561625.62648 -15776651.29947  21673485.1424   21673490.9264   21673484.286
        50.0004         45.0004
 -17492570.96448 -13592877.77047  22344021.4604   22344024.2344   22344020.134
        50.0004         45.0004
  10293390.41647   8015656.12146  23686934.3574   23686940.9774   23686934.500
        45.0004         40.0004
 14  5 27  1 56  0.0000000  0 11G24G28G10G08G26G02G09G17G04G05G30
  -3370720.41247  -2589294.16146  24162765.0874   24162777.8784   24162764.335
        42.0004         38.0004
 -16284662.54248 -12690571.35447  21095474.1444   21095478.1754   21095474.233
        51.0004         47.0004
 -26072053.98148 -20303691.38548  20454620.8624   20454626.2814   20454621.428
        53.0004         49.0004
   2544543.21647   1995293.68546  23997125.7434   23997128.2334   23997125.031
        42.0004         37.0004
    329381.53747    325389.35346  24561160.3034   24561164.0874   24561160.169
        42.0004         38.0004
 -14195878.44448 -11054907.10247  21632985.2394   21632988.2084   21632985.348
        51.0004         47.0004
  14107362.40547  10984931.09046  23412448.7924   23412452.8894   23412449.557
        46.0004         41.0004
  -6875963.06247  -5314303.29846  23964610.0644   23964619.3074   23964609.111
        45.0004         41.0004
 -20492722.59748 -15722960.70647  21686596.4364   21686602.6364   21686596.151
        50.0004         45.0004
 -17582408.06448 -13662880.69047  22326925.0744   22326928.3104   22326924.696
        50.0004         45.0004
  10385221.58147   8087212.86046  23704409.2644   23704415.9224   23704409.294
        45.0004         40.0004
 14  5 27  1 56 30.0000000  0 11G24G28G10G08G26G02G09G17G04G05G30
  -3422664.09047  -2629769.49746  24152879.3334   24152893.4004   24152879.637
        42.0004         38.0004
 -16273857.28548 -12682151.65247  21097530.5064   21097534.0204   21097530.186
        51.0004         47.0004
 -26090529.14748 -20318087.63448  20451105.4054   20451110.5634   20451105.798
        53.0004         49.0004
   2649996.38147   2077464.94646  24017191.6064   24017196.4964   24017191.456
        42.0004         37.0004
    323473.03047    320785.34546  24560036.5994   24560039.8854   24560035.408
        42.0004         38.0004
 -14172125.06448 -11036398.00447  21637505.0194   21637507.9274   21637505.319
        51.0004         47.0004
  14196509.68647  11054396.50946  23429413.0634   23429416.9174   23429413.189
        46.0004         41.0004
  -6886640.07947  -5322623.03246  23962578.8054   23962588.0904   23962577.938
        45.0004         41.0004
 -20423661.92548 -15669147.28847  21699738.8684   21699746.0684   21699738.225
        50.0004         45.0004
 -17672075.11148 -13732751.10447  22309862.4804   22309865.7114   22309861.286
        50.0004         45.0004
  10476997.76247   8158726.74646  23721874.2504   23721880.1374   23721873.830
        44.0004         40.0004
 14  5 27  1 57  0.0000000  0 11G24G28G10G08G26G02G09G17G04G05G30
  -3474255.17647  -2669970.07646  24143062.3544   24143075.8774   24143062.070
        42.0004         38.0004
 -16262501.43248 -12673302.90747  21099690.8924   21099694.8154   21099691.334
        51.0004         47.0004
 -26108482.02548 -20332076.90348  20447688.9954   20447694.3354   20447689.744
        53.0004         49.0004
   2755367.06946   2159571.93646  24037243.6934   24037249.5984   24037243.548
        41.0004         37.0004
    317315.01447    315986.92746  24558865.1524   24558868.2184   24558863.840
        43.0004         38.0004
 -14148082.75548 -11017663.76547  21642080.2544   21642083.4634   21642080.643
        51.0004         47.0004
  14285571.70847  11123795.47546  23446361.5834   23446365.3034   23446361.144
        45.0004         41.0004
  -6897489.24947  -5331076.90646  23960513.6334   23960522.5494   23960513.117
        46.0004         41.0004
 -20354449.74248 -15615215.81047  21712909.3044   21712916.1404   21712909.200
        50.0004         45.0004
 -17761572.92548 -13802489.65047  22292831.3384   22292834.8094   22292831.254
        50.0004         45.0004
  10568712.88647   8230193.07246  23739326.5024   23739333.1324   23739327.011
        44.0004         40.0004
 14  5 27  1 57 30.0000000  0 11G24G28G10G08G26G02G09G17G04G05G30
  -3525491.46947  -2709894.20846  24133312.6674   24133324.1754   24133312.149
        42.0004         38.0004
 -16250592.84648 -12664023.45947  21101957.0624   21101961.1134   21101957.225
        51.0004         47.0004
 -26125908.89148 -20345656.29548  20444372.9264   20444377.6454   20444373.509
        53.0004         49.0004
   2860654.92946   2241614.38246  24057279.3254   24057283.4574   24057279.816
        41.0004         37.0004
    310908.61347    310994.96046  24557645.6884   24557649.5464   24557643.834
        42.0004         38.0004
 -14123751.76748 -10998704.58947  21646710.6194   21646713.1194   21646710.787
        51.0004         47.0004
  14374548.37347  11193127.95146  23463292.8024   23463296.3174   23463292.964
        45.0004         41.0004
  -6908507.50847  -5339662.53246  23958417.4494   23958426.8864   23958416.665
        45.0004         41.0004
 -20285086.96648 -15561166.98047  21726108.6674   21726115.9564   21726108.188
        50.0004         45.0004
 -17850896.65448 -13872092.54247  22275832.9454   22275837.6354   22275832.843
        50.0004         45.0004
  10660366.76547   8301611.67746  23756767.7244   23756773.4844   23756767.470
        44.0004         40.0004
 14  5 27  1 58  0.0000000  0 11G24G28G10G08G26G02G09G17G04G05G30
  -3576375.04247  -2749543.49946  24123629.1254   24123642.0754   24123628.651
        42.0004         38.0004
 -16238132.71448 -12654314.24447  21104328.1734   21104332.7144   21104328.404
        51.0004         47.0004
 -26142810.53648 -20358826.42148  20441156.3434   20441161.9584   20441157.223
        53.0004         49.0004
   2965854.77046   2323588.24346  24077297.9434   24077303.1334   24077298.607
        41.0004         37.0004
    304250.39447    305806.76046  24556377.9674   24556381.1954   24556377.272
        43.0004         38.0004
 -14099136.79448 -10979524.12247  21651394.3854   21651397.3224   21651394.933
        51.0004         47.0004
  14463434.51747  11262389.87746  23480208.5854   23480212.0394   23480207.420
        45.0004         41.0004
  -6919696.00047  -5348380.81446  23956288.1814   23956297.0214   23956287.769
        46.0004         41.0004
 -20215578.81348 -15507004.87647  21739336.6984   21739342.8734   21739335.175
        50.0004         45.0004
 -17940046.15548 -13941559.68747  22258868.1654   22258872.0704   22258868.443
        50.0004         45.0004
  10751954.53347   8372978.76146  23774197.4254   23774202.9664   23774196.457
        44.0004         39.0004
 14  5 27  1 58 30.0000000  0 11G24G28G10G08G26G02G09G17G04G05G30
  -3626902.60447  -2788915.36946  24114013.2824   24114025.4844   24114013.159
        42.0004         38.0004
 -16225117.78048 -12644172.71247  21106804.9514   21106809.2734   21106805.150
        51.0004         47.0004
 -26159182.51848 -20371583.82248  20438041.3424   20438046.5784   20438041.783
        53.0004         49.0004
   3070966.88147   2405493.73646  24097299.6824   24097304.9854   24097300.856
        42.0004         37.0004
    297342.48547    300424.01646  24555062.5714   24555067.0234   24555062.322
        42.0004         38.0004
 -14074237.07548 -10960121.77347  21656132.6494   21656136.4004   21656133.047
        51.0004         46.0004
  14552230.64147  11331581.65946  23497104.7774   23497108.1344   23497104.710
        46.0004         41.0004
  -6931050.41147  -5357228.37846  23954127.1694   23954135.5894   23954126.699
        46.0004         41.0004
 -20145925.36248 -15452729.54147  21752589.3454   21752597.2894   21752589.905
        49.0004         45.0004
 -18029015.45348 -14010886.39347  22241938.7694   22241942.0134   22241938.362
        50.0004         45.0004
  10843476.92647   8444294.90746  23791611.7144   23791618.6684   23791613.106
        44.0004         39.0004
 14  5 27  1 59  0.0000000  0 11G24G28G10G08G26G02G09G17G04G05G30
  -3677076.48047  -2828011.67646  24104466.3654   24104477.9984   24104465.818
        43.0004         38.0004
 -16211550.07748 -12633600.45347  21109386.8004   21109390.7034   21109386.994
        51.0004         47.0004
 -26175026.06348 -20383929.45248  20435026.2564   20435031.4414   20435026.639
        53.0004         48.0004
   3175986.26347   2487326.98346  24117285.2074   24117289.4564   24117285.276
        42.0004         37.0004
    290181.61647    294844.14046  24553700.0894   24553703.9014   24553699.817
        43.0004         38.0004
 -14049057.40748 -10940501.29047  21660924.1584   21660927.3544   21660924.732
        51.0004         47.0004
  14640932.13247  11400699.70046  23513984.2834   23513987.4454   23513983.995
        46.0004         41.0004
  -6942572.25847  -5366206.40646  23951935.4204   23951944.2184   23951934.188
        46.0004         41.0004
 -20076131.96848 -15398345.16147  21765871.7184   21765878.6474   21765871.222
        49.0004         45.0004
 -18117804.31448 -14080072.50247  22225043.4974   22225046.0424   22225042.106
        50.0004         45.0004
  10934929.14047   8515556.35146  23809015.0334   23809021.4654   23809015.659
        44.0004         40.0004
 14  5 27  1 59 30.0000000  0 11G24G28G10G08G26G02G09G17G04G05G30
  -3726894.27147  -2866830.49446  24094985.7624   24094999.5384   24094985.078
        42.0004         38.0004
 -16197426.57848 -12622595.10747  21112074.2844   21112077.8664   21112074.520
        51.0004         47.0004
 -26190337.19548 -20395860.21348  20432112.7444   20432117.4404   20432113.165
        53.0004         48.0004
   3280912.68047   2569087.77446  24137252.5334   24137257.7484   24137252.397
        42.0004         37.0004
    282769.11547    289068.19846  24552289.2244   24552293.7314   24552289.544
        43.0004         38.0004
 -14023597.81248 -10920662.67147  21665768.6894   21665772.3834   21665769.454
        51.0004         46.0004
  14729538.85247  11469743.89646  23530845.5004   23530850.0514   23530845.699
        46.0004         41.0004
  -6954258.22447  -5375312.32546  23949711.2804   23949718.9194   23949710.394
        46.0004         41.0004
 -20006199.06448 -15343852.07247  21779179.7844   21779186.2424   21779179.207
        49.0004         45.0004
 -18206407.63748 -14149114.04447  22208182.0804   22208186.2434   22208181.538
        50.0004         45.0004
  11026311.17547   8586763.13346  23826405.2564   23826411.3724   23826405.649
        44.0004         39.0004
 14  5 27  2  0  0.0000000  0 11G24G28G10G08G26G02G09G17G04G05G30
  -3776355.80847  -2905371.72746  24085574.8204   24085585.5164   24085573.545
        42.0004         38.0004
 -16182746.36548 -12611155.95647  21114867.6854   21114871.6774   21114868.268
        51.0004         46.0004
 -26205113.63148 -20407374.33348  20429300.8034   20429305.7314   20429301.458
        53.0004         48.0004
   3385743.88647   2650774.39546  24157199.0974   24157205.6624   24157201.123
        42.0004         37.0004
    275104.65147    283095.93446  24550831.1314   24550835.4224   24550830.694
        43.0004         38.0004
 -13997860.00048 -10900607.27347  21670666.6254   21670670.0584   21670667.155
        51.0004         46.0004
  14818048.72347  11538712.63146  23547689.2184   23547691.4834   23547688.420
        46.0004         41.0004
  -6966106.44347  -5384544.67946  23947456.6944   23947465.4714   23947456.015
        46.0004         41.0004
 -19936129.22448 -15289252.28547  21792513.5504   21792520.3384   21792513.011
        49.0004         45.0004
 -18294822.44248 -14218008.68147  22191357.8354   22191360.0004   22191356.939
        50.0004         45.0004
  11117621.20547   8657913.79146  23843779.8674   23843787.0594   23843780.912
        44.0004         39.0004
 14  5 27  2  0 30.0000000  0 11G24G28G10G08G26G02G09G17G04G05G30
  -3825462.28647  -2943636.29246  24076228.9934   24076239.4554   24076228.519
        42.0004         38.0004
 -16167511.66048 -12599284.73347  21117766.5114   21117770.7564   21117767.144
        51.0004         46.0004
 -26219356.41448 -20418472.61748  20426590.1864   20426595.3394   20426590.829
        53.0004         48.0004
   3490475.41847   2732383.32646  24177130.9044   24177135.2614   24177131.215
        42.0004         37.0004
    267185.27947    276925.01546  24549324.0124   24549327.5264   24549323.506
        43.0004         38.0004
 -13971848.37448 -10880338.50147  21675617.1944   21675619.5004   21675617.029
        51.0004         46.0004
  14906457.36147  11607602.47746  23564512.4914   23564516.8424   23564512.597
        45.0004         41.0004
  -6978117.68447  -5393904.05746  23945170.9624   23945178.4704   23945170.407
        46.0004         41.0004
 -19865927.33648 -15234549.59647  21805872.2434   21805880.2434   21805872.021
        49.0004         45.0004
 -18383047.89948 -14286755.78647  22174568.4434   22174572.0704   22174567.946
        50.0004         46.0004
  11208854.83047   8729004.92946  23861141.7744   23861147.5644   23861142.075
        44.0004         39.0004
 14  5 27  2  1  0.0000000  0 11G24G28G10G08G26G02G09G17G04G05G30
  -3874210.63247  -2981621.79746  24066952.8764   24066964.9874   24066951.261
        42.0004         38.0004
 -16151718.24748 -12586978.15247  21120772.4964   21120776.1534   21120772.512
        51.0004         46.0004
 -26233061.04648 -20429151.56248  20423982.5904   20423987.7384   20423983.223
        53.0004         48.0004
   3595108.01347   2813915.18246  24197040.2764   24197046.9364   24197041.840
        42.0004         37.0004
    259013.50647    270557.42746  24547768.9524   24547772.8014   24547768.597
        43.0004         38.0004
 -13945561.93848 -10859855.59747  21680618.7924   21680621.8514   21680619.167
        51.0004         47.0004
  14994765.93047  11676414.34346  23581317.0364   23581320.3194   23581317.102
        45.0004         41.0004
  -6990287.21147  -5403386.78046  23942854.8004   23942864.2214   23942854.542
        46.0004         41.0004
 -19795592.95848 -15179743.67347  21819257.5174   21819263.4424   21819256.116
        49.0004         44.0004
 -18471077.86648 -14355350.55047  22157816.9794   22157820.4474   22157816.785
        50.0004         46.0004
  11300013.16547   8800037.39046  23878489.1574   23878494.9154   23878489.161
        44.0004         39.0004
