     2.11           OBSERVATION DATA    G (GPS)             RINEX VERSION / TYPE
teqc  2008Oct2      gpsops              20090130 00:09:59UTCPGM / RUN BY / DATE
    30.0000                                                 INTERVAL
     1     1                                                WAVELENGTH FACT L1/2
     7    L1    L2    P1    P2    C1    S1    S2            # / TYPES OF OBSERV
Linux 2.4.20-8|Pentium IV|gcc -static|Linux|486/DX+         COMMENT
     2.10           OBSERVATION DATA    GPS                 COMMENT
soc2rnx ver 1.20    gpsops              30-Jan-2009 00:09:52COMMENT
S1, if present, is the SNR for the C/A data stream on L1.   COMMENT
 SNR is mapped to RINEX snr flag value [1,4-9]              COMMENT
    SNR:   >316  >100  >31.6  >10  >3.2    >0 bad=0         COMMENT
L1 & L2:      9     8     7     6     5     4     1         COMMENT
                                                            COMMENT
This data is provided as a public service by NASA/JPL.      COMMENT
No warranty is expressed or implied regarding suitability   COMMENT
for use.  For further information, contact:                 COMMENT
Dave Stowers, NASA/JPL m/s 238-600                          COMMENT
4800 Oak Grove Drive, Pasadena CA 91109 USA                 COMMENT
                                                            COMMENT
Forced Modulo Decimation to 30 seconds                      COMMENT
  2009     1    29     8    16   20.0000000     GPS         TIME OF FIRST OBS
GGN                 JPL                                     OBSERVER / AGENCY
CR519992104         ASH701945B_M    SCIT                    ANT # / TYPE
   -33801.4662 -6377516.5323   -82154.3508                  APPROX POSITION XYZ
        0.0083        0.0000        0.0000                  ANTENNA: DELTA H/E/N
ZR220013847         ASHTECH UZ-12       CQ00                REC # / TYPE / VERS
GLPS                                                        MARKER NAME
42005M002                                                   MARKER NUMBER
                                                            END OF HEADER
 09  1 29  8 16 30.0000000  0 12G17G 3G 7G11G25G23G 6G28G32G13G19G20
 132342064.99757 103123679.63057  25183865.5125   25183867.3285   25183864.3275
        41.000          35.000
 130062905.98657  83555500.69057  22847218.7325   22847221.0045   22847218.7525
        46.000          40.000
 127381418.51557  99258243.18657  24239880.9065   24239881.4365   24239880.6065
        43.000          38.000
 124775308.29657  79435299.09157  21841020.5085   21841021.9745   21841020.7585
        52.000          45.000
 123432325.64957  96181018.47057  23488402.1785   23488403.9785   23488402.6775
        47.000          41.000
 104757135.56857  81628938.90357  19934618.2955   19934617.5385   19934618.4875
        57.000          51.000
 139504791.54157  90912810.34457  24643952.6955   24643956.8315   24643952.9005
        41.000          37.000
 137770682.20057  89561568.75657  24313952.8095   24313953.2365   24313954.3245
        43.000          36.000
 130214519.59257  83673635.43357  22876075.3005   22876078.0325   22876075.9825
        46.000          41.000
 120510193.62457  76111835.21057  21029394.1185   21029394.8215   21029394.1415
        54.000          47.000
 119320896.50757  75185112.68857  20803076.2625   20803076.8535   20803076.9875
        54.000          49.000
 128732527.88557  82518848.35157  22594052.1135   22594054.3785   22594052.8005
        48.000          42.000
 09  1 29  8 17  0.0000000  0 12G17G 3G 7G11G25G23G 6G28G32G13G19G20
 132239902.42047 103044072.41647  25164424.3224   25164424.9194   25164423.6414
        42.000          36.000
 130162508.34247  83633112.90047  22866172.3094   22866174.6464   22866172.6114
        47.000          40.000
 127324267.91347  99213710.25947  24229004.6914   24229006.2854   24229004.6254
        43.000          38.000
 124721689.92147  79393518.53147  21830817.6344   21830818.6624   21830817.6594
        52.000          45.000
 123372061.78047  96134059.62847  23476934.8714   23476936.3824   23476934.8424
        47.000          41.000
 104747345.74847  81621310.47047  19932755.3164   19932754.6994   19932755.4624
        57.000          51.000
 139606773.17247  90992276.55647  24663359.5024   24663362.8444   24663359.4194
        42.000          37.000
 137763995.48647  89556358.34247  24312680.9934   24312682.2854   24312681.8234
        42.000          36.000
 130276886.80947  83722233.25947  22887943.2774   22887945.9654   22887943.6214
        46.000          41.000
 120444734.49647  76060828.10247  21016937.5674   21016938.6474   21016937.2184
        53.000          47.000
 119372723.36547  75225497.25447  20812938.3004   20812939.1504   20812939.0804
        53.000          49.000
 128776865.82447  82553397.40247  22602489.1814   22602491.0774   22602489.8224
        49.000          42.000
 09  1 29  8 17 30.0000000  0 12G17G 3G 7G11G25G23G 6G28G32G13G19G20
 132137800.12947 102964512.17047  25144994.8434   25144995.9494   25144994.9154
        42.000          36.000
 130262320.96547  83710888.96147  22885165.9774   22885168.4604   22885166.2544
        46.000          40.000
 127266895.68347  99169004.62147  24218087.2644   24218088.5934   24218086.7604
        44.000          38.000
 124668162.05947  79351808.50347  21820631.6644   21820632.5354   21820631.8564
        52.000          45.000
 123311642.77647  96086979.87647  23465437.4774   23465439.1674   23465437.4684
        47.000          41.000
 104738159.50947  81614152.35247  19931007.4604   19931006.3714   19931007.6984
        57.000          51.000
 139708834.11047  91071804.56147  24682780.8164   24682784.2524   24682781.0094
        42.000          37.000
 137757577.19647  89551357.07347  24311459.7124   24311461.1554   24311459.0824
        42.000          36.000
 130339171.98847  83770767.16047  22899795.8684   22899798.4884   22899796.4764
        46.000          41.000
 120379723.71347  76010170.35347  21004566.4504   21004567.6244   21004566.1844
        54.000          47.000
 119425057.56947  75266277.15247  20822897.0144   20822897.8514   20822897.7134
        53.000          49.000
 128821162.34847  82587914.18747  22610918.6684   22610920.5504   22610918.9704
        48.000          42.000
 09  1 29  8 18  0.0000000  0 12G17G 3G 7G11G25G23G 6G28G32G13G19G20
 132035764.02247 102885003.53147  25125578.0414   25125579.2204   25125578.6864
        41.000          35.000
 130362344.39347  83788829.30447  22904199.7484   22904202.1704   22904199.8424
        46.000          40.000
 127209306.39347  99124129.85847  24207128.8434   24207129.8244   24207128.5394
        44.000          39.000
 124614730.86247  79310173.79847  21810463.8204   21810465.0644   21810463.9034
        52.000          45.000
 123251074.12247  96039783.52247  23453911.6644   23453913.1734   23453911.7374
        47.000          41.000
 104729581.15747  81607467.92147  19929374.8324   19929374.0644   19929374.8994
        57.000          51.000
 139810975.85047  91151395.51747  24702218.1924   24702221.2234   24702218.1944
        42.000          37.000
 137751429.58247  89546566.74847  24310288.8684   24310290.5264   24310290.3404
        43.000          37.000
 130401377.37247  83819238.87847  22911632.8514   22911635.5544   22911633.1804
        46.000          40.000
 120315167.27647  75959866.64347  20992281.6934   20992282.8794   20992281.5584
        54.000          47.000
 119477901.37047  75307454.14447  20832953.0604   20832953.5204   20832953.7864
        54.000          49.000
 128865419.66647  82622400.39647  22619340.7214   22619342.5194   22619341.2874
        49.000          42.000
 09  1 29  8 18 30.0000000  0 12G17G 3G 7G11G25G23G 6G28G32G13G19G20
 131933795.65047 102805547.65547  25106174.9034   25106176.4404   25106175.0164
        42.000          36.000
 130462575.22247  83866931.25647  22923272.9844   22923275.8104   22923273.0294
        47.000          40.000
 127151500.13847  99079086.04547  24196129.0144   24196129.9044   24196128.6024
        43.000          38.000
 124561398.14347  79268615.83447  21800315.0484   21800316.1524   21800315.1554
        52.000          45.000
 123190356.50147  95992471.10747  23442356.9074   23442359.2694   23442356.9884
        46.000          40.000
 104721610.08347  81601256.69247  19927857.9224   19927857.1454   19927858.0674
        57.000          51.000
 139913195.18947  91231046.94747  24721669.7094   24721673.3924   24721669.6344
        43.000          37.000
 137745549.81247  89541985.09947  24309170.8944   24309171.9424   24309171.3144
        43.000          37.000
 130463500.13947  83867646.23847  22923454.5344   22923457.1464   22923454.8524
        45.000          40.000
 120251067.15147  75909918.49147  20980083.9124   20980085.0674   20980083.6944
        54.000          47.000
 119531251.92447  75349026.00747  20843105.3864   20843105.9134   20843106.2754
        53.000          49.000
 128909634.46747  82656853.49847  22627754.6484   22627756.3124   22627755.1944
        49.000          42.000
 09  1 29  8 19  0.0000000  0 12G17G 3G 7G11G25G23G 6G28G32G13G19G20
 131831895.64847 102726145.07047  25086783.2674   25086783.5204   25086783.8434
        41.000          36.000
 130563008.81047  83945191.20047  22942384.8994   22942387.4614   22942384.9434
        47.000          40.000
 127093475.97647  99033872.42247  24185086.4554   24185088.1614   24185086.3794
        42.000          38.000
 124508164.17747  79227134.81647  21790184.7774   21790185.9864   21790184.8124
        52.000          45.000
 123129489.86647  95945042.56747  23430774.4594   23430776.5724   23430774.2084
        46.000          40.000
 104714244.90647  81595517.59347  19926456.2914   19926455.7524   19926456.4734
        56.000          51.000
 140015487.91247  91310755.55347  24741135.8034   24741138.1284   24741135.3144
        42.000          37.000
 137739934.47647  89537609.51847  24308102.8334   24308103.9964   24308103.0334
        42.000          37.000
 130525536.89147  83915986.55547  22935259.6734   22935262.0794   22935259.5774
        46.000          40.000
 120187424.06047  75860326.48047  20967972.8764   20967974.2084   20967972.6684
        54.000          47.000
 119585106.23247  75390990.40347  20853353.5674   20853354.1634   20853354.3644
        54.000          49.000
 128953803.08847  82691270.61847  22636159.2344   22636161.2964   22636160.1124
        49.000          42.000
 09  1 29  8 19 30.0000000  0 12G17G 3G 7G11G25G23G 6G28G32G13G19G20
 131730068.35547 102646799.14547  25067406.7064   25067406.8274   25067406.5824
        41.000          36.000
 130663644.19847  84023608.39147  22961534.9214   22961538.0784   22961535.2754
        46.000          40.000
 127035236.71647  98988491.15847  24174003.6984   24174004.8554   24174003.5524
        42.000          38.000
 124455033.19347  79185734.05447  21780074.3024   21780075.5904   21780074.6664
        52.000          45.000
 123068477.87847  95897500.75247  23419164.3244   23419166.5104   23419164.4054
        46.000          41.000
 104707487.80047  81590252.31247  19925170.5164   19925169.9264   19925170.6484
        57.000          51.000
 140117853.55147  91390520.96647  24760615.3724   24760617.8644   24760615.0854
        43.000          37.000
 137734584.44847  89533440.67947  24307084.1984   24307084.8584   24307084.7984
        41.000          36.000
 130587487.77047  83964259.97347  22947048.6484   22947051.4284   22947048.8984
        46.000          40.000
 120124241.68747  75811093.45747  20955949.8804   20955950.9464   20955949.5574
        54.000          47.000
 119639463.85047  75433346.99647  20863697.4934   20863698.0714   20863698.3434
        53.000          49.000
 128997925.83547  82725651.98647  22644555.5494   22644557.7434   22644556.1724
        48.000          42.000
 09  1 29  8 20  0.0000000  0 12G17G 3G 7G11G25G23G 6G28G32G13G19G20
 131628314.69447 102567510.59147  25048043.7744   25048043.4734   25048042.9044
        42.000          35.000
 130764476.94347  84102179.34347  22980722.9034   22980725.6474   22980722.9414
        45.000          39.000
 126976781.99147  98942942.02947  24162880.7144   24162881.7334   24162880.4094
        43.000          38.000
 124402006.74247  79144414.73247  21769983.7494   21769984.9514   21769983.6874
        52.000          45.000
 123007320.72347  95849845.83347  23407526.9714   23407528.6454   23407527.2414
        47.000          41.000
 104701337.71047  81585460.03147  19924000.2464   19923999.5604   19924000.4084
        57.000          51.000
 140220288.33347  91470340.27447  24780107.9464   24780110.5474   24780107.9244
        44.000          37.000
 137729496.31847  89529475.92847  24306116.4534   24306117.7494   24306116.3514
        43.000          37.000
 130649349.82947  84012464.16547  22958820.7174   22958823.0274   22958820.9164
        45.000          40.000
 120061521.21247  75762220.36447  20944014.4044   20944015.7674   20944014.2554
        54.000          47.000
 119694321.91547  75476093.53747  20874136.5064   20874137.3534   20874137.3854
        54.000          49.000
 129041999.29947  82759994.95047  22652942.3164   22652944.4734   22652942.8074
        48.000          42.000
 09  1 29  8 20 30.0000000  0 12G17G 3G 7G11G25G23G 6G28G32G13G19G20
 131526637.86747 102488281.87547  25028694.9424   25028695.4664   25028694.3854
        42.000          36.000
 130865505.60647  84180902.96247  22999948.0274   22999950.8004   22999948.3284
        45.000          39.000
 126918113.60747  98897226.40147  24151716.5934   24151717.7494   24151716.6404
        43.000          39.000
 124349087.63947  79103179.07347  21759913.4684   21759914.4134   21759913.8344
        52.000          45.000
 122946020.84747  95802079.70447  23395861.6904   23395863.2354   23395861.8044
        46.000          41.000
 104695795.91947  81581141.74647  19922945.6804   19922944.8794   19922945.8784
        57.000          51.000
 140322790.73047  91550212.24347  24799613.5874   24799616.0274   24799613.5234
        43.000          37.000
 137724669.30447  89525714.61747  24305197.1074   24305198.1174   24305197.5784
        42.000          37.000
 130711122.03847  84060598.34547  22970575.3524   22970577.7374   22970575.6094
        45.000          40.000
 119999265.93647  75713709.76247  20932167.5624   20932168.7944   20932167.3534
        54.000          47.000
 119749679.42947  75519229.26647  20884670.6574   20884671.3444   20884671.5524
        54.000          49.000
 129086022.08747  82794298.42547  22661319.7104   22661322.0004   22661320.0874
        48.000          42.000
 09  1 29  8 21  0.0000000  0 12G17G 3G 7G11G25G23G 6G28G32G13G19G20
 131425045.60647 102409119.05147  25009362.6414   25009363.2504   25009361.3894
        40.000          35.000
 130966732.29847  84259780.88747  23019210.9694   23019213.6654   23019211.2394
        46.000          40.000
 126859237.77147  98851349.14147  24140512.4214   24140514.5024   24140512.4224
        43.000          38.000
 124296283.70647  79062033.14847  21749865.3134   21749866.2124   21749865.4684
        52.000          45.000
 122884585.43747  95754207.94847  23384170.9424   23384172.8054   23384171.1954
        47.000          41.000
 104690867.66547  81577301.54547  19922007.8274   19922007.0354   19922007.9624
        57.000          51.000
 140425363.63847  91630139.18047  24819132.1664   24819134.8204   24819132.3914
        42.000          37.000
 137720106.43047  89522159.13747  24304329.6844   24304329.6554   24304330.2234
        44.000          37.000
 130772808.10247  84108665.39547  22982313.5064   22982316.3274   22982314.1634
        46.000          40.000
 119937483.43047  75665567.54347  20920410.7004   20920411.6984   20920410.3214
        54.000          47.000
 119805539.86047  75562756.87347  20895300.6264   20895301.2654   20895301.4084
        54.000          49.000
 129129998.16247  82828565.49747  22669687.8454   22669690.2974   22669688.8384
        48.000          42.000
 09  1 29  8 21 30.0000000  0 12G17G 3G 7G11G25G23G 6G28G32G13G19G20
 131323528.32047 102330014.67247  24990044.2654   24990044.5624   24990043.6454
        41.000          36.000
 131068142.17447  84338801.57347  23038508.7964   23038511.5534   23038509.0184
        46.000          40.000
 126800143.50747  98805301.65347  24129267.7284   24129268.7004   24129267.2854
        42.000          39.000
 124243585.13147  79020969.31847  21739837.0724   21739838.0624   21739836.9594
        52.000          45.000
 122823003.96647  95706222.37647  23372452.3244   23372454.3354   23372452.3004
        46.000          41.000
 104686540.91347  81573930.05047  19921184.3814   19921183.8394   19921184.5314
        57.000          51.000
 140527992.81847  91710109.97147  24838662.3364   24838664.7214   24838662.1374
        43.000          36.000
 117715792.34657 109518798.07457  24303508.5915   24303509.8995   24303508.8385
        43.000          37.000
 130834394.22247  84156654.59447  22994033.1744   22994036.2964   22994033.3694
        45.000          40.000
 119876163.43547  75617785.73247  20908741.9574   20908743.0274   20908741.6864
        54.000          47.000
 119861889.11847  75606665.38747  20906023.7514   20906024.1994   20906024.6114
        54.000          49.000
 129173913.11447  82862784.93747  22678044.9154   22678047.2014   22678045.8164
        49.000          42.000
 09  1 29  8 22  0.0000000  0 12G17G 3G 7G11G25G23G 6G28G32G13G19G20
 131222094.48047 102250975.32447  24970742.3184   24970742.6984   24970742.7224
        43.000          37.000
 131169738.94047  84417967.87547  23057842.0584   23057844.3384   23057842.4574
        46.000          40.000
 126740838.05347  98759089.62047  24117982.1384   24117983.2374   24117981.8004
        43.000          39.000
 124191000.91247  78979994.60947  21729830.5874   21729832.0684   21729830.7204
        52.000          45.000
 122761284.58847  95658129.34747  23360707.1904   23360709.8464   23360707.1954
        47.000          41.000
 104682822.72447  81571032.75947  19920476.8884   19920476.2964   19920477.0524
        57.000          51.000
 140630682.00647  91790127.52847  24858203.0484   24858205.9944   24858203.2744
        42.000          36.000
 117711735.95947 109515637.27047  24302736.3724   24302737.6364   24302736.7144
        43.000          37.000
 130895885.12547  84204569.57947  23005734.6464   23005737.3804   23005734.4834
        45.000          40.000
 119815315.17347  75570371.49847  20897163.2034   20897164.1214   20897163.0514
        54.000          47.000
 119918732.01547  75650958.55247  20916840.4114   20916841.0324   20916841.2504
        53.000          48.000
 129217771.60347  82896960.38047  22686391.1204   22686393.1614   22686392.0474
        49.000          42.000
 09  1 29  8 22 30.0000000  0 12G17G 3G 7G11G25G23G 6G28G32G13G19G20
 131120748.23847 102172004.22947  24951457.0654   24951456.8844   24951457.8704
        43.000          36.000
 131271520.86847  84497278.46447  23077210.4164   23077212.6404   23077210.7084
        45.000          39.000
 126681323.40247  98712714.60647  24106656.3564   24106657.7744   24106655.8684
        43.000          38.000
 124138534.63747  78939111.79847  21719846.2944   21719848.0194   21719846.5274
        52.000          45.000
 122699430.42147  95609931.29747  23348937.2274   23348938.8434   23348937.2204
        47.000          41.000
 104679714.09247  81568610.44847  19919885.3284   19919884.6814   19919885.4564
        57.000          51.000
 140733430.35947  91870191.17547  24877755.3134   24877758.6454   24877755.5534
        42.000          35.000
 117707934.65647 109512675.23747  24302013.6924   24302014.2194   24302013.7334
        43.000          37.000
 130957280.54647  84252410.17347  23017417.5124   23017420.8494   23017417.7634
        46.000          40.000
 119754941.97547  75523327.44947  20885674.3154   20885675.4124   20885674.0624
        54.000          47.000
 119976068.04647  75695635.98147  20927751.0314   20927751.6254   20927751.6534
        54.000          48.000
 129261573.21947  82931091.51447  22694726.1644   22694728.3304   22694726.8834
        48.000          42.000
 09  1 29  8 23  0.0000000  0 12G17G 3G 7G11G25G23G 6G28G32G13G19G20
 131019492.63247 102093103.75947  24932189.0814   24932187.9914   24932189.4244
        43.000          36.000
 131373485.76547  84576731.61347  23096613.4484   23096616.3324   23096613.9894
        46.000          39.000
 126621601.74147  98666178.24847  24095291.0734   24095293.0914   24095291.0154
        43.000          38.000
 124086189.07647  78898323.04747  21709885.3314   21709886.8444   21709885.2734
        52.000          45.000
 122637443.61047  95561629.89947  23337141.6004   23337143.0404   23337141.6724
        46.000          41.000
 104677215.72547  81566663.66447  19919409.9364   19919409.2574   19919410.0964
        56.000          51.000
 140836235.97247  91950299.44847  24897319.2614   24897321.1684   24897318.5964
        42.000          35.000
 117704386.83047 109509910.70047  24301337.8914   24301339.0754   24301338.2064
        43.000          36.000
 131018579.26347  84300175.40047  23029082.7284   23029085.6944   23029083.1714
        46.000          40.000
 119695046.88747  75476655.95147  20874276.8554   20874277.8734   20874276.6004
        54.000          48.000
 120033895.42147  75740696.28047  20938755.2684   20938755.8474   20938756.0844
        53.000          48.000
 129305316.46847  82965177.18347  22703050.1934   22703052.5794   22703050.4804
        48.000          42.000
 09  1 29  8 23 30.0000000  0 12G17G 3G 7G11G25G23G 6G28G32G13G19G20
 130918325.12147 102014271.92347  24912937.5044   24912936.8954   24912937.3154
        43.000          37.000
 131475626.37847  84656321.69947  23116050.2694   23116053.0074   23116050.5434
        46.000          39.000
 126561669.03447  98619477.45447  24083886.6364   24083888.4844   24083886.3864
        43.000          38.000
 124033962.19147  78857626.77447  21699947.1054   21699948.3154   21699947.3294
        52.000          45.000
 122575321.19647  95513222.82047  23325319.9954   23325321.8464   23325320.1034
        47.000          41.000
 104675323.04647  81565188.84947  19919049.6414   19919049.0774   19919049.7474
        57.000          51.000
 140939091.82047  92030446.86447  24916890.4714   24916894.5154   24916891.4504
        42.000          35.000
 117701086.61047 109507339.11747  24300709.9644   24300710.6814   24300710.7724
        43.000          36.000
 131079774.96347  84347860.36847  23040727.9814   23040730.6964   23040728.3474
        46.000          40.000
 119635627.20747  75430354.91247  20862969.6054   20862970.6734   20862969.3554
        54.000          47.000
 120092207.70747  75786134.42447  20949851.6484   20949852.5734   20949852.4614
        53.000          48.000
 129348994.64847  82999212.13247  22711361.5384   22711364.3394   22711362.2164
        48.000          42.000
 09  1 29  8 24  0.0000000  0 12G17G 3G 7G11G25G23G 6G28G32G13G19G20
 130817253.04647 101935514.44247  24893704.0844   24893703.4774   24893703.5164
        42.000          37.000
 131577944.17347  84736049.85547  23135520.5764   23135523.3444   23135520.7614
        45.000          39.000
 126501531.36147  98572616.96047  24072443.2574   24072444.3264   24072442.8814
        45.000          38.000
 123981861.42047  78817028.77547  21690032.5614   21690033.8814   21690032.6064
        52.000          45.000
 122513070.14847  95464715.50747  23313473.8734   23313475.5284   23313473.9514
        48.000          41.000
 104674040.86747  81564189.74447  19918805.8254   19918805.1514   19918805.9544
        56.000          51.000
 141042000.37847  92110635.35347  24936474.8494   24936476.4414   24936474.3974
        41.000          34.000
 117698036.75047 109504962.59947  24300129.2914   24300131.1454   24300129.3344
        42.000          36.000
 131140871.09547  84395467.74147  23052353.8914   23052356.5274   23052354.6454
        46.000          40.000
 119576690.03347  75384429.83547  20851754.1414   20851755.0264   20851753.9204
        54.000          47.000
 120151007.79547  75831952.68147  20961040.9814   20961041.5934   20961041.9094
        53.000          48.000
 129392610.95647  83033198.88147  22719661.4524   22719663.8954   22719661.7864
        48.000          42.000
 09  1 29  8 24 30.0000000  0 12G17G 3G 7G11G25G23G 6G28G32G13G19G20
 130716277.02547 101856831.83247  24874488.4054   24874488.5504   24874487.5084
        42.000          37.000
 131680434.80647  84815912.67847  23155024.1064   23155026.6654   23155024.1824
        45.000          39.000
 126441187.53747  98525595.80947  24060960.2724   24060960.9944   24060960.2624
        44.000          38.000
 123929887.03547  78776529.25847  21680142.2394   21680143.5094   21680142.2674
        52.000          45.000
 122450690.00647  95416107.60647  23301603.1284   23301605.0904   23301603.0724
        46.000          41.000
 104673367.38347  81563664.95247  19918677.6654   19918676.9724   19918677.7644
        57.000          51.000
 141144957.40447  92190861.62847  24956067.8614   24956069.5574   24956066.9114
        41.000          34.000
 117695233.44247 109502778.20747  24299595.5704   24299596.9224   24299596.0834
        42.000          36.000
 131201863.94847  84442994.65347  23063960.1054   23063963.2314   23063960.9464
        45.000          40.000
 119518235.51847  75338880.86347  20840630.4734   20840631.6274   20840630.1904
        54.000          47.000
 120210291.90547  75878148.09347  20972322.2844   20972323.4604   20972323.0904
        54.000          48.000
 129436161.56747  83067134.43647  22727949.1234   22727951.4044   22727949.6684
        48.000          42.000
 09  1 29  8 25  0.0000000  0 11G17G 3G 7G11G25G23G28G32G13G19G20
 130615397.78847 101778224.63447  24855291.6144   24855292.6634   24855290.8064
        42.000          37.000
 131783094.09447  84895906.91547  23174559.3764   23174562.1314   23174559.7814
        45.000          39.000
 126380637.46347  98478413.93747  24049438.0184   24049438.5944   24049437.7354
        44.000          38.000
 123878040.11647  78736129.06747  21670276.1244   21670277.4084   21670276.1604
        52.000          45.000
 122388181.21447  95367399.45047  23289708.1254   23289710.1654   23289708.1874
        48.000          42.000
 104673301.18347  81563613.36747  19918665.1494   19918664.3804   19918665.3694
        57.000          51.000
 117692673.39847 109500783.36147  24299108.5404   24299109.7984   24299108.9184
        43.000          37.000
 131262750.47247  84490438.70147  23075546.4584   23075549.5694   23075546.9584
        45.000          39.000
 119460264.49947  75293708.63647  20829599.0454   20829600.0544   20829598.8624
        54.000          47.000
 120270056.70247  75924718.06747  20983695.1654   20983695.7934   20983696.0194
        53.000          48.000
 129479643.29947  83101016.32647  22736223.3024   22736225.5854   22736223.7764
        48.000          42.000
 09  1 29  8 25 30.0000000  0 12G17G 3G 7G11G25G23G 6G28G32G13G19G20
 130514622.01747 101699698.05847  24836114.5824   24836115.5684   24836114.3084
        42.000          37.000
 131885923.18747  84976033.47247  23194127.3284   23194130.0854   23194127.6784
        45.000          39.000
 126319886.59347  98431075.61747  24037877.9704   24037878.5684   24037877.1904
        45.000          39.000
 123826327.55447  78695833.55647  21660435.6554   21660436.9074   21660435.9574
        52.000          46.000
 122325549.71447  95318595.68847  23277789.9544   23277791.8374   23277790.1704
        47.000          42.000
 104673846.43947  81564038.23547  19918768.9554   19918768.2064   19918769.1044
        57.000          51.000
 121350953.37157 112351367.03357  24995277.1265   24995279.0715   24995277.2175
        39.000          33.000
 117690359.23847 109498980.14147  24298668.4044   24298670.0054   24298669.0854
        41.000          36.000
 131323533.35047  84537801.97247  23087113.4924   23087116.0344   23087114.2024
        46.000          40.000
 119402783.41647  75248918.18347  20818660.5244   20818661.9444   20818660.3094
        53.000          47.000
 120330304.26847  75971664.21347  20995159.8414   20995160.9534   20995160.6614
        53.000          48.000
 129523058.52047  83134846.37647  22744485.1784   22744487.0944   22744485.2904
        48.000          41.000
 09  1 29  8 26  0.0000000  0 12G17G 3G 7G11G25G23G 6G28G32G13G19G20
 130413948.47147 101621251.14647  24816956.4224   24816957.9344   24816956.6844
        42.000          36.000
 131988915.58647  85056287.28147  23213726.0734   23213728.7134   23213726.4154
        45.000          39.000
 126258931.69147  98383578.30647  24026278.5324   24026279.3034   24026278.2024
        44.000          39.000
 123774747.60647  78655641.38547  21650620.4464   21650621.5824   21650620.5744
        52.000          46.000
 122262793.45547  95269694.71947  23265847.9394   23265849.7814   23265848.0184
        48.000          42.000
 104674998.97247  81564936.30947  19918988.2134   19918987.6284   19918988.4114
        57.000          51.000
 141454210.82857  92431861.67057  25014897.3105   25014896.3165   25014894.3265
        38.000          33.000
 117688285.10147 109497363.91647  24298272.9924   24298275.0124   24298273.6994
        41.000          36.000
 131384207.08147  84585080.19647  23098659.4484   23098661.8184   23098659.7164
        46.000          40.000
 119345790.30847  75204507.96547  20807815.2214   20807816.4404   20807814.9334
        54.000          47.000
 120391028.36647  76018981.70147  21006715.4084   21006715.8464   21006716.3034
        53.000          48.000
 129566401.35647  83168620.03747  22752732.8654   22752734.7064   22752733.0964
        48.000          42.000
 09  1 29  8 26 30.0000000  0 12G17G 3G 7G11G25G23G 6G28G32G13G19G20
 130313380.53847 101542886.52247  24797819.9224   24797820.2544   24797819.8024
        41.000          36.000
 132092069.91347  85136667.27247  23233355.5874   23233358.1544   23233355.9634
        45.000          39.000
 126197775.51147  98335924.13047  24014640.6854   24014641.4684   24014640.2284
        43.000          38.000
 123723304.05147  78615555.49547  21640830.9064   21640831.9304   21640831.1364
        52.000          46.000
 122199915.75947  95220699.12447  23253882.4684   23253884.6774   23253882.4074
        47.000          42.000
 104676760.09747  81566308.60747  19919323.3284   19919322.7334   19919323.5084
        56.000          51.000
 121557253.77257 112512138.07457  25034519.1925   25034520.4285   25034519.0755
        39.000          33.000
 117686451.19247 109495934.89747  24297925.1614   24297926.6154   24297925.3754
        42.000          36.000
 131444771.66447  84632273.37147  23110184.2594   23110186.8644   23110184.8704
        46.000          39.000
 119289288.75247  75160480.78047  20797063.5494   20797064.5064   20797063.3614
        54.000          48.000
 120452229.08247  76066670.56947  21018361.4994   21018362.4134   21018362.3314
        53.000          48.000
 129609671.65147  83202337.15747  22760967.3014   22760968.7654   22760967.1624
        48.000          42.000
 09  1 29  8 27  0.0000000  0 12G17G 3G 7G11G25G23G 6G28G32G13G19G20
 130212919.65847 101464605.31347  24778702.2324   24778702.7754   24778702.2734
        41.000          37.000
 132195381.62247  85217169.89147  23253015.3984   23253017.6154   23253015.3774
        46.000          39.000
 126136417.85647  98288112.95947  24002964.3974   24002965.3364   24002964.1884
        42.000          38.000
 123671998.14647  78575576.86547  21631067.5394   21631068.7494   21631067.6424
        52.000          46.000
 122136917.11547  95171609.27847  23241893.8344   23241896.3284   23241894.0354
        47.000          41.000
 104679128.18347  81568153.87047  19919773.8974   19919773.3394   19919774.0724
        57.000          51.000
 141660306.46657  92592414.36657  25054148.0825   25054156.1145   25054149.5465
        37.000          33.000
 117684853.77547 109494690.14047  24297620.3544   24297622.2704   24297621.1944
        42.000          36.000
 131505224.27347  84679379.28547  23121688.4384   23121690.4224   23121689.0974
        45.000          39.000
 119233279.49047  75116837.19847  20786405.4174   20786406.3974   20786405.2414
        54.000          48.000
 120513902.48247  76114727.77047  21030097.6024   21030098.0174   21030098.4354
        53.000          48.000
 129652866.09747  83235995.16347  22769186.8054   22769188.4474   22769187.0854
        48.000          42.000
 09  1 29  8 27 30.0000000  0 11G17G 3G 7G11G25G23G28G32G13G19G20
 130112571.78247 101386412.17447  24759606.9394   24759607.7664   24759605.9934
        41.000          37.000
 132298851.21147  85297795.54147  23272705.1594   23272707.2254   23272705.0804
        46.000          39.000
 126074863.02547  98240148.18947  23991250.9854   23991251.5234   23991250.4574
        43.000          39.000
 123620835.59347  78535709.94147  21621331.9204   21621333.0334   21621331.9594
        53.000          46.000
 122073802.62747  95122429.15747  23229883.9504   23229885.8884   23229883.7574
        47.000          41.000
 104682106.64747  81570474.75247  19920340.6974   19920340.0034   19920340.8304
        57.000          51.000
 117683494.68747 109493631.12047  24297362.6484   24297363.2274   24297362.5064
        41.000          36.000
 131565566.46147  84726399.17047  23133171.2764   23133173.2314   23133171.8734
        45.000          39.000
 119177767.86347  75073581.38847  20775841.7764   20775842.8024   20775841.6294
        54.000          48.000
 120576049.98047  76163154.38347  21041923.7744   21041924.7674   21041924.4674
        53.000          48.000
 129695986.10247  83269595.18147  22777392.1074   22777393.6194   22777392.6434
        48.000          41.000
 09  1 29  8 28  0.0000000  0 12G17G 3G 7G11G25G23G 6G28G32G13G19G20
 130012336.31747 101308306.61647  24740532.6944   24740533.7274   24740532.4294
        41.000          36.000
 132402473.41347  85378540.09747  23292423.6724   23292425.9704   23292423.4734
        45.000          38.000
 126013109.87347  98192028.87347  23979499.3544   23979500.8694   23979499.0374
        43.000          39.000
 123569816.26947  78495954.62147  21611623.1504   21611624.4124   21611623.2814
        52.000          46.000
 122010571.35647  95073158.04247  23217851.6354   23217853.6024   23217851.4474
        47.000          41.000
 104685692.63247  81573269.02347  19921023.0674   19921022.3594   19921023.2154
        57.000          51.000
 121866828.06057 112753362.90357  25093430.1555   25093432.4555   25093432.5095
        37.000          33.000
 117682369.13347 109492754.05347  24297148.2144   24297149.6464   24297148.6064
        42.000          36.000
 131625793.93347  84773329.63047  23144631.8784   23144634.1304   23144632.4324
        46.000          39.000
 119122753.37047  75030712.94647  20765373.0804   20765373.8724   20765372.8684
        54.000          48.000
 120638666.65847  76211946.60147  21053839.4344   21053840.1024   21053840.1434
        53.000          48.000
 129739027.74547  83303134.13347  22785582.6994   22785584.0014   22785583.6324
        49.000          41.000
 09  1 29  8 28 30.0000000  0 11G17G 3G 7G11G25G23G28G32G13G19G20
 129912216.02147 101230290.78647  24721480.3914   24721481.2874   24721480.3924
        41.000          36.000
 132506246.04847  85459401.88147  23312170.4524   23312173.4994   23312170.9914
        45.000          39.000
 125951159.73447  98143756.04447  23967710.6644   23967712.2064   23967710.1504
        44.000          39.000
 123518943.22547  78456313.28147  21601942.3814   21601943.4384   21601942.3854
        52.000          46.000
 121947225.76047  95023797.82747  23205797.4554   23205799.1684   23205797.5674
        48.000          41.000
 104689886.32347  81576536.83747  19921821.0934   19921820.4934   19921821.2284
        57.000          51.000
 117681475.14147 109492057.43747  24296977.5484   24296978.7664   24296978.2834
        41.000          36.000
 131685905.85647  84820170.09147  23156070.8384   23156073.3634   23156071.2154
        45.000          39.000
 119068238.45847  74988233.79047  20754999.0354   20755000.1264   20754998.8094
        54.000          48.000
 120701750.87547  76261103.12947  21065843.9094   21065844.8364   21065844.6474
        53.000          48.000
 129781989.47447  83336610.79847  22793758.0424   22793759.7384   22793759.1274
        49.000          41.000
 09  1 29  8 29  0.0000000  0 12G17G 3G 7G11G25G23G 6G28G32G13G19G20
 129812214.38147 101152367.43247  24702450.6674   24702451.5874   24702451.0674
        41.000          36.000
 132610167.04247  85540379.26747  23331945.9404   23331948.8274   23331946.6564
        45.000          39.000
 125889014.69047  98095331.32247  23955885.1654   23955885.9754   23955885.0654
        45.000          39.000
 123468219.51047  78416788.30247  21592290.0604   21592291.0344   21592290.2514
        53.000          46.000
 121883768.58647  94974350.67047  23193721.8494   23193723.6424   23193722.0324
        48.000          41.000
 104694688.26247  81580278.60447  19922734.9564   19922734.3254   19922735.1174
        57.000          51.000
 142073325.50557  92914253.83257  25132738.2655   25132743.5375   25132738.8025
        39.000          33.000
 117680813.28147 109491541.72047  24296852.5544   24296852.2494   24296852.3824
        43.000          36.000
 131745901.74547  84866920.12747  23167487.7484   23167489.7654   23167488.0904
        45.000          39.000
 119014226.01747  74946146.16547  20744720.9224   20744721.8704   20744720.6314
        54.000          48.000
 120765301.65847  76310623.22747  21077937.3504   21077937.7504   21077938.1364
        54.000          48.000
 129824870.38647  83370024.50847  22801917.9404   22801919.6564   22801918.7824
        48.000          41.000
 09  1 29  8 29 30.0000000  0 12G17G 3G 7G11G25G23G 6G28G32G13G19G20
 129712327.39047 101074533.42047  24683442.7504   24683443.5094   24683442.9074
        41.000          36.000
 132714227.06647  85621464.99047  23351748.3174   23351750.8134   23351748.6694
        45.000          39.000
 125826669.37547  98046750.57847  23944021.1884   23944022.4344   23944020.9364
        45.000          39.000
 123417641.10147  78377376.54847  21582665.1184   21582666.6464   21582665.1094
        52.000          46.000
 121820195.19347  94924812.97247  23181624.1874   23181625.8114   23181624.2204
        47.000          41.000
 104700091.42947  81584488.86147  19923762.9684   19923762.5134   19923763.0504
        57.000          51.000
 122176709.52157 112994832.12157  25152396.6755   25152398.3645   25152396.9565
        38.000          33.000
 117680374.31147 109491199.66347  24296768.1474   24296769.7864   24296768.8474
        42.000          36.000
 131805773.41147  84913573.38647  23178880.9024   23178883.2684   23178880.7444
        44.000          39.000
 118960711.36847  74904446.43047  20734537.2764   20734538.5144   20734536.9694
        54.000          48.000
 120829310.19747  76360500.00647  21090117.6144   21090118.3164   21090118.4094
        53.000          48.000
 129867662.28047  83403368.85247  22810060.7394   22810062.7444   22810060.6764
        48.000          41.000
 09  1 29  8 30  0.0000000  0 11G17G 3G 7G11G25G23G28G32G13G19G20
 129612569.04247 100996799.65647  24664459.2554   24664460.1534   24664459.1494
        40.000          36.000
 132818434.80047  85702665.81947  23371578.5574   23371580.9704   23371578.9494
        46.000          39.000
 125764136.55247  97998023.70347  23932121.7564   23932122.8884   23932120.9284
        45.000          40.000
 123367222.24347  78338089.12547  21573070.7164   21573072.2504   21573070.7624
        53.000          46.000
 121756519.13447  94875195.25647  23169506.6884   23169508.6764   23169506.6324
        47.000          41.000
 104706107.38547  81589176.61347  19924907.9274   19924907.2204   19924908.0474
        57.000          51.000
 117680168.11847 109491038.97447  24296729.7254   24296730.3274   24296730.2134
        42.000          37.000
 131865531.06647  84960137.81047  23190251.7004   23190254.6674   23190252.0394
        44.000          39.000
 118907708.06947  74863145.15447  20724451.2324   20724452.2904   20724450.9934
        54.000          48.000
 120893785.76447  76410740.71047  21102387.0124   21102387.4824   21102387.7314
        53.000          48.000
 129910375.04547  83436651.52647  22818188.4294   22818190.6604   22818188.8484
        48.000          41.000
 09  1 29  8 30 30.0000000  0 11G17G 3G 7G11G25G23G28G32G13G19G20
 129512935.63547 100919163.25047  24645500.6184   24645500.6424   24645499.3084
        40.000          36.000
 132922781.50147  85783974.93947  23391435.0234   23391437.5474   23391435.3764
        45.000          39.000
 125701411.25347  97949146.84147  23920185.6624   23920186.9404   23920185.2034
        46.000          39.000
 123316959.32147  78298923.20947  21563506.0354   21563507.5554   21563506.2494
        52.000          46.000
 121692736.13147  94825494.20247  23157369.4024   23157371.1434   23157369.4404
        47.000          41.000
 104712729.57147  81594336.75047  19926168.1774   19926167.4424   19926168.3654
        57.000          51.000
 117680185.51947 109491052.52447  24296732.5884   24296733.8064   24296733.4204
        43.000          37.000
 131925167.03547  85006607.38047  23201600.3554   23201603.2254   23201600.6854
        44.000          39.000
 118855212.23247  74822239.30347  20714461.4534   20714462.5894   20714461.3124
        54.000          48.000
 120958720.22847  76461339.00047  21114743.5054   21114744.4634   21114744.3174
        53.000          48.000
 129953000.70947  83469866.32247  22826300.2724   22826301.8974   22826300.3854
        47.000          41.000
 09  1 29  8 31  0.0000000  0 11G17G 3G 7G11G25G23G28G32G13G19G20
 129413431.53547 100841627.60847  24626564.7454   24626565.2644   24626564.5914
        42.000          37.000
 133027266.34647  85865391.70547  23411317.5534   23411320.0104   23411317.8724
        46.000          39.000
 125638497.00847  97900122.74447  23908213.1274   23908214.3584   23908213.2704
        45.000          39.000
 123266856.48947  78259882.03947  21553971.8554   21553973.2594   21553971.9944
        53.000          46.000
 121628850.12047  94775712.88447  23145212.1874   23145214.1484   23145212.2804
        47.000          41.000
 104719959.75847  81599970.65947  19927543.9374   19927543.1974   19927544.0834
        57.000          51.000
 117680427.19847 109491240.83947  24296779.2344   24296779.6324   24296779.1854
        43.000          37.000
 131984681.96947  85052982.65647  23212925.4654   23212928.6744   23212925.4864
        44.000          39.000
 118803227.51547  74781731.72647  20704569.2304   20704570.3824   20704568.9794
        54.000          48.000
 121024113.43147  76512294.74347  21127187.3224   21127188.2254   21127188.1354
        53.000          48.000
 129995539.51747  83503013.44247  22834395.2434   22834396.9974   22834395.7514
        48.000          41.000
 09  1 29  8 31 30.0000000  0 11G17G 3G 7G11G25G23G28G32G13G19G20
 129314056.15447 100764192.24147  24607654.6844   24607655.1924   24607654.7474
        42.000          37.000
 133131883.76847  85946911.79947  23431226.0164   23431227.8904   23431226.0634
        45.000          38.000
 125575391.71547  97850949.81447  23896204.7624   23896205.7894   23896204.5084
        45.000          39.000
 123216913.31247  78220965.28247  21544467.8744   21544469.2494   21544468.0214
        53.000          46.000
 121564859.99747  94725850.44347  23133035.6414   23133037.2104   23133035.6974
        47.000          41.000
 104727794.13447  81606075.36447  19929034.6364   19929034.0924   19929034.7464
        56.000          51.000
 117680888.76847 109491600.51947  24296866.7444   24296867.7714   24296866.9104
        42.000          37.000
 132044071.19647  85099259.98047  23224227.0644   23224229.7534   23224227.2934
        45.000          39.000
 118751752.65747  74741621.45447  20694773.5004   20694774.9814   20694773.2924
        54.000          48.000
 121089959.81947  76563603.61947  21139717.3404   21139718.5464   21139718.0154
        53.000          48.000
 130037986.74947  83536089.19147  22842472.5034   22842474.7184   22842473.1024
        48.000          41.000
 09  1 29  8 32  0.0000000  0 11G17G 3G 7G11G25G23G28G32G13G19G20
 129214815.77647 100686862.07947  24588769.7774   24588769.9774   24588769.4554
        42.000          37.000
 133236634.64147  86028535.86747  23451159.2114   23451161.3394   23451159.4554
        45.000          38.000
 125512100.40147  97801631.90747  23884160.4814   23884161.9384   23884160.1024
        45.000          39.000
 123167135.99247  78182177.77147  21534995.5554   21534996.9394   21534995.5724
        53.000          46.000
 121500771.37647  94675911.27447  23120839.4864   23120841.6604   23120839.4944
        47.000          41.000
 104736236.03547  81612653.46447  19930641.0934   19930640.5264   19930641.2844
        57.000          51.000
 117681572.26947 109492133.10047  24296997.0734   24296997.6444   24296996.4134
        44.000          37.000
 132103337.15547  85145441.26947  23235505.0044   23235508.1484   23235505.3294
        45.000          39.000
 118700793.61447  74701913.10747  20685076.4804   20685077.8344   20685076.2854
        54.000          48.000
 121156261.00147  76615266.89547  21152334.1014   21152335.0484   21152334.9504
        53.000          48.000
 130080344.44447  83569095.18647  22850532.9894   22850535.1044   22850533.3354
        48.000          41.000
 09  1 29  8 32 30.0000000  0 11G17G 3G 7G11G25G23G28G32G13G19G20
 129115707.78647 100609635.07647  24569909.6824   24569909.9914   24569909.8924
        43.000          37.000
 133341511.22647  86110257.87147  23471116.4334   23471119.0614   23471117.0274
        45.000          38.000
 125448619.40547  97752166.20547  23872080.6134   23872081.9874   23872080.1984
        44.000          39.000
 123117522.23647  78143517.70747  21525554.3704   21525555.7294   21525554.4424
        53.000          46.000
 121436581.45947  94625893.14447  23108624.7914   23108626.6074   23108624.6434
        48.000          42.000
 104745280.02847  81619700.72847  19932362.2224   19932361.5934   19932362.3574
        57.000          51.000
 117682469.89047 109492832.55947  24297168.0324   24297168.3104   24297168.2274
        42.000          37.000
 132162473.75147  85191521.72947  23246758.9524   23246761.7224   23246759.0664
        45.000          39.000
 118650347.43547  74662604.39647  20675476.8344   20675478.1594   20675476.6004
        54.000          48.000
 121223010.18247  76667279.25347  21165036.1094   21165037.0584   21165036.8984
        53.000          48.000
 130122606.18047  83602026.39447  22858575.4274   22858577.1224   22858575.9074
        49.000          41.000
 09  1 29  8 33  0.0000000  0 11G17G 3G 7G11G25G23G28G32G13G19G20
 129016739.68247 100532517.07547  24551076.6594   24551077.7094   24551076.5634
        43.000          38.000
 133446515.25947  86192079.20647  23491098.2474   23491100.6594   23491098.3514
        45.000          38.000
 125384955.05147  97702557.65047  23859965.8874   23859967.3474   23859965.4804
        46.000          40.000
 123068079.45747  78104990.87147  21516145.9284   21516146.9774   21516145.8434
        53.000          46.000
 121372296.95247  94575801.32047  23096391.9954   23096393.9934   23096391.8474
        49.000          42.000
 104754930.41447  81627220.51047  19934198.7174   19934197.9914   19934198.9094
        57.000          51.000
 117683585.04347 109493701.51047  24297380.1484   24297380.5064   24297380.1274
        43.000          37.000
 132221484.13347  85237503.85247  23257987.5804   23257991.3214   23257987.9314
        45.000          39.000
 118600420.43347  74623700.23947  20665976.2474   20665977.4084   20665976.1524
        54.000          48.000
 121290209.34347  76719642.24947  21177823.7794   21177824.6574   21177824.5064
        53.000          48.000
 130164775.37647  83634885.50147  22866599.6214   22866601.4974   22866600.0204
        48.000          41.000
 09  1 29  8 33 30.0000000  0 11G17G 3G 7G11G25G23G28G32G13G19G20
 128917909.98447 100455506.90047  24532270.6074   24532271.2024   24532270.2094
        43.000          38.000
 133551640.26847  86273994.79147  23511102.6994   23511105.5844   23511103.0394
        45.000          38.000
 125321104.91547  97652804.26947  23847816.1404   23847817.0274   23847816.2024
        46.000          40.000
 123018806.19147  78066596.11347  21506769.5854   21506770.6304   21506769.7374
        53.000          46.000
 121307916.09547  94525634.41347  23084140.7004   23084142.3594   23084140.5434
        48.000          42.000
 104765183.30947  81635209.77547  19936149.7784   19936148.9984   19936149.9974
        57.000          51.000
 117684912.31047 109494735.77347  24297632.3074   24297632.7524   24297633.0524
        42.000          36.000
 132280363.16147  85283383.60747  23269191.9664   23269195.5184   23269191.8894
        44.000          39.000
 118551011.00347  74585199.38547  20656573.9864   20656575.3684   20656573.7284
        54.000          48.000
 121357852.86147  76772351.49647  21190695.7194   21190696.5304   21190696.5824
        53.000          48.000
 130206846.31247  83667668.05747  22874605.4754   22874607.1664   22874605.7724
        48.000          41.000
 09  1 29  8 34  0.0000000  0 11G17G 3G 7G11G25G23G28G32G13G19G20
 128819224.61247 100378609.19347  24513491.4404   24513491.9824   24513490.9334
        43.000          38.000
 133656887.11047  86356005.30347  23531130.9484   23531133.2174   23531130.8394
        45.000          38.000
 125257073.59047  97602909.76347  23835631.1774   23835632.2154   23835630.8474
        44.000          40.000
 122969708.29747  78028338.02347  21497426.4414   21497427.7484   21497426.6204
        53.000          46.000
 121243444.51847  94475396.80747  23071872.1324   23071874.1414   23071871.9484
        48.000          42.000
 104776041.92747  81643671.03647  19938215.8914   19938215.2934   19938216.0984
        57.000          51.000
 117686453.35647 109495936.58347  24297924.8934   24297927.1964   24297925.4394
        42.000          37.000
 132339113.23147  85329162.86847  23280371.7054   23280375.4874   23280371.5134
        44.000          39.000
 118502124.35347  74547105.88847  20647271.1614   20647272.2594   20647270.9764
        54.000          48.000
 121425942.07647  76825408.04447  21203652.9244   21203653.5864   21203653.7764
        53.000          48.000
 130248821.26847  83700375.81647  22882593.3114   22882595.2814   22882593.5994
        48.000          41.000
 09  1 29  8 34 30.0000000  0 11G17G 3G 7G11G25G23G28G32G13G19G20
 128720681.42847 100301822.28747  24494739.2604   24494740.0144   24494738.1804
        43.000          38.000
 133762248.44147  86438105.05047  23551180.4254   23551182.4534   23551180.3354
        45.000          38.000
 125192857.69947  97552871.41647  23823410.5694   23823412.0704   23823410.1644
        44.000          39.000
 122920784.01247  77990215.21247  21488116.5344   21488117.5844   21488116.6674
        53.000          46.000
 121178879.33547  94425086.27447  23059585.9234   23059587.7194   23059585.8234
        48.000          42.000
 104787500.15747  81652599.52447  19940396.4604   19940395.7924   19940396.7124
        56.000          51.000
 117688200.83747 109497298.25147  24298257.9854   24298259.8264   24298257.8074
        43.000          37.000
 132397728.17347  85374836.83847  23291525.6204   23291529.3754   23291525.5204
        43.000          39.000
 118453757.33747  74509417.31147  20638067.1224   20638068.3034   20638066.9324
        54.000          48.000
 121494469.94047  76878806.39247  21216692.9284   21216693.9774   21216693.7674
        53.000          48.000
 130290693.52247  83733003.52847  22890561.4404   22890563.3974   22890562.0544
        48.000          41.000
 09  1 29  8 35  0.0000000  0 11G17G 3G 7G11G25G23G28G32G13G19G20
 128622288.11547 100225152.18647  24476015.3184   24476016.1484   24476014.5794
        42.000          38.000
 133867726.74447  86520295.92547  23571252.0294   23571254.6004   23571252.3554
        45.000          38.000
 125128463.61247  97502694.23747  23811156.9234   23811157.9764   23811156.3364
        44.000          40.000
 122872040.71647  77952233.42747  21478840.8834   21478842.2464   21478841.0004
        53.000          46.000
 121114227.75747  94374708.41747  23047283.1094   23047285.1824   23047283.2224
        48.000          42.000
 104799562.63247  81661998.85347  19942691.7984   19942691.2574   19942691.9414
        57.000          51.000
 117690158.10147 109498823.37647  24298629.5994   24298631.5374   24298630.4414
        41.000          37.000
 132456211.74347  85420408.46047  23302654.9824   23302658.2784   23302655.2284
        45.000          39.000
 118405916.78947  74472138.96147  20628963.5294   20628964.6914   20628963.3754
        54.000          48.000
 121563438.97047  76932548.50247  21229817.5074   21229818.3484   21229818.2834
        53.000          48.000
 130332466.49247  83765553.89447  22898510.5754   22898512.4434   22898511.1294
        48.000          41.000
 09  1 29  8 35 30.0000000  0 11G17G 3G 7G11G25G23G28G32G13G19G20
 128524044.66547 100148598.86447  24457320.3854   24457321.2714   24457320.0434
        43.000          38.000
 133973317.02147  86602574.06747  23591345.0004   23591348.0444   23591345.6264
        44.000          38.000
 125063891.02247  97452377.99147  23798869.3514   23798870.2524   23798869.0654
        45.000          40.000
 122823478.90147  77914393.05247  21469599.8784   21469601.0954   21469599.9314
        53.000          46.000
 121049489.81147  94324263.25447  23034963.8044   23034966.0554   23034964.0344
        48.000          42.000
 104812226.86647  81671867.08947  19945101.6754   19945101.1304   19945101.7774
        56.000          51.000
 117692321.44847 109500509.10647  24299041.9874   24299043.6554   24299041.9924
        43.000          37.000
 132514560.71847  85465875.20647  23313758.5944   23313761.5824   23313758.8084
        44.000          39.000
 118358602.62947  74435270.78647  20619959.7364   20619960.9584   20619959.5554
        54.000          48.000
 121632844.97647  76986631.11347  21243025.0614   21243025.7604   21243025.8864
        53.000          48.000
 130374136.83747  83798024.28647  22906440.4894   22906441.9444   22906441.0094
        47.000          41.000
 09  1 29  8 36  0.0000000  0 11G17G 3G 7G11G25G23G28G32G13G19G20
 128425953.94447 100072164.54347  24438654.1454   24438654.5504   24438654.3684
        43.000          38.000
 134079016.14647  86684937.00947  23611459.1864   23611461.9894   23611459.4874
        44.000          38.000
 124999141.18547  97401923.59147  23786547.8044   23786548.7614   23786547.2934
        44.000          40.000
 122775101.12347  77876696.08647  21460393.9364   21460394.8344   21460394.0384
        53.000          46.000
 120984667.57747  94273752.42347  23022628.5874   23022630.4744   23022628.5784
        48.000          42.000
 104825492.21347  81682203.71647  19947626.2304   19947625.4224   19947626.5494
        57.000          51.000
 117694688.73947 109502353.72947  24299492.3034   24299493.7324   24299493.1154
        42.000          37.000
 132572773.70947  85511235.98747  23324835.9324   23324839.0334   23324836.1494
        44.000          39.000
 118311816.70447  74398814.21547  20611056.9034   20611057.9164   20611056.6094
        54.000          48.000
 121702685.56947  77041052.35447  21256315.5154   21256316.1044   21256316.2254
        53.000          48.000
 130415702.92947  83830413.45747  22914349.7574   22914351.7624   22914350.0094
        48.000          41.000
 09  1 29  8 36 30.0000000  0 11G17G 3G 7G11G25G23G28G32G13G19G20
 128328017.55947  99995850.48047  24420017.7914   24420017.9944   24420017.5624
        44.000          38.000
 134184820.89347  86767382.22747  23631593.4954   23631596.1124   23631593.8074
        44.000          38.000
 124934214.64447  97351331.50547  23774192.4104   23774193.6914   23774192.0754
        45.000          40.000
 122726909.03447  77839143.80347  21451223.2034   21451224.1604   21451223.3834
        53.000          46.000
 120919762.29547  94223176.88247  23010277.6804   23010279.4354   23010277.6554
        48.000          42.000
 104839357.20447  81693007.61047  19950264.4444   19950263.8034   19950264.4484
        57.000          51.000
 117697257.10747 109504355.03547  24299981.4134   24299982.8184   24299981.8374
        42.000          37.000
 132630848.64747  85556489.19147  23335887.0274   23335890.3874   23335887.5894
        45.000          39.000
 118265559.80247  74362769.87647  20602254.3834   20602255.5464   20602254.1144
        54.000          48.000
 121772957.66947  77095809.84647  21269687.8084   21269688.2184   21269688.6384
        53.000          48.000
 130457162.37147  83862719.52447  22922238.8454   22922241.4514   22922239.3754
        47.000          41.000
 09  1 29  8 37  0.0000000  0 11G17G 3G 7G11G25G23G28G32G13G19G20
 128230238.35247  99919658.87447  24401411.0584   24401411.8234   24401411.0464
        43.000          38.000
 134290729.42847  86849908.35947  23651747.3194   23651749.5884   23651747.4674
        44.000          37.000
 124869113.41447  97300603.31047  23761804.5384   23761805.0694   23761804.1394
        45.000          40.000
 122678905.68447  77801738.59347  21442088.3724   21442089.6114   21442088.5604
        53.000          46.000
 120854776.70047  94172538.75947  22997911.0054   22997912.9774   22997911.1924
        47.000          42.000
 104853821.67847  81704278.62147  19953017.1434   19953016.3674   19953017.3884
        56.000          51.000
 117700025.26047 109506512.02547  24300508.1694   24300509.4884   24300508.4044
        43.000          37.000
 132688784.80447  85601634.26347  23346912.2364   23346914.9414   23346912.7674
        45.000          39.000
 118219834.25847  74327139.58547  20593553.0424   20593554.1104   20593552.8464
        54.000          48.000
 121843659.48747  77150902.17347  21283141.6084   21283142.4944   21283142.3984
        52.000          48.000
 130498514.17847  83894941.70747  22930107.9044   22930110.1554   22930108.2164
        47.000          41.000
 09  1 29  8 37 30.0000000  0 11G17G 3G 7G11G25G23G28G32G13G19G20
 128132619.75847  99843592.44747  24382834.6054   24382835.2734   24382834.0554
        44.000          38.000
 134396739.79847  86932513.83547  23671920.3274   23671922.8284   23671920.5114
        43.000          37.000
 124803839.68447  97249740.70747  23749383.6544   23749383.9634   23749383.2034
        46.000          40.000
 122631094.77247  77764483.33347  21432990.5024   21432991.5474   21432990.5514
        53.000          46.000
 120789713.69947  94121840.31347  22985530.0334   22985532.3274   22985529.9894
        48.000          42.000
 104868885.93447  81716017.00147  19955883.5264   19955883.0114   19955883.6214
        57.000          51.000
 117702992.43847 109508824.10247  24301072.6084   24301073.5864   24301073.1894
        43.000          37.000
 132746581.88547  85646670.96147  23357910.4464   23357913.6534   23357911.0944
        45.000          39.000
 118174642.52447  74291925.24347  20584953.3764   20584954.4814   20584953.1334
        54.000          48.000
 121914789.66947  77206328.29347  21296677.3404   21296678.0334   21296678.1314
        52.000          47.000
 130539757.55247  83927079.40047  22937956.1564   22937958.5214   22937956.9524
        47.000          41.000
 09  1 29  8 38  0.0000000  0 11G17G 3G 7G11G25G23G28G32G13G19G20
 128035162.01747  99767651.34747  24364289.0044   24364289.6914   24364287.8354
        42.000          38.000
 134502847.05047  87015194.81547  23692111.3464   23692114.1924   23692111.7374
        43.000          37.000
 124738392.69447  97198743.06647  23736928.8824   23736930.0374   23736928.6674
        45.000          40.000
 122583476.27147  77727378.00747  21423928.8174   21423930.1594   21423928.9854
        53.000          46.000
 120724573.12547  94071081.42247  22973134.0444   22973136.5904   22973133.9414
        48.000          42.000
 104884546.63547  81728220.14247  19958863.8884   19958863.1464   19958864.1254
        56.000          51.000
 117706153.89747 109511287.55247  24301673.9924   24301676.0744   24301674.5904
        43.000          37.000
 132804236.29247  85691596.47547  23368881.4884   23368884.8524   23368881.9914
        44.000          39.000
 118129983.90947  74257126.32347  20576455.1304   20576456.3654   20576454.8364
        54.000          48.000
 121986343.79347  77262084.75947  21310293.6704   21310294.3554   21310294.5304
        53.000          47.000
 130580889.01047  83959129.88847  22945782.9944   22945785.3414   22945783.7494
        47.000          41.000
 09  1 29  8 38 30.0000000  0 11G17G 3G 7G11G25G23G28G32G13G19G20
 127937869.78747  99691839.19947  24345774.8284   24345775.1264   24345774.0824
        43.000          38.000
 134609050.72247  87097950.91247  23712321.1124   23712324.5064   23712321.4974
        43.000          37.000
 124672776.25447  97147613.37147  23724442.3844   23724443.7284   23724442.0734
        44.000          40.000
 122536055.17347  77690426.49647  21414904.8304   21414906.2294   21414904.9444
        53.000          46.000
 120659359.33447  94020265.47247  22960724.5624   22960726.3714   22960724.3614
        48.000          42.000
 104900805.21347  81740889.16047  19961957.8384   19961957.0234   19961958.0374
        57.000          51.000
 117709510.19747 109513902.85547  24302313.4084   24302314.0774   24302313.2494
        43.000          37.000
 132861749.24747  85736411.77747  23379825.8314   23379829.0254   23379825.9824
        44.000          38.000
 118085862.43647  74222745.95747  20568059.1324   20568060.2514   20568058.9834
        54.000          48.000
 122058321.12247  77318170.99347  21323990.7114   21323991.0514   21323991.5184
        53.000          47.000
 130621909.27647  83991093.72747  22953588.9614   22953591.2494   22953589.9514
        47.000          41.000
 09  1 29  8 39  0.0000000  0 11G17G 3G 7G11G25G23G28G32G13G19G20
 127840743.92447  99616156.71247  24327292.4034   24327292.9564   24327292.8934
        44.000          38.000
 134715346.42447  87180778.70047  23732548.5414   23732552.1184   23732548.7024
        42.000          37.000
 124606990.17447  97096351.48547  23711923.6314   23711924.9304   23711923.5594
        44.000          40.000
 122488832.16647  77653629.35247  21405918.6774   21405920.0984   21405918.7864
        53.000          46.000
 120594072.88747  93969392.91547  22948300.7684   22948302.7794   22948300.7924
        48.000          42.000
 104917659.32747  81754022.23947  19965164.9284   19965164.3004   19965165.0804
        56.000          51.000
 117713057.77347 109516667.17747  24302988.0074   24302990.0664   24302988.4674
        43.000          37.000
 132919117.69147  85781114.45347  23390742.9624   23390745.6024   23390742.7984
        44.000          38.000
 118042278.08547  74188784.12647  20559765.2514   20559766.4614   20559765.0474
        54.000          48.000
 122130717.68247  77374583.89747  21337767.0984   21337767.5214   21337767.9174
        53.000          47.000
 130662815.24547  84022968.48647  22961373.5554   22961375.6644   22961374.4424
        47.000          41.000
 09  1 29  8 39 30.0000000  0 11G17G 3G 7G11G25G23G28G32G13G19G20
 127743788.29047  99540606.86647  24308842.3094   24308842.4234   24308843.0254
        44.000          38.000
 134821732.81047  87263677.18647  23752793.2964   23752796.4524   23752793.5204
        43.000          37.000
 124541037.24647  97044959.60347  23699373.5794   23699374.5044   23699373.4034
        45.000          40.000
 122441811.40947  77616989.79247  21396970.9504   21396972.2124   21396970.9674
        53.000          46.000
 120528717.21647  93918466.41447  22935863.9184   22935865.8384   22935863.8414
        48.000          42.000
 104935109.61247  81767619.85447  19968485.6074   19968484.8804   19968485.7524
        56.000          51.000
 117716795.95147 109519580.03647  24303699.4044   24303700.9064   24303699.7604
        42.000          37.000
 132976342.00547  85825704.84547  23401632.0854   23401635.0914   23401632.1464
        44.000          38.000
 117999233.56047  74155242.93347  20551574.1744   20551575.3834   20551573.9964
        54.000          48.000
 122203532.59347  77431322.79147  21351623.3934   21351623.9314   21351624.1484
        53.000          47.000
 130703606.62647  84054753.97347  22969135.4514   22969137.9324   22969136.4364
        47.000          41.000
 09  1 29  8 40  0.0000000  0 11G17G 3G 7G11G25G23G28G32G13G19G20
 127647005.17947  99465191.45847  24290425.2704   24290425.3084   24290424.8374
        43.000          38.000
 134928207.12747  87346644.16047  23773054.6594   23773057.7434   23773054.8724
        42.000          37.000
 124474918.62347  96993438.60647  23686791.5234   23686792.5484   23686791.1934
        45.000          40.000
 122394995.23747  77580509.66447  21388062.2054   21388063.3334   21388062.5184
        53.000          46.000
 120463294.40947  93867487.58647  22923414.6404   22923416.5224   22923414.5254
        48.000          43.000
 104953155.00647  81781681.20247  19971919.5384   19971918.8504   19971919.6644
        56.000          51.000
 117720722.60347 109522639.76447  24304446.8814   24304447.5374   24304447.0514
        42.000          36.000
 133033420.72047  85870181.75547  23412493.9674   23412496.6894   23412493.8554
        43.000          38.000
 117956730.37047  74122123.56247  20543485.9584   20543487.3924   20543485.7084
        54.000          48.000
 122276763.47147  77488385.81647  21365558.7334   21365559.3374   21365559.3844
        53.000          47.000
 130744281.73747  84086448.84547  22976875.6334   22976878.0394   22976876.3524
        46.000          40.000
 09  1 29  8 40 30.0000000  0 11G17G 3G 7G11G25G23G28G32G13G19G20
 127550395.95847  99389911.53647  24272040.9554   24272041.7404   24272040.7284
        43.000          38.000
 135034765.43647  87429676.61647  23793331.9254   23793335.1294   23793332.0574
        42.000          37.000
 124408634.74747  96941788.82547  23674177.7394   23674179.1704   23674177.4214
        44.000          40.000
 122348384.81547  77544189.85247  21379192.4104   21379193.7204   21379192.5004
        53.000          47.000
 120397805.50947  93816457.26247  22910952.5474   22910954.3564   22910952.4164
        49.000          43.000
 104971793.23947  81796204.50347  19975466.3884   19975465.6244   19975466.6374
        56.000          51.000
 117724834.34047 109525843.69947  24305229.1754   24305229.9644   24305229.9444
        42.000          36.000
 133090351.65147  85914543.53047  23423327.5364   23423330.9224   23423327.4484
        43.000          38.000
 117914769.11647  74089426.48047  20535501.1124   20535502.3964   20535500.8244
        54.000          48.000
 122350406.39147  77545769.90847  21379572.3254   21379573.0584   21379573.0484
        52.000          47.000
 130784838.06047  84118051.16547  22984593.4044   22984595.7064   22984593.8314
        47.000          41.000
 09  1 29  8 41  0.0000000  0 11G17G 3G 7G11G25G23G28G32G13G19G20
 127453963.73547  99314769.53347  24253690.1934   24253691.2474   24253689.6254
        44.000          38.000
 135141406.02947  87512773.16747  23813624.9554   23813628.5914   23813624.9554
        43.000          37.000
 124342188.12447  96890012.20947  23661533.7604   23661535.0334   23661533.4664
        44.000          40.000
 122301983.71847  77508033.15647  21370362.5764   21370363.8634   21370362.6984
        53.000          47.000
 120332253.28847  93765377.60147  22898478.2834   22898480.0664   22898478.3904
        49.000          43.000
 104991024.24247  81811189.70047  19979125.7624   19979125.1414   19979125.9514
        56.000          50.000
 117729130.19847 109529191.11347  24306046.5864   24306047.0694   24306047.1444
        42.000          36.000
 133147134.33447  85958789.79447  23434133.1774   23434135.8854   23434133.1804
        44.000          38.000
 117873351.84147  74057153.28247  20527619.6804   20527620.8214   20527619.4374
        54.000          48.000
 122424459.97547  77603474.00047  21393664.4784   21393665.0434   21393665.2094
        52.000          47.000
 130825275.27747  84149560.67747  22992288.5014   22992290.7384   22992288.4584
        47.000          41.000
 09  1 29  8 41 30.0000000  0 11G17G 3G 7G11G25G23G28G32G13G19G20
 127357710.57047  99239767.05747  24235373.5804   24235375.3614   24235372.9884
        43.000          38.000
 135248125.64947  87595931.30647  23833933.5114   23833936.5744   23833933.2974
        43.000          37.000
 124275580.00147  96838109.75347  23648858.8854   23648859.8974   23648858.5684
        45.000          40.000
 122255794.00747  77472041.18047  21361573.0844   21361574.1214   21361573.2374
        53.000          47.000
 120266639.63047  93714250.06347  22885992.3794   22885994.3144   22885992.3584
        49.000          42.000
 105010846.76647  81826635.82047  19982897.8494   19982897.2784   19982898.0114
        56.000          50.000
 117733607.73947 109532680.10147  24306898.3104   24306899.9674   24306898.8904
        43.000          37.000
 133203767.17347  86002919.28547  23444909.7844   23444912.5824   23444909.8504
        44.000          38.000
 117832479.86547  74025304.98547  20519842.0184   20519842.9884   20519841.8334
        54.000          48.000
 122498921.25847  77661495.76647  21407833.7694   21407834.8064   21407834.5534
        52.000          47.000
 130865591.27647  84180975.73847  22999960.6024   22999962.5864   22999961.1574
        48.000          41.000
 09  1 29  8 42  0.0000000  0 11G17G 3G 7G11G25G23G28G32G13G19G20
 127261638.73047  99164905.88947  24217092.2114   24217093.5314   24217091.7274
        44.000          39.000
 135354921.32447  87679148.70047  23854255.6994   23854258.7774   23854255.9164
        44.000          37.000
 124208811.17947  96786082.09247  23636152.7824   23636154.2384   23636152.4824
        45.000          40.000
 122209817.81447  77436215.58147  21352824.3244   21352825.0154   21352824.3694
        53.000          47.000
 120200966.39147  93663076.11847  22873495.2314   22873497.0754   22873495.1314
        49.000          42.000
 105031259.27847  81842541.67247  19986782.3504   19986781.6204   19986782.5264
        56.000          50.000
 117738264.48547 109536308.71647  24307785.5894   24307785.6194   24307785.5874
        44.000          37.000
 133260248.75247  86046930.91147  23455658.3344   23455660.9964   23455658.2584
        44.000          38.000
 117792154.02347  73993882.24447  20512168.3464   20512169.4114   20512168.1104
        54.000          48.000
 122573787.29747  77719832.94747  21422080.5434   21422080.9124   21422081.4944
        52.000          47.000
 130905784.24947  84212294.92147  23007609.3074   23007611.1264   23007609.8294
        47.000          41.000
 09  1 29  8 42 30.0000000  0 11G17G 3G 7G11G25G23G28G32G13G19G20
 127165751.37347  99090188.47747  24198845.3334   24198846.4404   24198844.5264
        44.000          39.000
 135461791.15447  87762423.89647  23874592.9834   23874595.8664   23874592.5734
        43.000          37.000
 124141884.08647  96733931.12247  23623416.9684   23623418.7054   23623416.4044
        46.000          40.000
 122164058.29847  77400558.82347  21344116.3614   21344117.2294   21344116.4884
        53.000          47.000
 120135236.51847  93611858.03147  22860987.2464   22860989.0244   22860987.1904
        48.000          43.000
 105052261.53847  81858907.06847  19990778.9474   19990778.2614   19990779.1174
        56.000          50.000
 117743099.03247 109540075.89047  24308705.4784   24308706.0334   24308706.0914
        43.000          37.000
 133316578.59047  86090824.30147  23466376.8414   23466380.2484   23466377.3184
        44.000          38.000
 117752376.60447  73962886.85047  20504598.9334   20504600.0354   20504598.7294
        54.000          49.000
 122649056.47347  77778484.24947  21436403.7554   21436404.4144   21436404.6474
        52.000          47.000
 130945853.58947  84243517.77747  23015234.2384   23015236.3084   23015234.5424
        47.000          40.000
 09  1 29  8 43  0.0000000  0 11G17G 3G 7G11G25G23G28G32G13G19G20
 127070052.49347  99015617.92247  24180634.7134   24180636.0234   24180633.9194
        45.000          39.000
 135568734.02847  87845756.02747  23894943.0044   23894945.6804   23894943.2594
        44.000          37.000
 124074802.03647  96681659.38847  23610651.6754   23610653.2204   23610651.8664
        46.000          41.000
 122118519.83847  77365074.30947  21335450.4834   21335451.6104   21335450.5854
        54.000          47.000
 120069454.02547  93560598.94447  22848469.2344   22848470.9084   22848469.1214
        49.000          43.000
 105073854.39747  81875732.66747  19994887.8934   19994887.2274   19994888.0574
        56.000          50.000
 117748111.42747 109543981.65747  24309659.2884   24309659.6674   24309659.3994
        43.000          37.000
 133372757.58247  86134600.15147  23477067.4344   23477071.1134   23477068.1124
        44.000          38.000
 117713150.62847  73932321.15047  20497134.4174   20497135.7104   20497134.1744
        54.000          49.000
 122724728.01147  77837449.06847  21450803.5024   21450804.2984   21450804.3614
        52.000          47.000
 130985799.63247  84274644.54847  23022835.4314   23022837.5344   23022835.5744
        47.000          40.000
 09  1 29  8 43 30.0000000  0 11G17G 3G 7G11G25G23G28G32G13G19G20
 126974540.60447  98941193.05247  24162459.5714   24162460.4484   24162459.3914
        44.000          39.000
 135675743.40547  87929139.96247  23915306.0774   23915308.8764   23915306.7814
        44.000          37.000
 124007562.83247  96629265.20247  23597856.9054   23597857.8924   23597856.5234
        46.000          41.000
 122073200.99647  77329760.93347  21326826.6944   21326827.7864   21326826.8274
        53.000          47.000
 120003616.96347  93509297.33547  22835940.8854   22835942.4114   22835940.8664
        49.000          43.000
 105096032.49747  81893014.29747  19999108.2074   19999107.6134   19999108.3924
        56.000          50.000
 117753295.62747 109548021.27547  24310645.2094   24310645.6534   24310645.5484
        43.000          37.000
 133428780.28747  86178254.20347  23487728.5254   23487731.9274   23487728.5734
        45.000          38.000
 117674473.59547  73902183.20147  20489774.3764   20489775.7214   20489774.2124
        54.000          49.000
 122800795.01047  77896722.05647  21465278.7824   21465279.1854   21465279.6164
        52.000          47.000
 131025617.07347  84305671.11547  23030412.0604   23030414.0954   23030412.5054
        47.000          40.000
 09  1 29  8 44  0.0000000  0 11G17G 3G 7G11G25G23G28G32G13G19G20
 126879220.53347  98866917.66347  24144320.5154   24144321.5274   24144320.2504
        44.000          39.000
 135782819.03547  88012575.47947  23935682.1924   23935684.7534   23935682.5974
        44.000          37.000
 123940170.27447  96576751.52947  23585032.1614   23585033.5054   23585031.6814
        46.000          41.000
 122028106.64947  77294622.48947  21318245.5524   21318246.8244   21318245.6094
        53.000          47.000
 119937729.92547  93457956.77747  22823403.0554   22823404.7064   22823403.0724
        49.000          43.000
 105118796.88647  81910752.77847  20003440.0004   20003439.6224   20003440.1444
        56.000          50.000
 117758651.27547 109552194.49647  24311664.3244   24311665.7174   24311664.6334
        43.000          36.000
 133484648.13347  86221787.61147  23498359.7304   23498363.2144   23498360.0364
        44.000          38.000
 117636349.21647  73872475.89547  20482519.5854   20482520.9034   20482519.3574
        54.000          49.000
 122877257.72747  77956303.39747  21479829.0974   21479829.6144   21479829.8084
        52.000          47.000
 131065306.54147  84336597.96747  23037964.5674   23037966.8894   23037964.8064
        47.000          40.000
 09  1 29  8 44 30.0000000  0 11G17G 3G 7G11G25G23G28G32G13G19G20
 126784094.06747  98792793.13447  24126218.8974   24126219.6964   24126218.0804
        45.000          39.000
 135889958.06447  88096060.41347  23956070.0784   23956072.6184   23956070.5614
        43.000          37.000
 123872625.20747  96524119.00347  23572178.9064   23572179.7404   23572178.5634
        46.000          40.000
 121983238.79847  77259660.53047  21309707.4984   21309708.7784   21309707.5544
        54.000          47.000
 119871794.47447  93406578.49547  22810856.2874   22810857.5764   22810856.1014
        49.000          43.000
 105142146.06447  81928946.93647  20007883.2444   20007882.8064   20007883.4254
        56.000          50.000
 117764176.34047 109556499.74547  24312716.1214   24312716.9224   24312716.0374
        43.000          37.000
 133540359.45947  86265199.05147  23508960.8224   23508964.4264   23508961.3484
        43.000          38.000
 117598778.17347  73843199.75047  20475370.1264   20475371.2564   20475369.8864
        54.000          49.000
 122954112.77947  78016190.45347  21494454.0564   21494454.6134   21494454.9294
        52.000          47.000
 131104866.32547  84367423.77747  23045492.7594   23045494.9434   23045492.5974
        47.000          40.000
 09  1 29  8 45  0.0000000  0 11G17G 3G 7G11G25G23G28G32G13G19G20
 126689165.27247  98718822.63747  24108154.7974   24108155.3264   24108154.5234
        46.000          39.000
 135997158.81447  88179593.47547  23976469.4144   23976472.2884   23976470.1484
        43.000          37.000
 123804930.87247  96471370.16647  23559297.4494   23559297.6094   23559297.2834
        46.000          40.000
 121938601.27847  77224878.05747  21301213.1504   21301214.4154   21301213.3374
        53.000          47.000
 119805814.62947  93355165.63147  22798300.3744   22798302.0424   22798300.5504
        49.000          43.000
 105166080.69647  81947597.29747  20012437.8784   20012437.4304   20012438.0264
        56.000          50.000
 117769870.25947 109560936.55847  24313798.7724   24313800.5784   24313799.0074
        42.000          37.000
 133595914.87347  86308489.03247  23519532.4794   23519535.8804   23519533.1854
        44.000          38.000
 117561763.30247  73814356.99747  20468326.3834   20468327.5044   20468326.0524
        54.000          49.000
 123031359.50747  78076382.70547  21509153.6394   21509154.1084   21509154.5104
        52.000          47.000
 131144296.63747  84398148.70647  23052996.2854   23052998.1614   23052996.3454
        47.000          40.000
 09  1 29  8 45 30.0000000  0 11G17G 3G 7G11G25G23G28G32G13G19G20
 126594434.31047  98645006.30147  24090127.5574   24090128.3574   24090127.9274
        45.000          39.000
 136104416.83647  88263171.15147  23996880.0774   23996883.3444   23996880.5844
        43.000          37.000
 123737086.62047  96418504.52947  23546386.5844   23546387.5494   23546386.4874
        46.000          40.000
 121894194.51147  77190275.38547  21292763.0214   21292764.0634   21292763.1154
        54.000          47.000
 119739790.30047  93303718.10947  22785736.1904   22785738.0294   22785736.2894
        49.000          43.000
 105190597.13547  81966701.01147  20017103.3064   20017102.7994   20017103.4614
        56.000          50.000
 117775728.74747 109565501.61047  24314913.8264   24314915.4754   24314914.3124
        43.000          37.000
 133651310.86747  86351654.77747  23530074.5754   23530077.3394   23530075.1394
        44.000          38.000
 117525303.69447  73785946.91847  20461388.4794   20461389.5794   20461388.2404
        54.000          49.000
 123108992.88547  78136876.23647  21523926.6954   21523927.4564   21523927.3904
        52.000          47.000
 131183593.82947  84428769.88747  23060474.3774   23060475.9914   23060475.0894
        47.000          40.000
 09  1 29  8 46  0.0000000  0 11G17G 3G 7G11G25G23G28G32G13G19G20
 126499904.34347  98571346.58647  24072139.2744   24072140.2694   24072139.4334
        44.000          39.000
 136211729.75547  88346791.60247  24017301.2454   24017303.9664   24017301.2434
        43.000          38.000
 123669095.20947  96365524.22147  23533447.7144   23533449.4094   23533447.2484
        45.000          39.000
 121850021.89047  77155855.16447  21284357.3734   21284358.1224   21284357.4544
        54.000          47.000
 119673724.70947  93252238.42447  22773164.6954   22773166.4534   22773164.6194
        49.000          43.000
 105215695.10047  81986257.86547  20021879.3284   20021878.8084   20021879.4864
        56.000          50.000
 117781750.43547 109570193.82547  24316060.6564   24316061.4624   24316060.7404
        44.000          37.000
 133706547.53747  86394696.33847  23540586.1834   23540588.2684   23540586.5434
        44.000          38.000
 117489401.38847  73757971.09147  20454556.4744   20454557.5314   20454556.2864
        54.000          49.000
 123187011.09647  78197669.65347  21538773.2014   21538773.6394   21538774.0414
        51.000          47.000
 131222757.01947  84459286.66847  23067926.9444   23067928.7444   23067927.6784
        47.000          40.000
 09  1 29  8 46 30.0000000  0 11G17G 3G 7G11G25G23G28G32G13G19G20
 126405579.48747  98497846.68847  24054190.3144   24054190.6164   24054189.4304
        44.000          39.000
 136319096.66047  88430454.13747  24037732.3264   24037735.1064   24037732.3654
        43.000          38.000
 123600959.50847  96312431.46947  23520482.3004   23520483.6624   23520481.9584
        45.000          40.000
 121806087.37447  77121620.47847  21275996.6834   21275997.7874   21275996.8874
        53.000          47.000
 119607621.35547  93200729.31747  22760585.4964   22760587.4834   22760585.6424
        49.000          43.000
 105241374.53347  82006267.81347  20026765.9624   20026765.4114   20026766.1064
        56.000          50.000
 117787934.84547 109575012.85747  24317236.9534   24317237.8064   24317237.2824
        43.000          37.000
 133761624.96147  86437613.83347  23551066.5094   23551069.6504   23551066.6794
        44.000          38.000
 117454059.17947  73730431.70547  20447831.0124   20447832.0504   20447830.7834
        54.000          49.000
 123265413.10047  78258762.11847  21553692.2764   21553693.1724   21553693.0934
        52.000          47.000
 131261787.28647  84489699.85647  23075354.6404   23075356.4074   23075355.3494
        48.000          41.000
 09  1 29  8 47  0.0000000  0 11G17G 3G 7G11G25G23G28G32G13G19G20
 126311458.83747  98424505.91347  24036279.2984   24036280.4714   24036279.3644
        45.000          39.000
 136426512.22447  88514154.55547  24058172.8724   24058175.7974   24058172.9824
        44.000          38.000
 123532678.15547  96259225.22247  23507489.0214   23507489.8774   23507488.8994
        45.000          40.000
 121762390.42747  77087570.91647  21267681.4554   21267682.6614   21267681.4504
        53.000          47.000
 119541479.58747  93149190.28547  22747999.0294   22748000.8484   22747998.9744
        49.000          43.000
 105267631.38347  82026727.69247  20031762.5284   20031761.9204   20031762.7174
        56.000          50.000
 117794276.72847 109579954.57147  24318443.8544   24318445.1114   24318444.0084
        43.000          37.000
 133816539.26947  86480404.20247  23561517.0574   23561518.9424   23561517.1404
        44.000          38.000
 117419275.11147  73703327.24047  20441211.8604   20441213.0114   20441211.5904
        54.000          49.000
 123344193.14147  78320149.16147  21568683.9444   21568684.6094   21568684.9244
        52.000          47.000
 131300679.59947  84520005.57147  23082755.7584   23082757.4314   23082756.5074
        48.000          40.000
 09  1 29  8 47 30.0000000  0 11G17G 3G 7G11G25G23G28G32G13G19G20
 126217548.52247  98351329.04547  24018408.8804   24018409.4844   24018408.7514
        45.000          39.000
 136533977.23647  88597893.51247  24078622.5674   24078625.6374   24078622.9754
        44.000          38.000
 123464256.21747  96205909.43347  23494468.3414   23494469.5714   23494467.9794
        45.000          39.000
 121718937.22047  77053711.28247  21259412.6824   21259413.7204   21259412.9354
        54.000          47.000
 119475305.23747  93097625.85247  22735406.2304   22735408.4204   22735406.0664
        49.000          43.000
 105294467.36647  82047638.84647  20036869.0004   20036868.5474   20036869.1214
        56.000          50.000
 117800777.50147 109585020.10247  24319680.6294   24319681.2584   24319680.9544
        42.000          37.000
 133871293.01447  86523069.45647  23571936.3604   23571937.8414   23571936.8194
        45.000          38.000
 117385053.84447  73676661.31447  20434699.7914   20434700.7484   20434699.5284
        54.000          49.000
 123423351.76047  78381831.19647  21583747.3434   21583747.9474   21583748.2884
        52.000          47.000
 131339436.24947  84550205.55347  23090130.2534   23090132.5604   23090130.8694
        47.000          40.000
 09  1 29  8 48  0.0000000  0 11G17G 3G 7G11G25G23G28G32G13G19G20
 126123847.63547  98278315.37847  24000577.8204   24000579.0184   24000577.6994
        43.000          39.000
 136641485.57847  88681666.20247  24099080.6004   24099083.7134   24099081.0804
        44.000          39.000
 123395692.41347  96152483.09747  23481421.4544   23481422.6164   23481420.9594
        46.000          40.000
 121675726.84647  77020040.86047  21251189.9894   21251191.1764   21251190.0164
        53.000          47.000
 119409097.25447  93046035.20847  22722807.6084   22722809.6564   22722807.6344
        49.000          43.000
 105321878.03547  82068997.80647  20042085.1154   20042084.6354   20042085.3364
        56.000          50.000
 117807431.74747 109590205.24347  24320946.7374   24320947.6114   24320947.0724
        43.000          37.000
 133925881.84447  86565606.21347  23582324.3494   23582326.0084   23582325.0044
        44.000          38.000
 117351393.12547  73650432.18847  20428294.2744   20428295.4544   20428294.1574
        54.000          49.000
 123502883.68547  78443804.12647  21598881.7654   21598882.1744   21598882.4464
        52.000          47.000
 131378052.76747  84580296.33247  23097479.2904   23097480.9674   23097479.8264
        48.000          41.000
 09  1 29  8 48 30.0000000  0 11G17G 3G 7G11G25G23G28G32G13G19G20
 126030360.35247  98205468.14247  23982788.0064   23982788.6604   23982786.9224
        43.000          39.000
 136749036.52947  88765472.09347  24119546.9954   24119549.8134   24119547.1834
        44.000          39.000
 123326989.98447  96098948.75547  23468348.1884   23468348.7954   23468347.9554
        46.000          40.000
 121632763.44147  76986562.89447  21243014.0264   21243015.3204   21243014.3664
        53.000          47.000
 119342859.76647  92994421.58847  22710203.3224   22710205.1304   22710203.3424
        49.000          43.000
 105349863.84547  82090804.93247  20047410.4704   20047410.0344   20047410.5974
        56.000          50.000
 117814239.29247 109595509.81247  24322242.0234   24322243.3624   24322242.6564
        43.000          37.000
 133980306.67247  86608015.19547  23592680.8114   23592682.5784   23592681.7454
        45.000          38.000
 117318295.95947  73624642.18747  20421996.1344   20421997.1724   20421995.8934
        54.000          49.000
 123582788.16047  78506067.35747  21614087.0154   21614087.5984   21614087.9094
        52.000          47.000
 131416529.66147  84610278.31147  23104801.0814   23104802.5334   23104801.7374
        47.000          40.000
 09  1 29  8 49  0.0000000  0 11G17G 3G 7G11G25G23G28G32G13G19G20
 125937088.06247  98132788.44847  23965038.8164   23965039.7874   23965038.7964
        44.000          39.000
 136856626.80047  88849308.66247  24140020.5824   24140023.4874   24140020.9224
        44.000          39.000
 123258149.69747  96045306.98847  23455248.0594   23455249.0494   23455248.2384
        46.000          41.000
 121590048.68347  76953278.67147  21234885.6234   21234886.9864   21234885.7424
        53.000          47.000
 119276594.14747  92942786.03447  22697593.4014   22697595.1864   22697593.3204
        49.000          43.000
 105378422.59447  82113058.50147  20052845.1434   20052844.6844   20052845.2804
        56.000          50.000
 117821197.03947 109600931.45847  24323566.1764   24323567.6594   24323566.0294
        43.000          37.000
 134034565.58547  86650294.88247  23603006.3284   23603007.7344   23603007.1804
        44.000          38.000
 117285762.57647  73599291.50447  20415805.2454   20415806.2244   20415805.0784
        54.000          49.000
 123663061.02347  78568617.63347  21629362.2794   21629363.0594   21629362.9384
        52.000          47.000
 131454864.56447  84640149.65347  23112095.4444   23112097.4354   23112095.9004
        47.000          40.000
 09  1 29  8 49 30.0000000  0 11G17G 3G 7G11G25G23G28G32G13G19G20
 125844035.21647  98060279.74347  23947331.2524   23947331.5844   23947331.7704
        44.000          39.000
 136964255.20247  88933174.94347  24160501.8264   24160504.7674   24160501.8514
        45.000          39.000
 123189175.27047  95991560.69847  23442122.5744   23442123.4404   23442122.3404
        45.000          40.000
 121547587.05847  76920191.69547  21226805.7964   21226807.0094   21226805.9514
        53.000          47.000
 119210304.75147  92891131.95247  22684978.7974   22684980.6194   22684978.7744
        49.000          43.000
 105407554.91947  82135759.01647  20058388.9134   20058388.4134   20058389.0544
        56.000          50.000
 117828305.02047 109606470.13147  24324918.5954   24324920.0284   24324918.6874
        42.000          37.000
 134088659.60347  86692446.07147  23613299.5524   23613301.5044   23613300.1644
        44.000          37.000
 117253795.94547  73574382.43747  20409722.2984   20409723.2874   20409722.0304
        54.000          49.000
 123743702.02147  78631454.77647  21644707.7324   21644708.3854   21644708.4714
        51.000          46.000
 131493058.44347  84669911.11747  23119363.7374   23119365.6264   23119364.1674
        46.000          40.000
 09  1 29  8 50  0.0000000  0 11G17G 3G 7G11G25G23G28G32G13G19G20
 125751201.31147  97987941.63747  23929665.4334   23929666.0444   23929664.7424
        43.000          39.000
 137071916.48547  89017066.83547  24180989.2424   24180991.9144   24180988.9974
        45.000          39.000
 123120065.57147  95937708.98447  23428971.6784   23428972.5324   23428971.2234
        46.000          41.000
 121505377.72447  76887301.30747  21218773.5834   21218774.8114   21218773.6624
        53.000          47.000
 119143990.63347  92839458.60447  22672359.6614   22672361.2354   22672359.8084
        50.000          43.000
 105437256.23547  82158902.89747  20064040.9614   20064040.4604   20064041.0964
        56.000          50.000
 117835557.67447 109612121.52547  24326298.7824   24326300.2344   24326299.7834
        43.000          37.000
 134142584.53347  86734465.52247  23623561.0404   23623563.1824   23623561.2744
        43.000          38.000
 117222393.94347  73549913.34147  20403746.5954   20403747.7354   20403746.3704
        54.000          49.000
 123824705.25547  78694574.17647  21660122.0224   21660123.0854   21660122.6664
        52.000          47.000
 131531106.66247  84699559.06547  23126603.9874   23126605.9924   23126604.3474
        47.000          40.000
 09  1 29  8 50 30.0000000  0 11G17G 3G 7G11G25G23G28G32G13G19G20
 125658592.46447  97915778.90847  23912042.2594   23912042.9644   23912041.1874
        44.000          39.000
 137179612.54447  89100985.84847  24201483.0604   24201485.8734   24201483.1224
        46.000          39.000
 123050826.26047  95883756.26947  23415795.9634   23415796.7424   23415795.6314
        46.000          41.000
 121463428.11647  76854613.30847  21210790.6474   21210791.9054   21210790.7774
        54.000          47.000
 119077658.59647  92787771.28547  22659737.1274   22659738.4694   22659737.0904
        50.000          43.000
 105467529.25447  82182492.26047  20069801.8394   20069801.2384   20069802.0314
        56.000          50.000
 117842957.51447 109617887.63447  24327706.8624   24327709.1184   24327707.5684
        42.000          37.000
 134196343.88547  86776355.94647  23633790.4914   23633793.0024   23633790.9204
        43.000          37.000
 117191561.95347  73525888.41147  20397879.3914   20397880.6854   20397879.1734
        54.000          49.000
 123906072.31147  78757977.07847  21675605.9144   21675606.5694   21675606.8104
        52.000          47.000
 131569012.44647  84729096.04047  23133817.2804   23133819.0484   23133818.3214
        47.000          40.000
 09  1 29  8 51  0.0000000  0 11G17G 3G 7G11G25G23G28G32G13G19G20
 125566206.33647  97843789.70247  23894462.3344   23894462.5104   23894462.0964
        45.000          39.000
 137287335.24747  89184925.60347  24221982.0534   24221984.6594   24221981.9104
        45.000          38.000
 122981454.26847  95829700.18847  23402594.6804   23402595.6194   23402594.7134
        46.000          41.000
 121421735.03347  76822125.19747  21202856.6344   21202857.8684   21202856.6384
        54.000          47.000
 119011305.80647  92736067.80247  22647110.4854   22647112.3184   22647110.4174
        49.000          44.000
 105498367.09147  82206521.74047  20075670.0324   20075669.4104   20075670.2114
        56.000          50.000
 117850497.08447 109623762.59547  24329142.0464   24329143.4764   24329142.2354
        44.000          37.000
 134249931.64747  86818112.64447  23643987.8184   23643991.0874   23643988.4434
        44.000          37.000
 117161295.80947  73502304.39747  20392120.1134   20392121.1364   20392119.9374
        54.000          49.000
 123987795.19647  78821657.24547  21691157.4054   21691157.9204   21691158.2604
        52.000          47.000
 131606769.62147  84758517.22147  23141002.3154   23141003.7224   23141003.1654
        48.000          40.000
 09  1 29  8 51 30.0000000  0 11G17G 3G 7G11G25G23G28G32G13G19G20
 125474048.84847  97771978.67947  23876925.3914   23876925.8144   23876926.0614
        45.000          39.000
 137395085.77547  89268887.05047  24242486.1504   24242489.1714   24242486.2044
        46.000          38.000
 122911954.90747  95775544.84147  23389369.3184   23389370.2164   23389369.3054
        46.000          40.000
 121380305.12347  76789842.15047  21194972.8624   21194974.1474   21194972.9674
        54.000          47.000
 118944938.35847  92684352.89847  22634481.0734   22634483.1614   22634481.0014
        50.000          44.000
 105529772.22047  82230993.26647  20081646.1684   20081645.6754   20081646.4074
        56.000          50.000
 117858177.86147 109629747.62447  24330603.0804   24330605.1054   24330603.9174
        43.000          37.000
 134303350.60447  86859737.80647  23654153.3504   23654156.0834   23654154.4814
        43.000          38.000
 117131600.28647  73479165.02647  20386469.2264   20386470.1684   20386469.1174
        54.000          49.000
 124069875.56847  78885615.97147  21706776.6744   21706777.3184   21706777.4944
        52.000          46.000
 131644380.45747  84787824.34247  23148159.5374   23148161.1214   23148160.6094
        47.000          40.000
 09  1 29  8 52  0.0000000  0 11G17G 3G 7G11G25G23G28G32G13G19G20
 125382119.94047  97700345.76147  23859432.1734   23859432.4964   23859431.4844
        45.000          40.000
 137502859.07047  89352866.23147  24262994.6244   24262997.6364   24262994.7484
        45.000          38.000
 122842327.21847  95721289.50447  23376119.5204   23376120.7814   23376119.3864
        46.000          41.000
 121339137.60147  76757763.57847  21187139.2264   21187140.1744   21187139.4594
        54.000          47.000
 118878555.81547  92632626.23647  22621849.1674   22621851.0274   22621849.1634
        50.000          44.000
 105561740.16247  82255903.35347  20087729.5374   20087728.9024   20087729.6224
        56.000          50.000
 117865995.33647 109635839.16547  24332091.6514   24332092.3654   24332091.7214
        43.000          37.000
 134356597.14747  86901228.64647  23664285.8444   23664289.2034   23664286.8034
        43.000          38.000
 117102472.86347  73456468.33147  20380926.3804   20380927.6034   20380926.1044
        54.000          49.000
 124152307.09947  78949848.33847  21722462.9254   21722463.4654   21722463.7214
        52.000          46.000
 131681840.82047  84817014.23347  23155288.2364   23155289.6694   23155288.8314
        48.000          40.000
 09  1 29  8 52 30.0000000  0 11G17G 3G 7G11G25G23G28G32G13G19G20
 125290425.05047  97628895.17847  23841983.1154   23841983.7724   23841982.6204
        46.000          40.000
 137610655.61547  89436863.56047  24283507.7034   24283510.1644   24283507.8304
        45.000          38.000
 122772576.41047  95666938.22847  23362846.5474   23362847.6034   23362846.0814
        46.000          41.000
 121298238.62547  76725894.25647  21179356.2914   21179357.4044   21179356.4914
        54.000          47.000
 118812163.81447  92580892.20047  22609215.0114   22609217.1004   22609215.0684
        49.000          44.000
 105594272.61547  82281253.31547  20093920.2844   20093919.5404   20093920.5144
        56.000          50.000
 117873950.50247 109642037.99747  24333604.9104   24333606.6704   24333604.9754
        43.000          37.000
 134409673.52247  86942586.89547  23674385.8684   23674389.0964   23674386.9174
        43.000          38.000
 117073918.47947  73434218.16247  20375492.6654   20375493.8154   20375492.5024
        54.000          49.000
 124235090.66347  79014355.01847  21738216.0604   21738216.5544   21738216.9104
        51.000          46.000
 131719153.01047  84846088.65747  23162388.5844   23162389.9634   23162388.5924
        47.000          40.000
 09  1 29  8 53  0.0000000  0 11G17G 3G 7G11G25G23G28G32G13G19G20
 125198969.65747  97557631.24047  23824579.8074   23824580.3854   23824579.7284
        46.000          40.000
 137718476.52447  89520879.85747  24304025.1704   24304028.3144   24304025.4704
        45.000          37.000
 122702707.55447  95612494.95747  23349550.9114   23349552.1184   23349550.6244
        46.000          41.000
 121257613.89947  76694238.63447  21171625.6694   21171626.6134   21171625.8614
        54.000          47.000
 118745768.20747  92529155.35147  22596580.2794   22596582.1544   22596580.1154
        50.000          44.000
 105627371.66147  82307044.78047  20100218.7494   20100218.1984   20100218.9324
        56.000          50.000
 117882044.59047 109648345.08247  24335145.9964   24335146.4094   24335145.9864
        43.000          37.000
 134462582.45247  86983814.63447  23684454.6224   23684457.1914   23684454.6584
        43.000          38.000
 117045941.48147  73412417.90347  20370168.8284   20370169.9734   20370168.6104
        54.000          49.000
 124318227.22847  79079136.76047  21754036.3864   21754037.1124   21754037.1474
        51.000          46.000
 131756319.37447  84875049.45347  23169460.3684   23169462.3904   23169460.9994
        47.000          40.000
 09  1 29  8 53 30.0000000  0 11G17G 3G 7G11G25G23G28G32G13G19G20
 125107749.80347  97486550.83847  23807221.1754   23807221.8574   23807220.7984
        46.000          40.000
 137826312.55747  89604907.94547  24324545.6484   24324549.1354   24324545.9764
        44.000          37.000
 122632715.98747  95557956.08147  23336231.7664   23336232.9774   23336231.3144
        46.000          41.000
 121217259.50347  76662793.65247  21163946.3634   21163947.5714   21163946.3944
        54.000          47.000
 118679364.76647  92477412.40047  22583944.3954   22583946.2904   22583944.1984
        50.000          44.000
 105661028.74747  82333271.07747  20106623.5224   20106622.8334   20106623.6984
        56.000          50.000
 117890268.98347 109654753.71647  24336710.3644   24336711.1834   24336710.7284
        43.000          37.000
 134515316.44047  87024906.06347  23694489.1824   23694492.0664   23694489.2314
        43.000          38.000
 117018535.52547  73391062.61347  20364953.7374   20364954.7254   20364953.5484
        54.000          49.000
 124401707.17547  79144186.06347  21769922.2094   21769922.7574   21769923.0484
        52.000          46.000
 131793332.09347  84903890.51647  23176504.1154   23176506.0044   23176504.5024
        47.000          40.000
 09  1 29  8 54  0.0000000  0 11G17G 3G 7G11G25G23G28G32G13G19G20
 125016765.59047  97415654.03947  23789907.4324   23789908.4884   23789907.0674
        45.000          40.000
 137934158.78347  89688943.97947  24345068.7894   24345070.8764   24345068.6604
        44.000          37.000
 122562601.17247  95503321.16147  23322888.8374   23322890.4854   23322888.6214
        46.000          41.000
 121177175.11547  76631559.06447  21156318.3574   21156319.7624   21156318.4134
        53.000          47.000
 118612953.61647  92425663.44747  22571306.7694   22571308.6404   22571306.8544
        50.000          44.000
 105695240.15447  82359929.32047  20113133.7034   20113133.0864   20113133.8074
        56.000          50.000
 117898619.27147 109661260.41147  24338299.3554   24338301.0224   24338300.0114
        43.000          37.000
 134567872.48947  87065858.87547  23704490.7284   23704493.0274   23704490.0004
        43.000          37.000
 116991699.52347  73370151.44347  20359846.9024   20359848.0074   20359846.7394
        54.000          49.000
 124485525.64947  79209499.15747  21785872.4604   21785872.8434   21785873.4064
        52.000          46.000
 131830187.82547  84932609.25047  23183517.2984   23183519.4174   23183518.3174
        47.000          40.000
 09  1 29  8 54 30.0000000  0 11G17G 3G 7G11G25G23G28G32G13G19G20
 124926023.50147  97344945.91847  23772639.7014   23772640.8674   23772639.2744
        45.000          40.000
 138042017.25647  89772989.53047  24365593.1194   24365595.9284   24365593.4444
        43.000          36.000
 122492369.40747  95448595.11547  23309524.8854   23309525.7444   23309524.6324
        46.000          41.000
 121137367.74847  76600540.33947  21148743.2794   21148744.6904   21148743.2144
        53.000          47.000
 118546541.50247  92373913.74147  22558668.8024   22558670.8554   22558668.9344
        50.000          44.000
 105730008.52547  82387021.55647  20119749.9424   20119749.3424   20119750.1244
        56.000          50.000
 117907097.52847 109667866.84947  24339912.5744   24339914.0274   24339913.0824
        43.000          37.000
 134620253.92147  87106675.60247  23714458.2424   23714460.9844   23714458.3224
        43.000          38.000
 116965438.56147  73349688.35847  20354849.5414   20354850.7884   20354849.2394
        54.000          49.000
 124569684.23047  79275077.28047  21801887.2134   21801887.6954   21801887.9654
        51.000          46.000
 131866889.49047  84961207.96647  23190501.4544   23190503.6634   23190502.3104
        47.000          40.000
 09  1 29  8 55  0.0000000  0 11G17G 3G 7G11G25G23G28G32G13G19G20
 124835525.15347  97274427.73547  23755418.5674   23755419.8054   23755418.1004
        45.000          40.000
 138149884.46447  89857041.90047  24386119.3454   24386122.5024   24386119.9734
        43.000          36.000
 122422021.67347  95393778.70047  23296138.2584   23296139.1444   23296137.9244
        47.000          42.000
 121097839.25447  76569738.91347  21141221.1274   21141222.7344   21141221.2824
        53.000          47.000
 118480129.98847  92322164.50147  22546030.7874   22546033.0794   22546030.8104
        49.000          44.000
 105765331.06147  82414545.61247  20126471.4804   20126470.8994   20126471.5684
        56.000          50.000
 117915700.74047 109674570.62947  24341549.8314   24341550.7064   24341550.4434
        43.000          37.000
 134672459.21547  87147355.07047  23724392.5494   23724395.5364   23724392.8454
        42.000          37.000
 116939752.20047  73329673.01147  20349961.7274   20349962.7404   20349961.5574
        54.000          49.000
 124654179.27147  79340917.56447  21817965.7004   21817966.4924   21817966.4964
        51.000          46.000
 131903435.08747  84989685.04947  23197456.2924   23197458.0404   23197457.1684
        48.000          40.000
 09  1 29  8 55 30.0000000  0 11G17G 3G 7G11G25G23G28G32G13G19G20
 124745273.27147  97204101.59347  23738244.0214   23738245.1684   23738243.4504
        46.000          40.000
 138257757.96847  89941099.17847  24406647.5084   24406650.3494   24406647.5764
        43.000          36.000
 122351559.79947  95338873.34047  23282729.6254   23282730.6334   23282729.5034
        47.000          41.000
 121058592.14447  76539156.75247  21133752.8704   21133754.2504   21133752.8854
        53.000          47.000
 118413721.72047  92270417.79647  22533393.8844   22533395.9974   22533393.7064
        50.000          44.000
 105801206.86747  82442500.78647  20133298.3294   20133297.8284   20133298.3764
        56.000          50.000
 117924427.14547 109681370.44847  24343210.6154   24343211.7804   24343211.0764
        42.000          37.000
 134724487.64247  87187896.73047  23734292.6074   23734295.4164   23734292.8994
        43.000          38.000
 116914641.83047  73310106.49147  20345183.2654   20345184.5774   20345182.9434
        54.000          49.000
 124739008.43947  79407018.23047  21834108.7024   21834109.0904   21834109.4164
        51.000          46.000
 131939823.99347  85018040.04847  23204380.7424   23204382.7034   23204381.1314
        47.000          40.000
 09  1 29  8 56  0.0000000  0 11G17G 3G 7G11G25G23G28G32G13G19G20
 124655270.63047  97133969.66547  23721117.3914   23721117.9904   23721116.9974
        45.000          40.000
 138365636.40647  90025160.29847  24427176.0984   24427178.3094   24427175.8904
        42.000          36.000
 122280986.42047  95283881.10247  23269300.1544   23269300.9354   23269299.9444
        47.000          41.000
 121019629.41347  76508796.18647  21126338.3944   21126339.8124   21126338.5854
        54.000          47.000
 118347319.70447  92218675.96047  22520758.2644   22520760.0004   22520758.3014
        50.000          44.000
 105837634.13247  82470885.66447  20140230.2334   20140229.7874   20140230.4154
        56.000          50.000
 117933275.10047 109688264.95047  24344893.4834   24344895.4764   24344894.2394
        42.000          36.000
 134776339.23147  87228300.56147  23744159.5724   23744162.8634   23744160.2224
        43.000          37.000
 116890108.42247  73290989.54447  20340514.8854   20340515.9064   20340514.7294
        54.000          49.000
 124824169.19947  79473377.25947  21850313.7904   21850314.5294   21850314.7184
        51.000          46.000
 131976055.67247  85046272.52247  23211275.1504   23211277.5144   23211275.6514
        47.000          40.000
 09  1 29  8 56 30.0000000  0 11G17G 3G 7G11G25G23G28G32G13G19G20
 124565517.40247  97064032.08447  23704037.5844   23704038.4684   23704037.2154
        45.000          40.000
 138473514.71847  90109221.30147  24447704.6294   24447707.1754   24447704.4284
        42.000          36.000
 122210301.42947  95228801.88047  23255849.1634   23255849.8354   23255848.8284
        47.000          41.000
 120980951.52647  76478657.57547  21118978.2724   21118979.7084   21118978.2394
        54.000          47.000
 118280924.25947  92166939.24747  22508123.2714   22508125.4684   22508123.3584
        49.000          43.000
 105874608.94647  82499697.20547  20147266.4464   20147265.7164   20147266.5754
        56.000          50.000
 117942240.36347 109695250.87547  24346599.6504   24346601.6904   24346600.1664
        43.000          37.000
 134828010.83647  87268564.11247  23753992.4934   23753995.9194   23753993.1964
        42.000          37.000
 116866150.57947  73272321.09347  20335955.7704   20335956.8854   20335955.5444
        54.000          49.000
 124909656.65747  79539990.84947  21866581.8324   21866582.3264   21866582.7624
        51.000          46.000
 132012126.66847  85074379.79447  23218139.4274   23218141.6294   23218139.9644
        47.000          40.000
 09  1 29  8 57  0.0000000  0 11G17G 3G 7G11G25G23G28G32G13G19G20
 124476019.72247  96994293.64447  23687006.4984   23687007.5594   23687006.2374
        46.000          40.000
 138581394.28447  90193283.27747  24468233.5174   24468236.7154   24468233.4424
        41.000          35.000
 122139510.50547  95173640.11247  23242377.9914   23242378.9704   23242377.4584
        47.000          41.000
 120942564.73247  76448745.79247  21111673.5634   21111674.9164   21111673.7314
        54.000          47.000
 118214541.66947  92115212.54247  22495491.0604   22495493.0894   22495491.0754
        49.000          43.000
 105912133.59947  82528937.19547  20154407.0944   20154406.5204   20154407.2614
        56.000          50.000
 117951324.42547 109702329.35647  24348328.9464   24348330.5504   24348328.9804
        42.000          37.000
 134879505.81347  87308690.06747  23763791.9934   23763794.7094   23763792.1324
        42.000          37.000
 116842773.08047  73254104.86247  20331507.1144   20331508.3294   20331506.9014
        54.000          49.000
 124995472.07747  79606860.00747  21882912.0424   21882912.2144   21882912.7924
        51.000          46.000
 132048040.13847  85102364.31047  23224973.2314   23224975.3684   23224974.0104
        47.000          40.000
 09  1 29  8 57 30.0000000  0 11G17G 3G 7G11G25G23G28G32G13G19G20
 124386777.35547  96924754.15847  23670024.0584   23670025.4784   23670024.1134
        45.000          40.000
 138689270.42847  90277342.65647  24488761.5924   24488764.5234   24488761.7664
        42.000          35.000
 122068612.81547  95118395.15347  23228886.6124   23228887.9904   23228886.3484
        47.000          41.000
 120904468.75047  76419060.61447  21104424.0114   21104425.4994   21104423.9354
        54.000          47.000
 118148171.83247  92063495.77547  22482861.2814   22482863.3904   22482861.1134
        50.000          44.000
 105950203.46847  82558602.02447  20161651.4614   20161650.9944   20161651.5384
        55.000          50.000
 117960522.57947 109709496.74547  24350079.2154   24350080.2034   24350079.0644
        43.000          37.000
 134930820.63947  87348675.63247  23773557.1034   23773559.7104   23773557.4764
        43.000          38.000
 116819973.73447  73236339.13547  20327168.6634   20327169.7154   20327168.4034
        54.000          49.000
 125081609.98447  79673980.44747  21899303.4354   21899303.5794   21899304.1684
        51.000          46.000
 132083791.94747  85130222.86247  23231776.3134   23231778.5074   23231777.1794
        46.000          40.000
 09  1 29  8 58  0.0000000  0 11G17G 3G 7G11G25G23G28G32G13G19G20
 124297792.70247  96855415.46247  23653090.8794   23653091.9664   23653090.3384
        46.000          40.000
 138797140.04647  90361396.87947  24509288.6224   24509291.3224   24509288.6794
        41.000          35.000
 121997610.51347  95063068.68747  23215375.6034   23215376.3424   23215375.5064
        47.000          41.000
 120866666.23347  76389604.11847  21097230.5834   21097231.9474   21097230.8294
        54.000          47.000
 118081817.18047  92011790.84147  22470234.5234   22470236.3234   22470234.5974
        50.000          44.000
 105988816.69047  82588690.24847  20168999.4094   20168998.8754   20168999.5464
        56.000          50.000
 117969832.93147 109716751.58747  24351851.0324   24351852.3584   24351851.5824
        43.000          37.000
 134981954.60847  87388520.27847  23783287.3214   23783290.4044   23783287.6304
        42.000          38.000
 116797752.81947  73219024.13847  20322940.1034   20322941.2724   20322939.9604
        54.000          49.000
 125168067.60247  79741350.02647  21915755.8774   21915756.1074   21915756.7104
        51.000          46.000
 132119381.39247  85157954.86647  23238548.9654   23238550.6584   23238549.0424
        46.000          40.000
 09  1 29  8 58 30.0000000  0 11G17G 3G 7G11G25G23G28G32G13G19G20
 124209068.77747  96786279.93847  23636207.2964   23636208.3084   23636207.5094
        45.000          40.000
 138905001.85547  90445445.05347  24529813.5544   24529816.8224   24529813.9814
        41.000          35.000
 121926506.39347  95007662.88447  23201844.7774   23201845.7564   23201844.4064
        46.000          41.000
 120829160.22647  76360378.66347  21090093.6464   21090094.6774   21090093.6404
        54.000          47.000
 118015481.06047  91960100.35947  22457611.3404   22457613.0994   22457611.3014
        50.000          44.000
 106027972.54247  82619201.30447  20176450.4604   20176450.0574   20176450.6364
        55.000          49.000
 117979253.90447 109724092.59947  24353643.7384   24353644.6354   24353644.0944
        43.000          37.000
 135032908.01247  87428224.23947  23792983.4064   23792986.6324   23792983.9324
        43.000          38.000
 116776112.26047  73202161.35947  20318822.0214   20318823.2714   20318821.7404
        54.000          49.000
 125254842.92047  79808967.15447  21932268.3994   21932268.9434   21932268.9414
        51.000          46.000
 132154808.14547  85185560.13547  23245290.2354   23245292.4314   23245290.2734
        46.000          40.000
 09  1 29  8 59  0.0000000  0 11G17G 3G 7G11G25G23G28G32G13G19G20
 124120605.81747  96717347.75447  23619373.8024   23619374.4034   23619373.2054
        46.000          40.000
 139012851.03247  90529483.38547  24550336.7914   24550340.0294   24550336.8354
        41.000          34.000
 121855300.12847  94952177.43347  23188294.3484   23188295.7324   23188293.9734
        46.000          41.000
 120791951.16747  76331384.59347  21083013.0144   21083013.8504   21083013.0764
        54.000          47.000
 117949163.83347  91908424.59447  22444991.8044   22444993.4444   22444991.8264
        50.000          44.000
 106067666.87647  82650131.95447  20184003.9344   20184003.5274   20184003.9914
        55.000          49.000
 117988781.50247 109731516.71947  24355457.5744   24355457.6204   24355457.7304
        44.000          37.000
 135083677.91147  87467785.17547  23802644.7334   23802647.4944   23802645.2164
        43.000          37.000
 116755050.13847  73185749.31847  20314813.9874   20314815.3404   20314813.6854
        54.000          49.000
 125341931.64047  79876828.49747  21948841.0594   21948841.5184   21948841.6914
        51.000          46.000
 132190069.16547  85213036.23147  23252000.3994   23252002.4414   23252000.3354
        46.000          40.000
 09  1 29  8 59 30.0000000  0 11G17G 3G 7G11G25G23G28G32G13G19G20
 124032408.70847  96648622.74347  23602590.6564   23602590.9334   23602590.1354
        47.000          41.000
 139120687.86447  90613512.08747  24570858.0204   24570860.7804   24570858.1004
        40.000          34.000
 121783996.18247  94896615.92047  23174725.5134   23174727.0004   23174725.1704
        46.000          41.000
 120755044.13647  76302625.87047  21075989.5904   21075990.6774   21075989.6814
        54.000          47.000
 117882870.50147  91856767.44547  22432376.4154   22432378.2464   22432376.3914
        50.000          44.000
 106107900.17847  82681482.57547  20191660.2554   20191659.6064   20191660.3954
        55.000          49.000
 117998415.95147 109739024.08247  24357289.8164   24357291.8634   24357290.2174
        44.000          37.000
 135134266.30047  87507204.73947  23812271.4404   23812273.7244   23812271.8454
        43.000          38.000
 116734569.82147  73169790.62547  20310916.8624   20310918.0024   20310916.7624
        54.000          49.000
 125429332.56247  79944933.10847  21965472.8544   21965473.2974   21965473.8374
        51.000          46.000
 132225165.98747  85240384.40147  23258679.3694   23258681.1504   23258679.4924
        46.000          40.000
 09  1 29  9  0  0.0000000  0 11G17G 3G 7G11G25G23G28G32G13G19G20
 123944478.94947  96580106.06147  23585858.0374   23585858.7074   23585858.2574
        47.000          41.000
 139228509.71647  90697529.09347  24591375.3404   24591377.1224   24591375.9034
        40.000          34.000
 121712596.24847  94840979.61247  23161138.5764   23161139.8504   23161138.1294
        46.000          41.000
 120718440.62647  76274103.66147  21069024.2254   21069025.3734   21069024.4094
        54.000          47.000
 117816603.11447  91805130.51847  22419765.9854   22419768.0224   22419765.9164
        50.000          44.000
 106148670.12347  82713251.35947  20199418.6874   20199417.9314   20199418.9074
        55.000          49.000
 118008154.28147 109746612.41847  24359143.2304   24359144.0454   24359143.7304
        42.000          37.000
 135184671.77647  87546481.76947  23821863.5124   23821865.6084   23821864.0004
        44.000          38.000
 116714671.02947  73154285.06647  20307130.3704   20307131.3414   20307130.1264
        54.000          49.000
 125517042.87347  80013278.80047  21982163.6564   21982164.0064   21982164.5824
        51.000          46.000
 132260096.79747  85267603.19747  23265326.0904   23265328.5324   23265326.2534
        46.000          40.000
 09  1 29  9  0 30.0000000  0 11G17G 3G 7G11G25G23G28G32G13G19G20
 123856820.19047  96511800.54047  23569176.9604   23569177.8454   23569176.9814
        47.000          41.000
 139336315.08747  90781533.27747  24611890.1184   24611893.2774   24611890.3194
        40.000          33.000
 121641103.29447  94785270.81147  23147534.3294   23147535.0504   23147533.9704
        46.000          41.000
 120682144.31147  76245820.81647  21062117.3264   21062118.4134   21062117.5324
        54.000          47.000
 117750365.09747  91753516.47047  22407161.3974   22407163.2474   22407161.4284
        50.000          44.000
 106189976.00647  82745437.75847  20207278.9084   20207278.1854   20207279.0804
        55.000          49.000
 118017995.87647 109754281.18647  24361015.9084   24361017.2814   24361016.0944
        43.000          37.000
 135234894.70747  87585616.47147  23831420.8114   23831423.9724   23831421.5354
        43.000          38.000
 116695355.15447  73139233.73547  20303454.6504   20303455.6504   20303454.4404
        54.000          49.000
 125605060.51547  80081863.97447  21998912.8514   21998913.3354   21998913.7164
        51.000          46.000
 132294861.80347  85294692.80947  23271941.5364   23271944.1614   23271941.9934
        46.000          40.000
 09  1 29  9  1  0.0000000  0 11G17G 3G 7G11G25G23G28G32G13G19G20
 123769431.39047  96443705.36747  23552547.4304   23552548.2284   23552546.8374
        46.000          41.000
 119444025.13057 110865448.10057  24632398.7075   24632405.0985   24632400.0965
        39.000          33.000
 121569515.93647  94729488.45347  23133911.4194   23133912.3984   23133911.2954
        46.000          41.000
 120646154.46147  76217776.78547  21055268.4514   21055269.6234   21055268.6204
        54.000          47.000
 117684155.89747  91701924.87747  22394562.3744   22394564.2194   22394562.3504
        50.000          44.000
 106231812.25747  82778037.43047  20215239.8504   20215239.3284   20215239.9804
        55.000          49.000
 118027935.34847 109762026.19747  24362907.6714   24362908.7144   24362907.6114
        43.000          37.000
 135284931.48747  87624606.15747  23840942.4464   23840944.9424   23840942.8534
        43.000          38.000
 116676619.89147  73124634.83047  20299889.2474   20299890.3454   20299888.9764
        54.000          49.000
 125693379.77147  80150684.17847  22015719.4394   22015719.7894   22015720.3514
        51.000          46.000
 132329457.12947  85321650.18947  23278524.9124   23278527.3554   23278525.7214
        46.000          40.000
 09  1 29  9  1 30.0000000  0 10G17G 7G11G25G23G28G32G13G19G20
 123682317.59547  96375824.49847  23535970.2384   23535971.1404   23535970.0784
        47.000          41.000
 121497839.23147  94673636.45647  23120271.6124   23120273.0174   23120271.3084
        46.000          41.000
 120610476.07247  76189975.44347  21048479.0574   21048480.1774   21048479.1714
        54.000          47.000
 117617980.94347  91650359.97247  22381969.3874   22381971.5094   22381969.4054
        50.000          44.000
 106274180.09447  82811051.32347  20223302.1454   20223301.6474   20223302.2614
        55.000          49.000
 118037973.09247 109769847.80947  24364816.7274   24364818.7244   24364817.3744
        42.000          37.000
 135334784.22947  87663452.47347  23850428.9864   23850431.8404   23850429.1404
        43.000          37.000
 116658468.04947  73110490.53347  20296435.0094   20296436.0984   20296434.9134
        54.000          49.000
 125782000.38547  80219739.20347  22032583.1644   22032583.5794   22032584.1034
        51.000          46.000
 132363884.47447  85348476.68847  23285076.1474   23285078.7404   23285076.5414
        46.000          40.000
 09  1 29  9  2  0.0000000  0 10G17G 7G11G25G23G28G32G13G19G20
 123595479.73647  96308158.64247  23519445.2794   23519446.4534   23519445.0364
        46.000          41.000
 121426073.82047  94617715.35547  23106615.2184   23106616.7364   23106614.8934
        47.000          42.000
 120575110.20847  76162417.62847  21041749.0974   21041750.4214   21041749.0674
        54.000          47.000
 117551841.13447  91598822.45347  22369383.3624   22369385.5944   22369383.3174
        50.000          44.000
 106317075.66747  82844476.44847  20231464.8344   20231464.3284   20231464.9884
        55.000          49.000
 118048105.57147 109777743.24347  24366746.0314   24366746.7534   24366745.4514
        43.000          37.000
 135384450.88547  87702153.78647  23859879.7874   23859882.7144   23859880.5244
        43.000          37.000
 116640898.46247  73096799.94747  20293091.6134   20293092.8164   20293091.4224
        54.000          49.000
 125870918.38847  80289025.95847  22049504.1654   22049504.2534   22049504.6694
        51.000          46.000
 132398141.32847  85375170.32847  23291595.1244   23291597.6004   23291596.2544
        46.000          40.000
 09  1 29  9  2 30.0000000  0 10G17G 7G11G25G23G28G32G13G19G20
 123508920.26147  96240709.69247  23502973.4914   23502974.5504   23502972.9204
        46.000          41.000
 121354221.86147  94561726.81647  23092942.5884   23092943.7174   23092942.1604
        47.000          42.000
 120540059.90647  76135105.71047  21035079.4054   21035080.4174   21035079.5804
        54.000          47.000
 117485739.51647  91547314.69647  22356804.9014   22356806.7914   22356804.8704
        50.000          44.000
 106360497.55847  82878311.68347  20239727.9204   20239727.3954   20239728.0684
        55.000          49.000
 118058331.14147 109785711.23747  24368691.9954   24368692.5484   24368692.2174
        43.000          37.000
 135433931.20647  87740709.88947  23869295.4894   23869298.5624   23869295.1334
        42.000          37.000
 116623912.02047  73083563.75647  20289859.4094   20289860.4774   20289859.2714
        54.000          49.000
 125960131.40647  80358542.60047  22066480.4374   22066480.9254   22066481.2114
        50.000          45.000
 132432227.07147  85401730.61847  23298081.5424   23298083.8424   23298082.5494
        46.000          40.000
 09  1 29  9  3  0.0000000  0 10G17G 7G11G25G23G28G32G13G19G20
 123422642.71647  96173480.43747  23486555.8624   23486556.8174   23486555.2874
        46.000          41.000
 121282286.49747  94505673.28047  23079253.7044   23079254.6654   23079253.2684
        47.000          42.000
 120505328.35347  76108042.16847  21028470.1374   21028471.1514   21028470.1794
        54.000          47.000
 117419679.71847  91495839.53747  22344234.1454   22344236.0444   22344234.0854
        50.000          44.000
 106404444.72747  82912556.22547  20248090.9204   20248090.2844   20248090.9804
        56.000          49.000
 118068648.72047 109793750.90147  24370654.6014   24370655.9344   24370654.8844
        43.000          37.000
 135483225.79147  87779121.27547  23878676.2104   23878678.5104   23878676.1534
        43.000          37.000
 116607510.28347  73070783.18447  20286738.2274   20286739.3624   20286738.0164
        54.000          49.000
 126049637.44147  80428287.55947  22083512.5424   22083513.3184   22083513.3974
        50.000          45.000
 132466142.02947  85428157.86547  23304535.9464   23304537.7694   23304536.5784
        47.000          40.000
 09  1 29  9  3 30.0000000  0 10G17G 7G11G25G23G28G32G13G19G20
 123336646.74647  96106470.60847  23470191.5374   23470192.4574   23470191.3064
        47.000          41.000
 121210267.68147  94449554.74447  23065548.9224   23065550.2564   23065548.5394
        48.000          42.000
 120470915.41847  76081226.89847  21021921.6074   21021922.8434   21021921.6954
        54.000          47.000
 117353661.77547  91444396.97947  22331671.3214   22331673.3824   22331671.2944
        51.000          45.000
 106448912.56347  82947206.48747  20256552.9314   20256552.1404   20256553.1034
        55.000          49.000
 118079053.63247 109801858.64047  24372635.2894   24372635.2984   24372635.6644
        43.000          37.000
 135532331.50547  87817385.47747  23888020.7624   23888023.3024   23888021.3594
        43.000          37.000
 116591690.91847  73058456.40647  20283728.0074   20283729.0114   20283727.8414
        54.000          49.000
 126139431.04147  80498256.59847  22100599.9084   22100600.6044   22100600.8444
        50.000          45.000
 132499882.93947  85454449.46947  23310956.6524   23310958.1824   23310956.9734
        46.000          40.000
 09  1 29  9  4  0.0000000  0 10G17G 7G11G25G23G28G32G13G19G20
 123250936.25947  96039683.23247  23453881.0664   23453882.1874   23453881.3774
        47.000          41.000
 121138169.05747  94393374.00447  23051829.1834   23051830.4864   23051829.0424
        48.000          42.000
 120436825.43247  76054663.29147  21015434.4074   21015435.6844   21015434.4864
        54.000          47.000
 117287690.30547  91392990.63647  22319117.6744   22319119.6664   22319117.6244
        51.000          45.000
 106493900.85047  82982262.29347  20265113.8304   20265113.0974   20265113.9874
        55.000          49.000
 118089545.52747 109810034.14247  24374631.5784   24374632.2384   24374632.0584
        43.000          37.000
 135581249.63647  87855503.53147  23897329.5574   23897332.2334   23897330.5284
        42.000          37.000
 116576456.05747  73046585.08947  20280828.8894   20280829.8674   20280828.6134
        54.000          49.000
 126229511.36147  80568449.04547  22117741.4424   22117742.3214   22117742.2804
        50.000          45.000
 132533450.65247  85480606.12547  23317343.7274   23317346.1884   23317344.3494
        47.000          40.000
 09  1 29  9  4 30.0000000  0 10G17G 7G11G25G23G28G32G13G19G20
 123165512.58447  95973119.31647  23437625.2014   23437626.5484   23437624.7864
        46.000          41.000
 121065991.64947  94337131.86447  23038094.4014   23038095.3614   23038094.0734
        48.000          43.000
 120403059.32647  76028352.07247  21009009.0364   21009010.1004   21009009.2364
        54.000          47.000
 117221766.49047  91341621.42347  22306572.6354   22306574.5204   22306572.7264
        51.000          45.000
 106539406.23947  83017721.03247  20273773.0084   20273772.5554   20273773.2084
        55.000          49.000
 118100121.06347 109818274.82347  24376643.6644   24376645.0814   24376644.6854
        43.000          37.000
 135629978.40247  87893473.97547  23906602.1984   23906605.6084   23906602.9804
        43.000          37.000
 116561804.67547  73035168.42847  20278040.6784   20278041.7984   20278040.5494
        54.000          49.000
 126319874.22047  80638861.67647  22134937.3014   22134937.6144   22134937.9094
        51.000          45.000
 132566843.05647  85506626.16647  23323698.4494   23323700.3814   23323699.0204
        47.000          40.000
 09  1 29  9  5  0.0000000  0 10G17G 7G11G25G23G28G32G13G19G20
 123080378.62147  95906781.16747  23421424.8564   23421426.1264   23421424.4194
        47.000          41.000
 120993738.24547  94280830.50247  23024344.8304   23024345.9914   23024344.3584
        48.000          43.000
 120369620.56047  76002295.90647  21002646.0864   21002646.8664   21002646.2934
        54.000          47.000
 117155893.78747  91290292.04147  22294037.2934   22294039.3414   22294037.1944
        50.000          45.000
 106585427.38347  83053581.66647  20282530.4624   20282529.9734   20282530.5514
        55.000          49.000
 118110779.10547 109826579.78747  24378672.3804   24378672.6964   24378673.5714
        43.000          37.000
 135678518.17547  87931297.16847  23915839.0574   23915841.3434   23915839.7084
        43.000          37.000
 116547737.75247  73024207.18347  20275363.7074   20275365.0524   20275363.4824
        54.000          49.000
 126410517.88047  80709493.09847  22152186.0374   22152186.6824   22152186.8024
        50.000          45.000
 132600060.08847  85532509.55847  23330019.4404   23330021.5224   23330020.3324
        47.000          40.000
 09  1 29  9  5 30.0000000  0 10G17G 7G11G25G23G28G32G13G19G20
 122995537.42147  95840671.13847  23405280.3244   23405281.4524   23405280.0044
        46.000          41.000
 120921412.00747  94224472.38947  23010581.5864   23010582.8584   23010581.4634
        48.000          42.000
 120336512.02347  75976497.06047  20996345.7654   20996346.6084   20996345.8754
        54.000          47.000
 117090075.41147  91239004.98747  22281512.3454   22281514.5504   22281512.3544
        50.000          45.000
 106631962.56547  83089842.84247  20291385.9504   20291385.3104   20291386.1454
        55.000          49.000
 118121518.14247 109834947.84347  24380715.5594   24380717.6154   24380716.1984
        43.000          37.000
 135726869.22547  87968973.31347  23925039.8914   23925042.8034   23925040.3864
        42.000          37.000
 116534256.26747  73013702.13047  20272798.4174   20272799.7034   20272798.2174
        54.000          49.000
 126501440.18847  80780341.64247  22169487.8204   22169488.7064   22169488.8744
        50.000          45.000
 132633101.59547  85558256.17947  23336307.0754   23336308.8554   23336307.8304
        47.000          40.000
 09  1 29  9  6  0.0000000  0 10G17G 7G11G25G23G28G32G13G19G20
 122910990.03447  95774790.04547  23389191.7964   23389192.3614   23389190.9184
        47.000          41.000
 120849013.65447  94168058.08247  22996804.5464   22996805.7434   22996804.3274
        47.000          42.000
 120303735.29447  75950956.77947  20990108.3334   20990109.3134   20990108.3924
        54.000          47.000
 117024313.06747  91187761.59647  22268998.3884   22269000.6274   22268998.4834
        50.000          45.000
 106679009.24347  83126502.59347  20300338.5304   20300338.1264   20300338.7404
        55.000          49.000
 118132334.98847 109843376.55647  24382774.7914   24382775.1894   24382775.0164
        43.000          37.000
 135775029.78747  88006501.02247  23934204.2424   23934207.9104   23934204.4764
        43.000          37.000
 116521359.30247  73003652.54447  20270344.1374   20270345.2994   20270343.8814
        54.000          49.000
 126592636.98247  80851404.07947  22186842.3444   22186843.0084   22186843.2024
        50.000          45.000
 132665965.76347  85583864.60747  23342560.9434   23342562.5124   23342561.7134
        47.000          40.000
 09  1 29  9  6 30.0000000  0 10G17G 7G11G25G23G28G32G13G19G20
 122826739.64947  95709140.38547  23373159.8124   23373159.9614   23373159.9394
        48.000          42.000
 120776545.81547  94111589.62547  22983014.3624   22983015.5354   22983013.8314
        47.000          42.000
 120271292.88747  75925676.99647  20983934.7384   20983935.8114   20983934.8244
        54.000          47.000
 116958609.65647  91136564.12347  22256495.3754   22256497.7954   22256495.1764
        51.000          45.000
 106726565.48347  83163559.40347  20309388.1284   20309387.7914   20309388.2074
        55.000          49.000
 118143227.67047 109851864.33747  24384846.8304   24384847.6044   24384847.5904
        43.000          37.000
 135823000.07447  88043880.50147  23943332.7274   23943335.6544   23943333.4744
        42.000          37.000
 116509047.46147  72994058.90247  20268001.5424   20268002.5444   20268001.3794
        54.000          49.000
 126684106.00747  80922678.64347  22204248.2904   22204248.9534   22204249.1284
        50.000          45.000
 132698652.16347  85609334.53247  23348780.9894   23348782.7124   23348781.9794
        46.000          40.000
 09  1 29  9  7  0.0000000  0 10G17G 7G11G25G23G28G32G13G19G20
 122742787.25847  95643722.95447  23357183.7924   23357184.3024   23357184.2504
        47.000          41.000
 120704010.38447  94055068.51747  22969211.0774   22969212.7134   22969210.7274
        47.000          42.000
 120239186.75447  75900659.22847  20977825.0984   20977826.4024   20977825.0974
        54.000          47.000
 116892967.47447  91085414.37047  22244004.2934   22244006.3344   22244004.6354
        51.000          45.000
 106774628.11747  83201010.80547  20318534.3514   20318533.7024   20318534.5434
        55.000          49.000
 118154193.12547 109860408.86347  24386933.7644   24386934.7734   24386934.6114
        42.000          37.000
 135870778.83047  88081110.69347  23952424.9884   23952427.5004   23952424.8594
        43.000          37.000
 116497320.33047  72984920.87647  20265769.9904   20265770.8914   20265769.6944
        54.000          49.000
 126775843.89747  80994162.70647  22221705.1564   22221706.1994   22221705.9574
        50.000          45.000
 132731159.46147  85634664.89647  23354966.7424   23354968.4814   23354967.3574
        46.000          40.000
 09  1 29  9  7 30.0000000  0 10G17G 7G11G25G23G28G32G13G19G20
 122659135.16047  95578539.49247  23341264.8554   23341265.6534   23341264.2174
        46.000          41.000
 120631409.86747  93998496.68747  22955395.6794   22955397.2304   22955395.3454
        48.000          42.000
 120207419.34347  75875905.39647  20971779.9704   20971781.2084   20971780.1054
        54.000          48.000
 116827389.29347  91034314.48347  22231525.0664   22231527.2874   22231525.2054
        51.000          45.000
 106823195.41847  83238855.46147  20327776.3394   20327775.8154   20327776.4324
        55.000          49.000
 118165230.38647 109869009.32047  24389034.0634   24389035.1464   24389033.9994
        43.000          37.000
 135918366.27147  88118191.83047  23961480.7074   23961483.3774   23961481.1364
        42.000          36.000
 116486178.20547  72976238.69847  20263649.6774   20263650.5414   20263649.4724
        54.000          49.000
 126867848.11347  81065854.31247  22239212.9204   22239213.9324   22239213.5954
        50.000          45.000
 132763487.37947  85659855.46747  23361118.7974   23361120.1734   23361119.4704
        46.000          40.000
 09  1 29  9  8  0.0000000  0 10G17G 7G11G25G23G28G32G13G19G20
 122575785.71847  95513591.86147  23325404.1574   23325405.0454   23325403.6484
        47.000          42.000
 120558745.89047  93941875.40747  22941568.5764   22941569.8704   22941568.1834
        47.000          42.000
 120175992.75647  75851417.14947  20965799.7624   20965800.8594   20965799.8944
        54.000          48.000
 116761877.57347  90983266.39347  22219058.6984   22219060.8234   22219058.5514
        51.000          45.000
 106872264.97447  83277091.47647  20337114.0274   20337113.4994   20337114.2234
        55.000          49.000
 118176336.50947 109877663.45047  24391147.4664   24391148.8884   24391147.7554
        43.000          37.000
 135965761.42247  88155123.13047  23970499.7824   23970502.3704   23970499.6034
        43.000          36.000
 116475620.80547  72968012.15547  20261640.6294   20261641.5784   20261640.4134
        54.000          49.000
 126960115.47747  81137750.97147  22256770.8494   22256771.6904   22256771.4304
        50.000          45.000
 132795634.57547  85684905.21547  23367236.1794   23367237.8024   23367236.8034
        47.000          40.000
 09  1 29  9  8 30.0000000  0 10G17G 7G11G25G23G28G32G13G19G20
 122492741.95547  95448882.42347  23309601.7124   23309602.5834   23309601.1394
        47.000          42.000
 120486021.67147  93885207.18747  22927729.5424   22927731.0364   22927729.0344
        47.000          42.000
 120144910.18147  75827196.96747  20959884.9044   20959886.0734   20959885.0244
        54.000          48.000
 116696435.78947  90932272.78647  22206605.5924   22206607.3734   22206605.5304
        51.000          45.000
 106921835.27847  83315717.69147  20346546.8314   20346546.3834   20346546.9404
        55.000          49.000
 118187510.57447 109886370.53947  24393273.5634   24393275.4054   24393274.0784
        43.000          37.000
 136012964.84047  88191905.02547  23979482.1924   23979484.6454   23979482.3044
        43.000          36.000
 116465649.20247  72960242.07347  20259743.0814   20259744.0884   20259742.8514
        54.000          49.000
 127052644.12447  81209851.22247  22274378.4704   22274379.5414   22274379.1264
        50.000          45.000
 132827601.31647  85709814.35847  23373319.3164   23373321.2764   23373320.2724
        47.000          40.000
 09  1 29  9  9  0.0000000  0 10G17G 7G11G25G23G28G32G13G19G20
 122410002.92047  95384410.43447  23293856.7184   23293857.8364   23293856.8144
        47.000          41.000
 120413236.34847  93828491.34847  22913878.7854   22913880.1874   22913878.7764
        47.000          42.000
 120114170.89147  75803244.27547  20954035.3944   20954036.4284   20954035.5094
        54.000          47.000
 116631063.54447  90881333.36647  22194165.5344   22194167.4294   22194165.4824
        51.000          45.000
 106971901.09047  83354730.01747  20356074.1614   20356073.6134   20356074.3354
        55.000          49.000
 118198747.63547 109895126.68647  24395412.0114   24395412.8864   24395412.3594
        43.000          37.000
 136059973.01847  88228534.77847  23988427.6924   23988430.1134   23988427.4364
        42.000          37.000
 116456260.33947  72952926.07647  20257956.4874   20257957.4714   20257956.3244
        54.000          49.000
 127145427.99147  81282150.33047  22292034.7484   22292035.6964   22292035.8234
        50.000          45.000
 132859383.84047  85734579.96747  23379367.0434   23379369.0324   23379367.5384
        46.000          39.000
 09  1 29  9  9 30.0000000  0 10G17G 7G11G25G23G28G32G13G19G20
 122327574.93547  95320180.83747  23278171.1704   23278172.4914   23278170.7904
        47.000          42.000
 120340396.48347  93771733.01347  22900017.5294   22900019.2304   22900017.2434
        47.000          42.000
 120083781.27747  75779564.06047  20948252.3684   20948253.3104   20948252.4664
        54.000          47.000
 116565767.75347  90830453.51347  22181740.1874   22181741.9744   22181740.1044
        51.000          45.000
 107022464.01947  83394129.70647  20365696.0144   20365695.3584   20365696.1404
        55.000          49.000
 118210048.83147 109903932.82347  24397562.9764   24397563.6854   24397563.1674
        43.000          37.000
 136106789.68047  88265015.30247  23997336.5124   23997339.1634   23997337.4534
        43.000          37.000
 116447458.11447  72946067.20847  20256281.2294   20256282.4374   20256281.0094
        54.000          49.000
 127238468.63647  81354649.52447  22309739.8064   22309740.7044   22309740.5954
        50.000          45.000
 132890985.50447  85759204.60947  23385380.2694   23385382.7324   23385381.0404
        46.000          40.000
 09  1 29  9 10  0.0000000  0 10G17G 7G11G25G23G28G32G13G19G20
 122245458.67147  95256194.14547  23262545.0604   23262546.4124   23262544.9824
        47.000          42.000
 120267502.53447  93714932.52447  22886146.7874   22886147.9024   22886146.7504
        47.000          42.000
 120053742.23747  75756157.02147  20942536.2954   20942537.2664   20942536.4124
        54.000          48.000
 116500549.38747  90779634.00447  22169329.4474   22169331.5214   22169329.4604
        51.000          45.000
 107073520.57047  83433914.03247  20375411.7914   20375411.1834   20375411.9604
        55.000          49.000
 118221410.54347 109912786.10247  24399724.4414   24399725.7684   24399725.1084
        43.000          37.000
 136153412.93847  88301345.12447  24006208.9554   24006210.9434   24006209.1534
        42.000          37.000
 116439241.00547  72939664.26247  20254717.7904   20254718.8204   20254717.6024
        54.000          49.000
 127331761.32747  81427345.13347  22327492.8534   22327493.5204   22327493.7284
        50.000          45.000
 132922403.95147  85783686.52847  23391359.0224   23391361.6264   23391359.7294
        46.000          39.000
 09  1 29  9 10 30.0000000  0 10G17G 7G11G25G23G28G32G13G19G20
 122163655.94147  95192451.75547  23246978.4494   23246979.6324   23246978.2784
        47.000          42.000
 120194556.38147  93658091.36447  22872265.5294   22872266.4824   22872265.2464
        48.000          43.000
 120024055.55147  75733024.53947  20936887.1944   20936888.0874   20936887.3274
        54.000          48.000
 116435410.87047  90728876.71247  22156933.7284   22156936.0344   22156933.7524
        50.000          45.000
 107125067.90347  83474080.78447  20385220.9234   20385220.2844   20385221.1724
        55.000          49.000
 118232830.96947 109921685.13947  24401898.6884   24401898.7674   24401898.4734
        43.000          37.000
 136199842.16147  88337523.76547  24015043.9854   24015046.3134   24015044.0784
        43.000          36.000
 116431608.65647  72933716.97847  20253265.4244   20253266.3694   20253265.2414
        54.000          49.000
 127425303.13847  81500234.86047  22345293.1584   22345293.8714   22345293.9504
        50.000          44.000
 132953638.45347  85808025.08747  23397303.1584   23397305.5344   23397303.7264
        46.000          39.000
 09  1 29  9 11  0.0000000  0 10G17G 7G11G25G23G28G32G13G19G20
 122082168.30447  95128954.89247  23231472.1324   23231473.1094   23231471.4744
        47.000          42.000
 120121559.81647  93601210.92347  22858374.9094   22858375.8834   22858374.3144
        48.000          43.000
 119994723.01547  75710168.01647  20931305.2724   20931306.1664   20931305.2244
        54.000          48.000
 116370354.29847  90678183.27747  22144553.9914   22144556.1114   22144554.0044
        51.000          45.000
 107177103.09847  83514627.68847  20395122.8294   20395122.1544   20395122.8714
        55.000          49.000
 118244307.80447 109930628.12447  24404082.4964   24404082.6524   24404082.4824
        43.000          36.000
 136246076.56847  88373550.62447  24023842.0434   24023844.5694   24023842.1254
        41.000          36.000
 116424560.43247  72928224.85547  20251924.0534   20251925.0934   20251923.7404
        54.000          49.000
 127519090.54547  81573315.95847  22363140.5304   22363141.0174   22363141.1674
        50.000          44.000
 132984687.51447  85832219.15147  23403211.7804   23403213.4004   23403212.2404
        46.000          39.000
 09  1 29  9 11 30.0000000  0 10G17G 7G11G25G23G28G32G13G19G20
 122000998.26447  95065705.52947  23216025.9914   23216026.6004   23216025.8734
        47.000          42.000
 120048515.43647  93544293.22347  22844474.8284   22844476.1654   22844474.5034
        49.000          43.000
 119965747.14447  75687589.42247  20925791.2964   20925792.3684   20925791.3324
        54.000          48.000
 116305382.58947  90627555.96947  22132190.5104   22132192.2874   22132190.6614
        51.000          45.000
 107229624.02147  83555553.08447  20405117.1564   20405116.5124   20405117.3274
        55.000          49.000
 118255838.08747 109939612.75447  24406275.6514   24406276.5924   24406275.3054
        43.000          37.000
 136292115.70047  88409425.25347  24032602.1064   24032605.4064   24032602.6464
        42.000          36.000
 116418096.05847  72923187.67547  20250694.0354   20250695.0274   20250693.8654
        54.000          49.000
 127613120.81647  81646586.30547  22381033.8224   22381034.4154   22381034.5674
        49.000          44.000
 133015550.71947  85856268.40647  23409084.7634   23409086.2974   23409085.3864
        47.000          39.000
 09  1 29  9 12  0.0000000  0 10G17G 7G11G25G23G28G32G13G19G20
 121920147.94247  95002705.28447  23200640.7914   23200641.0254   23200640.5484
        48.000          42.000
 119975425.59947  93487340.09647  22830566.5284   22830567.6994   22830566.3334
        48.000          43.000
 119937130.36047  75665290.62747  20920345.6194   20920346.7824   20920345.6544
        54.000          48.000
 116240498.67847  90576997.06847  22119843.5044   22119845.1684   22119843.3864
        51.000          45.000
 107282628.46947  83596855.25147  20415203.4764   20415202.9384   20415203.6374
        55.000          49.000
 118267420.52847 109948638.02947  24408479.7904   24408480.7854   24408480.3564
        43.000          36.000
 136337959.59147  88445147.77247  24041326.5744   24041329.3974   24041327.1944
        42.000          37.000
 116412215.90447  72918605.74147  20249574.8754   20249576.0254   20249574.6774
        54.000          49.000
 127707391.46947  81720043.94747  22398972.7254   22398973.5144   22398973.7474
        49.000          44.000
 133046227.55047  85880172.42547  23414922.4254   23414924.0114   23414922.6574
        46.000          39.000
 09  1 29  9 12 30.0000000  0 10G17G 7G11G25G23G28G32G13G19G20
 121839619.13647  94939955.56647  23185316.2864   23185316.8764   23185316.1034
        47.000          41.000
 119902292.52047  93430353.27747  22816649.7054   22816650.9214   22816649.3344
        48.000          43.000
 119908874.78847  75643273.29547  20914968.8904   20914969.8574   20914969.0134
        54.000          48.000
 116175705.19347  90526508.63347  22107513.7134   22107515.6984   22107513.7384
        51.000          45.000
 107336113.77047  83638532.10547  20425381.3524   20425381.0724   20425381.5564
        55.000          49.000
 118279052.52447 109957701.92747  24410693.5034   24410694.1944   24410693.4504
        42.000          36.000
 136383607.87547  88480717.86147  24050013.2134   24050016.0814   24050013.3384
        42.000          37.000
 116406919.60147  72914478.74847  20248567.1334   20248568.2274   20248566.9384
        54.000          49.000
 127801899.36047  81793686.46147  22416957.1474   22416957.7754   22416958.2014
        49.000          44.000
 133076717.53547  85903930.83747  23420724.5264   23420726.1274   23420725.1454
        46.000          39.000
 09  1 29  9 13  0.0000000  0 10G17G 7G11G25G23G28G32G13G19G20
 121759413.60047  94877457.73547  23170053.7184   23170054.3504   23170053.1694
        47.000          41.000
 119829117.84047  93373334.04347  22802725.0064   22802725.7524   22802724.8324
        48.000          43.000
 119880981.50947  75621538.27147  20909661.1064   20909662.1494   20909661.1574
        54.000          48.000
 116111003.99247  90476092.11547  22095201.5104   22095203.7794   22095201.6274
        52.000          45.000
 107390077.04947  83680581.41447  20435650.3724   20435649.8244   20435650.5494
        55.000          49.000
 118290731.56647 109966802.48747  24412915.9104   24412916.9754   24412916.4824
        43.000          37.000
 136429059.59547  88516134.78547  24058662.6834   24058665.1054   24058662.8354
        42.000          36.000
 116402205.96447  72910805.78747  20247670.2044   20247671.2254   20247669.9644
        54.000          49.000
 127896641.18847  81867511.25047  22434985.7714   22434986.7874   22434986.4444
        49.000          44.000
 133107018.81147  85927542.22847  23426490.5954   23426492.2664   23426491.0704
        46.000          39.000
 09  1 29  9 13 30.0000000  0 10G17G 7G11G25G23G28G32G13G19G20
 121679536.43747  94815215.80447  23154853.4854   23154854.1794   23154853.7014
        47.000          41.000
 119755906.96447  93316286.61347  22788793.5464   22788794.3054   22788793.1224
        48.000          43.000
 119853456.27347  75600090.03747  20904423.1894   20904424.3564   20904423.2054
        54.000          48.000
 116046400.91347  90425752.05547  22082908.0664   22082910.2174   22082908.1194
        51.000          46.000
 107444518.84247  83723003.59047  20446010.4684   20446009.6114   20446010.7464
        55.000          49.000
 118302458.29647 109975940.18847  24415147.7814   24415148.6494   24415147.8444
        43.000          36.000
 136474317.43847  88551400.64847  24067275.3164   24067277.4254   24067275.8664
        43.000          36.000
 116398078.15547  72907589.31147  20246884.7354   20246885.7184   20246884.5264
        54.000          49.000
 127991616.83947  81941518.25247  22453059.0054   22453059.9864   22453059.8154
        49.000          44.000
 133137134.15947  85951008.72147  23432220.9634   23432223.2334   23432221.7284
        46.000          39.000
 09  1 29  9 14  0.0000000  0 10G17G 7G11G25G23G28G32G13G19G20
 121599985.21847  94753227.83147  23139715.0844   23139716.3624   23139714.7234
        47.000          42.000
 119682657.93947  93259209.46147  22774854.6004   22774855.6334   22774854.1994
        48.000          42.000
 119826297.36947  75578927.25847  20899254.9094   20899256.0654   20899255.0494
        54.000          48.000
 115981894.54247  90375487.35447  22070632.8274   22070634.8744   22070632.6954
        52.000          46.000
 107499432.53647  83765793.48247  20456460.0614   20456459.5144   20456460.1314
        55.000          49.000
 118314226.78547 109985110.44247  24417386.9464   24417387.6644   24417387.1734
        42.000          36.000
 136519376.97047  88586511.94947  24075849.3344   24075851.7994   24075849.8494
        41.000          36.000
 116394531.62447  72904825.78247  20246209.9434   20246210.8344   20246209.6494
        54.000          49.000
 128086819.42047  82015702.07847  22471175.4854   22471176.2814   22471176.2754
        49.000          44.000
 133167058.76347  85974326.58547  23437915.6904   23437917.9784   23437916.3314
        46.000          39.000
 09  1 29  9 14 30.0000000  0 10G17G 7G11G25G23G28G32G13G19G20
 121520763.32647  94691496.49247  23124640.0614   23124640.9724   23124639.7764
        47.000          42.000
 119609374.34947  93202105.37047  22760908.9584   22760910.2594   22760908.6384
        48.000          42.000
 119799507.58747  75558052.10747  20894156.9114   20894158.0044   20894156.9184
        54.000          48.000
 115917488.50847  90325300.82647  22058376.8564   22058378.9534   22058376.8124
        52.000          46.000
 107554816.79147  83808950.03647  20466999.2544   20466998.9104   20466999.4444
        55.000          49.000
 118326035.71447 109994312.17747  24419633.2954   24419635.3634   24419633.7484
        43.000          36.000
 136564239.02147  88621469.38047  24084386.3584   24084387.9164   24084386.1174
        41.000          36.000
 116391566.90147  72902515.60647  20245645.7544   20245646.6624   20245645.5724
        54.000          49.000
 128182247.16047  82090061.36347  22489334.6444   22489335.7004   22489335.5504
        49.000          44.000
 133196792.89247  85997496.06147  23443573.4124   23443576.3254   23443574.5674
        45.000          39.000
 09  1 29  9 15  0.0000000  0 10G17G 7G11G25G23G28G32G13G19G20
 121441875.03447  94630025.09047  23109628.2844   23109629.0914   23109627.8934
        47.000          42.000
 119536060.41847  93144977.60747  22746957.8864   22746959.1384   22746957.5834
        48.000          42.000
 119773091.21847  75537467.92947  20889130.1854   20889131.2554   20889130.2584
        54.000          48.000
 115853187.80647  90275196.37847  22046140.9564   22046142.9464   22046140.8874
        52.000          46.000
 107610671.01547  83852472.80747  20477627.9444   20477627.5414   20477628.0824
        55.000          49.000
 118337885.23647 110003545.58947  24421888.4994   24421890.3304   24421889.4154
        42.000          36.000
 136608905.38547  88656274.36147  24092885.7324   24092888.4994   24092885.8764
        41.000          36.000
 116389185.78347  72900660.19047  20245192.6134   20245193.5144   20245192.3574
        54.000          49.000
 128277899.20047  82164595.42747  22507536.8844   22507537.4514   22507537.7654
        50.000          44.000
 133226338.18247  86020518.36747  23449195.4604   23449198.4714   23449196.4914
        45.000          39.000
 09  1 29  9 15 30.0000000  0 10G17G 7G11G25G23G28G32G13G19G20
 121363320.26647  94568813.57747  23094679.7154   23094680.6904   23094679.2884
        48.000          42.000
 119462717.03147  93087826.91347  22733001.2324   22733002.2714   22733000.9784
        48.000          42.000
 119747048.92147  75517175.23547  20884174.4094   20884175.6014   20884174.5714
        54.000          48.000
 115788993.38347  90225174.74747  22033925.1474   22033927.1194   22033925.3024
        52.000          46.000
 107666991.03547  83896358.53647  20488345.3174   20488344.8914   20488345.4344
        55.000          49.000
 118349771.43647 110012807.55147  24424150.7454   24424151.9084   24424151.0534
        43.000          36.000
 136653374.21047  88690925.40347  24101347.6814   24101350.2714   24101348.1464
        42.000          36.000
 116387386.45447  72899258.11847  20244850.3314   20244851.1164   20244850.0854
        54.000          49.000
 128373771.07447  82239300.78647  22525780.5694   22525781.5354   22525781.3424
        49.000          44.000
 133255692.60247  86043391.94747  23454781.8754   23454784.3254   23454782.3494
        45.000          39.000
 09  1 29  9 16  0.0000000  0 10G17G 7G11G25G23G28G32G13G19G20
 121285100.55147  94507863.14847  23079795.1254   23079795.9304   23079795.1064
        48.000          42.000
 119389345.18347  93030654.05447  22719039.0464   22719040.1244   22719038.8464
        48.000          43.000
 119721381.70147  75497174.81347  20879289.9144   20879291.2724   20879289.8824
        54.000          48.000
 115724906.93047  90175237.25247  22021729.7914   22021731.9034   22021729.7414
        52.000          46.000
 107723773.41347  83940604.54147  20499150.7124   20499150.1704   20499150.9694
        55.000          49.000
 118361691.11147 110022095.60447  24426418.7724   24426420.0294   24426419.6484
        42.000          36.000
 136697644.22347  88725421.54047  24109772.0494   24109775.0364   24109772.3184
        41.000          36.000
 116386167.22447  72898308.06647  20244618.2754   20244619.1014   20244618.0624
        54.000          49.000
 128469858.85447  82314174.38447  22544065.3864   22544066.2684   22544066.0894
        49.000          44.000
 133284854.35747  86066115.39747  23460331.3394   23460333.9784   23460331.6604
        45.000          39.000
 09  1 29  9 16 30.0000000  0 10G17G 7G11G25G23G28G32G13G19G20
 121207221.02347  94447177.79647  23064975.3024   23064976.1264   23064974.9544
        48.000          42.000
 119315950.97347  92973463.76947  22705072.4744   22705073.7794   22705072.3314
        48.000          43.000
 119696095.10947  75477470.98347  20874478.1764   20874479.2754   20874478.2834
        54.000          48.000
 115660934.62047  90125388.69447  22009556.0684   22009558.1924   22009556.1814
        51.000          46.000
 107781018.79947  83985211.33747  20510044.0564   20510043.4934   20510044.1084
        55.000          48.000
 118373645.31047 110031410.55247  24428693.9234   24428694.3554   24428693.9174
        43.000          36.000
 136741718.66947  88759765.29747  24118158.7864   24118162.2694   24118158.8964
        41.000          36.000
 116385531.10147  72897812.38847  20244497.1474   20244498.0314   20244496.9024
        54.000          49.000
 128566163.00547  82389216.57947  22562391.5904   22562392.5104   22562392.2854
        49.000          44.000
 133313826.25347  86088690.90147  23465844.6374   23465846.6004   23465844.4814
        46.000          39.000
 09  1 29  9 17  0.0000000  0 10G17G 7G11G25G23G28G32G13G19G20
 121129680.93447  94386756.94347  23050219.7564   23050220.6034   23050219.7064
        48.000          43.000
 119242534.10447  92916255.81747  22691101.9124   22691103.0084   22691101.6514
        49.000          43.000
 119671188.68047  75458063.37647  20869738.6564   20869739.6904   20869738.7584
        54.000          48.000
 115597076.46547  90075629.09347  21997404.1084   21997406.3584   21997404.2064
        52.000          46.000
 107838722.16647  84030174.99847  20521024.5414   20521024.1454   20521024.7604
        54.000          48.000
 118385629.24447 110040748.68947  24430974.6574   24430975.0284   24430974.3884
        42.000          36.000
 136785594.59147  88793954.32647  24126508.1904   24126510.9824   24126508.7774
        42.000          36.000
 116385474.84047  72897768.54947  20244486.3944   20244487.3204   20244486.1564
        54.000          49.000
 128662678.05547  82464423.10847  22580757.6554   22580758.7414   22580758.4224
        49.000          44.000
 133342605.03247  86111115.93247  23471320.7094   23471322.6474   23471321.2044
        46.000          39.000
 09  1 29  9 17 30.0000000  0 10G17G 7G11G25G23G28G32G13G19G20
 121052481.48447  94326601.52947  23035528.9974   23035529.8134   23035528.9254
        48.000          43.000
 119169095.95747  92859031.28047  22677127.2194   22677127.9474   22677126.8084
        49.000          43.000
 119646663.44447  75438952.80147  20865071.5684   20865072.7844   20865071.6454
        54.000          48.000
 115533334.24447  90025959.82747  21985274.5534   21985276.7114   21985274.5384
        51.000          46.000
 107896880.07747  84075492.84847  20532091.5504   20532091.2944   20532091.6314
        54.000          48.000
 118397640.37347 110050108.00547  24433259.3824   24433261.6444   24433259.8114
        42.000          36.000
 136829270.89547  88827987.79847  24134820.0454   24134822.5684   24134820.3664
        42.000          36.000
 116385997.18847  72898175.57147  20244585.6614   20244586.5784   20244585.3874
        54.000          49.000
 128759400.21047  82539791.02147  22599163.2864   22599164.1674   22599163.9694
        49.000          44.000
 133371189.24147  86133389.33147  23476760.1864   23476762.3604   23476760.5954
        46.000          39.000
 09  1 29  9 18  0.0000000  0 10G17G 7G11G25G23G28G32G13G19G20
 120975625.78047  94266713.96847  23020903.9234   23020904.4664   23020903.4534
        48.000          43.000
 119095640.28047  92801793.08447  22663148.8284   22663149.8214   22663148.6824
        49.000          43.000
 119622522.88747  75420141.98047  20860477.7194   20860478.7914   20860477.7294
        54.000          48.000
 115469712.03747  89976384.08047  21973167.7434   21973169.6334   21973167.7244
        52.000          46.000
 107955490.98147  84121163.68347  20543244.7884   20543244.5834   20543244.8974
        54.000          48.000
 118409677.68647 110059487.73547  24435550.5114   24435551.2004   24435550.4744
        41.000          37.000
 136872748.57147  88861866.50747  24143092.7194   24143096.2674   24143093.5334
        42.000          36.000
 116387098.54447  72899033.76747  20244795.2844   20244796.2754   20244795.1324
        54.000          49.000
 128856327.65547  82615318.90747  22617608.0324   22617608.9844   22617608.8204
        49.000          43.000
 133399579.52147  86155511.62947  23482162.5324   23482164.8804   23482163.2334
        46.000          39.000
 09  1 29  9 18 30.0000000  0 10G17G 7G11G25G23G28G32G13G19G20
 120899118.02947  94207097.54547  23006345.0404   23006346.0714   23006345.0334
        48.000          43.000
 119022171.50647  92744544.67947  22649168.2254   22649169.2924   22649167.9184
        49.000          43.000
 119598771.29047  75401634.24347  20855958.1964   20855959.1164   20855958.3294
        54.000          48.000
 115406214.84447  89926905.74247  21961084.5514   21961086.3734   21961084.4784
        52.000          46.000
 108014554.67447  84167187.34447  20554484.4404   20554483.9564   20554484.5184
        55.000          48.000
 118421741.05247 110068887.74947  24437846.2774   24437847.7724   24437845.9194
        42.000          37.000
 136916029.79547  88895592.12247  24151329.3864   24151332.3964   24151329.5704
        42.000          37.000
 116388780.81247  72900344.62847  20245115.6624   20245116.4484   20245115.4324
        54.000          49.000
 128953459.90747  82691006.38947  22636091.7034   22636092.6684   22636092.5074
        49.000          44.000
 133427777.93247  86177484.41447  23487529.1464   23487530.5854   23487529.1274
        46.000          39.000
 09  1 29  9 19  0.0000000  0 10G17G 7G11G25G23G28G32G13G19G20
 120822956.03747  94147750.54747  22991851.9084   22991852.7344   22991851.4674
        48.000          43.000
 118948687.78747  92687284.62447  22635184.6654   22635185.9584   22635184.2394
        49.000          43.000
 119575406.68347  75383428.05847  20851512.0094   20851512.8184   20851512.0574
        54.000          48.000
 115342841.16447  89877523.64947  21949024.9264   21949026.8804   21949024.9414
        52.000          46.000
 108074064.23347  84213558.42847  20565808.7514   20565808.2584   20565808.9524
        55.000          48.000
 118433824.40147 110078303.33647  24440144.7644   24440146.1564   24440145.5214
        42.000          36.000
 136959110.20047  88929161.27547  24159527.7034   24159529.8754   24159528.0674
        43.000          37.000
 116391039.33547  72902104.51547  20245545.5494   20245546.1684   20245545.3874
        54.000          49.000
 129050789.95147  82766847.99447  22654613.1484   22654613.9794   22654613.7374
        49.000          44.000
 133455779.53347  86199303.81547  23492858.0474   23492859.1774   23492858.1774
        45.000          39.000
 09  1 29  9 19 30.0000000  0 10G17G 7G11G25G23G28G32G13G19G20
 120747145.05847  94088677.05547  22977425.4794   22977426.0504   22977424.8904
        48.000          43.000
 118875194.64347  92630017.25547  22621199.6064   22621200.6464   22621199.4584
        49.000          43.000
 119552433.80247  75365527.12147  20847140.2344   20847141.4004   20847140.3694
        54.000          48.000
 115279596.71847  89828242.26747  21936989.9904   21936992.0854   21936989.9584
        52.000          46.000
 108134019.97547  84260277.19347  20577218.0354   20577217.4344   20577218.2874
        55.000          48.000
 118445928.32747 110087734.95947  24442448.2574   24442449.8374   24442448.3534
        41.000          36.000
 137001992.55547  88962576.09547  24167687.8864   24167690.2434   24167688.4624
        42.000          36.000
 116393876.30547  72904315.14647  20246085.3524   20246086.0764   20246085.1534
        54.000          49.000
 129148317.74347  82842843.67847  22673171.9454   22673173.0824   22673172.6394
        49.000          44.000
 133483586.79347  86220971.80347  23498149.0524   23498150.7824   23498149.3094
        46.000          39.000
 09  1 29  9 20  0.0000000  0 10G17G 7G11G25G23G28G32G13G19G20
 120671685.85047  94029877.67547  22963066.1984   22963066.6864   22963066.0984
        49.000          43.000
 118801694.15247  92572744.15447  22607212.8254   22607213.9694   22607212.6034
        49.000          43.000
 119529854.47547  75347932.83947  20842843.6854   20842844.8674   20842843.7504
        54.000          48.000
 115216483.69947  89779063.28947  21924980.0164   21924982.0814   21924979.9604
        52.000          46.000
 108194418.56347  84307341.02747  20588711.4774   20588711.0124   20588711.6534
        55.000          48.000
 118458050.51147 110097180.82247  24444755.0324   24444756.5814   24444755.2194
        42.000          36.000
 137044676.39047  88995836.27447  24175809.7804   24175812.9054   24175809.7534
        42.000          36.000
 116397290.77147  72906975.76947  20246735.0554   20246735.7244   20246734.7994
        54.000          49.000
 129246039.98047  82918990.85847  22691767.7954   22691768.6874   22691768.6644
        48.000          44.000
 133511198.55447  86242487.46947  23503403.0494   23503405.4364   23503403.1734
        45.000          39.000
 09  1 29  9 20 30.0000000  0 10G17G 7G11G25G23G28G32G13G19G20
 120596578.77347  93971352.69647  22948773.4654   22948774.4034   22948773.7444
        48.000          43.000
 118728186.98847  92515465.83847  22593224.8594   22593225.8414   22593224.5034
        49.000          43.000
 119507668.54447  75330645.10747  20838621.8574   20838622.9864   20838622.0764
        54.000          48.000
 115153503.03247  89729987.44447  21912995.0184   21912997.1824   21912995.1324
        52.000          46.000
 108255255.93247  84354746.76747  20600288.2544   20600287.9854   20600288.4144
        54.000          48.000
 118470187.20247 110106637.97947  24447064.8964   24447065.8334   24447065.2664
        42.000          36.000
 137087159.55747  89028940.03447  24183894.5924   24183897.6444   24183894.2394
        42.000          36.000
 116401279.64047  72910083.98347  20247494.1264   20247494.8834   20247493.9344
        54.000          49.000
 129343951.92447  82995285.88047  22710399.7644   22710400.6624   22710400.8364
        49.000          43.000
 133538612.92847  86263849.30547  23508620.0424   23508621.9274   23508620.2854
        46.000          39.000
 09  1 29  9 21  0.0000000  0 10G17G 7G11G25G23G28G32G13G19G20
 120521827.71347  93913105.11347  22934548.5654   22934550.0014   22934547.9484
        48.000          43.000
 118654677.43847  92458185.65447  22579236.4874   22579237.5674   22579236.2464
        49.000          44.000
 119485880.48647  75313667.39947  20834475.7074   20834476.7884   20834475.7814
        54.000          48.000
 115090659.63047  89681018.55847  21901036.4474   21901038.5024   21901036.5134
        52.000          46.000
 108316531.03847  84402493.60447  20611948.5154   20611948.2704   20611948.6334
        54.000          48.000
 118482337.78147 110116105.93747  24449377.2344   24449378.7394   24449377.7874
        41.000          36.000
 137129444.15747  89061889.08747  24191940.6924   24191943.9764   24191941.3254
        42.000          36.000
 116405844.69847  72913641.17547  20248362.5504   20248363.4694   20248362.2774
        54.000          49.000
 129442052.61747  83071727.97047  22729068.0324   22729068.5854   22729068.7264
        48.000          43.000
 133565831.39847  86285058.51547  23513799.7784   23513801.6634   23513800.4194
        46.000          39.000
 09  1 29  9 21 30.0000000  0 10G17G 7G11G25G23G28G32G13G19G20
 120447433.41047  93855135.53547  22920391.7764   22920393.4514   22920391.9924
        48.000          43.000
 118581166.73847  92400904.58247  22565247.6894   22565249.0394   22565247.5244
        49.000          44.000
 119464490.76747  75297000.08947  20830405.3554   20830406.4524   20830405.5094
        54.000          48.000
 115027954.90047  89632157.71947  21889104.3614   21889106.2244   21889104.4714
        52.000          46.000
 108378240.25147  84450578.70647  20623691.3614   20623691.2874   20623691.4094
        55.000          48.000
 118494498.93647 110125582.17847  24451690.5274   24451691.9904   24451691.6694
        41.000          36.000
 137171528.72847  89094682.25047  24199949.0224   24199952.2384   24199949.8084
        41.000          36.000
 116410983.80047  72917645.67547  20249340.5504   20249341.4674   20249340.3214
        54.000          49.000
 129540338.10847  83148314.07947  22747771.0854   22747771.5874   22747771.8174
        49.000          43.000
 133592852.03147  86306113.55247  23518941.1494   23518943.3004   23518942.2604
        46.000          39.000
 09  1 29  9 22  0.0000000  0 10G17G 7G11G25G23G28G32G13G19G20
 120373399.54347  93797446.79647  22906303.8144   22906305.1984   22906303.2644
        48.000          43.000
 118507659.14347  92343625.93747  22551259.7034   22551261.0484   22551259.3414
        49.000          43.000
 119443503.36647  75280646.27947  20826411.5354   20826412.7404   20826411.5474
        55.000          48.000
 114965393.42547  89583408.52247  21877199.0884   21877201.1974   21877199.0624
        52.000          46.000
 108440382.68447  84499001.37447  20635516.5994   20635516.5344   20635516.8454
        54.000          48.000
 118506670.65747 110135066.61547  24454006.9734   24454009.1014   24454007.1504
        41.000          36.000
 137213415.05347  89127320.94847  24207919.4814   24207923.2214   24207919.4934
        41.000          36.000
 116416698.26047  72922098.50647  20250427.8164   20250429.0194   20250427.6174
        54.000          49.000
 129638807.37647  83225043.39347  22766509.3434   22766509.4264   22766509.8724
        48.000          43.000
 133619676.38147  86327015.63847  23524045.8934   23524048.0864   23524046.8154
        46.000          39.000
 09  1 29  9 22 30.0000000  0 10G17G 7G11G25G23G28G32G13G19G20
 120299724.18947  93740037.42647  22892284.0304   22892285.0124   22892283.3694
        49.000          43.000
 118434153.71947  92286348.97847  22537272.2924   22537273.1434   22537271.9304
        49.000          44.000
 119422916.38947  75264604.48047  20822494.0534   20822495.1134   20822494.2754
        54.000          48.000
 114902974.24347  89534770.20047  21865321.0084   21865323.2874   21865320.9734
        52.000          46.000
 108502951.52347  84547756.31347  20647423.2304   20647422.7744   20647423.2124
        54.000          48.000
 118518847.02947 110144554.68047  24456324.4184   24456326.0184   24456324.4394
        42.000          36.000
 137255099.27647  89159802.12547  24215852.0134   24215854.8074   24215852.8314
        41.000          36.000
 116422983.00547  72926995.71747  20251623.6644   20251624.9024   20251623.4474
        54.000          49.000
 129737453.46047  83301910.47147  22785280.8874   22785281.3704   22785281.6294
        48.000          43.000
 133646300.33247  86347761.58247  23529112.4174   23529114.3654   23529113.1274
        46.000          39.000
 09  1 29  9 23  0.0000000  0 10G17G 7G11G25G23G28G32G13G19G20
 120226414.55547  93682913.03247  22878333.7244   22878334.4564   22878333.8544
        49.000          43.000
 118360657.69747  92229079.35347  22523286.4064   22523287.4584   22523286.0494
        49.000          44.000
 119402737.07547  75248880.32947  20818653.9474   20818655.1864   20818654.0274
        54.000          48.000
 114840705.33647  89486248.98347  21853471.7104   21853473.9414   21853471.7704
        52.000          46.000
 108565949.65047  84596845.76147  20659411.3094   20659411.0464   20659411.4624
        55.000          48.000
 118531031.18147 110154048.81947  24458643.5434   24458644.2704   24458643.4574
        42.000          37.000
 137296586.62447  89192129.96047  24223747.9764   24223750.0274   24223747.5524
        41.000          36.000
 116429843.20647  72932341.32747  20252929.3354   20252930.3244   20252929.1884
        54.000          49.000
 129836278.98547  83378917.36547  22804086.8224   22804087.1644   22804087.7334
        48.000          43.000
 133672728.71147  86368355.13147  23534141.2324   23534143.2224   23534142.2884
        46.000          39.000
 09  1 29  9 23 30.0000000  0 10G17G 7G11G25G23G28G32G13G19G20
 120153468.14147  93626071.66847  22864452.5854   22864453.6894   22864451.8744
        48.000          43.000
 118287169.35947  92171815.71547  22509301.9394   22509303.3164   22509301.5134
        50.000          44.000
 119382963.20747  75233472.11147  20814891.1584   20814892.2124   20814891.2354
        54.000          48.000
 114778585.36447  89437843.81247  21841650.8134   21841652.7154   21841650.7884
        52.000          46.000
 108629370.04347  84646264.24847  20671479.9384   20671479.5984   20671480.0214
        55.000          48.000
 118543216.83147 110163544.11647  24460961.9874   24460964.2754   24460962.2244
        42.000          37.000
 137337872.81247  89224301.00447  24231603.5264   24231606.2804   24231603.5694
        42.000          36.000
 116437273.38747  72938131.07947  20254343.1214   20254344.3254   20254342.9064
        54.000          49.000
 129935276.79547  83456058.51347  22822925.5914   22822925.8794   22822926.3294
        48.000          43.000
 133698956.79047  86388792.61447  23539132.2554   23539134.6284   23539133.1894
        46.000          39.000
 09  1 29  9 24  0.0000000  0 10G17G 7G11G25G23G28G32G13G19G20
 120080900.07647  93569525.13847  22850643.0194   22850644.2994   22850643.4204
        49.000          43.000
 118213705.20347  92114570.91547  22495322.0404   22495323.3524   22495321.8474
        50.000          44.000
 119363610.11547  75218391.76947  20811208.4794   20811209.4344   20811208.6514
        55.000          48.000
 114716630.59947  89389567.36847  21829861.1484   21829863.0024   21829861.1914
        52.000          46.000
 108693223.07447  84696019.85347  20683630.8494   20683630.2434   20683631.0484
        54.000          48.000
 118555415.60547 110173049.66047  24463283.5384   24463284.3394   24463284.2184
        43.000          37.000
 137378971.28347  89256325.78947  24239424.4084   24239427.1814   24239424.7254
        43.000          36.000
 116445286.04847  72944374.71347  20255867.9404   20255869.0394   20255867.7354
        54.000          49.000
 130034457.69547  83533342.33647  22841799.2054   22841799.5004   22841799.7324
        48.000          43.000
 133724997.75947  86409084.29947  23544087.0304   23544089.6364   23544088.4064
        45.000          39.000
 09  1 29  9 24 30.0000000  0 10G17G 7G11G25G23G28G32G13G19G20
 120008687.06747  93513255.26047  22836901.5074   22836902.5264   22836901.3144
        48.000          43.000
 118140242.06847  92057326.90447  22481342.8524   22481343.8394   22481342.5404
        50.000          44.000
 119344654.34747  75203621.04447  20807601.3004   20807602.2024   20807601.3674
        54.000          48.000
 114654818.24147  89341401.90347  21818098.4544   21818100.5264   21818098.4314
        52.000          46.000
 108757480.70647  84746090.73647  20695858.5524   20695858.0764   20695858.6384
        54.000          48.000
 118567599.39947 110182543.50747  24465602.3374   24465603.3184   24465602.9434
        43.000          37.000
 137419856.67647  89288184.53647  24247205.0704   24247206.9534   24247205.2494
        41.000          36.000
 116453855.13647  72951051.91747  20257498.8754   20257499.8024   20257498.6234
        54.000          49.000
 130133793.21147  83610746.63047  22860702.2194   22860702.5754   22860702.8954
        48.000          43.000
 133750825.70247  86429209.97647  23549002.3454   23549004.7574   23549003.2644
        46.000          39.000
 09  1 29  9 25  0.0000000  0 10G17G 7G11G25G23G28G32G13G19G20
 119936845.19947  93457274.58747  22823230.5544   22823231.5774   22823230.3594
        49.000          43.000
 118066797.09547  92000097.05347  22467366.4604   22467367.5534   22467366.1494
        50.000          44.000
 119326112.17747  75189172.60947  20804072.7894   20804073.9454   20804072.8904
        55.000          48.000
 114593165.74147  89293361.00047  21806366.6254   21806368.5174   21806366.6714
        52.000          46.000
 108822154.78847  84796486.12347  20708165.5144   20708165.1914   20708165.7164
        54.000          48.000
 118579780.98047 110192035.64647  24467920.2704   24467921.5124   24467920.7764
        42.000          37.000
 137460543.55247  89319888.59947  24254947.0594   24254949.4654   24254947.2574
        42.000          36.000
 116462994.06547  72958173.16247  20259237.9234   20259238.7224   20259237.6094
        54.000          49.000
 130233295.21047  83688280.65547  22879636.7644   22879637.0574   22879637.4354
        47.000          43.000
 133776455.10447  86449180.95347  23553879.8974   23553881.8064   23553880.5824
        47.000          39.000
 09  1 29  9 25 30.0000000  0 10G17G 7G11G25G23G28G32G13G19G20
 119865375.91247  93401584.23247  22809630.2564   22809631.4484   22809629.9404
        49.000          43.000
 117993372.03847  91942882.70947  22453394.0264   22453395.3584   22453393.6674
        49.000          44.000
 119307985.09747  75175047.62147  20800623.4304   20800624.3894   20800623.6394
        55.000          48.000
 114531675.18247  89245446.28447  21794665.1474   21794667.2624   21794665.1884
        52.000          46.000
 108887242.13647  84847203.53247  20720551.0844   20720550.8794   20720551.2164
        54.000          48.000
 118591957.86347 110201524.11747  24470237.5984   24470238.4414   24470237.5644
        43.000          37.000
 137501031.23947  89351437.46347  24262652.0084   24262653.7634   24262652.4624
        44.000          36.000
 116472701.30647  72965737.24747  20261085.0514   20261085.9244   20261084.8634
        54.000          49.000
 130332960.08647  83765941.60047  22898602.0134   22898602.6234   22898602.9394
        47.000          42.000
 133801884.69047  86468996.22547  23558719.2634   23558720.7494   23558719.6524
        46.000          39.000
 09  1 29  9 26  0.0000000  0 10G17G 7G11G25G23G28G32G13G19G20
 119794278.85247  93346183.92047  22796100.7254   22796102.2984   22796100.5744
        49.000          43.000
 117919967.71247  91885684.53447  22439425.7114   22439426.9504   22439425.1074
        49.000          44.000
 119290272.92747  75161245.93747  20797252.7754   20797253.9764   20797252.8384
        54.000          48.000
 114470347.45347  89197658.44347  21782994.9684   21782996.8454   21782994.8464
        52.000          46.000
 108952737.45647  84898238.84747  20733014.6564   20733014.2324   20733014.7094
        54.000          48.000
 118604125.68547 110211005.52447  24472553.1494   24472554.5834   24472552.8554
        42.000          36.000
 137541317.80647  89382829.57747  24270318.0714   24270321.1234   24270318.6874
        41.000          36.000
 116482973.93147  72973741.88947  20263039.7934   20263040.8204   20263039.5364
        54.000          49.000
 130432783.08747  83843725.74447  22917597.9634   22917598.3814   22917599.0264
        48.000          43.000
 133827112.31547  86488654.11747  23563519.5954   23563521.5064   23563520.4214
        46.000          39.000
 09  1 29  9 26 30.0000000  0 10G17G 7G11G25G23G28G32G13G19G20
 119723557.81447  93291076.60547  22782643.2284   22782644.4144   22782642.4964
        48.000          43.000
 117846588.51647  91828505.93847  22425461.9234   22425463.4194   22425461.7364
        49.000          44.000
 119272979.71547  75147770.71947  20793961.8854   20793962.9374   20793961.9434
        55.000          48.000
 114409187.45147  89150001.29947  21771356.7234   21771358.5184   21771356.7904
        52.000          46.000
 109018640.49847  84949591.86347  20745555.6244   20745555.2034   20745555.8534
        54.000          48.000
 118616285.06847 110220480.37047  24474866.5604   24474866.9644   24474866.5544
        43.000          36.000
 137581405.36747  89414066.63747  24277946.8714   24277948.8564   24277946.9574
        42.000          36.000
 116493813.00047  72982187.92347  20265102.4334   20265103.3614   20265102.2154
        54.000          49.000
 130532763.41547  83921632.48647  22936623.5634   22936623.9984   22936624.6614
        48.000          42.000
 133852139.77947  86508156.04247  23568282.1894   23568283.9064   23568282.8344
        45.000          39.000
 09  1 29  9 27  0.0000000  0 10G17G 7G11G25G23G28G32G13G19G20
 119653213.40247  93236262.77547  22769256.9424   22769258.1974   22769256.8464
        49.000          43.000
 117773235.99547  91771348.12847  22411503.3144   22411504.8524   22411502.8914
        49.000          44.000
 119256105.95847  75134622.34247  20790751.0374   20790751.8804   20790751.1534
        54.000          48.000
 114348196.72347  89102476.05647  21759750.5664   21759752.3114   21759750.6004
        52.000          46.000
 109084947.14047  85001259.37847  20758173.3464   20758172.9244   20758173.5234
        54.000          48.000
 118628432.25247 110229945.71247  24477178.1224   24477179.9734   24477177.5644
        41.000          36.000
 137621292.81547  89445147.78047  24285536.7764   24285539.5994   24285537.8854
        43.000          36.000
 116505216.30947  72991073.62047  20267272.5464   20267273.3214   20267272.3704
        54.000          49.000
 130632896.91447  83999658.58747  22955678.2514   22955678.6364   22955679.2284
        47.000          42.000
 133876965.66647  86527500.89547  23573006.6574   23573008.3144   23573006.8214
        45.000          39.000
 09  1 29  9 27 30.0000000  0 10G17G 7G11G25G23G28G32G13G19G20
 119583248.85947  93181744.94947  22755943.3284   22755944.4894   22755943.1624
        49.000          43.000
 117699914.28547  91714214.33447  22397550.7594   22397552.3454   22397550.4544
        49.000          44.000
 119239655.31947  75121803.67447  20787620.4714   20787621.4374   20787620.6684
        54.000          48.000
 114287379.71747  89055086.17747  21748177.3464   21748179.4074   21748177.2604
        52.000          46.000
 109151656.08347  85053240.37047  20770867.5824   20770867.1004   20770867.8394
        54.000          48.000
 118640567.29447 110239401.57847  24479486.7994   24479489.2764   24479487.1804
        42.000          36.000
 137660981.81347  89476074.25347  24293089.8334   24293091.1314   24293090.0614
        41.000          36.000
 116517184.27847  73000399.31347  20269549.8494   20269550.7564   20269549.6574
        54.000          49.000
 130733182.03047  84077802.84047  22974762.0124   22974761.9784   22974762.9544
        48.000          42.000
 133901591.29447  86546689.70147  23577692.6814   23577694.2184   23577693.2904
        46.000          39.000
 09  1 29  9 28  0.0000000  0 10G17G 7G11G25G23G28G32G13G19G20
 119513662.64747  93127521.92247  22742701.7284   22742702.9344   22742701.4084
        49.000          44.000
 117626622.70347  91657104.00147  22383603.8764   22383605.4504   22383603.4684
        49.000          44.000
 119223626.35647  75109313.59047  20784570.2894   20784571.2474   20784570.3674
        54.000          48.000
 114226735.88947  89007831.24647  21736637.3084   21736639.1714   21736637.1984
        52.000          46.000
 109218761.26947  85105530.12147  20783637.4564   20783636.6334   20783637.5694
        54.000          48.000
 118652683.94647 110248843.11647  24481792.8244   24481794.3784   24481793.5364
        42.000          36.000
 137700469.23247  89506843.65947  24300603.4794   24300606.9214   24300603.4184
        41.000          36.000
 116529712.98047  73010161.94147  20271933.7604   20271934.8474   20271933.4254
        54.000          49.000
 130833613.50847  84156061.14247  22993873.5594   22993873.7244   22993874.3924
        48.000          43.000
 133926013.15447  86565719.73047  23582339.9544   23582341.7384   23582340.2694
        46.000          39.000
 09  1 29  9 28 30.0000000  0 10G17G 7G11G25G23G28G32G13G19G20
 119444459.78147  93073597.61847  22729532.7514   22729533.7844   22729532.4434
        49.000          44.000
 117553366.83147  91600021.49747  22369663.7444   22369665.2844   22369663.4174
        50.000          45.000
 119208023.92247  75097155.85847  20781601.2514   20781602.3294   20781601.4124
        54.000          48.000
 114166271.32947  88960716.00947  21725131.0864   21725133.0484   21725130.9884
        52.000          46.000
 109286263.02647  85158128.88847  20796482.5364   20796481.8154   20796482.8734
        54.000          48.000
 118664784.21447 110258271.87347  24484095.2454   24484097.4554   24484095.8644
        41.000          36.000
 137739758.24747  89537458.46047  24308079.4064   24308082.3874   24308080.2834
        41.000          35.000
 116542804.03047  73020362.76047  20274425.1024   20274425.9414   20274424.9334
        54.000          49.000
 130934191.25247  84234433.41247  23013012.6884   23013013.0254   23013013.3694
        48.000          43.000
 133950233.98547  86584593.10847  23586948.9524   23586951.1684   23586949.4584
        46.000          39.000
 09  1 29  9 29  0.0000000  0 10G17G 7G11G25G23G28G32G13G19G20
 119375641.11747  93019972.68247  22716436.6184   22716437.7364   22716436.1994
        49.000          44.000
 117480148.92847  91542968.58147  22355731.2324   22355732.3454   22355730.9634
        50.000          45.000
 119192849.14047  75085331.37047  20778713.6074   20778714.7034   20778713.7184
        55.000          48.000
 114105987.92247  88913741.92547  21713659.5254   21713661.4664   21713659.4134
        52.000          46.000
 109354157.67947  85211033.81247  20809402.5294   20809401.8344   20809402.5934
        54.000          48.000
 118676864.53947 110267685.12847  24486394.3154   24486395.6684   24486394.6174
        42.000          36.000
 137778848.26447  89567918.21847  24315518.3814   24315520.8894   24315518.8384
        42.000          36.000
 116556455.82247  73031000.52847  20277022.8684   20277023.7184   20277022.6714
        54.000          49.000
 131034911.47447  84312916.71247  23032179.0374   23032179.4184   23032180.0234
        48.000          43.000
 133974252.84147  86603309.11847  23591519.4744   23591521.4384   23591520.6564
        46.000          39.000
 09  1 29  9 29 30.0000000  0 10G17G 7G11G25G23G28G32G13G19G20
 119307206.55147  92966647.03247  22703414.2544   22703415.2704   22703413.7874
        49.000          44.000
 117406969.01647  91485945.26747  22341805.5394   22341806.4884   22341805.2664
        50.000          44.000
 119178101.53147  75073839.73747  20775907.2514   20775908.3334   20775907.4124
        55.000          48.000
 114045886.30147  88866909.48847  21702222.5934   21702224.6004   21702222.6764
        52.000          47.000
 109422440.10947  85264240.89247  20822396.1194   20822395.5194   20822396.2894
        54.000          47.000
 118688921.07047 110277079.81347  24488688.7934   24488690.0494   24488689.4994
        43.000          36.000
 137817737.15147  89598221.23947  24322918.7114   24322921.0984   24322918.8774
        40.000          36.000
 116570664.77847  73042072.43947  20279726.9244   20279727.6744   20279726.7674
        54.000          49.000
 131135769.19347  84391507.13847  23051371.6504   23051372.0204   23051372.3644
        47.000          42.000
 133998067.31247  86621865.86147  23596051.1124   23596053.3454   23596051.9724
        45.000          39.000
 09  1 29  9 30  0.0000000  0 10G17G 7G11G25G23G28G32G13G19G20
 119239160.34447  92913624.01547  22690465.3784   22690466.6004   22690465.2224
        49.000          44.000
 117333833.58547  91428956.62247  22327888.3244   22327889.5664   22327888.0874
        50.000          45.000
 119163786.20947  75062684.96047  20773183.1824   20773184.1754   20773183.3344
        55.000          48.000
 113985972.77647  88820223.61847  21690821.6764   21690823.5784   21690821.6674
        52.000          47.000
 109491110.92447  85317750.61347  20835463.7024   20835463.1004   20835463.7704
        54.000          47.000
 118700955.24547 110286457.09747  24490979.3284   24490980.5214   24490979.7764
        43.000          36.000
 137856428.52247  89628370.33547  24330281.6004   24330285.0364   24330281.0414
        41.000          36.000
 116585433.34047  73053580.41547  20282537.1514   20282538.0924   20282536.9514
        54.000          49.000
 131236765.21047  84470205.33347  23070590.1414   23070590.8084   23070591.1264
        47.000          42.000
 134021680.63647  86640265.86847  23600544.3314   23600546.9134   23600545.0854
        45.000          39.000
 09  1 29  9 30 30.0000000  0 10G17G 7G11G25G23G28G32G13G19G20
 119171503.21247  92860904.17247  22677590.6654   22677592.1564   22677590.5274
        49.000          44.000
 117260743.79747  91372003.54247  22313979.7384   22313980.9794   22313979.6654
        50.000          45.000
 119149903.68047  75051867.40447  20770541.3924   20770542.4184   20770541.5494
        55.000          48.000
 113926248.90647  88773685.53447  21679456.4364   21679458.6454   21679456.3264
        52.000          47.000
 109560165.88447  85371559.66947  20848604.4564   20848603.9594   20848604.6564
        54.000          47.000
 118712963.71847 110295814.34247  24493264.0384   24493264.9234   24493264.0134
        42.000          36.000
 137894921.24947  89658364.66947  24337606.2444   24337609.2534   24337607.0864
        41.000          35.000
 116600758.82147  73065522.35047  20285453.3844   20285454.4304   20285453.1894
        54.000          49.000
 131337895.67847  84549008.29247  23089834.7844   23089835.3914   23089835.5564
        47.000          42.000
 134045091.17747  86658507.83547  23604999.3824   23605001.7234   23604999.9624
        46.000          39.000
 09  1 29  9 31  0.0000000  0 10G17G 7G11G25G23G28G32G13G19G20
 119104234.89647  92808487.29447  22664790.4444   22664791.2964   22664790.2584
        50.000          44.000
 117187700.19847  91315086.45247  22300079.7724   22300081.2554   22300079.5894
        50.000          45.000
 119136453.65347  75041386.86447  20767981.8654   20767982.9024   20767981.9624
        55.000          48.000
 113866715.41447  88727295.80447  21668127.3964   21668129.6134   21668127.4994
        53.000          47.000
 109629600.45547  85425664.52247  20861817.4324   20861816.8564   20861817.5584
        54.000          47.000
 118724942.36847 110305148.35247  24495544.0054   24495544.9064   24495543.6094
        42.000          36.000
 137933213.32947  89688202.61647  24344892.4954   24344895.7824   24344893.1764
        41.000          36.000
 116616638.10147  73077895.81547  20288475.2274   20288476.0154   20288474.9544
        54.000          49.000
 131439155.22547  84627911.84147  23109103.9034   23109104.4704   23109104.7454
        47.000          42.000
 134068296.82147  86676590.16847  23609415.3004   23609417.5434   23609415.6834
        45.000          39.000
 09  1 29  9 31 30.0000000  0 10G17G 7G11G25G23G28G32G13G19G20
 119037359.01047  92756376.21247  22652064.0614   22652065.1234   22652064.0054
        49.000          44.000
 117114707.65447  91258209.14947  22286189.6074   22286191.0884   22286189.4424
        50.000          44.000
 119123440.03447  75031246.38147  20765505.5864   20765506.5854   20765505.7524
        54.000          48.000
 113807377.38647  88681058.37047  21656835.9394   21656837.9644   21656836.0474
        52.000          47.000
 109699413.66447  85480064.42347  20875102.6834   20875101.8034   20875102.8174
        54.000          47.000
 118736891.51647 110314459.38247  24497817.1314   24497818.6794   24497817.6944
        42.000          36.000
 137971307.25747  89717886.19447  24352141.5884   24352144.8554   24352142.2414
        40.000          36.000
 116633071.74047  73090701.24847  20291602.4244   20291603.2754   20291602.2904
        54.000          49.000
 131540543.29547  84706915.54747  23128397.4324   23128397.7774   23128398.3774
        47.000          42.000
 134091299.82047  86694514.58347  23613793.1134   23613794.5434   23613793.4574
        45.000          39.000
 09  1 29  9 32  0.0000000  0 10G17G 7G11G25G23G28G32G13G19G20
 118970875.12847  92704570.58947  22639412.5604   22639413.6144   22639412.0414
        49.000          44.000
 117041766.60147  91201371.96847  22272309.5124   22272310.7544   22272309.0994
        50.000          44.000
 119110862.28147  75021445.54247  20763112.0454   20763113.0114   20763112.0984
        55.000          48.000
 113748235.36647  88634973.67447  21645581.6044   21645583.6134   21645581.4974
        53.000          47.000
 109769600.20547  85534755.23347  20888458.6684   20888457.9084   20888458.7724
        54.000          47.000
 118748807.35047 110323744.43247  24500084.7664   24500087.1184   24500085.7274
        42.000          36.000
 138009200.98047  89747413.74147  24359352.2604   24359355.9634   24359352.9564
        40.000          36.000
 116650056.76047  73103936.33147  20294834.5024   20294835.5644   20294834.3144
        54.000          49.000
 131642055.11047  84786015.67047  23147714.4964   23147714.8004   23147715.3734
        47.000          42.000
 134114097.69347  86712279.16747  23618130.9464   23618132.8984   23618131.6124
        46.000          39.000
 09  1 29  9 32 30.0000000  0 10G17G 7G11G25G23G28G32G13G19G20
 118904786.58947  92653073.02747  22626836.1254   22626836.9264   22626835.9534
        49.000          44.000
 116968881.68447  91144578.52347  22258439.7574   22258441.1724   22258439.2304
        49.000          44.000
 119098724.07147  75011987.21247  20760802.2684   20760803.2114   20760802.4084
        55.000          48.000
 113689294.19547  88589045.49147  21634365.3864   21634367.5154   21634365.3254
        52.000          47.000
 109840159.24547  85589736.29547  20901885.3674   20901884.8814   20901885.4824
        54.000          47.000
 118760688.99147 110333002.84447  24502345.5854   24502347.6954   24502346.2434
        42.000          36.000
 138046896.73647  89776787.03047  24366526.0014   24366529.8104   24366526.2044
        41.000          36.000
 116667593.43047  73117601.27047  20298171.7044   20298172.6564   20298171.5124
        54.000          49.000
 131743689.95847  84865211.65847  23167055.2364   23167055.3604   23167056.1754
        47.000          42.000
 134136692.22647  86729885.29547  23622430.5534   23622432.1864   23622431.2934
        45.000          39.000
 09  1 29  9 33  0.0000000  0 10G17G 7G11G25G23G28G32G13G19G20
 118839096.14247  92601885.67247  22614335.6594   22614336.3484   22614335.1254
        49.000          44.000
 116896056.32547  91087831.48847  22244581.5404   22244582.8534   22244581.0824
        50.000          44.000
 119087027.98247  75002873.38447  20758576.6094   20758577.4734   20758576.7534
        55.000          48.000
 113630557.45647  88543276.59647  21623188.5364   21623190.3244   21623188.6044
        53.000          47.000
 109911088.85847  85645006.11547  20915382.8824   20915382.4484   20915383.0764
        54.000          47.000
 118772536.04947 110342234.33547  24504600.2034   24504601.2724   24504600.8764
        42.000          36.000
 138084395.58547  89806006.90347  24373661.9354   24373664.9024   24373663.1474
        41.000          36.000
 116685681.59647  73131695.94747  20301613.7354   20301614.6344   20301613.5114
        54.000          49.000
 131845445.50047  84944501.71647  23186418.6574   23186418.7864   23186419.6314
        47.000          42.000
 134159083.94347  86747333.40747  23626691.4924   23626693.6794   23626691.9804
        45.000          39.000
 09  1 29  9 33 30.0000000  0 10G17G 7G11G25G23G28G32G13G19G20
 118773802.63147  92551007.62047  22601910.9884   22601911.8994   22601910.9994
        50.000          44.000
 116823290.87447  91031131.12847  22230734.7654   22230736.0354   22230734.4964
        50.000          44.000
 119075773.13347  74994103.37247  20756434.8064   20756435.8164   20756435.0064
        54.000          48.000
 113572025.42147  88497667.21747  21612050.0434   21612051.9884   21612050.0884
        53.000          47.000
 109982383.66647  85700560.51047  20928949.6454   20928949.3814   20928949.8184
        54.000          47.000
 118784343.66147 110351435.06247  24506847.5294   24506848.2844   24506848.0694
        43.000          36.000
 138121695.15347  89835071.48547  24380759.7254   24380763.5334   24380759.7184
        41.000          36.000
 116704317.40147  73146217.35547  20305159.8124   20305160.9554   20305159.5434
        54.000          49.000
 131947316.52847  85023881.73647  23205803.9254   23205804.0444   23205804.7254
        47.000          42.000
 134181270.38447  86764621.56847  23630913.3504   23630915.9664   23630913.7114
        45.000          39.000
 09  1 29  9 34  0.0000000  0 10G17G 7G11G25G23G28G32G13G19G20
 118708909.59447  92500441.60847  22589562.1454   22589563.6494   22589561.8404
        50.000          44.000
 116750590.08047  90974481.15547  22216900.4954   22216901.8644   22216900.1334
        50.000          45.000
 119064962.87047  74985679.79347  20754377.5634   20754378.6624   20754377.6834
        55.000          48.000
 113513702.91147  88452221.10347  21600951.5774   21600953.4814   21600951.6064
        52.000          47.000
 110054042.66347  85756398.68647  20942585.9294   20942585.7454   20942586.0844
        54.000          47.000
 118796111.39447 110360604.74147  24509086.9304   24509088.2084   24509087.1484
        42.000          36.000
 138158797.63147  89863982.47347  24387820.1704   24387822.9484   24387820.7304
        41.000          36.000
 116723501.16047  73161165.73747  20308810.5744   20308811.6404   20308810.4504
        54.000          49.000
 132049302.27747  85103351.15747  23225210.9884   23225211.4334   23225211.8304
        47.000          42.000
 134203253.37847  86781751.16447  23635096.6924   23635099.0064   23635097.0924
        45.000          39.000
 09  1 29  9 34 30.0000000  0 11G17G 7G11G25G23G 8G28G32G13G19G20
 118644415.97647  92450186.84347  22577289.8474   22577290.8284   22577289.7244
        50.000          44.000
 116677954.07947  90917881.67747  22203078.4044   22203079.5214   22203078.1104
        50.000          45.000
 119054596.78047  74977602.32247  20752404.8984   20752406.1994   20752405.0184
        54.000          48.000
 113455590.49247  88406938.68847  21589893.2714   21589895.1444   21589893.3044
        52.000          47.000
 110126060.40747  85812516.40247  20956290.5844   20956290.2604   20956290.8694
        54.000          47.000
 140545037.14257  91723395.57057  24841900.7025   24841903.3785   24841901.1785
        43.000          37.000
 118807835.48647 110369740.39047  24511317.8724   24511318.6024   24511317.7614
        44.000          36.000
 138195701.09947  89892738.41247  24394842.7234   24394845.4864   24394843.5144
        40.000          36.000
 116743229.20747  73176538.24247  20312564.6204   20312565.6534   20312564.4034
        54.000          49.000
 132151397.53747  85182905.89047  23244639.1514   23244639.8654   23244639.8894
        47.000          42.000
 134225030.78147  86798720.58247  23639240.6164   23639243.2814   23639240.8854
        44.000          39.000
 09  1 29  9 35  0.0000000  0 11G17G 7G11G25G23G 8G28G32G13G19G20
 118580326.73847  92400247.18847  22565093.9494   22565094.8374   22565093.7924
        50.000          44.000
 116605388.70047  90861337.23947  22189269.5654   22189271.1074   22189269.2654
        50.000          45.000
 119044679.61747  74969874.66447  20750517.9984   20750519.0004   20750518.2114
        55.000          48.000
 113397694.07247  88361824.58847  21578875.9374   21578877.9574   21578875.8764
        53.000          47.000
 110198437.14547  85868913.85347  20970063.5604   20970063.1884   20970063.7854
        54.000          47.000
 140458048.80447  91655612.47147  24825348.3144   24825350.1654   24825347.9104
        42.000          37.000
 118819516.99447 110378842.88347  24513540.6214   24513541.1964   24513541.1334
        42.000          36.000
 138232408.82747  89921341.84647  24401827.8144   24401830.2284   24401827.9754
        41.000          36.000
 116763503.38147  73192336.30047  20316422.8424   20316423.6154   20316422.5534
        54.000          49.000
 132253602.99747  85262546.49747  23264088.2724   23264088.9394   23264088.9604
        46.000          41.000
 134246605.34647  86815531.93147  23643346.0374   23643348.7724   23643345.8594
        44.000          38.000
 09  1 29  9 35 30.0000000  0 11G17G 7G11G25G23G 8G28G32G13G19G20
 118516639.77947  92350620.98547  22552974.4624   22552975.4394   22552973.8564
        50.000          44.000
 116532893.13347  90804847.19147  22175474.3214   22175475.5134   22175473.8254
        50.000          45.000
 119035209.11147  74962495.05547  20748715.8564   20748716.6784   20748715.9924
        55.000          48.000
 113340012.70147  88316878.08047  21567899.2864   21567901.6254   21567899.0574
        53.000          47.000
 110271166.03047  85925585.71347  20983903.4004   20983902.9294   20983903.4864
        54.000          47.000
 140370847.88047  91587663.71447  24808753.5924   24808755.7244   24808754.4684
        44.000          37.000
 118831150.03847 110387907.54247  24515754.5114   24515755.1384   24515754.6074
        43.000          37.000
 138268917.33947  89949790.01247  24408774.9464   24408778.1874   24408775.0564
        41.000          36.000
 116784318.43147  73208555.81947  20320383.6434   20320384.5404   20320383.4524
        54.000          49.000
 132355911.92147  85342267.73047  23283557.1254   23283557.6174   23283557.4544
        46.000          41.000
 134267973.05647  86832182.11647  23647412.4254   23647414.7824   23647412.0464
        45.000          39.000
 09  1 29  9 36  0.0000000  0 11G17G 7G11G25G23G 8G28G32G13G19G20
 118453359.61147  92301311.76047  22540932.5454   22540933.6164   22540932.0964
        50.000          44.000
 116460473.20447  90748416.07647  22161693.1644   22161694.4834   22161692.8454
        50.000          45.000
 119026190.04147  74955467.20547  20746999.4934   20747000.4694   20746999.5574
        54.000          48.000
 113282552.43447  88272103.85747  21556964.9194   21556967.1964   21556964.9134
        52.000          47.000
 110344247.63547  85982532.41847  20997810.3194   20997809.7304   20997810.4974
        54.000          47.000
 140283439.07247  91519552.97347  24792120.4974   24792122.8874   24792121.0544
        43.000          37.000
 118842736.29647 110396935.84047  24517959.3694   24517959.6654   24517960.2184
        42.000          36.000
 138305230.23947  89978085.79247  24415685.6204   24415688.2164   24415686.0994
        42.000          36.000
 116805675.93947  73225198.03347  20324447.8624   20324448.6844   20324447.5764
        54.000          49.000
 132458324.70147  85422069.89047  23303045.6714   23303045.9824   23303046.3004
        46.000          41.000
 134289137.36347  86848673.79647  23651439.7664   23651442.1704   23651440.3764
        45.000          39.000
 09  1 29  9 36 30.0000000  0 11G17G 7G11G25G23G 8G28G32G13G19G20
 118390485.34147  92252318.81847  22528967.8114   22528969.0654   22528967.7124
        50.000          44.000
 116388129.70947  90692044.52147  22147926.4854   22147928.0024   22147925.9954
        50.000          45.000
 119017621.72447  74948790.59047  20745368.9704   20745370.0324   20745369.1994
        55.000          48.000
 113225313.83747  88227502.33447  21546073.2044   21546074.8234   21546073.2814
        52.000          47.000
 110417676.40147  86039749.63347  21011783.3784   21011782.9084   21011783.4854
        54.000          47.000
 140195821.84947  91451279.82247  24775447.4424   24775449.8524   24775447.5064
        43.000          37.000
 118854271.37347 110405924.18747  24520153.8664   24520155.5834   24520154.0824
        42.000          36.000
 138341345.54947  90006227.60647  24422558.7834   24422560.6034   24422558.6644
        41.000          36.000
 116827572.06747  73242259.95147  20328614.6954   20328615.4824   20328614.4754
        54.000          49.000
 132560836.47347  85501949.19247  23322552.9784   23322553.3964   23322553.7564
        47.000          41.000
 134310096.15547  86865005.35547  23655428.3774   23655430.4214   23655429.0414
        45.000          39.000
 09  1 29  9 37  0.0000000  0 11G17G 7G11G25G23G 8G28G32G13G19G20
 118328019.95647  92203644.48947  22517081.0624   22517082.3434   22517080.6714
        49.000          44.000
 116315866.27347  90635735.34247  22134175.3714   22134176.7814   22134175.1034
        50.000          45.000
 119009507.11847  74942467.51547  20743824.9184   20743825.8184   20743825.1024
        55.000          48.000
 113168301.14147  88183076.84847  21535223.9544   21535225.8634   21535223.9014
        53.000          47.000
 110491450.93247  86097236.28347  21025822.3054   21025821.7694   21025822.4724
        54.000          47.000
 140107999.36447  91382846.70947  24758735.4764   24758738.2464   24758735.7454
        43.000          37.000
 118865754.54547 110414872.10047  24522339.1994   24522340.7654   24522339.7154
        41.000          36.000
 138377264.81147  90034216.63747  24429393.5574   24429396.3684   24429394.2934
        41.000          36.000
 116850007.07347  73259741.77247  20332883.8104   20332884.7604   20332883.6184
        54.000          49.000
 132663445.79747  85581904.51247  23342078.9874   23342079.1504   23342080.0334
        47.000          41.000
 134330850.56047  86881177.65747  23659377.4304   23659379.9814   23659378.4514
        45.000          39.000
 09  1 29  9 37 30.0000000  0 11G17G 7G11G25G23G 8G28G32G13G19G20
 118265963.75847  92155289.02347  22505272.5144   22505273.3614   22505272.4814
        50.000          44.000
 116243684.65747  90579489.90747  22120439.6934   22120441.0064   22120439.3884
        50.000          45.000
 119001846.71047  74936498.35947  20742367.0434   20742368.1384   20742367.1494
        55.000          48.000
 113111516.16947  88138828.81847  21524417.9174   21524420.0654   21524417.9134
        53.000          47.000
 110565567.32547  86154989.31347  21039926.0514   21039925.4554   21039926.2684
        54.000          47.000
 140019972.11647  91314254.03147  24741984.6364   24741986.5684   24741984.7514
        44.000          37.000
 118877182.93647 110423777.34247  24524513.7054   24524514.7074   24524513.8674
        43.000          37.000
 138412987.65047  90062052.58147  24436191.4644   24436193.7774   24436192.2274
        41.000          36.000
 116872978.16447  73277641.32847  20337255.0354   20337255.9864   20337254.7854
        54.000          49.000
 132766149.09947  85661933.06847  23361622.9464   23361622.9574   23361623.8064
        47.000          41.000
 134351399.62847  86897189.92647  23663288.1714   23663290.1574   23663289.0154
        45.000          39.000
 09  1 29  9 38  0.0000000  0 11G17G 7G11G25G23G 8G28G32G13G19G20
 118204319.52247  92107254.55447  22493541.8774   22493543.0354   22493541.4874
        49.000          44.000
 116171589.29647  90523311.73247  22106720.2684   22106721.7774   22106719.9944
        50.000          45.000
 118994643.19347  74930885.22947  20740996.3694   20740997.4104   20740996.5374
        54.000          48.000
 113054962.85547  88094761.31447  21513656.0324   21513658.4054   21513655.8574
        53.000          47.000
 110640023.82647  86213007.36647  21054094.4444   21054094.1734   21054094.6474
        54.000          47.000
 139931742.97847  91245504.06447  24725194.8874   24725197.5874   24725195.2554
        44.000          37.000
 118888555.57747 110432639.16247  24526677.4304   24526678.8834   24526678.6484
        42.000          37.000
 138448515.37347  90089736.52847  24442952.0554   24442954.8354   24442952.4604
        42.000          36.000
 116896484.90147  73295958.26547  20341728.2864   20341729.0544   20341728.1754
        54.000          49.000
 132868944.65747  85742033.50447  23381184.0844   23381184.1144   23381184.8334
        47.000          41.000
 134371744.41547  86913043.01447  23667159.6044   23667161.4634   23667160.1274
        45.000          39.000
 09  1 29  9 38 30.0000000  0 11G17G 7G11G25G23G 8G28G32G13G19G20
 118143087.44947  92059541.24447  22481889.7924   22481890.9214   22481889.5614
        50.000          44.000
 116099581.83647  90467202.02247  22093017.5204   22093019.1234   22093017.3694
        50.000          45.000
 118987897.31447  74925628.69847  20739712.5524   20739713.6994   20739712.7064
        55.000          48.000
 112998643.12947  88050875.81247  21502939.0034   21502940.8934   21502939.0814
        53.000          47.000
 110714816.23447  86271287.16147  21068327.1934   21068326.8354   21068327.3124
        54.000          47.000
 139843312.80547  91176597.44847  24708367.6094   24708370.0344   24708367.6844
        42.000          37.000
 118899870.00147 110441455.57647  24528831.5284   24528832.9124   24528831.8984
        43.000          37.000
 138483847.44047  90117267.99247  24449675.6084   24449678.1304   24449675.6684
        41.000          36.000
 116920524.92647  73314690.75447  20346302.8144   20346303.7674   20346302.6674
        54.000          49.000
 132971828.40347  85822202.67047  23400762.0964   23400762.0014   23400762.8704
        47.000          41.000
 134391884.23647  86928736.41047  23670991.8864   23670994.4494   23670992.3394
        45.000          39.000
 09  1 29  9 39  0.0000000  0 11G17G 7G11G25G23G 8G28G32G13G19G20
 118082264.63647  92012146.85547  22470315.4074   22470316.6364   22470315.3054
        49.000          44.000
 116027660.55247  90411159.45747  22079331.4994   22079332.8724   22079331.2074
        50.000          45.000
 118981605.74147  74920726.16747  20738515.2524   20738516.3384   20738515.3304
        54.000          48.000
 112942555.49847  88007171.16647  21492265.8094   21492267.8394   21492265.8714
        53.000          47.000
 110789937.19547  86329822.97547  21082622.2434   21082621.8714   21082622.4224
        54.000          47.000
 139754678.61447  91107531.83947  24691500.4734   24691502.6624   24691501.1394
        42.000          37.000
 118911119.73247 110450221.61347  24530972.3124   24530972.9164   24530973.0194
        43.000          37.000
 138518979.94647  90144643.99847  24456360.4664   24456363.9204   24456361.0774
        39.000          35.000
 116945092.32147  73333834.18247  20350977.9664   20350978.8794   20350977.7484
        54.000          49.000
 133074793.77847  85902435.45147  23420355.9114   23420355.9044   23420356.8134
        46.000          41.000
 134411814.49647  86944266.50647  23674784.3014   23674786.6424   23674785.2664
        45.000          38.000
 09  1 29  9 39 30.0000000  0 11G17G 7G11G25G23G 8G28G32G13G19G20
 118021857.77847  91965076.57247  22458820.3794   22458821.4284   22458820.0744
        50.000          44.000
 115955833.48347  90355190.31447  22065663.2844   22065664.7684   22065662.9764
        50.000          45.000
 118975775.42947  74916183.06747  20737405.9414   20737406.7614   20737406.0404
        54.000          48.000
 112886707.93147  87963653.58047  21481638.3584   21481640.4164   21481638.3484
        52.000          47.000
 110865389.24047  86388616.77547  21096980.2854   21096979.8524   21096980.6144
        54.000          47.000
 139665847.59447  91038312.87747  24674596.2924   24674599.0654   24674596.7884
        43.000          37.000
 118922308.29347 110458939.97947  24533101.1504   24533102.3844   24533101.3804
        43.000          37.000
 138553918.37847  90171868.72647  24463009.5574   24463012.6344   24463009.8554
        41.000          35.000
 116970190.41447  73353391.13747  20355753.8954   20355754.8554   20355753.6634
        54.000          49.000
 133177843.38347  85982733.84347  23439965.6614   23439965.8594   23439966.5444
        46.000          41.000
 134431540.55247  86959637.47147  23678537.9194   23678540.3164   23678538.6494
        45.000          39.000
 09  1 29  9 40  0.0000000  0 11G17G 7G11G25G23G 8G28G32G13G19G20
 117961871.17247  91918333.75747  22447405.3794   22447406.3294   22447405.4844
        50.000          44.000
 115884106.52947  90299299.17947  22052014.3674   22052015.7044   22052014.0644
        51.000          45.000
 118970410.69747  74912002.74747  20736384.9164   20736386.0424   20736385.0634
        54.000          48.000
 112831106.30747  87920327.64647  21471057.6394   21471059.7404   21471057.5974
        53.000          47.000
 110941172.46247  86447668.63547  21111401.4524   21111400.9424   21111401.6524
        54.000          47.000
 139576824.72047  90968944.39947  24657655.7724   24657658.4364   24657656.4724
        43.000          37.000
 118933436.79547 110467611.56347  24535219.4244   24535219.9344   24535219.5954
        43.000          37.000
 138588666.28147  90198944.98747  24469621.4034   24469624.7914   24469622.9824
        40.000          35.000
 116995820.54647  73373362.67047  20360631.3084   20360632.0984   20360631.0784
        54.000          49.000
 133280977.30747  86063097.91047  23459591.2024   23459591.8574   23459591.8924
        45.000          41.000
 134451065.49447  86974851.68947  23682253.3324   23682255.6564   23682253.9534
        45.000          38.000
 09  1 29  9 40 30.0000000  0 11G17G 7G11G25G23G 8G28G32G13G19G20
 117902302.56547  91871916.66547  22436069.5584   22436071.0114   22436069.0014
        49.000          44.000
 115812478.68647  90243485.27947  22038384.0234   22038385.2564   22038383.7904
        51.000          45.000
 118965509.30247  74908183.47747  20735452.2104   20735453.2904   20735452.3434
        54.000          48.000
 112775749.72347  87877192.64547  21460523.8244   21460525.6264   21460523.7344
        54.000          47.000
 111017279.93247  86506973.15647  21125883.9614   21125883.7364   21125884.0784
        54.000          47.000
 139487607.82047  90899424.75947  24640678.9744   24640681.2684   24640679.2074
        43.000          37.000
 118944499.32447 110476231.70647  24537324.1584   24537325.3154   24537324.2294
        43.000          37.000
 138623220.34847  90225870.24247  24476196.7114   24476200.4734   24476197.5574
        40.000          35.000
 117021977.64347  73393744.82347  20365608.6804   20365609.7674   20365608.4674
        54.000          49.000
 133384188.98447  86143522.58347  23479231.4724   23479232.4824   23479232.2334
        45.000          41.000
 134470385.81947  86989906.49047  23685930.0114   23685932.2344   23685930.5224
        45.000          38.000
 09  1 29  9 41  0.0000000  0 11G17G 7G11G25G23G 8G28G32G13G19G20
 117843152.72847  91825825.89147  22424814.0244   22424815.0044   22424813.8844
        50.000          44.000
 115740952.34847  90187750.46847  22024772.9904   22024774.1944   22024772.6294
        51.000          45.000
 118961071.93947  74904725.79047  20734607.9714   20734608.9894   20734608.0374
        54.000          48.000
 112720640.37447  87834250.30447  21450036.7084   21450038.7824   21450036.7024
        53.000          47.000
 111093708.30747  86566527.73547  21140428.1074   21140427.5784   21140428.1554
        54.000          47.000
 139398197.86547  90829754.67047  24623664.5474   24623667.0554   24623665.1254
        42.000          37.000
 118955493.31347 110484798.45647  24539415.9194   24539417.1944   24539416.3504
        43.000          37.000
 138657580.34047  90252644.21147  24482735.5524   24482738.8824   24482735.2774
        39.000          35.000
 117048659.22647  73414535.66747  20370686.1014   20370686.9794   20370685.8954
        54.000          49.000
 133487475.25347  86224005.38447  23498885.9844   23498886.8564   23498886.7124
        45.000          41.000
 134489501.01047  87004801.47147  23689567.4584   23689569.6304   23689568.3574
        46.000          38.000
 09  1 29  9 41 30.0000000  0 11G17G 7G11G25G23G 8G28G32G13G19G20
 117784422.52147  91780062.08647  22413637.9434   22413639.0434   22413637.5354
        50.000          44.000
 115669529.93947  90132096.63847  22011181.7974   22011183.0494   22011181.5384
        51.000          45.000
 118957100.00047  74901630.76847  20733852.0634   20733853.1784   20733852.2574
        54.000          48.000
 112665780.79047  87791502.57147  21439597.2424   21439599.4344   21439597.1624
        53.000          47.000
 111170453.73247  86626329.36447  21155032.0424   21155031.7474   21155032.2784
        54.000          47.000
 139308596.63047  90759935.54847  24606614.4184   24606616.7524   24606614.8004
        42.000          36.000
 118966416.91147 110493310.36447  24541494.4764   24541495.3694   24541494.5884
        42.000          37.000
 138691746.34047  90279267.08947  24489237.0494   24489239.8124   24489237.5354
        40.000          35.000
 117075863.29747  73435733.63947  20375862.9684   20375863.7034   20375862.8394
        54.000          49.000
 133590833.43347  86304544.21947  23518554.4304   23518555.1684   23518555.0014
        45.000          41.000
 134508410.73947  87019536.32347  23693166.1004   23693167.9144   23693166.6374
        44.000          38.000
 09  1 29  9 42  0.0000000  0 11G17G 7G11G25G23G 8G28G32G13G19G20
 117726114.59247  91734627.33647  22402542.5114   22402543.1444   22402542.1404
        50.000          44.000
 115598215.59347  90076527.02147  21997611.2164   21997612.4974   21997610.9104
        51.000          45.000
 118953595.80247  74898900.22847  20733185.2524   20733186.3954   20733185.4414
        54.000          48.000
 112611175.18047  87748952.74747  21429206.2574   21429208.2594   21429206.1894
        53.000          47.000
 111247514.85547  86686376.99747  21169696.2894   21169696.0834   21169696.4564
        53.000          47.000
 139218807.00047  90689969.59347  24589527.7344   24589530.4454   24589528.2624
        41.000          36.000
 118977269.78947 110501767.16347  24543560.1094   24543561.1544   24543560.9474
        42.000          37.000
 138725720.28747  90305740.25547  24495703.0224   24495704.7304   24495703.4844
        41.000          35.000
 117103589.47447  73457338.45547  20381138.9394   20381139.7454   20381138.6864
        54.000          49.000
 133694261.63847  86385137.61547  23538236.1224   23538236.9254   23538236.9554
        45.000          41.000
 134527116.69047  87034112.41747  23696725.6044   23696727.5464   23696726.1514
        45.000          38.000
 09  1 29  9 42 30.0000000  0 11G17G 7G11G25G23G 8G28G32G13G19G20
 117668228.24547  91689521.09647  22391526.8964   22391527.8384   22391526.6844
        50.000          44.000
 115527009.82147  90021042.00447  21984061.2044   21984062.3234   21984061.0074
        51.000          45.000
 118950558.65847  74896533.62147  20732607.1944   20732608.3304   20732607.2274
        54.000          48.000
 112556824.14747  87706601.29947  21418863.6804   21418865.5864   21418863.6984
        54.000          47.000
 111324886.52047  86746666.60847  21184419.5654   21184419.4294   21184419.7734
        53.000          47.000
 139128828.80247  90619856.71347  24572405.3204   24572408.0994   24572405.9924
        43.000          37.000
 118988047.47447 110510165.36547  24545610.3814   24545612.3354   24545610.6174
        42.000          37.000
 138759500.46547  90332062.44647  24502130.1884   24502132.8434   24502131.0514
        40.000          34.000
 117131833.74847  73479346.97747  20386513.6774   20386514.6184   20386513.5544
        54.000          49.000
 133797755.28647  86465782.01447  23557930.6204   23557931.1524   23557931.2204
        45.000          41.000
 134545616.68047  87048527.99147  23700246.2834   23700247.8364   23700246.3544
        45.000          38.000
 09  1 29  9 43  0.0000000  0 11G17G 7G11G25G23G 8G28G32G13G19G20
 117610766.66547  91644745.84047  22380592.2614   22380593.5254   22380591.9974
        50.000          45.000
 115455917.69547  89965645.53647  21970532.6424   21970533.9324   21970532.3964
        51.000          45.000
 118947992.33447  74894533.88747  20732118.7474   20732120.0224   20732118.7804
        54.000          48.000
 112502732.67747  87664452.10647  21408570.4344   21408572.2744   21408570.4444
        53.000          47.000
 111402567.88847  86807197.54447  21199201.7454   21199201.7014   21199201.8104
        53.000          47.000
 139038666.20447  90549600.16547  24555248.5584   24555250.7904   24555248.8074
        42.000          36.000
 118998750.38847 110518505.32447  24547647.8734   24547649.0614   24547648.0644
        42.000          37.000
 138793089.44547  90358235.66547  24508522.0414   24508524.9534   24508522.3654
        40.000          34.000
 117160596.66847  73501759.64347  20391986.8984   20391988.0124   20391986.5414
        54.000          49.000
 133901313.78047  86546476.94147  23577636.6764   23577637.5494   23577637.7334
        46.000          41.000
 134563913.05447  87062784.90847  23703727.3804   23703729.5504   23703728.3594
        45.000          38.000
 09  1 29  9 43 30.0000000  0 11G17G 7G11G25G23G 8G28G32G13G19G20
 117553729.74147  91600301.49047  22369738.7204   22369739.7554   22369738.4414
        50.000          45.000
 115384940.52447  89910338.64347  21957026.1844   21957027.3214   21957025.7374
        51.000          46.000
 118945896.30247  74892900.62447  20731719.9214   20731721.0124   20731720.1304
        54.000          48.000
 112448902.10547  87622506.20847  21398326.5214   21398328.3974   21398326.4554
        53.000          47.000
 111480554.45647  86867966.29847  21214042.1624   21214042.0264   21214042.3494
        54.000          47.000
 138948319.13047  90479199.82547  24538055.7004   24538057.9664   24538055.6934
        42.000          36.000
 119009375.38447 110526784.52947  24549669.3624   24549670.6074   24549669.2724
        42.000          37.000
 118826524.20957 110384298.10857  24514877.4975   24514879.1375   24514876.9735
        39.000          35.000
 117189874.72647  73524573.71647  20397558.4074   20397559.4744   20397558.2184
        54.000          49.000
 134004933.17347  86627219.30547  23597354.9684   23597355.6764   23597355.8404
        45.000          41.000
 134582004.37347  87076882.05347  23707170.3024   23707173.0444   23707171.0484
        46.000          38.000
 09  1 29  9 44  0.0000000  0 11G17G 7G11G25G23G 8G28G32G13G19G20
 117497120.35447  91556190.28447  22358966.3694   22358967.4154   22358966.2424
        50.000          45.000
 115314083.16247  89855125.09647  21943542.4264   21943543.6424   21943542.1794
        51.000          46.000
 118944273.53247  74891636.12547  20731411.1344   20731412.2374   20731411.2944
        54.000          48.000
 112395336.78747  87580766.99747  21388133.5244   21388135.2334   21388133.4594
        54.000          47.000
 111558844.75947  86928971.73047  21228940.3514   21228940.2504   21228940.5024
        53.000          47.000
 138857791.13747  90408658.54247  24520828.6234   24520830.8994   24520828.4684
        43.000          36.000
 119019922.18547 110535002.82447  24551676.8614   24551677.9824   24551677.1454
        43.000          37.000
 138859746.95057  90410187.45957  24521197.3185   24521199.4135   24521197.4365
        41.000          35.000
 117219667.72547  73547789.03747  20403228.0214   20403228.8454   20403227.8884
        54.000          49.000
 134108612.39847  86708008.30447  23617084.6734   23617084.9294   23617085.2864
        46.000          41.000
 134599892.56047  87090820.92747  23710574.8584   23710576.5004   23710575.1554
        45.000          38.000
 09  1 29  9 44 30.0000000  0 11G17G 7G11G25G23G 8G28G32G13G19G20
 117440937.82547  91512411.69447  22348274.8644   22348276.1964   22348274.7074
        50.000          44.000
 115243346.19147  89800005.36947  21930081.7414   21930082.7424   21930081.3574
        51.000          46.000
 118943123.40947  74890739.91947  20731192.0774   20731193.2284   20731192.1904
        54.000          48.000
 112342037.76447  87539235.29547  21377991.1114   21377992.9904   21377991.1894
        53.000          47.000
 111637433.95447  86990210.06647  21243895.3704   21243895.1884   21243895.4204
        53.000          47.000
 138767082.26847  90337976.32847  24503567.4714   24503569.6194   24503567.3494
        43.000          37.000
 119030386.69547 110543156.99847  24553667.0484   24553668.6624   24553667.8454
        42.000          37.000
 138892762.35747  90435913.72147  24527479.7404   24527482.7114   24527479.8474
        38.000          35.000
 117249972.13047  73571402.86347  20408994.5024   20408995.6844   20408994.2164
        54.000          49.000
 134212346.77347  86788840.29647  23636824.7174   23636825.1854   23636825.1874
        45.000          40.000
 134617575.81847  87104600.12447  23713938.9464   23713941.4234   23713939.5614
        45.000          38.000
 09  1 29  9 45  0.0000000  0 11G17G 7G11G25G23G 8G28G32G13G19G20
 117385183.09547  91468966.46147  22337665.2154   22337666.4664   22337664.7924
        50.000          44.000
 115172732.60247  89744981.79547  21916644.3884   21916645.4374   21916644.1114
        51.000          46.000
 118942447.09947  74890212.91947  20731063.6524   20731064.7094   20731063.7154
        55.000          48.000
 112289007.61647  87497913.10047  21367899.8564   21367901.6914   21367899.7954
        53.000          47.000
 111716319.23747  87051679.12547  21258906.8454   21258906.5184   21258906.9964
        53.000          47.000
 138676194.42947  90267154.65047  24486271.8664   24486274.5154   24486272.2164
        42.000          36.000
 119040767.21747 110551245.73847  24555642.8824   24555644.0794   24555643.8464
        43.000          37.000
 138925586.80347  90461491.17147  24533725.7444   24533729.2444   24533726.5134
        41.000          35.000
 117280785.83347  73595413.53847  20414858.2434   20414859.4634   20414858.0524
        54.000          49.000
 134316133.53047  86869713.09647  23656574.6424   23656575.1724   23656575.2544
        45.000          40.000
 134635054.32847  87118219.74747  23717265.5074   23717268.0644   23717265.7584
        44.000          38.000
 09  1 29  9 45 30.0000000  0 11G17G 7G11G25G23G 8G28G32G13G19G20
 117329858.51647  91425856.40547  22327137.0664   22327138.2684   22327137.0024
        50.000          44.000
 115102246.17247  89690057.32947  21903231.2684   21903232.5134   21903230.9564
        51.000          46.000
 118942246.89647  74890056.91447  20731025.6144   20731026.5694   20731025.7264
        55.000          48.000
 112236250.30147  87456803.49947  21357860.4094   21357862.2204   21357860.3854
        54.000          47.000
 111795498.17847  87113377.00747  21273974.0414   21273973.7184   21273974.0194
        53.000          47.000
 138585130.37947  90196195.67147  24468942.6484   24468945.6044   24468942.9834
        42.000          37.000
 119051063.60447 110559268.88847  24557602.1524   24557603.6354   24557602.5974
        43.000          37.000
 138958221.95547  90486921.13047  24539935.4284   24539939.0214   24539936.1294
        41.000          35.000
 117312108.03947  73619820.44847  20420818.7924   20420819.7344   20420818.5434
        54.000          49.000
 134419971.38447  86950625.71447  23676334.5224   23676334.5674   23676335.1674
        45.000          40.000
 134652329.32247  87131680.79047  23720553.3384   23720554.6544   23720553.4464
        45.000          38.000
 09  1 29  9 46  0.0000000  0 11G17G 7G11G25G23G 8G28G32G13G19G20
 117274964.45047  91383081.80647  22316691.1844   22316692.4994   22316690.9064
        50.000          45.000
 115031889.33747  89635233.81647  21889842.7194   21889844.1244   21889842.5614
        51.000          46.000
 118942523.31047  74890272.30047  20731078.2504   20731079.3754   20731078.4694
        55.000          48.000
 112183767.94247  87415908.14647  21347873.6534   21347875.1244   21347873.6474
        53.000          47.000
 111874967.04947  87175300.80147  21289096.5734   21289096.2934   21289096.8824
        54.000          47.000
 138493891.57647  90125100.50847  24451581.0024   24451582.9544   24451581.0104
        43.000          37.000
 119061272.63347 110567223.98247  24559545.1124   24559546.7254   24559545.5834
        43.000          37.000
 138990667.68747  90512203.53047  24546110.6644   24546113.7674   24546109.4654
        40.000          35.000
 117343935.86547  73644621.36047  20426875.3444   20426876.4194   20426875.0274
        54.000          49.000
 134523856.91647  87031575.48047  23696103.2414   23696103.6864   23696104.2034
        45.000          40.000
 134669400.64547  87144983.15347  23723801.6954   23723803.3954   23723802.1204
        45.000          38.000
 09  1 29  9 46 30.0000000  0 11G17G 7G11G25G23G 8G28G32G13G19G20
 117220503.15847  91340644.44347  22306327.6434   22306328.8654   22306327.2874
        50.000          45.000
 114961665.90447  89580514.25447  21876479.6644   21876481.0144   21876479.3444
        51.000          46.000
 118943278.67047  74890860.89447  20731221.9274   20731223.0774   20731221.9994
        55.000          48.000
 112131564.27747  87375229.96847  21337939.3014   21337941.2614   21337939.2754
        53.000          47.000
 111954724.05847  87237449.11547  21304273.8804   21304273.4854   21304273.9684
        53.000          47.000
 138402480.77247  90053871.32147  24434186.0204   24434188.4264   24434186.0424
        43.000          37.000
 119071393.63547 110575110.46847  24561470.9054   24561471.6854   24561471.3304
        43.000          37.000
 139022925.37347  90537339.35847  24552248.5164   24552251.5874   24552248.6904
        41.000          35.000
 117376269.14747  73669816.12147  20433028.1594   20433029.0294   20433027.9704
        54.000          49.000
 134627788.47947  87112561.12647  23715880.9304   23715880.9694   23715882.1274
        45.000          39.000
 134686269.05647  87158127.40747  23727011.2454   23727013.3584   23727012.0024
        44.000          38.000
 09  1 29  9 47  0.0000000  0 11G17G 7G11G25G23G 8G28G32G13G19G20
 117166473.84247  91298543.67947  22296046.3864   22296047.1264   22296046.4034
        50.000          45.000
 114891576.61947  89525899.22547  21863142.0774   21863143.5284   21863141.8444
        51.000          46.000
 118944512.05647  74891821.98247  20731456.8254   20731457.6104   20731456.9234
        55.000          48.000
 112079640.18747  87334769.63747  21328058.4944   21328060.3644   21328058.4944
        54.000          48.000
 112034764.35547  87299818.17947  21319505.0164   21319504.5174   21319505.1554
        53.000          46.000
 138310897.72647  89982507.91847  24416757.8584   24416760.4534   24416758.5634
        43.000          37.000
 119081422.96347 110582925.53247  24563379.7214   24563380.5154   24563380.0014
        42.000          37.000
 119054900.89657 110562233.82857  24558350.6455   24558354.1605   24558351.5545
        39.000          34.000
 117409103.65147  73695401.44747  20439276.3664   20439277.4194   20439276.0974
        54.000          49.000
 134731761.64847  87193579.20247  23735666.6284   23735666.0974   23735667.7194
        45.000          39.000
 134702932.94547  87171112.25147  23730182.3674   23730184.6504   23730183.0444
        45.000          38.000
 09  1 29  9 47 30.0000000  0 11G17G 7G11G25G23G 8G28G32G13G19G20
 117112880.37547  91256782.54147  22285847.7964   22285848.6604   22285847.5404
        50.000          45.000
 114821626.99947  89471393.02247  21849831.1734   21849832.5894   21849830.8094
        51.000          46.000
 118946227.31947  74893158.54747  20731782.9084   20731783.9924   20731783.0024
        54.000          48.000
 112028001.28447  87294531.52947  21318231.8024   21318233.9414   21318231.8094
        53.000          48.000
 112115087.50347  87362407.64547  21334790.0434   21334789.4004   21334790.3684
        54.000          46.000
 138219147.47647  89911014.23947  24399298.5904   24399301.1254   24399299.2024
        42.000          37.000
 119091361.72047 110590670.04447  24565270.4084   24565271.5644   24565271.1584
        43.000          37.000
 119086783.50847 110587077.40347  24564417.3604   24564419.9304   24564417.9124
        38.000          34.000
 117442440.07347  73721377.87547  20445620.0764   20445621.0124   20445619.8484
        54.000          49.000
 134835776.34547  87274629.64347  23755459.7014   23755459.6014   23755461.1064
        44.000          39.000
 134719395.63847  87183940.30247  23733315.0774   23733316.8964   23733315.4284
        45.000          38.000
 09  1 29  9 48  0.0000000  0 11G17G 7G11G25G23G 8G28G32G13G19G20
 117059719.53247  91215358.51247  22275731.5844   22275732.7664   22275731.4304
        50.000          45.000
 114751816.15747  89416994.95247  21836546.6024   21836547.9764   21836546.1584
        51.000          46.000
 118948421.34247  74894868.17847  20732200.4834   20732201.5934   20732200.6034
        54.000          48.000
 111976645.94747  87254514.38247  21308459.1044   21308461.4794   21308459.1004
        53.000          48.000
 112195685.88347  87425211.57847  21350127.1994   21350126.7154   21350127.1284
        53.000          46.000
 138127227.47547  89839388.26847  24381806.6044   24381809.5994   24381807.1304
        41.000          37.000
 119101203.63347 110598339.05147  24567143.8764   24567144.7364   24567144.3264
        44.000          37.000
 139118496.53157  90611794.26557  24570449.5575   24570454.7135   24570448.0295
        37.000          34.000
 117476271.69247  73747740.17547  20452057.9394   20452058.9884   20452057.7204
        54.000          49.000
 134939825.76347  87355707.12547  23775259.8544   23775259.4754   23775260.8844
        44.000          39.000
 134735653.14847  87196608.52647  23736408.8904   23736410.3164   23736409.6674
        45.000          39.000
 09  1 29  9 48 30.0000000  0 11G17G 7G11G25G23G 8G28G32G13G19G20
 117006996.42947  91174275.57747  22265698.7454   22265699.5884   22265698.3094
        50.000          45.000
 114682150.78447  89362710.23647  21823289.7414   21823291.0644   21823289.3614
        51.000          46.000
 118951099.45547  74896955.01347  20732709.8924   20732711.3004   20732710.0334
        54.000          48.000
 111925581.01847  87214723.53247  21298741.7534   21298744.1874   21298741.5524
        53.000          48.000
 112276561.10047  87488231.23047  21365517.3134   21365516.7644   21365517.5994
        53.000          46.000
 138035143.89247  89767634.84747  24364283.5024   24364286.7054   24364283.8314
        42.000          37.000
 119110951.00947 110605934.43247  24568998.6064   24568999.5044   24568998.9134
        44.000          37.000
 119150067.57857 110636409.97757  24576443.9145   24576448.5995   24576444.8275
        38.000          34.000
 117510601.18247  73774490.42447  20458590.5464   20458591.7124   20458590.3624
        54.000          49.000
 135043911.01647  87436812.50247  23795066.6994   23795066.2694   23795067.7414
        45.000          39.000
 134751709.33547  87209119.84047  23739464.0474   23739466.0564   23739464.5534
        45.000          39.000
 09  1 29  9 49  0.0000000  0 11G17G 7G11G25G23G 8G28G32G13G19G20
 116954710.21147  91133533.06947  22255749.0554   22255749.5134   22255749.2384
        50.000          45.000
 114612631.84747  89308539.62647  21810060.6804   21810062.0044   21810060.4804
        51.000          46.000
 118954260.62447  74899418.26347  20733311.6114   20733312.8434   20733311.7564
        54.000          48.000
 111874807.51747  87175159.77147  21289080.1064   21289082.2684   21289080.1014
        54.000          48.000
 112357707.90247  87551462.50847  21380959.0244   21380958.5964   21380959.0344
        53.000          46.000
 137942896.88347  89695754.09247  24346729.9894   24346732.3144   24346730.3104
        43.000          37.000
 119120600.51347 110613453.52147  24570835.1484   24570835.7084   24570834.8164
        43.000          37.000
 119181389.38947 110660816.56947  24582404.8784   24582407.4924   24582405.9494
        38.000          34.000
 117545424.71047  73801625.64047  20465217.1554   20465218.3214   20465216.8594
        54.000          49.000
 135148028.43647  87517942.96047  23814879.2314   23814878.9064   23814880.2414
        45.000          39.000
 134767562.83447  87221473.20347  23742480.7574   23742482.8504   23742481.1744
        45.000          38.000
 09  1 29  9 49 30.0000000  0 11G17G 7G11G25G23G 8G28G32G13G19G20
 116902860.37447  91093130.59547  22245882.2224   22245883.2344   22245882.0514
        50.000          45.000
 114543260.77147  89254484.22947  21796859.8744   21796861.3664   21796859.6834
        51.000          46.000
 118957904.50647  74902257.64747  20734005.1104   20734006.2554   20734005.1094
        54.000          48.000
 111824326.45647  87135823.88247  21279473.8384   21279475.9034   21279473.8554
        54.000          48.000
 112439121.58547  87614901.73647  21396451.4624   21396451.1974   21396451.6154
        53.000          46.000
 137850486.98847  89623746.40347  24329144.8244   24329147.1254   24329145.8114
        43.000          37.000
 119130148.04047 110620893.14647  24572651.3074   24572652.7134   24572651.5214
        43.000          37.000
 119212524.01047 110685077.28347  24588329.5244   24588331.5404   24588330.6384
        40.000          34.000
 117580738.19647  73829142.63947  20471937.2954   20471938.3514   20471937.0614
        54.000          49.000
 135252173.35447  87599094.82647  23834697.3014   23834697.4094   23834697.8774
        44.000          40.000
 134783212.41947  87233667.66547  23745458.9544   23745461.0684   23745459.4284
        45.000          38.000
 09  1 29  9 50  0.0000000  0 11G17G 7G11G25G23G 8G28G32G13G19G20
 116851451.60747  91053071.82547  22236099.5094   22236100.6234   22236099.1534
        50.000          45.000
 114474044.61947  89200549.56247  21783688.2724   21783689.9954   21783687.9554
        51.000          46.000
 118962036.07847  74905477.06247  20734791.1234   20734792.4204   20734791.1414
        54.000          48.000
 111774144.64547  87096721.17047  21269924.6614   21269926.3954   21269924.6024
        54.000          48.000
 112520803.35247  87678549.86947  21411995.1794   21411994.7334   21411995.3954
        53.000          46.000
 137757919.92147  89551616.24247  24311529.5504   24311532.9994   24311530.8244
        43.000          37.000
 119139596.43547 110628255.51047  24574448.9784   24574450.4664   24574449.3164
        42.000          37.000
 119243476.31047 110709195.99047  24594219.9174   24594221.9034   24594219.9604
        39.000          34.000
 117616543.84047  73857043.13947  20478750.7784   20478751.9074   20478750.5184
        54.000          49.000
 135356347.25747  87680269.29947  23854520.7894   23854521.0084   23854521.4474
        44.000          40.000
 134798662.73847  87245706.86447  23748398.8344   23748401.3164   23748399.7104
        44.000          38.000
 09  1 29  9 50 30.0000000  0 11G17G 7G11G25G23G 8G28G32G13G19G20
 116800480.91547  91013354.39947  22226400.2554   22226401.3174   22226399.8594
        50.000          45.000
 114404981.84347  89146734.40847  21770546.0954   21770547.5474   21770545.9314
        51.000          46.000
 118966652.16247  74909074.01447  20735669.5944   20735670.7334   20735669.6894
        55.000          48.000
 111724260.71047  87057850.58147  21260432.1144   21260434.2864   21260432.0224
        54.000          48.000
 112602745.86447  87742401.18847  21427588.3164   21427587.8554   21427588.3634
        53.000          46.000
 137665193.60347  89479361.98147  24293884.6794   24293887.7124   24293885.3294
        43.000          37.000
 119148939.66347 110635535.95847  24576227.2514   24576229.0534   24576228.0764
        42.000          37.000
 119274242.59447 110733169.69447  24600075.1834   24600077.8454   24600075.1094
        39.000          34.000
 117652835.19147  73885322.11547  20485656.9594   20485657.9914   20485656.7804
        54.000          49.000
 135460543.47747  87761461.16147  23874348.6044   23874349.0984   23874349.2354
        45.000          40.000
 134813909.31347  87257587.30347  23751300.4594   23751302.6364   23751301.3994
        45.000          38.000
 09  1 29  9 51  0.0000000  0 11G17G 7G11G25G23G 8G28G32G13G19G20
 116749952.48547  90973981.60547  22216784.7274   22216785.8604   22216784.6264
        50.000          45.000
 114336078.37747  89093043.38647  21757434.2124   21757435.6204   21757433.9524
        51.000          46.000
 118971756.75447  74913051.61947  20736641.1374   20736642.1524   20736641.3394
        54.000          48.000
 111674680.35447  87019216.53947  21250997.1434   21250999.3174   21250997.1104
        54.000          48.000
 112684949.09947  87806455.66047  21443230.7494   21443230.6464   21443230.7364
        52.000          46.000
 137572313.13647  89406987.59447  24276210.4454   24276212.5724   24276210.8354
        42.000          37.000
 119158178.90247 110642735.35247  24577985.2264   24577987.2484   24577985.4664
        42.000          37.000
 119304826.51947 110757001.33347  24605895.1504   24605897.1214   24605896.1274
        40.000          35.000
 117689613.18047  73913980.28547  20492655.5554   20492656.6014   20492655.3584
        54.000          49.000
 135564762.50847  87842670.80347  23894180.9894   23894181.2884   23894181.6024
        45.000          40.000
 134828956.02547  87269312.00847  23754163.5104   23754165.8684   23754164.0034
        44.000          38.000
 09  1 29  9 51 30.0000000  0 11G17G 7G11G25G23G 8G28G32G13G19G20
 116699864.86547  90934952.29447  22207253.1074   22207254.6854   22207252.7464
        50.000          45.000
 114267335.14647  89039477.22447  21744352.7914   21744354.1794   21744352.4204
        51.000          46.000
 118977348.45747  74917408.77547  20737705.1604   20737706.0344   20737705.3254
        54.000          48.000
 111625404.15247  86980819.50547  21241619.9124   21241622.4134   21241619.9224
        54.000          48.000
 112767407.73147  87870709.15247  21458922.1664   21458921.8744   21458922.2484
        53.000          46.000
 137479278.21547  89334492.86547  24258506.0294   24258508.7024   24258506.5434
        44.000          37.000
 119167310.53347 110649850.92347  24579723.7214   24579724.6214   24579723.7554
        42.000          37.000
 119335226.62047 110780689.65747  24611680.0944   24611682.2044   24611680.3374
        40.000          34.000
 117726873.58647  73943014.36847  20499746.0314   20499746.9074   20499745.7714
        54.000          49.000
 135668999.42747  87923894.35347  23914016.4484   23914017.0684   23914017.2414
        45.000          40.000
 134843800.69347  87280879.27147  23756988.5474   23756990.6824   23756988.8004
        44.000          38.000
 09  1 29  9 52  0.0000000  0 11G17G 7G11G25G23G 8G28G32G13G19G20
 116650220.03147  90896268.00547  22197806.5124   22197807.6764   22197806.0134
        51.000          45.000
 114198755.79447  88986038.76847  21731302.6544   21731304.0814   21731302.3824
        51.000          46.000
 118983429.30647  74922147.09547  20738862.2634   20738863.3634   20738862.5604
        54.000          48.000
 111576435.80647  86942662.35047  21232301.9134   21232303.8044   21232301.8384
        54.000          48.000
 112850119.87447  87935160.17147  21474661.8744   21474661.5884   21474662.2484
        53.000          46.000
 137386091.99047  89261880.23147  24240773.1614   24240775.7174   24240774.0224
        44.000          37.000
 119176333.63647 110656881.90447  24581439.6254   24581441.8384   24581439.7594
        41.000          37.000
 119365444.53947 110804236.08747  24617430.9244   24617431.7344   24617430.8434
        40.000          35.000
 117764615.26847  73972423.47447  20506928.0964   20506928.8744   20506927.9394
        54.000          49.000
 135773252.84247  88005130.76047  23933855.4814   23933855.6774   23933855.9004
        45.000          40.000
 134858444.83147  87292290.28747  23759774.7944   23759777.3044   23759775.2284
        44.000          38.000
 09  1 29  9 52 30.0000000  0 11G17G 7G11G25G23G 8G28G32G13G19G20
 116601018.76947  90857929.35747  22188443.6524   22188444.9054   22188443.4824
        50.000          45.000
 114130343.06747  88932730.15047  21718284.2074   21718285.6484   21718283.7744
        51.000          46.000
 118990000.38147  74927267.40447  20740112.6434   20740113.7164   20740112.7484
        55.000          48.000
 111527777.94447  86904747.13847  21223042.6914   21223044.5884   21223042.6374
        54.000          48.000
 112933082.41147  87999806.30747  21490449.4104   21490448.8344   21490449.4654
        53.000          46.000
 137292756.55247  89189151.31947  24223012.3664   24223014.7784   24223012.4564
        43.000          37.000
 119185246.39447 110663826.89747  24583135.7524   24583138.2784   24583136.4704
        44.000          36.000
 119395480.92347 110827641.02947  24623145.7544   24623147.7844   24623146.8134
        41.000          35.000
 117802835.72247  74002205.64847  20514201.0894   20514202.0944   20514200.8174
        54.000          49.000
 135877520.16547  88086378.03247  23953696.8814   23953697.1464   23953697.4984
        46.000          41.000
 134872889.04747  87303545.53947  23762523.5414   23762525.5824   23762524.2274
        45.000          38.000
 09  1 29  9 53  0.0000000  0 11G17G 7G11G25G23G 8G28G32G13G19G20
 116552260.62147  90819936.00047  22179165.1904   22179166.3264   22179165.0844
        50.000          45.000
 114062099.07847  88879553.01147  21705297.8324   21705299.2174   21705297.5524
        51.000          46.000
 118997061.09847  74932769.25647  20741456.3884   20741457.2484   20741456.5234
        54.000          48.000
 111479431.93047  86867074.92247  21213842.6894   21213844.8154   21213842.6724
        54.000          48.000
 113016290.63247  88064643.88647  21506283.3444   21506282.7074   21506283.5964
        53.000          46.000
 137199272.34447  89116306.48447  24205222.9254   24205225.7954   24205223.2894
        44.000          37.000
 119194045.48747 110670683.33747  24584810.7634   24584812.1094   24584810.9424
        42.000          37.000
 119425335.09047 110850904.00947  24628828.0824   24628829.1584   24628827.3624
        40.000          35.000
 117841531.46747  74032358.17147  20521564.6274   20521565.6744   20521564.4704
        54.000          49.000
 135981797.43347  88167633.03447  23973539.9764   23973540.4834   23973540.6374
        46.000          40.000
 134887132.09247  87314644.03547  23765234.2014   23765236.1724   23765234.7964
        44.000          38.000
 09  1 29  9 53 30.0000000  0 11G17G 7G11G25G23G 8G28G32G13G19G20
 116503949.64447  90782291.07947  22169971.8924   22169973.3814   22169971.7414
        50.000          45.000
 113994029.64847  88826511.87547  21692344.5464   21692345.9744   21692344.2534
        51.000          46.000
 119004615.41147  74938655.71847  20742893.8224   20742894.7914   20742893.8634
        54.000          48.000
 111431403.67347  86829650.30847  21204703.2174   21204705.0354   21204703.2514
        54.000          48.000
 113099745.01347  88129673.26847  21522164.2474   21522163.5344   21522164.4314
        53.000          46.000
 137105645.10347  89043350.19847  24187406.7854   24187408.7094   24187407.1374
        43.000          37.000
 119202732.46547 110677452.39047  24586464.3844   24586465.4024   24586465.0184
        44.000          37.000
 119455010.97747 110874028.06347  24634474.5114   24634476.4964   24634474.0624
        40.000          35.000
 117880703.88647  74062882.13547  20529018.9284   20529019.8574   20529018.6714
        54.000          48.000
 136086085.20147  88248896.23047  23993385.3214   23993385.8914   23993386.0044
        46.000          41.000
 134901177.53147  87325588.53547  23767907.1934   23767909.2594   23767907.4824
        44.000          38.000
 09  1 29  9 54  0.0000000  0 11G17G 7G11G25G23G 8G28G32G13G19G20
 116456082.59947  90744992.09447  22160863.0904   22160864.6684   22160862.7574
        50.000          45.000
 113926133.64747  88773605.90847  21679424.2894   21679425.6134   21679424.1044
        52.000          46.000
 119012660.28147  74944924.44847  20744424.7184   20744425.8024   20744424.8634
        54.000          48.000
 111383691.86847  86792472.28247  21195624.1714   21195626.1854   21195624.1574
        54.000          48.000
 113183438.65947  88194889.10247  21538090.4314   21538090.0444   21538090.6964
        53.000          46.000
 137011873.02447  88970281.06747  24169561.9124   24169564.7724   24169562.6924
        42.000          37.000
 119211301.97247 110684129.92447  24588094.9334   24588095.9804   24588095.0794
        44.000          37.000
 119484505.29647 110897010.64747  24640087.0844   24640089.4834   24640087.5854
        40.000          35.000
 117920346.62747  74093772.58247  20536562.6544   20536563.5564   20536562.4904
        54.000          48.000
 136190377.10847  88330162.65047  24013231.5664   24013232.1654   24013232.0344
        46.000          41.000
 134915021.78847  87336376.25547  23770541.6594   23770543.5154   23770541.9974
        44.000          38.000
 09  1 29  9 54 30.0000000  0 11G17G 7G11G25G23G 8G28G32G13G19G20
 116408663.48847  90708042.14247  22151839.2494   22151840.9264   22151838.9964
        50.000          45.000
 113858417.24247  88720839.86947  21666538.5354   21666539.6934   21666538.2454
        52.000          46.000
 119021199.89747  74951578.69247  20746049.6024   20746050.9664   20746049.7534
        54.000          48.000
 111336302.30847  86755545.36147  21186605.9104   21186608.0054   21186605.7924
        54.000          48.000
 113267371.15147  88260291.04547  21554062.1684   21554061.7584   21554062.3344
        52.000          46.000
 136917961.06047  88897102.93647  24151690.7374   24151694.0214   24151691.5064
        42.000          37.000
 119219755.21647 110690716.86947  24589703.1874   24589704.2464   24589703.8774
        44.000          37.000
 119513821.92847 110919854.73747  24645664.6384   24645667.8424   24645665.5954
        40.000          35.000
 117960460.15047  74125029.87647  20544195.8334   20544196.9334   20544195.5944
        54.000          48.000
 136294673.79247  88411432.77947  24033078.5244   24033079.3144   24033079.1494
        45.000          41.000
 134928668.33247  87347009.93447  23773138.5684   23773140.1344   23773138.6734
        44.000          38.000
 09  1 29  9 55  0.0000000  0 11G17G 7G11G25G23G 8G28G32G13G19G20
 116361690.16247  90671439.54347  22142900.6234   22142902.2084   22142900.1424
        51.000          45.000
 113790880.19747  88668213.59247  21653686.6214   21653687.8304   21653686.3284
        52.000          46.000
 119030231.64247  74958616.41747  20747768.4354   20747769.6914   20747768.5814
        55.000          48.000
 111289234.76547  86718869.35347  21177649.4374   21177651.1154   21177649.4254
        54.000          48.000
 113351536.54647  88325874.46947  21570078.1324   21570077.9994   21570078.3584
        52.000          46.000
 136823908.43647  88823815.18947  24133793.7054   24133796.7954   24133793.7344
        41.000          37.000
 119228087.78547 110697209.76747  24591289.1264   24591290.2824   24591289.6404
        43.000          37.000
 119542958.73047 110942558.71247  24651209.4024   24651212.7184   24651209.3284
        40.000          35.000
 118001039.62947  74156650.24947  20551917.8684   20551918.8344   20551917.7644
        54.000          48.000
 136398969.56947  88492702.20447  24052925.5464   24052926.0004   24052926.0594
        45.000          40.000
 134942114.91747  87357487.77347  23775697.2044   23775698.9614   23775697.6364
        45.000          38.000
 09  1 29  9 55 30.0000000  0 11G17G 7G11G25G23G 8G28G32G13G19G20
 116315165.25547  90635186.38147  22134047.5574   22134048.8604   22134047.4004
        50.000          45.000
 113723527.74847  88615731.16147  21640870.0044   21640871.2094   21640869.6254
        52.000          46.000
 119039758.61747  74966040.03247  20749581.4604   20749582.5904   20749581.5714
        55.000          48.000
 111242493.88047  86682447.89147  21168754.8154   21168757.0384   21168754.8574
        54.000          48.000
 113435933.88047  88391638.62847  21586138.2774   21586138.1034   21586138.1964
        52.000          46.000
 136729719.39147  88750421.16247  24115869.9424   24115872.2764   24115869.6714
        42.000          37.000
 119236299.74747 110703608.65147  24592851.6894   24592853.0344   24592852.0954
        44.000          37.000
 119571918.29247 110965124.57447  24656720.3114   24656722.1134   24656720.8204
        40.000          35.000
 118042084.54147  74188633.29947  20559728.5734   20559729.5964   20559728.3264
        54.000          48.000
 136503264.06047  88573970.63347  24072771.6264   24072772.7994   24072772.6454
        45.000          40.000
 134955363.95247  87367811.72847  23778218.2304   23778220.1754   23778219.0714
        44.000          38.000
 09  1 29  9 56  0.0000000  0 11G17G 7G11G25G23G 8G28G32G13G19G20
 116269090.18747  90599283.72147  22125279.4874   22125280.8644   22125278.9904
        51.000          45.000
 113656363.07947  88563395.06347  21628088.8814   21628090.1354   21628088.4814
        52.000          46.000
 119049782.06647  74973850.51047  20751488.9534   20751490.0114   20751489.1004
        55.000          48.000
 111196082.95447  86646283.53547  21159923.0254   21159925.0224   21159923.0404
        54.000          48.000
 113520560.77547  88457581.66747  21602242.1914   21602242.2054   21602242.2084
        52.000          46.000
 136635396.53347  88676922.84747  24097920.9004   24097923.0474   24097921.2544
        44.000          37.000
 119244389.92447 110709912.68847  24594391.6364   24594392.4634   24594392.1164
        43.000          37.000
 119600702.13647 110987553.51947  24662197.8354   24662200.5764   24662198.1944
        39.000          35.000
 118083593.34147  74220977.81947  20567627.4644   20567628.4674   20567627.2664
        54.000          48.000
 136607555.52847  88655236.70647  24092617.9064   24092618.6944   24092618.8214
        46.000          40.000
 134968416.23247  87377982.35047  23780701.1434   23780704.0274   23780701.3174
        43.000          37.000
 09  1 29  9 56 30.0000000  0 11G17G 7G11G25G23G 8G28G32G13G19G20
 116223463.59847  90563730.52547  22116597.2944   22116598.5384   22116597.1924
        51.000          45.000
 113589386.99347  88511205.90447  21615343.7534   21615345.1144   21615343.3944
        52.000          46.000
 119060300.28347  74982046.52147  20753490.5214   20753491.3344   20753490.5684
        55.000          48.000
 111150002.25847  86610376.50447  21151154.2354   21151156.3324   21151154.2564
        54.000          48.000
 113605411.87847  88523699.40347  21618389.0284   21618389.0424   21618389.4734
        53.000          46.000
 136540939.44947  88603319.94547  24079946.5084   24079948.4344   24079947.1984
        44.000          38.000
 119252354.49247 110716118.82747  24595907.2244   24595908.3524   24595907.2274
        43.000          37.000
 119629308.65347 111009844.28847  24667640.8704   24667644.6244   24667641.8124
        40.000          35.000
 118125561.44147  74253680.23247  20575613.7204   20575614.5864   20575613.4654
        54.000          48.000
 136711839.13047  88736496.64647  24112462.5714   24112463.2344   24112463.7224
        45.000          40.000
 134981270.10547  87387998.35047  23783147.6144   23783150.3614   23783147.8714
        44.000          37.000
 09  1 29  9 57  0.0000000  0 11G17G 7G11G25G23G 8G28G32G13G19G20
 116178287.77947  90528528.58447  22108000.7424   22108002.0744   22108000.5394
        51.000          46.000
 113522604.02947  88459167.24647  21602635.3204   21602636.5464   21602635.0864
        52.000          46.000
 119071315.74247  74990630.01447  20755586.6824   20755587.6214   20755586.8264
        55.000          48.000
 111104256.11247  86574730.16247  21142449.0004   21142451.2594   21142448.9774
        54.000          48.000
 113690485.72747  88589990.71347  21634578.2654   21634577.8754   21634578.5104
        53.000          46.000
 136446352.09047  88529615.52547  24061946.6004   24061949.2724   24061947.1354
        44.000          38.000
 119260193.64147 110722227.23447  24597398.9044   24597399.6374   24597398.8834
        43.000          37.000
 119657740.21047 111031998.74347  24673051.5754   24673055.2574   24673051.6934
        40.000          35.000
 118167988.00747  74286739.90147  20583687.1474   20583688.2024   20583686.9664
        54.000          48.000
 136816113.77147  88817749.61347  24132305.5774   24132305.6894   24132306.2624
        44.000          39.000
 134993927.73947  87397861.44847  23785556.6294   23785558.5774   23785557.3504
        44.000          38.000
 09  1 29  9 57 30.0000000  0 11G17G 7G11G25G23G 8G28G32G13G19G20
 116133562.59147  90493677.79347  22099489.9394   22099490.8294   22099489.5714
        51.000          46.000
 113456016.52347  88407280.87447  21589964.1944   21589965.2394   21589963.9604
        52.000          46.000
 119082828.67847  74999601.14547  20757777.5194   20757778.4584   20757777.5754
        55.000          48.000
 111058846.52747  86539346.07047  21133807.7354   21133809.8004   21133807.6204
        54.000          48.000
 113775778.57647  88656452.67647  21650808.9914   21650808.6044   21650809.1954
        52.000          45.000
 136351636.34747  88455811.02747  24043922.9584   24043925.9564   24043923.4614
        44.000          38.000
 119267904.57447 110728235.75447  24598866.3004   24598867.0274   24598866.3434
        43.000          37.000
 119685997.01747 111054016.98247  24678429.7004   24678430.8144   24678429.4984
        40.000          35.000
 118210869.95147  74320154.40247  20591847.4454   20591848.2624   20591847.2404
        54.000          48.000
 136920376.74847  88898993.49647  24152146.1234   24152146.5824   24152147.0184
        44.000          39.000
 135006388.79947  87407571.37347  23787928.2314   23787929.7584   23787928.5374
        45.000          38.000
 09  1 29  9 58  0.0000000  0 11G17G 7G11G25G23G 8G28G32G13G19G20
 116089288.92247  90459178.83347  22091065.1504   22091065.9294   22091064.9754
        51.000          46.000
 113389627.40047  88355549.08947  21577330.6614   21577332.0984   21577330.3234
        52.000          47.000
 119094839.84747  75008960.49447  20760063.1354   20760064.0754   20760063.2794
        55.000          48.000
 111013776.24147  86504226.37047  21125231.2404   21125233.3954   21125231.2574
        54.000          48.000
 113861287.51247  88723083.01847  21667080.8944   21667080.1704   21667080.9524
        52.000          45.000
 136256794.28447  88381908.09647  24025875.3264   24025877.4544   24025875.9564
        45.000          38.000
 119275486.33147 110734143.62247  24600308.4374   24600310.8754   24600308.9554
        43.000          37.000
 119714079.98847 111075899.78647  24683772.7854   24683776.9774   24683773.6824
        39.000          35.000
 118254205.21147  74353922.14247  20600093.7554   20600094.7724   20600093.5734
        54.000          48.000
 137024625.57647  88980226.32747  24171984.1404   24171984.4654   24171984.9344
        43.000          39.000
 135018654.00347  87417128.68247  23790262.0614   23790263.6614   23790261.7754
        44.000          38.000
 09  1 29  9 58 30.0000000  0 11G17G 7G11G25G23G 8G28G32G13G19G20
 116045466.88047  90425031.78947  22082725.7124   22082726.7744   22082725.3914
        51.000          45.000
 113323439.49747  88303974.09647  21564735.5574   21564736.8594   21564735.2104
        52.000          47.000
 119107349.06847  75018707.93947  20762443.6044   20762444.6334   20762443.7014
        55.000          48.000
 110969047.43447  86469372.75747  21116719.7524   21116721.6424   21116719.7854
        54.000          48.000
 113947009.16647  88789879.11347  21683393.2204   21683392.4064   21683393.2134
        52.000          45.000
 136161827.73047  88307908.17447  24007804.1454   24007806.2104   24007804.4064
        44.000          38.000
 119282936.53147 110739948.93547  24601726.7064   24601727.8594   24601726.6664
        44.000          37.000
 119741989.53147 111097647.46847  24689083.9514   24689087.7244   24689083.4984
        40.000          35.000
 118297990.98447  74388040.92347  20608425.9724   20608427.0754   20608425.7824
        54.000          48.000
 137128857.18147  89061445.77647  24191818.4184   24191818.4214   24191819.4934
        44.000          38.000
 135030723.12947  87426533.19847  23792558.0984   23792560.7434   23792558.5214
        45.000          38.000
 09  1 29  9 59  0.0000000  0 11G17G 7G11G25G23G 8G28G32G13G19G20
 116002097.63847  90391237.57947  22074472.8684   22074473.6344   22074472.7014
        51.000          45.000
 113257455.85047  88252558.26947  21552179.2874   21552180.6054   21552179.0454
        52.000          47.000
 119120357.76147  75028844.58547  20764918.9674   20764920.0524   20764919.0314
        54.000          48.000
 110924663.25147  86434787.68347  21108273.6644   21108275.4934   21108273.7404
        54.000          48.000
 114032940.88247  88856838.90247  21699745.1444   21699744.7444   21699745.2374
        52.000          45.000
 136066739.63847  88233813.57047  23989709.2094   23989711.1024   23989709.8004
        44.000          38.000
 119290253.93447 110745650.79547  24603119.3614   24603120.1834   24603119.7014
        44.000          37.000
 119769726.95847 111119261.01547  24694363.0454   24694365.4224   24694362.3584
        40.000          35.000
 118342225.30147  74422509.22347  20616843.4664   20616844.5284   20616843.2694
        54.000          48.000
 137233069.55647  89142650.20347  24211649.2814   24211649.8954   24211650.2154
        44.000          38.000
 135042597.69647  87435786.10447  23794817.6554   23794820.7684   23794818.9754
        45.000          38.000
 09  1 29  9 59 30.0000000  0 11G17G 7G11G25G23G 8G28G32G13G19G20
 115959182.21347  90357796.98147  22066306.3744   22066307.1704   22066305.9924
        51.000          46.000
 113191679.91447  88201304.29147  21539662.5544   21539663.8694   21539662.2874
        52.000          47.000
 119133866.87047  75039371.16347  20767489.5654   20767490.8304   20767489.6304
        55.000          48.000
 110880626.50147  86400473.33947  21099893.8404   21099895.8104   21099893.7784
        55.000          48.000
 114119079.73847  88923960.08447  21716136.8604   21716136.5184   21716137.1834
        52.000          45.000
 135971532.13947  88159625.91147  23971591.4134   23971594.0674   23971591.9554
        43.000          37.000
 119297437.33147 110751248.25347  24604485.4524   24604488.0974   24604486.2094
        43.000          37.000
 119797293.29947 111140741.26047  24699608.5924   24699611.1234   24699609.1954
        40.000          35.000
 118386906.05047  74457325.40047  20625345.9974   20625347.0534   20625345.7354
        54.000          48.000
 137337260.79047  89223838.14347  24231476.5194   24231476.6124   24231477.2754
        44.000          38.000
 135054278.30747  87444887.87947  23797041.4194   23797042.7504   23797041.9004
        45.000          38.000
 09  1 29 10  0  0.0000000  0 11G17G 7G11G25G23G 8G28G32G13G19G20
 115916720.24847  90324709.73547  22058226.0134   22058227.0694   22058225.7004
        51.000          45.000
 113126113.79447  88150213.80547  21527185.8284   21527186.9314   21527185.4764
        52.000          47.000
 119147875.95647  75050287.33947  20770155.6354   20770156.6504   20770155.8294
        54.000          48.000
 110836939.06547  86366431.18647  21091580.5274   21091582.3674   21091580.6314
        54.000          48.000
 114205422.20947  88991239.94047  21732567.1834   21732566.9484   21732567.2224
        52.000          45.000
 135876206.90247  88085346.49947  23953450.8274   23953454.2004   23953451.6614
        43.000          37.000
 119304484.35347 110756739.45447  24605826.3734   24605828.1184   24605826.7804
        43.000          37.000
 119824688.76047 111162088.32947  24704822.3234   24704823.3414   24704822.1104
        40.000          35.000
 118432029.66647  74492486.66247  20633932.5704   20633933.7264   20633932.3854
        54.000          48.000
 137441427.77147  89305007.21047  24251298.9944   24251298.9994   24251299.7704
        43.000          38.000
 135065764.70047  87453838.32047  23799227.0844   23799228.5614   23799227.7084
        45.000          38.000
 09  1 29 10  0 30.0000000  0 11G17G 7G11G25G23G 8G28G32G13G19G20
 115874712.49347  90291976.41747  22050232.1144   22050233.3894   22050231.9574
        51.000          46.000
 113060760.49747  88099289.15747  21514749.5264   21514750.6804   21514749.2454
        52.000          47.000
 119162385.67247  75061593.61947  20772916.6464   20772917.5734   20772916.7914
        55.000          48.000
 110793603.43847  86332663.16847  21083333.7004   21083335.8574   21083333.7424
        54.000          48.000
 114291965.26547  89058676.09847  21749035.8164   21749035.7034   21749035.8514
        52.000          45.000
 135780766.59947  88010977.43547  23935289.6744   23935292.7814   23935289.8294
        44.000          38.000
 119311393.30047 110762123.04047  24607141.3044   24607143.0324   24607141.6314
        44.000          37.000
 119851914.03647 111183302.78247  24710003.0624   24710004.6704   24710002.9484
        41.000          35.000
 118477594.29947  74527991.57747  20642603.2554   20642604.4894   20642603.0164
        54.000          48.000
 137545567.75847  89386155.24047  24271115.8794   24271116.2994   24271116.7594
        44.000          38.000
 135077057.56247  87462637.98047  23801375.6844   23801377.5864   23801376.6054
        45.000          38.000
 09  1 29 10  1  0.0000000  0 11G17G 7G11G25G23G 8G28G32G13G19G20
 115833157.61147  90259595.98547  22042324.5114   22042325.8274   22042324.1844
        51.000          46.000
 112995621.09047  88048531.17547  21502354.0804   21502355.1904   21502353.7704
        52.000          47.000
 119177394.99747  75073289.20747  20775772.8034   20775773.8274   20775772.9414
        55.000          48.000
 110750620.56347  86299170.01147  21075154.3614   21075156.2254   21075154.4164
        54.000          48.000
 114378704.07947  89126264.78547  21765541.7264   21765541.5904   21765541.8214
        52.000          45.000
 135685211.50447  87936518.92147  23917106.5484   23917109.4724   23917106.8714
        44.000          38.000
 119318161.03247 110767396.56547  24608428.9614   24608430.7744   24608429.6484
        43.000          36.000
 119878968.48047 111204384.13047  24715150.9394   24715152.9834   24715151.7014
        41.000          35.000
 118523595.54747  74563836.70547  20651357.0704   20651358.1414   20651356.8574
        54.000          48.000
 137649676.95647  89467279.29047  24290927.2464   24290927.5254   24290928.1154
        43.000          38.000
 135088155.92547  87471286.04447  23803487.6824   23803489.9814   23803487.7234
        44.000          38.000
 09  1 29 10  1 30.0000000  0 11G17G 7G11G25G23G 8G28G32G13G19G20
 115792058.62047  90227570.79247  22034503.6914   22034504.8004   22034503.4034
        51.000          46.000
 112930701.39547  87997944.39847  21490000.2104   21490001.3884   21489999.9354
        52.000          47.000
 119192907.01347  75085376.50147  20778724.6774   20778725.6334   20778724.7564
        55.000          48.000
 110707995.69847  86265955.83147  21067043.1314   21067045.0474   21067043.1144
        54.000          48.000
 114465638.24347  89194005.68947  21782084.6884   21782084.4844   21782084.9134
        52.000          45.000
 135589546.36647  87861974.66747  23898902.1284   23898904.6514   23898902.5454
        44.000          39.000
 119324788.75147 110772561.02147  24609689.7254   24609691.2964   24609691.0184
        42.000          36.000
 119905855.55147 111225335.09147  24720267.0284   24720269.1024   24720267.7744
        41.000          35.000
 118570033.23747  74600021.92147  20660193.9194   20660195.0054   20660193.6414
        54.000          48.000
 137753755.50047  89548379.45147  24310732.7734   24310733.5994   24310733.4694
        43.000          37.000
 135099062.67547  87479784.81447  23805563.1274   23805564.9574   23805564.0604
        44.000          38.000
 09  1 29 10  2  0.0000000  0 11G17G 7G11G25G23G 8G28G32G13G19G20
 115751417.50647  90195902.38947  22026769.9804   22026771.1854   22026769.7924
        51.000          46.000
 112866005.18947  87947531.77247  21477688.6714   21477690.0694   21477688.3624
        52.000          47.000
 119208923.38447  75097856.80347  20781772.3924   20781773.6214   20781772.4194
        55.000          48.000
 110665732.39647  86233023.39047  21059000.5734   21059002.6364   21059000.5034
        54.000          48.000
 114552765.68747  89261897.20247  21798664.6594   21798664.0864   21798664.7914
        52.000          45.000
 135493774.54147  87787347.27347  23880677.3194   23880679.6634   23880677.6854
        44.000          38.000
 119331275.74247 110777615.80147  24610925.3054   24610926.3984   24610926.0284
        43.000          37.000
 119932577.19247 111246157.12547  24725352.0994   24725354.5524   24725351.8494
        42.000          35.000
 118616906.47747  74636546.52147  20669113.6764   20669114.7254   20669113.4504
        54.000          48.000
 137857801.97247  89629454.62747  24330532.1314   24330532.7604   24330532.8644
        43.000          38.000
 135109779.73547  87488135.80047  23807602.9384   23807604.7474   23807603.8304
        45.000          38.000
 09  1 29 10  2 30.0000000  0 11G17G 7G11G25G23G 8G28G32G13G19G20
 115711229.73447  90164587.24547  22019122.4954   22019123.7694   22019122.1484
        52.000          46.000
 112801530.60847  87897291.84247  21465419.4884   21465420.7874   21465419.0484
        52.000          47.000
 119225439.38047  75110726.41547  20784915.2884   20784916.4274   20784915.3494
        55.000          48.000
 110623828.35847  86200370.89247  21051026.6004   21051028.7504   21051026.5734
        54.000          48.000
 114640078.72747  89329933.34447  21815279.9114   21815279.1414   21815280.0504
        52.000          45.000
 135397893.56847  87712634.83247  23862431.6354   23862433.7554   23862432.3754
        44.000          38.000
 119337615.41547 110782555.78947  24612131.3264   24612133.1734   24612131.5874
        43.000          37.000
 119959129.49147 111266847.20747  24730404.8714   24730407.7744   24730404.9164
        40.000          35.000
 118664207.78347  74673404.68047  20678114.7644   20678115.8264   20678114.4874
        54.000          48.000
 137961809.18947  89710499.22147  24350323.9954   24350324.8984   24350324.6144
        43.000          37.000
 135120302.52347  87496335.38947  23809605.0154   23809607.0084   23809605.4734
        44.000          38.000
 09  1 29 10  3  0.0000000  0 11G17G 7G11G25G23G 8G28G32G13G19G20
 115671501.74347  90133630.37947  22011562.5354   22011563.6744   22011562.5254
        51.000          46.000
 112737286.32547  87847231.37147  21453194.1414   21453195.6974   21453193.8234
        52.000          47.000
 119242461.72347  75123990.57047  20788154.4914   20788155.5534   20788154.5524
        55.000          48.000
 110582292.16947  86168005.02847  21043122.8094   21043124.6574   21043122.7154
        55.000          48.000
 114727580.02547  89398116.18047  21831930.7364   21831930.0144   21831930.8734
        52.000          45.000
 135301911.65847  87637843.74947  23844167.0574   23844169.1114   23844167.5484
        44.000          38.000
 119343812.18347 110787384.45847  24613310.9874   24613311.8964   24613310.8724
        43.000          37.000
 119985519.17547 111287410.58847  24735426.5774   24735429.2504   24735426.8274
        42.000          34.000
 118711940.42947  74710598.94847  20687197.8584   20687199.0754   20687197.7194
        54.000          48.000
 138065780.79747  89791516.07147  24370109.1804   24370110.2424   24370109.4944
        42.000          37.000
 135130637.78747  87504388.83847  23811571.5844   23811573.7664   23811572.1014
        44.000          38.000
 09  1 29 10  3 30.0000000  0 11G17G 7G11G25G23G 8G28G32G13G19G20
 115632229.79947  90103028.85747  22004088.8334   22004090.6094   22004088.4494
        51.000          46.000
 112673271.84747  87797349.96147  21441012.7744   21441014.0654   21441012.3524
        52.000          47.000
 119259986.62147  75137646.33547  20791489.4254   20791490.4654   20791489.4244
        55.000          48.000
 110541122.23547  86135924.56547  21035288.2094   21035290.2064   21035288.1624
        54.000          48.000
 114815262.57347  89466440.24947  21848616.1954   21848615.3244   21848616.3014
        52.000          45.000
 135205827.50247  87562972.98047  23825883.0174   23825885.4854   23825883.3644
        44.000          38.000
 119349860.52747 110792097.43047  24614461.4524   24614463.2474   24614461.3884
        42.000          37.000
 120011743.27547 111307844.93047  24740417.3624   24740420.4984   24740417.9384
        39.000          34.000
 118760098.06647  74748124.38247  20696361.9414   20696363.1984   20696361.7704
        54.000          48.000
 138169710.31647  89872500.12847  24389885.6054   24389886.4964   24389886.9494
        43.000          37.000
 135140782.24247  87512293.60947  23813502.8734   23813504.1414   23813503.6224
        45.000          38.000
 09  1 29 10  4  0.0000000  0 11G17G 7G11G25G23G 8G28G32G13G19G20
 115593414.07747  90072782.83447  21996702.7874   21996703.8504   21996702.5064
        51.000          46.000
 112609489.55747  87747649.48347  21428875.4174   21428876.6584   21428875.1604
        52.000          47.000
 119278014.38647  75151693.94847  20794920.0694   20794921.0894   20794920.1374
        55.000          48.000
 110500320.82547  86104131.26647  21027523.7804   21027526.0934   21027523.6794
        54.000          48.000
 114903123.19947  89534903.08047  21865335.4104   21865334.8074   21865335.3664
        52.000          45.000
 135109642.87347  87488023.94947  23807579.7064   23807582.1514   23807580.0854
        44.000          38.000
 119355758.89047 110796693.51747  24615584.0124   24615585.9254   24615584.0574
        43.000          37.000
 120037802.33247 111328150.64847  24745375.7784   24745378.4714   24745375.6654
        40.000          34.000
 118808677.74847  74785978.68247  20705606.2024   20705607.6324   20705605.9244
        54.000          48.000
 138273595.11347  89953449.33447  24409654.5444   24409655.3844   24409655.4204
        42.000          36.000
 135150736.22347  87520049.95847  23815396.4044   23815397.9654   23815396.9364
        45.000          38.000
 09  1 29 10  4 30.0000000  0 11G17G 7G11G25G23G 8G28G32G13G19G20
 115555056.49647  90042893.81347  21989403.6534   21989404.8684   21989403.5994
        51.000          46.000
 112545943.70147  87698133.22747  21416783.2374   21416784.3044   21416782.9524
        52.000          47.000
 119296546.59047  75166134.62647  20798446.4264   20798447.7064   20798446.5014
        55.000          48.000
 110459891.69347  86072628.04647  21019830.3154   21019832.5604   21019830.2004
        54.000          48.000
 114991160.32647  89603503.44847  21882088.3324   21882087.6734   21882088.5364
        52.000          45.000
 135013361.67347  87412999.63547  23789257.9784   23789260.2004   23789258.1114
        44.000          38.000
 119361506.82447 110801172.41747  24616677.9644   24616679.0484   24616678.7574
        42.000          37.000
 120063698.81247 111348329.72347  24750304.0104   24750307.3504   24750303.9264
        39.000          34.000
 118857678.06647  74824160.75047  20714930.7824   20714931.9844   20714930.7194
        54.000          48.000
 138377434.32947  90034363.00547  24429415.0514   24429415.2604   24429415.3214
        42.000          36.000
 135160501.70847  87527659.45347  23817254.9154   23817256.4024   23817254.9434
        45.000          38.000
 09  1 29 10  5  0.0000000  0 12G17G 4G 7G11G25G23G 8G28G32G13G19G20
 115517158.71647  90013363.07747  21982192.1864   21982193.2404   21982191.9184
        52.000          46.000
 144254680.38057  94614021.10057  25547830.0925   25547832.3665   25547831.2245
        40.000          34.000
 112482638.31147  87648804.34847  21404736.4884   21404737.6154   21404736.1034
        52.000          47.000
 119315584.48647  75180969.35247  20802069.2724   20802070.4764   20802069.4264
        55.000          48.000
 110419838.53147  86041417.79747  21012208.3434   21012210.5534   21012208.2394
        54.000          48.000
 115079372.01047  89672239.82747  21898874.5154   21898873.7954   21898874.9064
        52.000          45.000
 134916987.57847  87337902.94847  23770918.5964   23770920.8794   23770918.7454
        45.000          38.000
 119367104.16747 110805533.98147  24617742.4694   24617744.6264   24617742.6764
        42.000          36.000
 120089434.65947 111368383.58347  24755200.9164   24755204.4214   24755201.5004
        37.000          33.000
 118907097.71947  74862669.57947  20724334.9454   20724336.2134   20724334.5754
        54.000          48.000
 138481226.47847  90115239.99547  24449166.2224   24449165.5264   24449166.9024
        41.000          36.000
 135170080.40047  87535123.38347  23819077.7514   23819079.4004   23819078.2214
        45.000          39.000
 09  1 29 10  5 30.0000000  0 11G17G 4G 7G11G25G23G 8G28G13G19G20
 115479717.85347  89984188.38247  21975067.2444   21975068.3754   21975066.9634
        51.000          46.000
 124161516.28657 114541438.90757  25530087.2755   25530091.3955   25530086.7615
        40.000          33.000
 112419573.78447  87599663.16347  21392735.7014   21392736.9124   21392735.4364
        53.000          47.000
 119335126.19347  75196196.65747  20805788.1484   20805789.0434   20805788.2494
        55.000          48.000
 110380161.16147  86010500.36447  21004658.3574   21004660.2984   21004658.2964
        54.000          49.000
 115167752.50247  89741107.74947  21915692.6954   21915692.3004   21915692.6834
        52.000          45.000
 134820520.18447  87262733.55647  23752561.1904   23752562.9194   23752561.5944
        45.000          38.000
 119372546.67747 110809774.90547  24618778.9894   24618780.4224   24618779.3004
        42.000          37.000
 118956931.35647  74901500.98247  20733818.1144   20733819.2584   20733818.0244
        54.000          48.000
 138584966.81447  90196076.64447  24468906.8414   24468907.1464   24468908.3664
        41.000          35.000
 135179470.39547  87542440.26247  23820864.9004   23820866.2284   23820865.4244
        46.000          39.000
 09  1 29 10  6  0.0000000  0 12G17G 4G 7G11G25G23G 8G28G32G13G19G20
 115442736.30547  89955371.59347  21968029.6204   21968030.7274   21968029.4484
        51.000          46.000
 144068081.68857  94468632.18957  25512308.0895   25512309.0845   25512307.8625
        38.000          33.000
 112356754.66647  87550713.20147  21380781.7444   21380782.7584   21380781.5274
        53.000          47.000
 119355173.73047  75211818.11247  20809602.8164   20809604.0144   20809603.0134
        54.000          48.000
 110340863.82647  85979879.06847  20997180.2904   20997182.2894   20997180.2904
        55.000          49.000
 115256300.35447  89810106.07747  21932542.6154   21932542.4164   21932542.4374
        51.000          45.000
 134723963.36647  87187494.48647  23734187.2184   23734188.8514   23734187.8514
        46.000          39.000
 119377834.38547 110813895.17947  24619785.1644   24619786.2974   24619784.8744
        41.000          36.000
 140140475.16557  91408165.05557  24764904.3375   24764906.6445   24764904.2805
        39.000          33.000
 119007178.33447  74940654.47347  20743379.9314   20743380.9994   20743379.6194
        55.000          48.000
 138688654.90247  90276872.57847  24488638.6364   24488638.1914   24488639.8664
        41.000          35.000
 135188674.37247  87549612.19647  23822615.8174   23822617.3344   23822616.5374
        45.000          38.000
 09  1 29 10  6 30.0000000  0 12G17G 4G 7G11G25G23G 8G28G32G13G19G20
 115406213.12447  89926911.97247  21961079.4514   21961080.9964   21961079.0764
        51.000          46.000
 123974484.98657 114395706.22157  25494495.5415   25494495.6785   25494493.9715
        37.000          33.000
 112294182.36147  87501955.55847  21368874.5804   21368875.6244   21368874.3754
        53.000          47.000
 119375725.83247  75227832.74147  20813513.7434   20813514.8744   20813513.7554
        54.000          48.000
 110301947.60247  85949554.75147  20989774.9804   20989776.6604   20989775.0584
        55.000          49.000
 115345011.48247  89879231.63247  21949423.8724   21949423.4804   21949424.2354
        52.000          45.000
 134627318.29947  87112186.65247  23715796.1494   23715798.3294   23715797.1184
        46.000          39.000
 119382964.53947 110817892.69347  24620761.2584   24620762.7924   24620761.2524
        42.000          37.000
 140165729.15247  91427843.45947  24769709.7164   24769711.4654   24769710.4494
        38.000          33.000
 119057834.66547  74980126.94047  20753019.4704   20753020.4714   20753019.3344
        54.000          48.000
 138792286.80347  90357624.71047  24508359.4124   24508358.1844   24508360.7014
        41.000          35.000
 135197691.22647  87556638.29947  23824332.0984   23824333.4454   23824332.8264
        45.000          38.000
 09  1 29 10  7  0.0000000  0 12G17G 4G 7G11G25G23G 8G28G32G13G19G20
 115370150.39547  89898811.15047  21954217.0584   21954218.4494   21954216.7834
        51.000          46.000
 143880608.46557  94322537.58757  25476644.3955   25476648.2475   25476645.6695
        40.000          34.000
 112231861.83947  87453394.11847  21357015.2914   21357016.6834   21357015.0924
        52.000          47.000
 119396784.55447  75244242.14947  20817521.0044   20817522.2934   20817521.0574
        54.000          48.000
 110263416.72847  85919530.69447  20982442.8914   20982444.5574   20982442.8354
        55.000          49.000
 115433884.95947  89948483.70547  21966336.2324   21966335.5944   21966336.2774
        51.000          45.000
 134530589.35847  87036813.45547  23697389.6514   23697391.8924   23697389.9774
        46.000          39.000
 119387937.59347 110821767.78647  24621706.8344   24621708.4204   24621707.3644
        42.000          36.000
 140190825.95247  91447399.37847  24774485.9734   24774487.8514   24774486.0354
        38.000          33.000
 119108899.56547  75019917.77447  20762736.6494   20762737.8444   20762736.4244
        54.000          48.000
 138895862.08547  90438332.71147  24528068.8344   24528068.3074   24528070.2484
        39.000          35.000
 135206523.59247  87563520.67647  23826012.6084   23826014.5024   23826012.6774
        44.000          38.000
 09  1 29 10  7 30.0000000  0 12G17G 4G 7G11G25G23G 8G28G32G13G19G20
 115334544.28747  89871066.13047  21947441.6834   21947442.8304   21947441.5584
        51.000          46.000
 143786630.07047  94249307.68347  25458763.2994   25458763.8734   25458762.3754
        40.000          34.000
 112169792.35747  87405028.28847  21345203.8194   21345205.2474   21345203.4244
        53.000          47.000
 119418346.35847  75261043.56947  20821624.1764   20821625.2354   20821624.2634
        54.000          48.000
 110225269.88047  85889805.87747  20975183.5914   20975185.4014   20975183.5794
        54.000          48.000
 115522913.65547  90017856.72347  21983277.7124   21983277.0644   21983277.5014
        52.000          45.000
 134433775.15947  86961373.82047  23678966.4634   23678969.0874   23678966.9034
        46.000          39.000
 119392748.11047 110825516.22847  24622623.3614   24622624.0434   24622623.1414
        43.000          37.000
 120215622.78957 111466695.64357  24779227.4105   24779233.3245   24779230.5085
        39.000          34.000
 119160366.19447  75060021.63847  20772530.6624   20772531.6194   20772530.5564
        54.000          48.000
 138999374.80147  90518991.98147  24547766.6004   24547765.1844   24547767.0954
        40.000          35.000
 135215168.99147  87570257.35647  23827657.6074   23827659.5744   23827658.0924
        45.000          38.000
 09  1 29 10  8  0.0000000  0 12G17G 4G 7G11G25G23G 8G28G32G13G19G20
 115299400.83347  89843681.61547  21940754.2364   21940755.2704   21940754.0114
        51.000          46.000
 143692474.68247  94175939.83547  25440845.2744   25440847.0184   25440845.0174
        39.000          34.000
 112107982.29347  87356864.60347  21333441.7254   21333443.2154   21333441.3804
        52.000          47.000
 119440416.83647  75278241.34947  20825823.7534   20825825.1504   20825823.7584
        54.000          48.000
 110187514.96247  85860386.46847  20967999.0524   20968001.0084   20967999.0494
        55.000          49.000
 115612099.95547  90087352.53747  22000249.3774   22000248.6064   22000249.4754
        51.000          45.000
 134336883.75847  86885874.00047  23660528.6504   23660531.0274   23660529.3374
        46.000          39.000
 119397400.08547 110829141.16447  24623508.0284   24623509.9434   24623508.4314
        43.000          37.000
 140240425.14457  91486022.28957  24783945.6685   24783949.0495   24783947.7005
        40.000          34.000
 119212237.71747  75100441.00647  20782401.3864   20782402.4694   20782401.1574
        54.000          48.000
 139102827.73547  90599604.65547  24567452.6524   24567452.2704   24567452.9954
        39.000          34.000
 135223633.12447  87576852.79347  23829268.4534   23829269.8424   23829268.9594
        45.000          38.000
 09  1 29 10  8 30.0000000  0 12G17G 4G 7G11G25G23G 8G28G32G13G19G20
 115264716.15747  89816654.59247  21934153.6994   21934155.0294   21934153.4714
        51.000          46.000
 123598164.26057 114102455.50557  25422895.8775   25422895.7935   25422893.5755
        40.000          34.000
 112046430.53647  87308902.19447  21321728.8014   21321730.2184   21321728.4724
        53.000          47.000
 119462991.85047  75295832.27347  20830119.6894   20830121.1564   20830119.6954
        54.000          48.000
 110150150.30047  85831271.14947  20960888.8174   20960890.5454   20960888.8214
        54.000          48.000
 115701436.95547  90156965.78647  22017249.5224   22017248.9174   22017249.7634
        51.000          44.000
 134239913.68347  86810312.89647  23642075.5744   23642077.5504   23642076.1614
        46.000          39.000
 119401888.01247 110832638.21147  24624361.7354   24624363.7814   24624362.2204
        43.000          37.000
 140265052.08147  91505212.10247  24788632.9084   24788635.8764   24788632.8864
        41.000          34.000
 119264507.36647  75141170.60647  20792347.8374   20792349.0694   20792347.6864
        54.000          48.000
 139206215.13547  90680166.26947  24587124.8854   24587126.9064   24587126.2364
        39.000          34.000
 135231912.77347  87583304.47647  23830844.0874   23830845.6674   23830844.3894
        45.000          38.000
 09  1 29 10  9  0.0000000  0 12G17G 4G 7G11G25G23G 8G28G32G13G19G20
 115230491.13447  89789985.74347  21927640.8314   21927642.2944   21927640.7004
        51.000          46.000
 143503679.90757  94028838.29657  25404908.9375   25404910.4165   25404908.2245
        39.000          34.000
 111985140.70447  87261143.87647  21310065.8294   21310067.0874   21310065.6014
        52.000          47.000
 119486072.79047  75313817.42547  20834511.9824   20834513.1164   20834512.1044
        54.000          48.000
 110113179.04147  85802462.37847  20953853.4164   20953855.3464   20953853.4714
        54.000          49.000
 115790922.36147  90226694.68047  22034277.9244   22034277.4684   22034278.0354
        51.000          44.000
 134142867.99347  86734692.87547  23623608.3884   23623610.4404   23623608.9194
        45.000          39.000
 119406211.57547 110836007.23747  24625184.4614   24625185.7604   24625185.2094
        43.000          37.000
 120289577.22757 111524332.27957  24793288.8705   24793292.7565   24793289.7305
        40.000          34.000
 119317173.52347  75182209.16847  20802369.8434   20802370.9794   20802369.6814
        54.000          48.000
 139309535.25647  90760675.46847  24606786.5194   24606787.8454   24606787.1964
        38.000          34.000
 135240009.44847  87589613.58347  23832384.2424   23832386.3704   23832385.0974
        44.000          38.000
 09  1 29 10  9 30.0000000  0 11G17G 7G11G25G23G 8G28G32G13G19G20
 115196725.89847  89763675.17647  21921215.6764   21921216.9634   21921215.2254
        51.000          46.000
 111924115.41047  87213591.69947  21298453.1604   21298454.3364   21298452.7014
        52.000          47.000
 119509659.62347  75332196.78547  20839000.4164   20839001.5954   20839000.3664
        54.000          48.000
 110076603.45247  85773961.93147  20946893.2244   20946895.2814   20946893.1474
        54.000          49.000
 115880553.21047  90296536.90847  22051334.0224   22051333.5684   22051333.7804
        51.000          44.000
 134045748.87847  86659015.66147  23605127.6864   23605129.3764   23605127.9344
        45.000          39.000
 119410368.74147 110839246.59947  24625976.5104   24625976.8514   24625976.2514
        44.000          37.000
 120313895.63447 111543281.63647  24797917.8224   24797920.4584   24797917.6854
        40.000          35.000
 119370232.72147  75223553.99447  20812466.7264   20812467.7524   20812466.6524
        54.000          48.000
 139412785.61747  90841130.30147  24626435.2784   24626436.0514   24626435.3694
        39.000          35.000
 135247923.81747  87595780.62447  23833890.1174   23833892.6884   23833890.7834
        44.000          38.000
 09  1 29 10 10  0.0000000  0 11G17G 7G11G25G23G 8G28G32G13G19G20
 115163421.94247  89737724.03847  21914878.2194   21914879.3784   21914878.1174
        51.000          46.000
 111863359.35947  87166249.32147  21286891.4854   21286892.7204   21286891.1534
        53.000          47.000
 119533754.09047  75350971.69147  20843585.5224   20843586.6784   20843585.6564
        54.000          48.000
 110040427.42347  85745772.81447  20940009.2914   20940011.1144   20940009.3794
        54.000          48.000
 115970328.16247  90366491.42147  22068417.7094   22068417.3694   22068418.0154
        51.000          44.000
 133948560.60947  86583284.53747  23586632.7864   23586635.2654   23586633.1994
        45.000          39.000
 119414359.73147 110842356.46947  24626735.8284   24626736.8934   24626736.4424
        44.000          37.000
 120338062.73247 111562113.15347  24802516.1194   24802518.4394   24802517.0914
        41.000          35.000
 119423684.41247  75265204.66147  20822638.2734   20822639.3524   20822637.9294
        54.000          48.000
 139515965.33747  90921530.09347  24646069.8614   24646070.1704   24646070.4074
        38.000          34.000
 135255658.17347  87601807.38747  23835361.7344   23835364.7554   23835362.6804
        43.000          38.000
 09  1 29 10 10 30.0000000  0 12G17G 4G 7G11G25G23G 8G28G32G13G19G20
 115130578.05047  89712131.39247  21908628.1484   21908629.3384   21908627.8794
        51.000          46.000
 123219074.38857 113807058.39657  25350756.3635   25350757.5455   25350756.8675
        40.000          34.000
 111802873.55447  87119117.52547  21275381.3774   21275382.6964   21275381.1094
        53.000          47.000
 119558354.46747  75370140.81947  20848266.8574   20848267.9764   20848267.0654
        55.000          48.000
 110004651.58547  85717895.54447  20933201.0414   20933203.0304   20933201.0144
        54.000          48.000
 116060241.99547  90436554.15647  22085527.6934   22085527.3754   22085527.9364
        51.000          44.000
 133851303.90947  86507500.10847  23568125.0644   23568128.2234   23568125.9614
        45.000          39.000
 119418181.32647 110845334.31547  24627462.8734   24627464.3174   24627463.3364
        43.000          37.000
 120362078.02047 111580826.34547  24807086.5214   24807089.9914   24807086.5154
        40.000          34.000
 119477524.01647  75307157.59447  20832883.5994   20832884.6544   20832883.4984
        54.000          48.000
 139619070.64847  91001871.87347  24665689.3254   24665691.0524   24665690.9134
        38.000          34.000
 135263211.38847  87607693.01847  23836799.5784   23836802.0964   23836800.4474
        44.000          38.000
 09  1 29 10 11  0.0000000  0 12G17G 4G 7G11G25G23G 8G28G32G13G19G20
 115098194.96147  89686897.81747  21902465.8364   21902467.1794   21902465.6494
        51.000          46.000
 143123929.74857  93732933.04757  25332642.4755   25332642.9395   25332641.6425
        41.000          34.000
 111742661.83447  87072199.30047  21263923.5954   21263924.8684   21263923.2904
        52.000          47.000
 119583461.54447  75389704.77647  20853044.4314   20853045.7684   20853044.5404
        54.000          48.000
 109969279.16747  85690332.61447  20926470.2454   20926471.9204   20926470.2984
        55.000          48.000
 116150293.16247  90506723.91047  22102663.6994   22102663.4224   22102663.7694
        51.000          44.000
 133753982.08847  86431664.91447  23549605.6264   23549608.3144   23549606.2544
        44.000          39.000
 119421832.94147 110848179.75647  24628157.4114   24628158.9594   24628157.9924
        44.000          37.000
 120385943.16047 111599422.54047  24811628.2674   24811631.3264   24811628.0044
        41.000          34.000
 119531749.46547  75349411.19347  20843202.2404   20843203.3624   20843201.8444
        54.000          48.000
 139722100.21647  91082154.65447  24685295.2614   24685297.7284   24685296.5914
        38.000          34.000
 135270585.44647  87613439.04347  23838202.7884   23838204.8934   23838202.6654
        44.000          38.000
 09  1 29 10 11 30.0000000  0 11G17G 4G 7G11G25G23G 8G28G32G13G20
 115066282.09747  89662030.65047  21896393.0924   21896394.2154   21896392.7514
        51.000          46.000
 143028570.32547  93658627.02047  25314493.5104   25314496.1844   25314495.0084
        41.000          34.000
 111682736.12847  87025503.94747  21252519.8274   21252521.4514   21252519.5344
        53.000          48.000
 119609084.39347  75409670.62847  20857920.4184   20857921.6184   20857920.3994
        54.000          48.000
 109934321.48247  85663092.86547  20919817.6104   20919819.7554   20919817.4954
        54.000          48.000
 116240487.49247  90577005.20547  22119827.4184   22119826.8104   22119827.6074
        51.000          44.000
 133656606.79547  86355788.07447  23531075.9524   23531078.5464   23531076.0784
        45.000          39.000
 119425322.29947 110850898.72247  24628821.7624   24628822.3904   24628821.7734
        44.000          37.000
 120409668.49047 111617909.83647  24816142.9014   24816146.1614   24816143.2014
        40.000          34.000
 119586367.16347  75391970.43347  20853595.5754   20853596.8234   20853595.5524
        54.000          48.000
 135277789.96947  87619052.97747  23839573.6044   23839575.7984   23839573.8924
        44.000          38.000
 09  1 29 10 12  0.0000000  0 12G17G 4G 7G11G25G23G 8G28G32G13G19G20
 115034820.47747  89637515.10747  21890406.1014   21890407.2324   21890405.8664
        51.000          46.000
 142933034.88147  93584183.82047  25296313.7864   25296316.1874   25296315.8364
        40.000          34.000
 111623080.41547  86979018.96847  21241167.7934   21241169.1904   21241167.5044
        52.000          48.000
 119635204.21247  75430023.73447  20862890.7424   20862891.9514   20862890.9374
        54.000          48.000
 109899762.06347  85636163.44647  20913241.4634   20913243.2634   20913241.4994
        55.000          48.000
 116330803.12547  90647381.02847  22137014.0694   22137013.3904   22137014.2214
        51.000          44.000
 133559161.82047  86279856.94147  23512533.1514   23512535.2714   23512533.5594
        45.000          40.000
 119428629.24947 110853475.58847  24629450.7034   24629452.0634   24629451.4414
        44.000          37.000
 120433236.04147 111636274.13847  24820627.2684   24820630.4334   24820627.5364
        40.000          34.000
 119641355.66147  75434818.61147  20864059.5194   20864060.7724   20864059.1534
        54.000          48.000
 119928019.61557 111242632.73757  24724464.2285   24724459.1205   24724463.9895
        37.000          34.000
 135284807.30347  87624521.05447  23840909.3244   23840911.0144   23840910.2964
        45.000          38.000
 09  1 29 10 12 30.0000000  0 12G17G 4G 7G11G25G23G 8G28G32G13G19G20
 115003817.81447  89613357.19747  21884506.4614   21884507.7294   21884506.2994
        51.000          46.000
 142837333.36547  93509611.25447  25278102.8064   25278105.1814   25278102.7634
        39.000          34.000
 111563706.03247  86932753.21147  21229869.4934   21229870.7884   21229869.1484
        53.000          47.000
 119661829.20447  75450770.48547  20867957.4974   20867958.4684   20867957.7884
        55.000          48.000
 109865611.22147  85609552.41347  20906742.6074   20906744.4844   20906742.6024
        54.000          48.000
 116421245.35047  90717855.50647  22154224.8284   22154223.8204   22154224.9994
        51.000          44.000
 133461657.73947  86203879.75447  23493978.6774   23493980.6524   23493979.3714
        46.000          40.000
 119431760.73747 110855915.69147  24630046.7404   24630047.7974   24630047.1864
        43.000          37.000
 140456602.24157  91654476.82357  24825084.2355   24825087.8195   24825083.7505
        38.000          34.000
 119696720.09747  75477959.72547  20874595.0404   20874596.2504   20874594.8244
        54.000          47.000
 140030708.24457  91322629.20057  24744023.2675   24744021.5815   24744025.4515
        37.000          33.000
 135291646.19747  87629850.05347  23842210.6424   23842212.9494   23842211.9234
        44.000          38.000
 09  1 29 10 13  0.0000000  0 11G17G 4G 7G11G25G23G 8G28G32G13G20
 114973278.10547  89589560.01747  21878694.7894   21878696.1754   21878694.5024
        51.000          46.000
 122741441.58857 113434884.99157  25259861.3195   25259862.8375   25259860.6425
        39.000          34.000
 111504619.08847  86886711.41847  21218625.6044   21218626.8744   21218625.3134
        53.000          48.000
 119688962.74647  75471913.50647  20873120.8664   20873121.9144   20873121.0284
        54.000          48.000
 109831874.77247  85583264.28447  20900322.8984   20900324.6714   20900322.7934
        54.000          49.000
 116511814.83447  90788429.13047  22171459.6184   22171458.6544   22171459.8434
        51.000          44.000
 133364100.49947  86127861.12847  23475414.0764   23475416.1784   23475414.4984
        46.000          40.000
 119434718.19047 110858220.20047  24630610.0784   24630610.6084   24630609.9404
        44.000          37.000
 120479946.44657 111672675.32457  24829513.3945   24829515.5425   24829513.8425
        40.000          33.000
 119752461.18947  75521394.34447  20885202.2924   20885203.4144   20885201.9704
        54.000          47.000
 135298310.81147  87635043.25447  23843478.6204   23843480.1404   23843479.3364
        44.000          38.000
