     2.11           OBSERVATION DATA    G (GPS)             RINEX VERSION / TYPE
teqc  2008Oct2      gpsops              20090123 00:09:39UTCPGM / RUN BY / DATE
    30.0000                                                 INTERVAL
     1     1                                                WAVELENGTH FACT L1/2
     7    L1    L2    P1    P2    C1    S1    S2            # / TYPES OF OBSERV
Linux 2.4.20-8|Pentium IV|gcc -static|Linux|486/DX+         COMMENT
     2.10           OBSERVATION DATA    GPS                 COMMENT
soc2rnx ver 1.20    gpsops              23-Jan-2009 00:09:35COMMENT
S1, if present, is the SNR for the C/A data stream on L1.   COMMENT
 SNR is mapped to RINEX snr flag value [1,4-9]              COMMENT
    SNR:   >316  >100  >31.6  >10  >3.2    >0 bad=0         COMMENT
L1 & L2:      9     8     7     6     5     4     1         COMMENT
                                                            COMMENT
This data is provided as a public service by NASA/JPL.      COMMENT
No warranty is expressed or implied regarding suitability   COMMENT
for use.  For further information, contact:                 COMMENT
Dave Stowers, NASA/JPL m/s 238-600                          COMMENT
4800 Oak Grove Drive, Pasadena CA 91109 USA                 COMMENT
                                                            COMMENT
Forced Modulo Decimation to 30 seconds                      COMMENT
  2009     1    22     0     0    0.0000000     GPS         TIME OF FIRST OBS
GGN                 JPL                                     OBSERVER / AGENCY
CR519992104         ASH701945B_M    SCIT                    ANT # / TYPE
   -33801.4662 -6377516.5323   -82154.3508                  APPROX POSITION XYZ
        0.0083        0.0000        0.0000                  ANTENNA: DELTA H/E/N
ZR220013847         ASHTECH UZ-12       CQ00                REC # / TYPE / VERS
GLPS                                                        MARKER NAME
42005M002                                                   MARKER NUMBER
                                                            END OF HEADER
 09  1 22  0  0  0.0000000  0 12G30G 9G14G 5G24G31G29G22G21G18G 6G12
 121627697.48947  94774810.01447  23144996.7164   23145000.0444   23144996.4494
        48.000          42.000
 120148971.70847  93622563.21947  22863598.9614   22863602.6184   22863598.6074
        47.000          41.000
 115881208.08147  90297033.18647  22051472.3094   22051474.9924   22051471.8164
        50.000          44.000
 124062129.56247  96671780.36647  23608245.7644   23608250.2424   23608245.8624
        45.000          39.000
 115275524.28547  89825073.03047  21936209.4284   21936214.4954   21936209.3634
        51.000          45.000
 119291788.81347  92954624.82047  22700484.6404   22700486.4224   22700484.4774
        49.000          43.000
 120810368.54347  94137931.00247  22989462.6984   22989466.4134   22989462.2244
        47.000          42.000
 126000973.03647  98182576.27447  23977187.2314   23977187.2814   23977187.2444
        45.000          38.000
 105307459.96347  82057745.29047  20039355.8634   20039357.6314   20039356.2304
        54.000          49.000
 122570689.79747  95509621.17047  23324432.3624   23324433.8274   23324432.3114
        46.000          40.000
 127863159.74147  99633617.03747  24331561.5364   24331564.5124   24331561.0504
        43.000          37.000
 128188050.60147  99886771.46747  24393391.0744   24393395.5284   24393391.0884
        44.000          39.000
 09  1 22  0  0 30.0000000  0 12G30G 9G14G 5G24G31G29G22G21G18G 6G12
 121601147.19847  94754121.51947  23139944.1714   23139948.0774   23139943.4944
        48.000          41.000
 120233532.89847  93688455.06047  22879689.9144   22879693.6624   22879690.0944
        47.000          41.000
 115905140.76947  90315682.05047  22056026.0204   22056029.0044   22056026.0534
        50.000          44.000
 124049998.99847  96662328.00747  23605936.7164   23605941.1974   23605936.9584
        45.000          39.000
 115329041.93747  89866775.08647  21946393.4564   21946398.7174   21946393.7494
        51.000          45.000
 119194677.98547  92878954.09347  22682004.8654   22682007.4364   22682004.7144
        49.000          43.000
 120885179.11947  94196224.94147  23003698.4024   23003701.8794   23003698.0094
        47.000          42.000
 125970008.72547  98158448.28447  23971294.1444   23971295.1174   23971294.0654
        44.000          38.000
 105283773.13547  82039288.01747  20034848.2754   20034850.2334   20034848.5684
        54.000          49.000
 122540086.20047  95485774.22947  23318608.4694   23318610.2594   23318608.9144
        47.000          40.000
 127824394.54747  99603410.37747  24324184.1794   24324188.3844   24324184.2654
        42.000          37.000
 128190489.20147  99888671.74347  24393855.9254   24393859.8464   24393855.4284
        44.000          39.000
 09  1 22  0  1  0.0000000  0 12G30G 9G14G 5G24G31G29G22G21G18G 6G12
 121574538.83747  94733387.77047  23134881.1644   23134884.5814   23134880.5834
        48.000          41.000
 120318473.88047  93754642.85047  22895853.4824   22895857.0204   22895853.8044
        48.000          40.000
 115929370.46247  90334562.35047  22060636.8814   22060639.6934   22060636.8994
        50.000          44.000
 124037959.33147  96652946.47547  23603645.4334   23603650.1434   23603646.1334
        45.000          39.000
 115382997.87047  89908818.66447  21956661.0074   21956666.1024   21956661.3094
        51.000          45.000
 119097765.11347  92803437.61047  22663562.9374   22663565.4724   22663562.1274
        49.000          43.000
 120959935.31447  94254476.49447  23017924.0994   23017927.7794   23017923.5444
        47.000          42.000
 125938818.71247  98134144.42447  23965358.9314   23965359.7464   23965358.6474
        45.000          38.000
 105260660.50147  82021278.17447  20030450.1604   20030452.2324   20030450.5254
        54.000          49.000
 122509328.48947  95461807.18847  23312754.9364   23312757.5374   23312755.4354
        46.000          40.000
 127785928.96747  99573437.20547  24316864.0394   24316868.3904   24316864.1074
        43.000          37.000
 128193010.60347  99890636.54747  24394335.2784   24394339.6984   24394334.9264
        44.000          39.000
 09  1 22  0  1 30.0000000  0 12G30G 9G14G 5G24G31G29G22G21G18G 6G12
 121547872.72647  94712609.01547  23129806.5794   23129810.3674   23129806.3534
        49.000          42.000
 120403790.70047  93821123.51247  22912088.6754   22912091.9164   22912089.0464
        47.000          41.000
 115953893.28047  90353671.06047  22065303.3214   22065306.2604   22065303.4474
        51.000          44.000
 124026011.13547  96643636.22347  23601371.5844   23601376.9184   23601372.0814
        45.000          39.000
 115437389.03547  89951201.38647  21967011.3404   21967016.1774   21967011.5394
        51.000          44.000
 119001051.04347  92728076.05347  22645159.0494   22645161.2804   22645158.6564
        49.000          43.000
 121034633.46547  94312682.82447  23032138.6944   23032142.2694   23032138.3334
        47.000          42.000
 125907401.39947  98109663.44747  23959380.6034   23959380.8324   23959380.2974
        45.000          38.000
 105238122.06347  82003715.75847  20026161.1474   20026163.1304   20026161.5224
        54.000          49.000
 122478416.35647  95437719.82747  23306872.6364   23306874.6914   23306873.3404
        46.000          40.000
 127747760.98347  99543695.91147  24309600.4864   24309605.3844   24309600.8274
        43.000          37.000
 128195615.05647  99892666.06247  24394831.1194   24394834.7744   24394830.9354
        43.000          38.000
 09  1 22  0  2  0.0000000  0 12G30G 9G14G 5G24G31G29G22G21G18G 6G12
 121521153.71447  94691789.03647  23124722.0154   23124725.4104   23124721.6454
        48.000          41.000
 120489483.75247  93887897.32647  22928395.7514   22928398.9954   22928396.0854
        47.000          40.000
 115978710.00847  90373008.78747  22070025.7744   22070028.5744   22070026.1944
        50.000          44.000
 124014159.55247  96634401.26247  23599116.5354   23599121.2134   23599117.0204
        46.000          39.000
 115492217.30647  89993924.71047  21977444.8714   21977449.3954   21977445.1954
        51.000          44.000
 118904541.98047  92652874.22747  22626793.8534   22626796.2024   22626793.8824
        49.000          43.000
 121109274.45947  94370844.59447  23046342.0824   23046346.0464   23046342.2094
        47.000          42.000
 125875759.97647  98085007.83647  23953359.0774   23953359.6984   23953358.9544
        45.000          38.000
 105216162.37447  81986604.31447  20021982.5094   20021984.4664   20021982.9364
        54.000          49.000
 122447353.84347  95413515.27847  23300961.6334   23300963.9934   23300962.1854
        46.000          40.000
 127709893.10247  99514188.48747  24302395.2544   24302399.5954   24302394.8394
        42.000          37.000
 128198307.56147  99894764.18147  24395343.0904   24395346.6604   24395342.7754
        43.000          38.000
 09  1 22  0  2 30.0000000  0 12G30G 9G14G 5G24G31G29G22G21G18G 6G12
 121494381.37047  94670927.50447  23119627.2824   23119631.0354   23119626.7244
        48.000          42.000
 120575548.00547  93954960.39847  22944773.1964   22944776.3624   22944773.1634
        47.000          40.000
 116003815.73147  90392571.70047  22074803.2944   22074806.0324   22074803.5314
        50.000          44.000
 124002404.18647  96625241.26647  23596879.3184   23596884.4484   23596879.7674
        45.000          39.000
 115547479.14047  90036985.86647  21987960.6184   21987965.4954   21987960.6914
        51.000          44.000
 118808238.33647  92577832.46747  22608468.0194   22608469.8624   22608467.5284
        50.000          43.000
 121183853.76047  94428958.29747  23060534.3154   23060537.8094   23060534.4294
        47.000          42.000
 125843892.33547  98060175.93647  23947295.0684   23947296.1014   23947295.0174
        46.000          39.000
 105194780.40247  81969943.03847  20017913.3834   20017915.5344   20017913.7424
        54.000          49.000
 122416140.03247  95389192.85447  23295021.8704   23295024.0994   23295022.2354
        47.000          40.000
 127672322.38547  99484912.61047  24295245.7374   24295250.1414   24295245.7524
        43.000          36.000
 128201087.70247  99896930.58247  24395872.0164   24395876.1384   24395871.8194
        43.000          38.000
 09  1 22  0  3  0.0000000  0 12G30G 9G14G 5G24G31G29G22G21G18G 6G12
 121467559.09047  94650027.06447  23114523.4484   23114527.4604   23114522.9964
        49.000          42.000
 120661982.44047  94022311.91447  22961220.6724   22961224.8124   22961221.0004
        46.000          40.000
 116029209.35047  90412358.95547  22079635.5704   22079638.0054   22079635.7124
        50.000          44.000
 123990748.81947  96616159.19947  23594661.2954   23594666.4114   23594661.6894
        45.000          39.000
 115603174.64147  90080384.94547  21998559.3584   21998563.9654   21998559.6264
        51.000          44.000
 118712144.60347  92502954.28047  22590181.6904   22590183.9074   22590181.2634
        49.000          43.000
 121258371.02647  94487023.67347  23074714.4744   23074718.3264   23074714.3114
        47.000          42.000
 125811799.98947  98035168.95947  23941188.2974   23941188.9164   23941188.5604
        45.000          39.000
 105173979.28447  81953734.37447  20013955.2244   20013957.1334   20013955.5914
        54.000          49.000
 122384777.81847  95364754.77947  23289054.3044   23289055.9064   23289054.6754
        47.000          40.000
 127635049.90947  99455869.11747  24288153.7404   24288157.3154   24288153.5314
        43.000          37.000
 128203958.77847  99899167.83947  24396418.1274   24396422.4854   24396417.9214
        44.000          38.000
 09  1 22  0  3 30.0000000  0 12G30G 9G14G 5G24G31G29G22G21G18G 6G12
 121440688.04947  94629088.61947  23109410.1474   23109413.4704   23109409.7584
        48.000          41.000
 120748784.11547  94089949.58047  22977738.9334   22977742.4814   22977739.0554
        47.000          40.000
 116054887.83047  90432368.18647  22084521.9304   22084524.5914   22084522.1854
        50.000          44.000
 123979194.85747  96607156.14747  23592462.9194   23592467.5364   23592463.3024
        46.000          39.000
 115659301.85947  90124120.44347  22009240.0004   22009244.5334   22009240.2244
        51.000          44.000
 118616263.23147  92428241.55647  22571936.1814   22571938.2374   22571935.7784
        49.000          43.000
 121332823.20847  94545038.32647  23088881.9244   23088885.6984   23088881.6574
        46.000          42.000
 125779482.75747  98009986.72947  23935038.0504   23935038.8414   23935037.9524
        45.000          39.000
 105153759.92347  81937979.03447  20010107.5734   20010109.6184   20010107.9604
        54.000          49.000
 122353267.62047  95340201.37747  23283057.8844   23283059.6764   23283058.6584
        47.000          40.000
 127598074.47047  99427057.09747  24281116.1574   24281120.8764   24281116.4704
        42.000          37.000
 128206922.22547  99901477.08547  24396982.0884   24396985.8354   24396981.8404
        43.000          38.000
 09  1 22  0  4  0.0000000  0 12G30G 9G14G 5G24G31G29G22G21G18G 6G12
 121413770.44947  94608113.89547  23104287.4754   23104290.9154   23104287.1984
        48.000          41.000
 120835951.21047  94157872.00547  22994325.9034   22994329.5644   22994326.3374
        47.000          40.000
 116080849.23547  90452597.86547  22089462.1624   22089464.8684   22089462.3174
        50.000          44.000
 123967744.90447  96598234.14047  23590283.6664   23590288.8534   23590284.0344
        45.000          39.000
 115715859.81347  90168191.56747  22020002.7474   22020007.2044   22020003.0084
        51.000          44.000
 118520597.70547  92353697.04147  22553731.3604   22553733.7884   22553731.1464
        49.000          44.000
 121407208.85047  94603001.13747  23103037.3074   23103040.7854   23103036.6464
        47.000          42.000
 125746941.16747  97984629.66447  23928845.6844   23928846.1034   23928845.4594
        45.000          39.000
 105134123.91947  81922678.25347  20006371.0174   20006372.9214   20006371.3644
        54.000          49.000
 122321611.68547  95315534.42647  23277034.0054   23277036.0964   23277034.5724
        47.000          40.000
 127561396.03047  99398476.47647  24274137.7034   24274141.9494   24274137.1854
        42.000          37.000
 128209980.09747  99903859.86347  24397563.7124   24397568.4844   24397563.4444
        44.000          38.000
 09  1 22  0  4 30.0000000  0 12G30G 9G14G 5G24G31G29G22G21G18G 6G12
 121386807.35547  94587103.72347  23099156.3414   23099160.0974   23099155.9074
        48.000          42.000
 120923480.18547  94226076.40547  23010982.0814   23010985.9224   23010982.0124
        47.000          40.000
 116107090.18247  90473045.37347  22094455.3624   22094458.3224   22094455.9044
        50.000          44.000
 123956400.00247  96589394.00547  23588125.1154   23588129.9554   23588125.4464
        45.000          39.000
 115772845.94847  90212596.34247  22030846.8244   22030851.5074   22030847.0724
        51.000          44.000
 118425149.85647  92279322.14147  22535568.0854   22535570.6024   22535567.6604
        49.000          44.000
 121481524.79247  94660909.63747  23117179.3804   23117182.7624   23117178.7224
        47.000          42.000
 125714174.63947  97959097.33847  23922610.5934   23922611.3274   23922610.7724
        45.000          39.000
 105115071.55647  81907832.25947  20002745.5254   20002747.3644   20002745.8674
        54.000          50.000
 122289810.01647  95290753.91747  23270981.9154   23270984.4064   23270982.4334
        47.000          41.000
 127525013.00747  99370126.06747  24267212.9174   24267218.3744   24267213.7254
        42.000          37.000
 128213133.50647  99906317.13047  24398164.1754   24398168.2834   24398163.5594
        43.000          38.000
 09  1 22  0  5  0.0000000  0 12G30G 9G14G 5G24G31G29G22G21G18G 6G12
 121359802.16247  94566060.74247  23094017.3974   23094021.5534   23094016.9634
        48.000          41.000
 121011369.72547  94294561.77947  23027707.0314   23027710.4334   23027706.9414
        47.000          40.000
 116133609.39747  90493709.71947  22099502.0024   22099504.7164   22099501.9784
        50.000          44.000
 123945163.65647  96580638.43047  23585986.8194   23585991.3304   23585987.1054
        45.000          39.000
 115830260.57247  90257335.00247  22041772.2704   22041777.2824   22041772.6654
        51.000          44.000
 118329923.42647  92205119.76747  22517446.8424   22517449.5874   22517446.6394
        49.000          44.000
 121555770.31447  94718763.26347  23131307.8054   23131310.9284   23131307.3234
        47.000          42.000
 125681184.81847  97933391.01247  23916332.4394   23916333.5614   23916332.5834
        45.000          39.000
 105096605.63247  81893443.22847  19999231.5514   19999233.4764   19999231.9114
        54.000          50.000
 122257865.52847  95265862.09847  23264903.3634   23264905.5224   23264903.6364
        48.000          41.000
 127488926.06847  99342006.35247  24260346.1594   24260351.0274   24260346.5014
        42.000          37.000
 128216385.69047  99908851.36847  24398782.3484   24398786.5094   24398782.0454
        43.000          39.000
 09  1 22  0  5 30.0000000  0 12G30G 9G14G 5G24G31G29G22G21G18G 6G12
 121332755.14947  94544985.20047  23088870.2834   23088874.3574   23088870.3484
        47.000          41.000
 121099615.46547  94363324.69647  23044499.7154   23044503.2104   23044499.7504
        47.000          40.000
 116160402.85247  90514587.76147  22104600.7474   22104603.3064   22104601.0434
        50.000          44.000
 123934036.52947  96571967.97647  23583869.8684   23583873.8634   23583870.1314
        45.000          39.000
 115888100.88747  90302405.37847  22052778.8374   22052783.7574   22052778.9734
        51.000          44.000
 118234920.42247  92131091.51247  22499368.4694   22499371.3284   22499368.0894
        49.000          44.000
 121629942.04247  94776559.38447  23145422.0524   23145425.6294   23145422.0874
        47.000          41.000
 125647970.25147  97907509.56947  23910012.0824   23910012.7244   23910012.1344
        45.000          39.000
 105078726.18147  81879511.19047  19995829.2764   19995831.1404   19995829.6464
        54.000          50.000
 122225777.98847  95240858.82847  23258797.3944   23258799.6294   23258797.8044
        48.000          41.000
 127453133.30947  99314115.90947  24253535.2304   24253540.0454   24253534.9714
        42.000          37.000
 128219736.94247  99911462.78347  24399419.8664   24399424.2734   24399420.0104
        43.000          38.000
 09  1 22  0  6  0.0000000  0 12G30G 9G14G 5G24G31G29G22G21G18G 6G12
 121305671.44347  94523881.04747  23083716.5854   23083720.4234   23083715.9684
        48.000          42.000
 121188218.33047  94432365.90947  23061360.3764   23061363.7294   23061360.4664
        47.000          40.000
 116187471.31447  90535680.08747  22109751.6564   22109754.2004   22109751.9704
        50.000          44.000
 123923024.02647  96563386.82947  23581773.7274   23581778.5854   23581773.9344
        45.000          39.000
 115946368.56447  90347808.75247  22063866.9094   22063871.5944   22063867.0664
        51.000          44.000
 118140146.88147  92057242.04147  22481333.7194   22481336.4354   22481333.2004
        49.000          44.000
 121704041.04347  94834298.84347  23159522.9964   23159526.0514   23159523.2004
        48.000          42.000
 125614534.72347  97881455.95147  23903649.4874   23903650.2654   23903649.7854
        45.000          39.000
 105061437.75747  81866039.69047  19992539.3574   19992541.2794   19992539.7324
        54.000          50.000
 122193552.13347  95215747.77647  23252665.0304   23252667.3444   23252665.5654
        48.000          41.000
 127417637.32247  99286456.69147  24246781.0664   24246785.4464   24246781.1644
        41.000          37.000
 128223192.42347  99914155.40547  24400077.9584   24400081.9704   24400077.3654
        44.000          38.000
 09  1 22  0  6 30.0000000  0 12G30G 9G14G 5G24G31G29G22G21G18G 6G12
 121278548.86247  94502746.58847  23078555.2844   23078559.1824   23078555.0624
        48.000          42.000
 121277171.12347  94501679.80247  23078287.2854   23078290.2864   23078287.7414
        47.000          40.000
 116214808.29447  90556981.65147  22114953.6034   22114956.1794   22114953.8484
        50.000          44.000
 123912123.71247  96554893.11847  23579699.5164   23579704.2044   23579699.9014
        45.000          39.000
 116005057.75147  90393540.57247  22075034.9844   22075039.8274   22075035.0424
        50.000          44.000
 118045601.19947  91983570.13047  22463342.2064   22463345.0584   22463341.8424
        50.000          44.000
 121778060.75547  94891976.51647  23173608.4444   23173611.6224   23173608.7114
        47.000          41.000
 125580874.03747  97855226.87547  23897244.2464   23897245.3314   23897244.5584
        45.000          39.000
 105044736.70547  81853025.88747  19989361.1604   19989363.2314   19989361.4814
        54.000          49.000
 122161184.83347  95190526.49447  23246505.7914   23246507.8424   23246506.2214
        48.000          41.000
 127382433.08647  99259024.82047  24240081.4774   24240085.5274   24240080.8364
        42.000          36.000
 128226749.41347  99916927.13147  24400754.4344   24400758.6774   24400754.6554
        43.000          38.000
 09  1 22  0  7  0.0000000  0 12G30G 9G14G 5G24G31G29G22G21G18G 6G12
 121251392.51047  94481585.84847  23073387.5584   23073391.2964   23073387.3854
        48.000          41.000
 121366474.58647  94571266.92647  23095281.2894   23095284.4284   23095281.6004
        46.000          40.000
 116242413.90547  90578492.53947  22120206.7434   22120209.6894   22120206.9654
        50.000          44.000
 123901340.94347  96546490.99247  23577647.2214   23577652.2944   23577647.3374
        44.000          39.000
 116064170.41947  90439602.38447  22086283.5674   22086288.2094   22086283.6414
        50.000          44.000
 117951289.60947  91910080.63447  22445395.3624   22445398.0494   22445395.3404
        50.000          44.000
 121852002.74247  94949593.60547  23187678.9704   23187682.7484   23187678.9944
        47.000          42.000
 125546991.79847  97828825.15547  23890796.6014   23890797.4454   23890796.1794
        45.000          39.000
 105028627.95447  81840473.61847  19986295.7194   19986297.7794   19986295.9694
        54.000          49.000
 122128680.40047  95165198.36147  23240320.4304   23240322.3174   23240320.8344
        48.000          41.000
 127347523.08747  99231822.20147  24233439.0764   24233443.3304   24233439.1164
        43.000          37.000
 128230413.10647  99919782.02547  24401452.2164   24401455.4184   24401452.1734
        45.000          38.000
 09  1 22  0  7 30.0000000  0 12G30G 9G14G 5G24G31G29G22G21G18G 6G12
 121224203.43447  94460399.57847  23068213.4854   23068217.2764   23068213.1054
        48.000          41.000
 121456124.92947  94641124.35747  23112341.1294   23112344.8164   23112341.4734
        46.000          40.000
 116270284.64547  90600210.01747  22125510.2654   22125513.1124   22125510.5184
        50.000          44.000
 123890676.75647  96538181.27747  23575618.0134   23575622.6544   23575618.3424
        45.000          39.000
 116123703.94747  90485992.14347  22097612.4154   22097617.3984   22097612.6514
        50.000          44.000
 117857213.93047  91836774.95947  22427493.3744   22427496.1984   22427492.6004
        50.000          44.000
 121925863.81147  95007147.66847  23201734.3524   23201738.4684   23201734.0964
        46.000          42.000
 125512887.11347  97802250.11447  23884306.2504   23884307.2304   23884306.3144
        45.000          39.000
 105013111.28947  81828382.71847  19983343.0644   19983345.0404   19983343.4294
        54.000          49.000
 122096039.61647  95139763.97447  23234108.9764   23234111.1414   23234109.4224
        48.000          41.000
 127312905.67447  99204847.59247  24226851.2794   24226855.4824   24226851.3514
        43.000          37.000
 128234184.43847  99922720.77647  24402169.9314   24402173.1984   24402169.5234
        44.000          38.000
 09  1 22  0  8  0.0000000  0 12G30G 9G14G 5G24G31G29G22G21G18G 6G12
 121196983.75447  94439189.47647  23063034.0354   23063037.7004   23063033.7484
        48.000          42.000
 121546120.46147  94711250.74047  23129466.7254   23129470.5784   23129466.5594
        44.000          40.000
 116298418.41847  90622132.45247  22130864.1924   22130866.6124   22130864.5054
        50.000          44.000
 123880133.55847  96529965.82447  23573611.9084   23573616.4934   23573612.1754
        46.000          39.000
 116183657.20047  90532708.95947  22109021.3254   22109026.1934   22109021.5824
        50.000          44.000
 117763377.20047  91763655.47947  22409636.8614   22409639.5664   22409636.5314
        50.000          44.000
 121999642.01047  95064637.13347  23215773.7974   23215777.9144   23215773.7954
        47.000          42.000
 125478560.49447  97775502.15147  23877774.3364   23877775.1044   23877774.2514
        45.000          39.000
 104998188.47147  81816754.55247  19980503.4254   19980505.3064   19980503.9294
        54.000          50.000
 122063264.29147  95114224.74147  23227872.1454   23227874.3154   23227872.6044
        47.000          41.000
 127278580.50647  99178100.71347  24220318.8164   24220323.5724   24220319.2994
        43.000          37.000
 128238065.41647  99925744.97447  24402908.4924   24402911.4804   24402908.4684
        43.000          38.000
 09  1 22  0  8 30.0000000  0 12G30G 9G14G 5G24G31G29G22G21G18G 6G12
 121169735.79947  94417957.33447  23057848.8634   23057852.8034   23057848.4744
        48.000          41.000
 121636458.78947  94781644.26247  23146657.7184   23146661.4984   23146657.6414
        46.000          40.000
 116326813.02047  90644258.13647  22136267.3764   22136269.9624   22136267.5564
        50.000          44.000
 123869713.91847  96521846.66047  23571628.9324   23571633.8364   23571629.2854
        45.000          39.000
 116244029.20247  90579752.06947  22120509.8264   22120514.7014   22120509.8364
        50.000          44.000
 117669783.09247  91690725.06847  22391826.4304   22391829.1924   22391826.5444
        50.000          44.000
 122073335.87447  95122060.90447  23229797.3564   23229801.4264   23229797.0444
        47.000          42.000
 125444012.90647  97748581.98247  23871199.8604   23871200.9504   23871200.0944
        45.000          39.000
 104983860.91947  81805590.22847  19977776.9814   19977778.9034   19977777.3074
        54.000          49.000
 122030356.09247  95088582.00147  23221609.7984   23221611.9894   23221610.0424
        47.000          40.000
 127244547.46647  99151581.45147  24213843.2194   24213847.3174   24213843.2744
        42.000          37.000
 128242058.43147  99928856.47547  24403667.4374   24403672.4814   24403666.8014
        44.000          38.000
 09  1 22  0  9  0.0000000  0 12G30G 9G14G 5G24G31G29G22G21G18G 6G12
 121142460.23647  94396703.67447  23052658.5534   23052662.0204   23052658.0914
        48.000          42.000
 121727135.81447  94852301.69547  23163912.6904   23163916.7534   23163912.7854
        46.000          40.000
 116355464.90147  90666584.29747  22141719.7394   22141722.2174   22141719.8514
        50.000          44.000
 123859418.64147  96513824.38147  23569669.6064   23569674.4954   23569669.7804
        45.000          39.000
 116304816.95447  90627119.15347  22132077.3864   22132082.3064   22132077.5824
        51.000          44.000
 117576432.89047  91617984.71847  22374062.2094   22374065.2824   22374061.7394
        50.000          44.000
 122146942.35347  95179416.56947  23243804.1934   23243808.0924   23243804.1314
        47.000          42.000
 125409243.20947  97721488.72747  23864583.4224   23864584.2244   23864583.1354
        45.000          39.000
 104970128.53347  81794889.66747  19975163.6114   19975165.6614   19975163.9414
        54.000          49.000
 121997315.57247  95062836.11147  23215322.3794   23215324.4614   23215322.7634
        48.000          41.000
 127210804.37347  99125288.12247  24207422.1594   24207425.8044   24207422.0694
        42.000          37.000
 128246164.12747  99932055.77247  24404449.6834   24404452.6164   24404449.5264
        44.000          38.000
 09  1 22  0  9 30.0000000  0 12G30G 9G14G 5G24G31G29G22G21G18G 6G12
 121115160.83847  94375431.43647  23047463.3334   23047467.4014   23047463.3324
        48.000          42.000
 121818150.69547  94923222.39247  23181232.2944   23181235.9884   23181232.3984
        46.000          40.000
 116384373.09547  90689110.16547  22147220.4894   22147223.2874   22147220.7844
        50.000          44.000
 123849251.54547  96505901.99847  23567734.8914   23567740.1644   23567735.1514
        45.000          39.000
 116366020.62147  90674810.31047  22143724.3124   22143728.9254   22143724.5594
        50.000          44.000
 117483331.56847  91545438.29047  22356345.6544   22356348.4914   22356344.9674
        50.000          44.000
 122220461.02547  95236703.81947  23257794.4334   23257798.5854   23257794.0924
        47.000          42.000
 125374254.06247  97694224.49147  23857925.4934   23857926.0974   23857924.9044
        45.000          39.000
 104956994.08147  81784655.02947  19972664.3464   19972666.2004   19972664.7584
        54.000          49.000
 121964146.06447  95036989.73647  23209010.3364   23209012.9794   23209010.5904
        47.000          41.000
 127177352.33547  99099221.60347  24201055.9504   24201059.8024   24201056.3424
        42.000          37.000
 128250386.00447  99935345.58847  24405252.4444   24405256.5734   24405252.3874
        43.000          38.000
 09  1 22  0 10  0.0000000  0 12G30G 9G14G 5G24G31G29G22G21G18G 6G12
 121087838.22847  94354141.13747  23042264.3764   23042268.2824   23042263.8914
        49.000          42.000
 121909499.25947  94994403.10547  23198615.6004   23198618.7874   23198615.6154
        46.000          40.000
 116413533.36147  90711832.46247  22152769.5004   22152772.1984   22152769.6524
        50.000          44.000
 123839213.13847  96498079.90747  23565825.0444   23565829.6164   23565825.4884
        45.000          39.000
 116427637.04747  90722823.10047  22155449.4264   22155454.1294   22155449.5794
        51.000          44.000
 117390480.20047  91473086.63947  22338676.4604   22338679.2224   22338676.0824
        50.000          45.000
 122293888.30847  95293919.84647  23271767.2214   23271771.2964   23271767.1394
        47.000          42.000
 125339043.65647  97666787.84247  23851224.7044   23851225.4494   23851224.5014
        45.000          38.000
 104944457.05147  81774885.91347  19970278.5424   19970280.3644   19970278.9124
        54.000          49.000
 121930846.65447  95011042.13647  23202673.8204   23202675.9874   23202674.3224
        47.000          40.000
 127144188.93247  99073379.97947  24194745.1554   24194749.5524   24194744.8554
        42.000          37.000
 128254724.10547  99938725.96447  24406078.1224   24406082.2464   24406077.4924
        43.000          38.000
 09  1 22  0 10 30.0000000  0 12G30G 9G14G 5G24G31G29G22G21G18G 6G12
 121060496.53547  94332835.95747  23037061.2454   23037065.1474   23037060.8404
        49.000          42.000
 122001180.87447  95065843.34247  23216061.9474   23216064.8374   23216062.0024
        46.000          39.000
 116442945.58947  90734751.09447  22158366.3584   22158369.3364   22158366.5094
        50.000          44.000
 123829308.07047  96490361.71447  23563940.1194   23563944.7664   23563940.5284
        45.000          39.000
 116489667.53047  90771158.54147  22167253.6414   22167258.1214   22167253.8354
        51.000          44.000
 117297884.33247  91400934.07647  22321055.9824   22321058.6124   22321055.6614
        49.000          44.000
 122367224.90647  95351065.21647  23285722.7934   23285726.9314   23285722.5134
        46.000          41.000
 125303614.85047  97639180.98947  23844482.8064   23844483.6904   23844482.9974
        45.000          39.000
 104932520.85747  81765584.98447  19968007.2274   19968009.1804   19968007.5704
        54.000          50.000
 121897421.59747  94984996.64047  23196313.6584   23196315.3494   23196313.8494
        48.000          41.000
 127111316.10847  99047764.77847  24188489.6864   24188494.0824   24188489.5884
        42.000          37.000
 128259183.26247  99942200.67947  24406926.4184   24406930.3814   24406926.3784
        42.000          38.000
 09  1 22  0 11  0.0000000  0 12G30G 9G14G 5G24G31G29G22G21G18G 6G12
 121033132.91047  94311513.69647  23031854.0184   23031858.0904   23031853.8204
        49.000          42.000
 122093188.03647  95137537.25047  23233570.3654   23233573.5434   23233570.7454
        45.000          39.000
 116472602.03347  90757860.02447  22164009.8104   22164012.7844   22164010.0684
        50.000          44.000
 123819533.12547  96482744.89447  23562079.8834   23562084.3844   23562080.4644
        45.000          39.000
 116552105.02647  90819811.12347  22179134.8244   22179139.5684   22179135.0564
        50.000          44.000
 117205541.37847  91328978.58147  22303483.7194   22303486.4914   22303483.2044
        50.000          45.000
 122440463.58047  95408134.28347  23299659.7844   23299663.6874   23299659.7274
        46.000          41.000
 125267963.10447  97611400.41847  23837698.7664   23837699.8714   23837698.7164
        46.000          39.000
 104921181.41247  81756749.05347  19965849.5294   19965851.4834   19965850.0244
        54.000          49.000
 121863867.27847  94958850.40947  23189928.4714   23189929.9324   23189928.7504
        47.000          41.000
 127078727.74647  99022371.25247  24182288.4854   24182292.9374   24182288.3214
        43.000          37.000
 128263759.91547  99945766.94447  24407796.7984   24407801.3294   24407796.5314
        42.000          38.000
 09  1 22  0 11 30.0000000  0 12G30G 9G14G 5G24G31G29G22G21G18G 6G12
 121005755.80647  94290180.92147  23026644.6424   23026648.4314   23026644.2534
        49.000          42.000
 122185524.64547  95209487.87347  23251141.6254   23251144.4104   23251141.5984
        45.000          39.000
 116502506.72047  90781162.39447  22169700.5064   22169703.3694   22169700.5534
        50.000          44.000
 123809896.95147  96475236.21047  23560246.3194   23560250.5244   23560246.8664
        45.000          39.000
 116614954.55747  90868784.77647  22191094.9234   22191099.7404   22191094.9694
        50.000          44.000
 117113460.92747  91257227.65047  22285961.2844   22285964.1824   22285961.3974
        50.000          45.000
 122513608.87647  95465130.59647  23313578.9214   23313582.7744   23313578.7304
        46.000          41.000
 125232095.23447  97583451.44847  23830873.3854   23830874.2054   23830873.3444
        46.000          39.000
 104910446.02047  81748383.81147  19963806.4664   19963808.4724   19963806.9604
        54.000          49.000
 121830191.73547  94932609.73747  23183520.0434   23183522.2764   23183520.3604
        47.000          41.000
 127046429.68747  98997203.95547  24176142.2884   24176146.9854   24176143.0184
        44.000          37.000
 128268462.15447  99949431.06547  24408692.3684   24408695.6274   24408692.1104
        42.000          38.000
 09  1 22  0 12  0.0000000  0 12G30G 9G14G 5G24G31G29G22G21G18G 6G12
 120978364.21947  94268836.85947  23021432.1584   23021435.7964   23021431.9674
        48.000          42.000
 122278184.71747  95281690.55247  23268774.1364   23268776.6354   23268774.2684
        45.000          39.000
 116532653.79347  90804653.63147  22175437.2434   22175439.9144   22175437.3584
        50.000          44.000
 123800398.56447  96467834.91947  23558438.7394   23558442.9904   23558439.5614
        45.000          39.000
 116678211.34347  90918075.77447  22203132.3664   22203136.9254   22203132.6154
        50.000          44.000
 117021642.66147  91185681.01247  22268488.8154   22268491.5464   22268488.0774
        50.000          45.000
 122586655.86547  95522050.28847  23327479.1954   23327483.1994   23327479.0194
        46.000          41.000
 125196008.62547  97555332.02847  23824006.0034   23824007.2204   23824006.4094
        46.000          39.000
 104900312.53447  81740487.59047  19961878.1284   19961880.1304   19961878.4674
        54.000          49.000
 121796393.33947  94906273.32447  23177087.9914   23177090.3894   23177088.4394
        47.000          40.000
 127014418.01247  98972259.77747  24170050.3524   24170055.1444   24170050.8494
        42.000          37.000
 128273288.99347  99953192.27347  24409610.5164   24409614.6794   24409610.3204
        43.000          38.000
 09  1 22  0 12 30.0000000  0 12G30G 9G14G 5G24G31G29G22G21G18G 6G12
 120950961.84947  94247484.40947  23016217.5384   23016221.3304   23016217.0694
        49.000          42.000
 122371167.26847  95354144.50347  23286467.7694   23286470.7904   23286467.6654
        45.000          39.000
 116563042.43847  90828333.10747  22181219.9684   22181222.7954   22181220.0364
        50.000          44.000
 123791041.52947  96460543.76047  23556658.1294   23556662.0414   23556658.6434
        46.000          39.000
 116741875.34347  90967684.07347  22215247.1664   22215251.2304   22215247.3364
        50.000          43.000
 116930091.23347  91114342.29247  22251067.5314   22251070.0094   22251066.9174
        51.000          45.000
 122659604.42147  95578893.30247  23341361.1074   23341364.7024   23341361.0694
        46.000          41.000
 125159705.30547  97527043.73947  23817097.9414   23817098.7874   23817098.1784
        46.000          39.000
 104890783.53647  81733062.39847  19960064.7924   19960066.8204   19960065.1794
        54.000          49.000
 121762475.22747  94879843.62147  23170633.7974   23170635.7474   23170634.2354
        47.000          40.000
 126982693.35647  98947539.27147  24164013.3644   24164018.1264   24164013.5974
        43.000          37.000
 128278243.45047  99957052.94447  24410553.0124   24410557.3414   24410552.7524
        42.000          38.000
 09  1 22  0 13  0.0000000  0 12G30G 9G14G 5G24G31G29G22G21G18G 6G12
 120923548.02847  94226123.02347  23011000.8554   23011004.5564   23011000.3094
        49.000          42.000
 122464467.57347  95426846.06247  23304221.9994   23304225.0484   23304222.1174
        46.000          39.000
 116593667.81647  90852197.04947  22187047.9634   22187050.5804   22187047.9254
        50.000          44.000
 123781825.78447  96453362.68047  23554904.3994   23554909.1434   23554904.7134
        45.000          39.000
 116805942.68847  91017606.67347  22227438.5704   22227443.3764   22227438.5874
        50.000          43.000
 116838807.30847  91043212.02047  22233696.6484   22233699.1724   22233696.7254
        51.000          45.000
 122732450.23947  95635656.25647  23355223.2754   23355226.7874   23355222.8194
        46.000          41.000
 125123183.38047  97498585.11447  23810148.3144   23810148.3524   23810148.4844
        46.000          39.000
 104881857.18047  81726106.79847  19958366.2124   19958368.1464   19958366.5674
        54.000          49.000
 121728437.00647  94853320.32147  23164156.1244   23164158.5774   23164156.6944
        48.000          40.000
 126951252.86747  98923040.17347  24158030.6414   24158035.1534   24158030.5784
        42.000          37.000
 128283325.33847  99961012.90847  24411519.8734   24411524.1334   24411519.4864
        42.000          38.000
 09  1 22  0 13 30.0000000  0 12G30G 9G14G 5G24G31G29G22G21G18G 6G12
 120896125.78047  94204755.07247  23005782.9094   23005786.0464   23005782.5894
        49.000          42.000
 122558083.53947  95499793.59447  23322036.5174   23322039.8944   23322036.9194
        46.000          39.000
 116624528.10947  90876244.03847  22192920.6534   22192923.3214   22192920.8634
        50.000          44.000
 123772754.20847  96446293.93447  23553178.2664   23553182.4774   23553178.3604
        45.000          39.000
 116870412.62247  91067842.97547  22239706.8284   22239711.6624   22239707.0094
        50.000          43.000
 116747794.42747  90972292.94947  22216377.2624   22216379.8594   22216376.8794
        50.000          45.000
 122805191.86247  95692338.01547  23369065.1554   23369069.0884   23369065.0024
        47.000          41.000
 125086444.16547  97469957.16447  23803156.7754   23803157.4654   23803156.5724
        45.000          39.000
 104873535.90447  81719622.68847  19956782.5774   19956784.7114   19956783.0094
        54.000          49.000
 121694280.67047  94826704.97447  23157657.3284   23157659.0794   23157657.5414
        48.000          40.000
 126920096.60147  98898762.55147  24152101.5244   24152106.4734   24152101.7524
        43.000          37.000
 128288537.57147  99965074.41247  24412511.9784   24412515.6824   24412511.3684
        43.000          38.000
 09  1 22  0 14  0.0000000  0 12G30G 9G14G 5G24G31G29G22G21G18G 6G12
 120868699.52147  94183383.99647  23000563.5884   23000566.9854   23000563.6264
        49.000          42.000
 122652014.39147  95572986.49147  23339911.5444   23339914.6054   23339911.6654
        46.000          40.000
 116655622.83247  90900473.70447  22198837.8654   22198840.4124   22198838.0684
        50.000          44.000
 123763830.99447  96439340.79447  23551480.2684   23551484.6504   23551480.9464
        45.000          39.000
 116935285.42047  91118393.20647  22252051.8254   22252056.3364   22252051.9704
        50.000          43.000
 116657057.73947  90901589.08547  22199110.7654   22199113.1054   22199110.1154
        50.000          45.000
 122877829.88847  95748939.05747  23382887.8444   23382891.4614   23382887.5534
        46.000          41.000
 125049490.50947  97441162.11347  23796124.0084   23796125.3714   23796124.3364
        44.000          39.000
 104865822.54447  81713612.28047  19955314.8444   19955316.8284   19955315.3014
        54.000          49.000
 121660009.86747  94800000.43247  23151135.5104   23151137.3484   23151136.0994
        48.000          41.000
 126889225.74347  98874707.32447  24146227.6674   24146232.0024   24146227.2254
        41.000          37.000
 128293883.94147  99969240.45847  24413529.8424   24413533.0724   24413529.8824
        43.000          38.000
 09  1 22  0 14 30.0000000  0 12G30G 9G14G 5G24G31G29G22G21G18G 6G12
 120841267.97647  94162008.80147  22995343.5034   22995346.8644   22995343.0714
        49.000          42.000
 122746254.46147  95646420.33847  23357844.9424   23357847.8384   23357844.9074
        45.000          39.000
 116686946.30347  90924881.61747  22204798.2634   22204801.0034   22204798.3624
        50.000          44.000
 123755055.22747  96432502.55247  23549810.2674   23549814.8454   23549810.2514
        45.000          39.000
 117000556.23847  91169253.57247  22264472.1954   22264476.8784   22264472.1734
        50.000          43.000
 116566597.22647  90831100.41947  22181896.4084   22181898.8824   22181896.0854
        50.000          45.000
 122950359.47547  95805455.58947  23396689.7684   23396693.3764   23396689.6054
        46.000          41.000
 125012319.70847  97412197.87047  23789050.8804   23789052.2354   23789050.7624
        46.000          39.000
 104858714.49547  81708073.54247  19953962.3244   19953964.1554   19953962.6624
        54.000          49.000
 121625623.03347  94773205.47947  23144591.5244   23144594.0014   23144591.9954
        47.000          41.000
 126858636.40747  98850871.47947  24140405.9474   24140410.9024   24140406.0604
        42.000          37.000
 128299363.17647  99973510.03547  24414572.5444   24414575.7154   24414571.7154
        43.000          38.000
 09  1 22  0 15  0.0000000  0 12G30G 9G14G 5G24G31G29G22G21G18G 6G12
 120813835.83747  94140633.14847  22990123.2574   22990126.9104   22990122.9274
        49.000          42.000
 122840803.61347  95720095.01847  23375837.0274   23375840.1534   23375836.9194
        45.000          39.000
 116718498.37347  90949467.65847  22210802.4274   22210805.1964   22210802.6134
        50.000          44.000
 123746431.56447  96425782.85447  23548168.9424   23548173.5704   23548169.2654
        45.000          39.000
 117066226.10147  91220424.88747  22276968.7294   22276973.6754   22276968.8734
        49.000          43.000
 116476417.76547  90760830.75947  22164735.6104   22164738.0944   22164735.1274
        50.000          45.000
 123022781.23247  95861888.09947  23410471.7034   23410474.9994   23410471.2584
        47.000          41.000
 124974934.79947  97383066.79247  23781937.2284   23781938.1644   23781937.5224
        46.000          39.000
 104852215.06747  81703009.04947  19952725.5434   19952727.3054   19952725.9714
        54.000          49.000
 121591124.52147  94746323.52047  23138026.7664   23138029.0604   23138027.2694
        47.000          41.000
 126828330.32647  98827256.33547  24134639.6374   24134643.3244   24134639.7214
        41.000          37.000
 128304979.62547  99977886.55547  24415640.9424   24415645.0014   24415641.1064
        43.000          38.000
 09  1 22  0 15 30.0000000  0 12G30G 9G14G 5G24G31G29G22G21G18G 6G12
 120786403.49747  94119257.33147  22984902.9144   22984906.7564   22984902.2934
        48.000          42.000
 122935657.19647  95794006.91147  23393886.6574   23393890.3204   23393887.0314
        45.000          39.000
 116750274.34747  90974228.16647  22216849.1014   22216851.8534   22216849.1174
        49.000          44.000
 123737960.08347  96419181.72647  23546557.0574   23546561.4924   23546557.3674
        45.000          39.000
 117132291.42847  91271904.35847  22289540.1504   22289545.5894   22289540.3344
        50.000          43.000
 116386520.97947  90690781.36147  22147629.1894   22147631.3454   22147628.7874
        51.000          45.000
 123095091.47947  95918233.72047  23424231.6064   23424234.9504   23424231.5254
        46.000          41.000
 124937334.44547  97353767.80947  23774782.1124   23774783.1864   23774782.0744
        46.000          39.000
 104846323.05247  81698417.86647  19951604.2894   19951606.0534   19951604.7524
        54.000          49.000
 121556514.11547  94719354.39047  23131440.6084   23131442.9964   23131441.0814
        48.000          41.000
 126798304.67247  98803859.71947  24128925.5064   24128930.4274   24128925.4944
        44.000          37.000
 128310733.26247  99982369.95847  24416736.0254   24416739.3854   24416735.7874
        44.000          39.000
 09  1 22  0 16  0.0000000  0 12G30G 9G14G 5G24G31G29G22G21G18G 6G12
 120758974.34947  94097884.00647  22979683.2384   22979687.1614   22979682.9704
        48.000          42.000
 123030813.69547  95868154.85447  23411994.3514   23411997.5734   23411994.7854
        45.000          39.000
 116782273.39847  90999162.50847  22222938.6834   22222941.1294   22222938.8644
        50.000          44.000
 123729644.18647  96412701.82347  23544974.6734   23544978.6014   23544975.2874
        46.000          39.000
 117198751.48347  91323691.40747  22302187.1614   22302192.3554   22302187.6614
        49.000          43.000
 116296910.69247  90620955.21247  22130576.9164   22130579.0674   22130576.4874
        51.000          45.000
 123167289.66947  95974492.02447  23437970.3614   23437974.1784   23437970.3254
        46.000          41.000
 124899520.59547  97324302.47247  23767585.9994   23767587.4734   23767586.0254
        45.000          39.000
 104841040.64047  81694301.69647  19950599.1544   19950600.9344   19950599.5254
        54.000          49.000
 121521794.86147  94692300.40547  23124833.8724   23124836.2944   23124834.5314
        47.000          41.000
 126768559.99047  98780682.04047  24123265.7614   24123269.2664   24123265.6574
        42.000          37.000
 128316627.13447  99986962.62247  24417857.5504   24417861.4304   24417857.2734
        43.000          39.000
 09  1 22  0 16 30.0000000  0 12G30G 9G14G 5G24G31G29G22G21G18G 6G12
 120731550.75947  94076514.99547  22974464.4264   22974468.3754   22974464.1204
        48.000          42.000
 123126270.86547  95942537.08447  23430159.1994   23430162.4414   23430159.7464
        44.000          38.000
 116814493.34347  91024268.96547  22229069.8524   22229072.4724   22229070.0634
        50.000          44.000
 123721486.49447  96406345.20447  23543422.0534   23543425.8574   23543422.6024
        45.000          39.000
 117265605.04147  91375785.07947  22314909.0594   22314913.8134   22314908.8044
        49.000          43.000
 116207590.24047  90551354.91147  22113579.8404   22113581.9784   22113579.4484
        51.000          45.000
 123239374.48947  96030661.98547  23451687.5064   23451691.2654   23451687.1374
        46.000          41.000
 124861493.92347  97294671.33447  23760350.0914   23760350.8044   23760350.0094
        45.000          39.000
 104836368.97547  81690661.44047  19949709.9154   19949712.1044   19949710.2544
        54.000          49.000
 121486968.70847  94665163.15847  23118206.5764   23118208.9894   23118206.9984
        48.000          41.000
 126739095.64547  98757722.80347  24117658.7564   24117663.2544   24117658.4384
        42.000          37.000
 128322663.68147  99991666.47347  24419005.8294   24419010.2394   24419005.9254
        43.000          39.000
 09  1 22  0 17  0.0000000  0 12G30G 9G14G 5G24G31G29G22G21G18G 6G12
 120704132.21247  94055149.90347  22969247.0294   22969250.7324   22969246.8054
        49.000          42.000
 123222023.54147  96017149.56747  23448380.0284   23448384.0114   23448380.4344
        44.000          38.000
 116846929.17147  91049543.65647  22235242.1864   22235244.5434   22235242.3604
        50.000          44.000
 123713486.52447  96400111.48047  23541899.2304   23541904.3974   23541899.7734
        46.000          39.000
 117332848.08947  91428182.25247  22327705.5324   22327710.0474   22327705.4884
        50.000          43.000
 116118559.74147  90481980.53347  22096638.0174   22096639.7624   22096637.5864
        51.000          45.000
 123311341.84947  96086740.43347  23465382.0444   23465386.3044   23465381.8574
        45.000          41.000
 124823252.68447  97264872.97447  23753073.1174   23753073.9144   23753073.3104
        46.000          40.000
 104832306.00147  81687495.48747  19948936.7834   19948938.9394   19948937.0884
        54.000          49.000
 121452034.61547  94637941.77247  23111559.0574   23111561.3794   23111559.6004
        48.000          41.000
 126709908.28747  98734979.40847  24112104.8074   24112108.9374   24112105.1064
        43.000          37.000
 128328841.82147  99996480.65047  24420182.3554   24420185.6584   24420181.9214
        44.000          39.000
 09  1 22  0 17 30.0000000  0 12G30G 9G14G 5G24G31G29G22G21G18G 6G12
 120676723.71147  94033792.66547  22964031.3014   22964035.0124   22964031.2914
        49.000          42.000
 123318071.59747  96091992.23547  23466657.5574   23466660.4954   23466657.7544
        45.000          38.000
 116879580.69647  91074986.42747  22241455.4354   22241458.1374   22241455.6914
        50.000          44.000
 123705649.20247  96394004.49547  23540407.9874   23540412.9274   23540408.6724
        45.000          39.000
 117400481.57347  91480883.65747  22340575.6404   22340580.4274   22340575.5874
        49.000          43.000
 116029825.36547  90412836.90847  22079752.4564   22079754.0954   22079752.1884
        51.000          45.000
 123383192.40847  96142727.86247  23479054.9414   23479059.4144   23479054.1254
        46.000          41.000
 124784800.12847  97234909.95047  23745755.5654   23745756.5694   23745755.7144
        45.000          39.000
 104828855.39647  81684806.70447  19948280.1354   19948282.3834   19948280.5254
        54.000          49.000
 121416997.07147  94610639.78747  23104891.7324   23104893.7704   23104892.0084
        48.000          41.000
 126680999.91047  98712453.37847  24106603.7084   24106607.4734   24106602.9814
        43.000          38.000
 128335166.40447 100001408.93647  24421385.2344   24421389.2804   24421384.8714
        44.000          39.000
 09  1 22  0 18  0.0000000  0 12G30G 9G14G 5G24G31G29G22G21G18G 6G12
 120649327.58247  94012445.04747  22958818.0354   22958821.8284   22958817.6094
        49.000          42.000
 123414412.36247  96167062.99347  23484990.7894   23484993.8764   23484990.6524
        45.000          38.000
 116912445.49047  91100595.37847  22247709.1664   22247712.0834   22247709.4194
        50.000          44.000
 123697976.65947  96388025.90647  23538948.1234   23538952.9144   23538948.7724
        45.000          40.000
 117468503.85947  91533888.02747  22353519.7644   22353524.8734   22353520.0404
        50.000          43.000
 115941389.92947  90343926.21447  22062923.5924   22062925.3554   22062923.1254
        51.000          45.000
 123454924.74547  96198623.15247  23492705.0674   23492709.6824   23492704.5584
        45.000          41.000
 124746137.22847  97204783.01947  23738398.1794   23738399.4224   23738398.3374
        46.000          40.000
 104826018.00547  81682595.75047  19947740.3214   19947742.4204   19947740.6924
        54.000          49.000
 121381858.21747  94583258.85547  23098205.0744   23098206.9314   23098205.3214
        48.000          41.000
 126652369.73247  98690144.13447  24101155.2584   24101160.0054   24101155.2774
        43.000          38.000
 128341639.45847 100006452.93447  24422616.9914   24422620.6744   24422616.9114
        43.000          38.000
 09  1 22  0 18 30.0000000  0 12G30G 9G14G 5G24G31G29G22G21G18G 6G12
 120621943.63247  93991106.92947  22953607.1724   22953610.8154   22953607.1094
        49.000          42.000
 123511040.78947  96242357.89347  23503378.4644   23503382.0944   23503378.6094
        46.000          39.000
 116945518.37447  91126366.47047  22254003.1384   22254005.4444   22254003.3044
        50.000          44.000
 123690468.53247  96382175.44947  23537519.4954   23537523.4974   23537519.9384
        45.000          39.000
 117536910.59147  91587191.96147  22366537.0744   22366542.0194   22366537.3964
        49.000          43.000
 115853253.64847  90275248.63247  22046151.8714   22046153.6534   22046151.2284
        51.000          45.000
 123526534.58447  96254423.00347  23506332.0904   23506336.6684   23506331.9054
        46.000          41.000
 124707261.70247  97174490.41347  23731001.0544   23731001.4344   23731000.9064
        46.000          40.000
 104823791.63747  81680860.91847  19947316.7334   19947318.6264   19947317.1834
        54.000          49.000
 121346616.91347  94555798.08347  23091498.8774   23091500.5354   23091499.4974
        48.000          41.000
 126624014.25747  98668048.94547  24095759.7214   24095764.1794   24095759.8394
        44.000          38.000
 128348260.53247 100011612.23947  24423877.1704   24423880.5624   24423876.7914
        44.000          39.000
 09  1 22  0 19  0.0000000  0 12G30G 9G14G 5G24G31G29G22G21G18G 6G12
 120594576.95647  93969782.25847  22948399.4154   22948403.2564   22948399.0664
        49.000          42.000
 123607957.25047  96317877.24147  23521821.1844   23521825.1174   23521821.4194
        45.000          39.000
 116978800.29047  91152300.44747  22260335.8864   22260338.6294   22260336.1584
        49.000          44.000
 123683130.12047  96376457.23547  23536123.0044   23536127.4434   23536123.4934
        45.000          39.000
 117605703.23347  91640796.60947  22379628.1234   22379632.6274   22379628.4084
        50.000          43.000
 115765422.92147  90206809.14547  22029437.8964   22029440.0884   22029437.4534
        51.000          45.000
 123598023.46247  96310128.60047  23519936.2144   23519940.3584   23519936.3014
        46.000          41.000
 124668177.34847  97144035.09747  23723563.5544   23723564.0074   23723563.8064
        46.000          40.000
 104822180.00347  81679605.09547  19947009.9864   19947011.9004   19947010.3774
        54.000          49.000
 121311278.29347  94528261.51347  23084773.7914   23084775.9684   23084774.1824
        48.000          41.000
 126595935.81747  98646169.63347  24090416.1834   24090421.0054   24090416.5314
        43.000          38.000
 128355034.00947 100016890.33447  24425166.0344   24425169.3834   24425165.8514
        44.000          39.000
 09  1 22  0 19 30.0000000  0 12G30G 9G14G 5G24G31G29G22G21G18G 6G12
 120567226.93247  93948470.57647  22943194.8884   22943198.7174   22943194.4384
        49.000          42.000
 123705155.84847  96393616.43947  23540317.5314   23540320.5854   23540317.9154
        46.000          39.000
 117012285.41547  91178392.78347  22266708.0864   22266710.7364   22266708.2744
        50.000          44.000
 123675960.50347  96370870.55247  23534758.4654   23534763.1874   23534759.0744
        45.000          39.000
 117674876.97447  91694698.22747  22392791.5904   22392795.8074   22392791.7014
        49.000          43.000
 115677897.55547  90138607.59947  22012782.2394   22012784.6554   22012781.7944
        51.000          46.000
 123669386.71647  96365736.29347  23533516.1004   23533520.7084   23533516.2054
        45.000          41.000
 124628882.39847  97113415.67047  23716085.5104   23716086.5594   23716085.3214
        46.000          40.000
 104821180.48747  81678826.25047  19946819.6874   19946821.6014   19946820.0714
        54.000          49.000
 121275840.96747  94500648.01547  23078030.1974   23078032.8354   23078030.7504
        47.000          41.000
 126568130.36847  98624503.03447  24085124.7724   24085130.0374   24085124.7474
        43.000          38.000
 128361959.00347 100022286.47247  24426484.1014   24426486.9024   24426483.4594
        44.000          39.000
 09  1 22  0 20  0.0000000  0 12G30G 9G14G 5G24G31G29G22G21G18G 6G12
 120539897.15947  93927174.67547  22937994.1014   22937997.6704   22937993.8974
        49.000          42.000
 123802635.38047  96469574.53947  23558867.1724   23558870.8674   23558867.4344
        44.000          38.000
 117045972.48347  91204642.45547  22273118.4704   22273121.3714   22273118.7554
        50.000          44.000
 123668963.21847  96365418.14547  23533427.4344   23533431.8844   23533427.9804
        45.000          40.000
 117744431.31447  91748896.39547  22406026.7044   22406031.8174   22406026.8304
        49.000          43.000
 115590681.73447  90070647.25447  21996185.7594   21996188.2064   21996184.9684
        51.000          46.000
 123740624.18647  96421245.99747  23547071.8774   23547076.6974   23547072.0184
        45.000          40.000
 124589378.62447  97082633.52347  23708568.2164   23708569.6024   23708568.6084
        47.000          40.000
 104820795.33147  81678526.12447  19946746.5144   19946748.4014   19946746.9444
        54.000          49.000
 121240308.30647  94472960.23647  23071268.5134   23071271.0074   23071268.9724
        48.000          41.000
 126540598.50347  98603049.61047  24079886.1144   24079890.8584   24079886.0684
        44.000          38.000
 128369038.86647 100027803.29547  24427830.5874   24427833.6984   24427830.5924
        43.000          38.000
 09  1 22  0 20 30.0000000  0 12G30G 9G14G 5G24G31G29G22G21G18G 6G12
 120512590.56347  93905896.82347  22932797.9624   22932801.3894   22932797.9444
        49.000          42.000
 123900393.78047  96545749.92447  23577469.8704   23577473.4864   23577469.7594
        44.000          38.000
 117079860.02647  91231048.34747  22279567.0574   22279569.7244   22279567.4464
        50.000          44.000
 123662141.07847  96360102.22847  23532128.8094   23532133.3854   23532129.1964
        45.000          40.000
 117814365.38147  91803390.46847  22419334.7174   22419339.7504   22419334.9974
        49.000          43.000
 115503778.97247  90002930.85847  21979648.5324   21979651.0504   21979648.3654
        51.000          46.000
 123811734.64747  96476656.73247  23560603.7354   23560608.2494   23560603.4954
        46.000          40.000
 124549667.41947  97051689.74447  23701011.7204   23701012.2104   23701012.0324
        46.000          40.000
 104821025.45147  81678705.43747  19946790.3094   19946792.2024   19946790.6504
        54.000          49.000
 121204682.57747  94445199.94647  23064489.3604   23064491.5754   23064489.8004
        48.000          41.000
 126513339.96547  98581809.19147  24074698.8994   24074703.4944   24074698.8244
        42.000          38.000
 128376276.08547 100033442.75347  24429207.6374   24429211.2574   24429207.4504
        44.000          39.000
 09  1 22  0 21  0.0000000  0 12G30G 9G14G 5G24G31G29G22G21G18G 6G12
 120485307.97547  93884637.69247  22927606.3694   22927609.6704   22927605.9754
        49.000          42.000
 123998426.91047  96622139.40247  23596124.5654   23596127.8704   23596124.4944
        44.000          38.000
 117113943.85447  91257607.20147  22286052.9074   22286055.9254   22286053.3554
        50.000          44.000
 123655495.02147  96354923.51747  23530864.4854   23530868.4224   23530865.1764
        46.000          40.000
 117884675.81747  91858177.82047  22432714.3754   22432719.3784   22432714.6484
        49.000          43.000
 115417191.06247  89935459.79547  21963171.4574   21963173.8124   21963171.1234
        51.000          46.000
 123882715.49447  96531966.47447  23574111.4374   23574115.7704   23574111.0104
        46.000          41.000
 124509748.62847  97020584.20247  23693415.1004   23693416.0644   23693414.7344
        46.000          40.000
 104821870.57147  81679363.96647  19946951.0544   19946953.1484   19946951.3634
        54.000          49.000
 121168964.36647  94417367.56347  23057692.0494   23057694.5124   23057692.4374
        48.000          41.000
 126486352.71647  98560780.15247  24069563.1504   24069568.0274   24069562.4734
        42.000          37.000
 128383671.28847 100039205.31247  24430615.0494   24430618.9034   24430614.6744
        43.000          39.000
 09  1 22  0 21 30.0000000  0 12G30G 9G14G 5G24G31G29G22G21G18G 6G12
 120458050.96847  93863398.47847  22922419.2724   22922423.2964   22922418.9224
        49.000          42.000
 124096731.82447  96698740.64447  23614831.2234   23614834.9044   23614831.3664
        44.000          38.000
 117148220.97447  91284316.66047  22292575.7164   22292578.3984   22292576.0894
        50.000          44.000
 123649026.56847  96349883.19047  23529633.3954   23529637.8904   23529634.1944
        45.000          39.000
 117955360.60147  91913256.86847  22446165.4394   22446170.5044   22446165.3074
        49.000          43.000
 115330920.30847  89868235.87347  21946754.6434   21946756.7724   21946754.5384
        52.000          46.000
 123953564.39347  96587173.41047  23587593.4944   23587597.9494   23587593.2694
        46.000          41.000
 124469622.20447  96989316.87247  23685778.8644   23685780.1974   23685778.6194
        46.000          40.000
 104823330.18847  81680501.32747  19947228.8994   19947230.8854   19947229.2884
        54.000          49.000
 121133154.77747  94389463.99847  23050877.7094   23050880.3284   23050878.3324
        47.000          41.000
 126459635.12147  98539961.22747  24064479.0044   24064483.8414   24064478.6294
        42.000          37.000
 128391225.85347 100045092.04947  24432052.3654   24432056.4114   24432052.1544
        43.000          39.000
 09  1 22  0 22  0.0000000  0 12G30G 9G14G 5G24G31G29G22G21G18G 6G12
 120430823.58347  93842182.35147  22917238.2764   22917241.4374   22917237.9494
        49.000          42.000
 124195307.06447  96775552.53847  23633589.9084   23633593.7334   23633590.0704
        44.000          38.000
 117182690.66647  91311176.17747  22299135.0594   22299137.8824   22299135.5274
        49.000          44.000
 123642739.45147  96344984.16647  23528436.8524   23528441.0604   23528437.1144
        44.000          39.000
 118026419.36347  91968627.31947  22459687.4124   22459692.6564   22459687.6474
        49.000          43.000
 115244971.24047  89801262.61247  21930399.0434   21930401.0614   21930399.0214
        52.000          46.000
 124024281.61347  96642277.71647  23601050.5274   23601055.0414   23601050.1464
        46.000          41.000
 124429290.34147  96957889.45547  23678104.6944   23678104.9614   23678105.0034
        47.000          40.000
 104825406.38247  81682119.13647  19947623.9704   19947625.9074   19947624.3614
        54.000          49.000
 121097257.38047  94361492.01347  23044047.1164   23044049.4054   23044047.1474
        47.000          41.000
 126433187.72047  98519352.85247  24059446.0184   24059450.8984   24059446.1114
        43.000          37.000
 128398943.05947 100051105.53347  24433520.6404   24433524.5464   24433520.5174
        43.000          38.000
 09  1 22  0 22 30.0000000  0 12G30G 9G14G 5G24G31G29G22G21G18G 6G12
 120403627.54347  93820990.65447  22912062.6084   22912066.0154   22912062.4124
        49.000          42.000
 124294149.54547  96852572.66747  23652399.3144   23652402.4314   23652399.0374
        43.000          39.000
 117217349.26947  91338182.90447  22305730.2644   22305733.0884   22305730.4154
        49.000          43.000
 123636635.30447  96340227.72547  23527274.7034   23527279.7044   23527275.5434
        45.000          39.000
 118097849.71947  92024287.33047  22473280.2634   22473285.4164   22473280.2804
        49.000          42.000
 115159346.41947  89734542.00447  21914105.3554   21914107.3944   21914104.7404
        52.000          46.000
 124094864.79547  96697277.58947  23614482.3644   23614486.3114   23614481.9994
        46.000          40.000
 124388753.49647  96926302.31547  23670390.7084   23670390.7364   23670390.8514
        47.000          40.000
 104828098.89947  81684217.19747  19948136.2634   19948138.3104   19948136.6444
        54.000          49.000
 121061273.69347  94333452.78747  23037199.4684   23037201.4804   23037199.9684
        47.000          41.000
 126407009.26547  98498954.01447  24054464.6544   24054469.2674   24054465.1284
        44.000          37.000
 128406824.09147 100057246.65147  24435020.8544   24435024.6394   24435019.9644
        44.000          39.000
 09  1 22  0 23  0.0000000  0 12G30G 9G14G 5G24G31G29G22G21G18G 6G12
 120376464.73947  93799824.86047  22906894.0834   22906897.4564   22906893.6644
        49.000          42.000
 124393256.07047  96929798.55147  23671258.2714   23671261.2814   23671258.4114
        44.000          38.000
 117252194.20147  91365334.81747  22312360.9644   22312363.9104   22312361.0914
        49.000          44.000
 123630715.66447  96335615.04547  23526148.5414   23526153.1914   23526148.9084
        45.000          39.000
 118169649.45847  92080235.16747  22486943.2574   22486948.3404   22486943.5244
        48.000          43.000
 115074048.07247  89668075.79847  21897873.4964   21897875.4874   21897873.1674
        52.000          46.000
 124165311.70247  96752171.27247  23627888.0234   23627891.8654   23627887.7414
        45.000          40.000
 124348011.91147  96894555.63947  23662637.4004   23662638.3604   23662637.3044
        46.000          40.000
 104831407.71147  81686795.49047  19948765.9464   19948767.8894   19948766.2984
        54.000          49.000
 121025204.94847  94305347.28847  23030335.8964   23030338.1594   23030336.1764
        47.000          41.000
 126381098.16847  98478763.56247  24049533.8714   24049538.7994   24049534.1744
        43.000          37.000
 128414870.29247 100063516.48147  24436552.2484   24436555.0474   24436552.0774
        44.000          39.000
 09  1 22  0 23 30.0000000  0 12G30G 9G14G 5G24G31G29G22G21G18G 6G12
 120349337.21447  93778686.54547  22901731.6284   22901735.4034   22901731.0174
        49.000          42.000
 124492623.82347  97007228.00047  23690167.2784   23690170.6274   23690167.1534
        44.000          38.000
 117287222.56647  91392629.66947  22319026.5384   22319029.3384   22319027.0054
        49.000          44.000
 123624982.64247  96331147.78547  23525057.6894   23525062.1224   23525058.2044
        45.000          40.000
 118241816.53547  92136469.25147  22500676.0024   22500681.4414   22500676.1014
        48.000          42.000
 114989079.02347  89601866.18747  21881704.1934   21881706.3504   21881703.9004
        52.000          46.000
 124235621.25647  96806957.92447  23641267.3314   23641271.1504   23641267.3274
        46.000          40.000
 124307066.31847  96862649.98047  23654846.2574   23654846.6894   23654846.2064
        47.000          40.000
 104835333.21647  81689854.32647  19949513.0084   19949514.9094   19949513.4364
        54.000          49.000
 120989052.75847  94277176.76047  23023455.9904   23023458.7244   23023456.3104
        47.000          41.000
 126355453.42447  98458780.61247  24044654.0804   24044658.0454   24044654.1754
        43.000          37.000
 128423083.71947 100069916.61347  24438114.6914   24438118.4834   24438114.3234
        45.000          39.000
 09  1 22  0 24  0.0000000  0 12G30G 9G14G 5G24G31G29G22G21G18G 6G12
 120322247.92747  93757578.01947  22896576.5504   22896580.3204   22896576.4184
        48.000          42.000
 124592250.36847  97084859.10347  23709125.1054   23709128.7224   23709125.1504
        44.000          38.000
 117322432.48747  91420065.98947  22325727.0004   22325729.8684   22325727.3864
        49.000          44.000
 123619438.98847  96326828.09147  23524002.8314   23524007.3814   23524003.3324
        45.000          40.000
 118314349.73047  92192988.60847  22514478.6684   22514484.1934   22514478.9364
        49.000          42.000
 114904442.67547  89535915.81947  21865598.6254   21865600.6404   21865598.0074
        52.000          46.000
 124305792.33147  96861636.66647  23654620.1864   23654624.5444   23654620.0204
        45.000          40.000
 124265918.18347  96830586.51147  23647016.1014   23647016.5034   23647015.9454
        47.000          40.000
 104839876.27447  81693394.36547  19950377.5184   19950379.4014   19950377.9174
        54.000          49.000
 120952819.77347  94248943.27047  23016561.3214   23016563.7574   23016561.6574
        47.000          41.000
 126330074.61947  98439004.91147  24039824.8214   24039828.7714   24039824.5974
        44.000          37.000
 128431466.82747 100076448.95647  24439709.9764   24439713.3834   24439709.8764
        44.000          39.000
 09  1 22  0 24 30.0000000  0 12G30G 9G14G 5G24G31G29G22G21G18G 6G12
 120295199.38047  93736501.24447  22891429.4124   22891433.1324   22891428.9114
        49.000          42.000
 124692133.64847  97162690.24447  23728133.1064   23728136.0414   23728132.7044
        44.000          38.000
 117357822.16747  91447642.37947  22332461.4514   22332464.1394   22332461.7424
        49.000          43.000
 123614087.34247  96322658.00147  23522984.5324   23522988.8414   23522984.9864
        46.000          40.000
 118387247.81147  92249792.29947  22528350.8024   22528356.2304   22528350.9594
        48.000          42.000
 114820142.61147  89470227.50147  21849556.6664   21849559.0024   21849556.5224
        52.000          46.000
 124375823.79447  96916206.61747  23667946.4274   23667951.3244   23667946.0254
        44.000          40.000
 124224569.01147  96798366.40647  23639147.4334   23639147.6334   23639147.5254
        47.000          40.000
 104845037.55447  81697416.14247  19951359.7094   19951361.5994   19951360.1194
        54.000          49.000
 120916508.57947  94220648.84047  23009651.4974   23009653.8464   23009651.8794
        48.000          41.000
 126304961.27647  98419436.05647  24035045.8964   24035050.0004   24035045.7714
        44.000          37.000
 128440021.79047 100083115.22047  24441337.8154   24441341.4294   24441337.5734
        44.000          39.000
 09  1 22  0 25  0.0000000  0 12G30G 9G14G 5G24G31G29G22G21G18G 6G12
 120268191.88547  93715456.47047  22886290.2054   22886293.5664   22886289.8694
        48.000          42.000
 124792268.86047  97240717.70347  23747187.8744   23747190.8014   23747187.9814
        44.000          38.000
 117393386.83747  91475355.13047  22339228.9264   22339231.7274   22339229.2514
        49.000          43.000
 123608927.55547  96318637.42847  23522002.4884   23522006.9544   23522003.1934
        45.000          40.000
 118460506.51147  92306876.98447  22542291.3124   22542296.9284   22542291.3594
        48.000          42.000
 114736179.20847  89404801.51647  21833578.8944   21833581.5094   21833578.4174
        52.000          46.000
 124445712.14247  96970665.04747  23681245.6874   23681250.3274   23681245.2674
        43.000          39.000
 124183017.60647  96765988.69647  23631240.4204   23631241.0124   23631240.4484
        46.000          40.000
 104850815.13747  81701918.15147  19952459.1614   19952461.1764   19952459.5034
        54.000          49.000
 120880118.94547  94192293.30147  23002726.9214   23002729.2394   23002727.3804
        48.000          41.000
 126280110.20847  98400071.57447  24030317.0014   24030320.8494   24030316.7704
        44.000          38.000
 128448748.12547 100089915.01847  24442998.5904   24443002.4044   24442998.0814
        44.000          39.000
 09  1 22  0 25 30.0000000  0 12G30G 9G14G 5G24G31G29G22G21G18G 6G12
 120241229.67047  93694446.97247  22881159.1284   22881162.9914   22881158.5454
        48.000          42.000
 124892654.97247  97318940.67247  23766290.5114   23766293.8844   23766290.6204
        44.000          38.000
 117429125.42747  91503203.39747  22346030.2244   22346032.5284   22346030.3254
        49.000          43.000
 123603963.57247  96314769.42847  23521058.4904   23521062.2464   23521058.8154
        46.000          40.000
 118534125.78647  92364242.63847  22556300.9934   22556306.1344   22556301.2144
        48.000          42.000
 114652557.46247  89339641.76447  21817665.9044   21817668.7954   21817665.5724
        51.000          46.000
 124515457.51547  97025012.07947  23694517.8424   23694522.4284   23694517.2134
        44.000          39.000
 124141266.20447  96733455.14147  23623294.9004   23623296.0894   23623295.0914
        46.000          40.000
 104857211.11147  81706902.02747  19953676.3614   19953678.3154   19953676.7304
        54.000          49.000
 120843654.36947  94163879.34847  22995788.0484   22995789.8884   22995788.4914
        48.000          41.000
 126255522.20847  98380912.09847  24025637.5184   24025642.4004   24025637.5704
        44.000          38.000
 128457649.92847 100096851.56047  24444692.5644   24444695.9424   24444692.1764
        43.000          39.000
 09  1 22  0 26  0.0000000  0 12G30G 9G14G 5G24G31G29G22G21G18G 6G12
 120214313.53147  93673473.39147  22876037.6014   22876041.0894   22876037.3734
        49.000          42.000
 124993287.89147  97397355.97047  23785440.3554   23785444.4374   23785440.5454
        44.000          38.000
 117465034.04447  91531184.15947  22352863.3254   22352865.6764   22352863.5764
        49.000          43.000
 123599195.95047  96311054.43847  23520150.6204   23520155.0414   23520151.0314
        45.000          40.000
 118608102.23347  92421886.60747  22570378.5224   22570382.8504   22570378.6554
        48.000          42.000
 114569278.47647  89274749.08647  21801818.8524   21801821.0484   21801818.3094
        52.000          46.000
 124585057.01847  97079245.44547  23707762.5014   23707766.5724   23707761.6394
        44.000          39.000
 124099314.17847  96700765.26747  23615311.5594   23615312.5524   23615311.5174
        47.000          40.000
 104864223.72447  81712366.40247  19955010.7444   19955012.7654   19955011.1464
        54.000          49.000
 120807115.13947  94135407.23547  22988834.9074   22988836.8764   22988835.2864
        48.000          41.000
 126231194.67647  98361955.57247  24021008.4444   24021012.4444   24021008.8934
        43.000          38.000
 128466726.79147 100103924.51447  24446419.2584   24446423.1394   24446418.9014
        43.000          39.000
 09  1 22  0 26 30.0000000  0 12G30G 9G14G 5G24G31G29G22G21G18G 6G12
 120187446.40547  93652537.99747  22870924.8114   22870927.9564   22870924.6244
        48.000          42.000
 125094165.60847  97475962.02147  23804636.5494   23804639.9364   23804637.2674
        45.000          37.000
 117501111.33547  91559296.35047  22359728.2794   22359731.2174   22359728.5734
        49.000          44.000
 123594627.77147  96307494.86547  23519281.0644   23519285.5764   23519281.4374
        46.000          40.000
 118682434.89447  92479808.14847  22584523.3894   22584528.0284   22584523.4764
        49.000          42.000
 114486346.48147  89210126.79847  21786037.5054   21786039.4854   21786037.0384
        52.000          46.000
 124654510.15947  97133364.75547  23720978.6154   23720983.0744   23720978.3964
        45.000          39.000
 124057163.36647  96667920.50847  23607290.8584   23607291.6894   23607290.8934
        47.000          40.000
 104871854.82547  81718312.70947  19956462.8224   19956464.8114   19956463.2514
        54.000          49.000
 120770504.25847  94106879.28747  22981867.9104   22981869.9854   22981868.3674
        48.000          41.000
 126207127.69147  98343202.07547  24016428.6264   24016433.3054   24016428.5994
        43.000          38.000
 128475981.87547 100111136.33547  24448181.1664   24448184.2584   24448181.0694
        44.000          39.000
 09  1 22  0 27  0.0000000  0 12G30G 9G14G 5G24G31G29G22G21G18G 6G12
 120160630.88547  93631642.81447  22865822.0724   22865825.4374   22865821.4604
        49.000          42.000
 125195285.33447  97554756.66447  23823879.3874   23823882.7274   23823879.5284
        44.000          37.000
 117537354.57847  91587537.86447  22366625.2464   22366627.9404   22366625.4484
        49.000          43.000
 123590261.27847  96304092.44547  23518450.0454   23518454.6074   23518450.6034
        45.000          39.000
 118757122.16047  92538005.99847  22598735.9484   22598740.2274   22598736.3654
        48.000          42.000
 114403764.34047  89145777.12047  21770322.2964   21770324.4264   21770322.0434
        52.000          46.000
 124723815.66447  97187369.01947  23734167.2454   23734171.3614   23734167.0194
        44.000          40.000
 124014815.02047  96634921.82747  23599232.4614   23599232.9124   23599232.5034
        47.000          40.000
 104880104.35547  81724740.91447  19958032.5574   19958034.6594   19958032.8984
        54.000          49.000
 120733823.85647  94078297.16947  22974887.7314   22974889.8764   22974888.1014
        49.000          41.000
 126183320.16347  98324650.73847  24011898.6474   24011902.8404   24011898.6184
        44.000          38.000
 128485417.03547 100118488.44647  24449976.3954   24449979.6174   24449976.0644
        44.000          39.000
 09  1 22  0 27 30.0000000  0 12G30G 9G14G 5G24G31G29G22G21G18G 6G12
 120133869.28247  93610789.64647  22860729.0124   22860732.7654   22860728.5344
        48.000          42.000
 125296644.01347  97633737.50247  23843167.1804   23843170.4314   23843167.1264
        44.000          37.000
 117573760.93947  91615906.47647  22373552.9434   22373555.8854   22373553.2534
        49.000          43.000
 123586098.36147  96300848.64247  23517657.9554   23517662.9044   23517658.2454
        45.000          39.000
 118832161.86647  92596478.49147  22613015.6434   22613019.9044   22613015.7514
        48.000          42.000
 114321534.55447  89081702.01247  21754674.4694   21754676.5494   21754673.9894
        52.000          46.000
 124792971.97947  97241257.03247  23747327.3354   23747331.6694   23747326.9404
        45.000          40.000
 123972269.39947  96601769.40247  23591135.9464   23591136.6244   23591136.0894
        47.000          40.000
 104888972.38047  81731651.06247  19959720.2134   19959722.2334   19959720.5814
        54.000          49.000
 120697075.81747  94049662.34447  22967895.0144   22967897.2424   22967895.4264
        48.000          41.000
 126159770.93247  98306300.69547  24007417.0884   24007421.6114   24007416.9924
        44.000          38.000
 128495034.05747 100125982.29847  24451806.1944   24451809.5174   24451806.2614
        44.000          39.000
 09  1 22  0 28  0.0000000  0 12G30G 9G14G 5G24G31G29G22G21G18G 6G12
 120107163.49947  93589979.96547  22855647.1834   22855650.6584   22855646.7784
        48.000          42.000
 125398238.66047  97712902.19847  23862500.2244   23862503.1564   23862500.0494
        44.000          37.000
 117610327.72447  91644400.10347  22380511.5604   22380513.8944   22380511.4874
        49.000          43.000
 123582140.60847  96297764.71847  23516904.5824   23516909.4254   23516905.2554
        45.000          39.000
 118907551.23247  92655223.43547  22627361.7814   22627366.1794   22627361.8044
        48.000          42.000
 114239659.42747  89017903.25347  21739094.5014   21739096.1674   21739093.9514
        52.000          46.000
 124861976.98047  97295027.14247  23760458.7484   23760462.6884   23760458.2124
        45.000          40.000
 123929527.68247  96568464.17647  23583002.8394   23583003.3264   23583002.7384
        47.000          41.000
 104898458.38347  81739042.74947  19961525.4064   19961527.3324   19961525.8454
        54.000          49.000
 120660261.52647  94020975.89347  22960889.4514   22960891.7104   22960889.7804
        48.000          42.000
 126136478.47147  98288150.71647  24002985.0054   24002988.9044   24002984.9084
        44.000          38.000
 128504834.05547 100133618.71947  24453671.0234   24453674.5364   24453670.7384
        43.000          38.000
 09  1 22  0 28 30.0000000  0 12G30G 9G14G 5G24G31G29G22G21G18G 6G12
 120080517.07447  93569216.53547  22850576.7314   22850580.2394   22850576.4834
        48.000          42.000
 125500067.67547  97792249.53147  23881877.8974   23881880.4084   23881877.6504
        44.000          37.000
 117647053.37447  91673017.51247  22387500.1294   22387502.6324   22387500.2624
        49.000          43.000
 123578391.41847  96294843.28947  23516191.2814   23516195.6144   23516191.5224
        44.000          39.000
 118983289.75647  92714240.44947  22641774.5734   22641778.9094   22641774.5234
        49.000          42.000
 114158143.15847  88954384.13247  21723582.1974   21723583.9304   21723582.1884
        52.000          46.000
 124930830.69347  97348679.36447  23773561.1744   23773565.2484   23773560.8844
        45.000          40.000
 123886591.87047  96535007.71447  23574832.3074   23574833.1514   23574832.3284
        47.000          40.000
 104908563.60147  81746916.94247  19963448.3484   19963450.2344   19963448.7384
        54.000          49.000
 120623384.27847  93992240.38847  22953872.1584   22953874.2024   22953872.4044
        49.000          42.000
 126113442.97547  98270200.98147  23998601.4374   23998605.1904   23998601.4934
        44.000          38.000
 128514820.28647 100141400.23647  24455571.2294   24455574.1954   24455570.8184
        44.000          39.000
 09  1 22  0 29  0.0000000  0 12G30G 9G14G 5G24G31G29G22G21G18G 6G12
 120053930.01447  93548499.37247  22845517.3504   22845520.5244   22845517.0944
        49.000          42.000
 125602126.34847  97871775.82047  23901298.2954   23901301.4044   23901298.7044
        43.000          37.000
 117683933.58647  91701755.35247  22394518.1344   22394520.8454   22394518.4784
        49.000          43.000
 123574850.98147  96292084.53247  23515517.5364   23515522.2684   23515517.7544
        45.000          39.000
 119059373.53047  92773526.50347  22656252.1354   22656257.4414   22656252.4544
        48.000          42.000
 114076986.69847  88891145.37447  21708138.5304   21708140.4424   21708138.0254
        52.000          46.000
 124999529.88247  97402211.17947  23786634.4464   23786638.1794   23786634.1594
        45.000          39.000
 123843460.90247  96501399.20447  23566624.4774   23566625.3774   23566624.3474
        47.000          40.000
 104919286.07447  81755272.11847  19965488.6464   19965490.6044   19965489.0554
        54.000          49.000
 120586444.38747  93963456.07747  22946842.4354   22946844.6534   22946842.9364
        48.000          42.000
 126090661.50547  98252449.19847  23994266.0454   23994270.6324   23994266.2724
        42.000          38.000
 128524992.22047 100149326.47247  24457507.0354   24457510.3184   24457506.9874
        44.000          38.000
 09  1 22  0 29 30.0000000  0 12G30G 9G14G 5G24G31G29G22G21G18G 6G12
 120027405.48047  93527830.93047  22840469.7894   22840473.1734   22840469.5064
        48.000          42.000
 125704412.52247  97951479.35347  23920763.0674   23920765.9684   23920763.2484
        42.000          36.000
 117720966.37947  91730612.10447  22401565.4874   22401567.7794   22401565.7694
        49.000          43.000
 123571521.75847  96289490.37047  23514884.0574   23514888.7234   23514884.4884
        45.000          39.000
 119135801.07447  92833080.41447  22670795.9744   22670801.1484   22670796.2584
        48.000          42.000
 113996192.86747  88828189.18547  21692763.9734   21692765.8814   21692763.6244
        52.000          46.000
 125068073.50747  97455621.77647  23799677.5634   23799681.3984   23799677.5624
        45.000          40.000
 123800136.47947  96467639.93347  23558380.2464   23558380.9724   23558380.1924
        47.000          40.000
 104930626.26847  81764108.63647  19967646.6634   19967648.5484   19967647.0194
        54.000          49.000
 120549444.05447  93934624.64847  22939801.3934   22939803.5754   22939802.0454
        49.000          42.000
 126068133.11547  98234894.60947  23989978.7764   23989983.3374   23989978.5884
        43.000          37.000
 128535352.28747 100157399.31647  24459478.5064   24459481.2814   24459478.3774
        45.000          39.000
 09  1 22  0 30  0.0000000  0 12G30G 9G14G 5G24G31G29G22G21G18G 6G12
 120000946.28847  93507213.42347  22835434.7014   22835437.9804   22835434.4494
        49.000          42.000
 125806923.74347  98031358.25947  23940270.2914   23940272.6624   23940270.0774
        42.000          37.000
 117758149.34447  91759585.85947  22408640.9214   22408643.6784   22408641.1524
        49.000          43.000
 123568406.20947  96287062.68247  23514291.2704   23514295.6994   23514291.6774
        45.000          40.000
 119212570.77447  92892900.94847  22685404.8094   22685409.9854   22685404.8544
        48.000          42.000
 113915765.61847  88765518.63847  21677459.1784   21677461.1604   21677458.7314
        52.000          46.000
 125136460.71847  97508910.48747  23812691.6224   23812695.4874   23812691.4904
        45.000          40.000
 123756619.64247  96433730.72847  23550099.3194   23550099.9844   23550098.9114
        46.000          40.000
 104942584.66447  81773426.86947  19969922.3414   19969924.0424   19969922.7854
        54.000          49.000
 120512385.45147  93905747.82247  22932749.4154   22932751.7374   22932750.0454
        49.000          42.000
 126045857.49147  98217536.98247  23985740.0514   23985744.2424   23985740.2344
        42.000          37.000
 128545902.72947 100165620.50247  24461486.4274   24461489.5604   24461486.2524
        43.000          39.000
 09  1 22  0 30 30.0000000  0 12G30G 9G14G 5G24G31G29G22G21G18G 6G12
 119974554.03947  93486648.05647  22830412.4714   22830415.9984   22830412.1554
        48.000          42.000
 125909656.59847  98111409.84847  23959819.0784   23959822.5764   23959819.5004
        42.000          37.000
 117795479.30547  91788674.16047  22415744.5314   22415747.3124   22415744.8624
        49.000          43.000
 123565505.76647  96284802.62547  23513739.5194   23513743.5434   23513740.1334
        45.000          40.000
 119289680.02547  92952986.06547  22700077.9934   22700083.1144   22700078.0344
        48.000          42.000
 113835706.86147  88703135.22947  21662224.4864   21662226.4314   21662224.0254
        52.000          46.000
 125204689.61047  97562075.82947  23825675.2754   23825679.3844   23825674.6224
        44.000          40.000
 123712910.99247  96399672.05247  23541782.0134   23541782.4274   23541781.9844
        47.000          40.000
 104955160.47047  81783226.19547  19972315.3784   19972317.4234   19972315.7414
        54.000          49.000
 120475270.32947  93876826.95347  22925686.9734   22925688.4544   22925687.2814
        48.000          42.000
 126023832.51247  98200374.67447  23981548.8424   23981553.2834   23981549.0044
        42.000          37.000
 128556644.73847 100173990.95247  24463529.7234   24463533.3754   24463529.7544
        43.000          39.000
 09  1 22  0 31  0.0000000  0 12G30G 9G14G 5G24G31G29G22G21G18G 6G12
 119948232.44347  93466137.76047  22825403.3644   22825406.9124   22825403.2454
        49.000          42.000
 126012609.71647  98191633.09547  23979410.6614   23979413.7444   23979410.4154
        42.000          37.000
 117832955.28847  91817876.23347  22422876.0944   22422878.5984   22422876.2504
        49.000          43.000
 123562823.94547  96282712.91947  23513228.8614   23513233.5324   23513229.3704
        45.000          40.000
 119367128.13847  93013335.23147  22714815.8534   22714820.9254   22714816.1134
        48.000          42.000
 113756020.79447  88641042.23247  21647060.5024   21647062.8534   21647060.2984
        52.000          46.000
 125272760.17947  97615117.80147  23838628.5154   23838632.0374   23838628.2594
        45.000          39.000
 123669013.09447  96365465.92947  23533428.5074   23533429.0934   23533428.3564
        46.000          40.000
 104968354.96247  81793507.61347  19974826.1564   19974828.0714   19974826.5204
        54.000          49.000
 120438102.20147  93847864.78247  22918613.9594   22918616.0614   22918614.5564
        48.000          42.000
 126002058.63547  98183408.01647  23977404.5784   23977410.0014   23977405.2654
        43.000          37.000
 128567581.32247 100182513.01947  24465611.2834   24465614.7944   24465610.6954
        44.000          39.000
 09  1 22  0 31 30.0000000  0 12G30G 9G14G 5G24G31G29G22G21G18G 6G12
 119921982.47547  93445683.26447  22820408.3054   22820411.7854   22820407.8904
        48.000          42.000
 126115778.79647  98272024.60247  23999042.6354   23999045.5704   23999042.3084
        41.000          37.000
 117870573.19947  91847188.91847  22430034.5454   22430037.0554   22430034.8554
        49.000          43.000
 123560361.33047  96280794.03547  23512760.9694   23512764.7414   23512761.5394
        46.000          40.000
 119444911.98347  93073946.00947  22729618.0374   22729622.9124   22729618.1254
        48.000          42.000
 113676708.59347  88579240.55547  21631967.7724   21631970.0114   21631967.2544
        52.000          46.000
 125340669.29347  97668033.97147  23851551.2984   23851554.7044   23851551.1504
        45.000          39.000
 123624925.95447  96331112.31847  23525038.8124   23525039.5544   23525038.9044
        46.000          40.000
 104982166.59047  81804269.92047  19977454.4914   19977456.3154   19977454.9024
        54.000          49.000
 120400881.66347  93818861.78547  22911531.2284   22911532.9664   22911531.5194
        48.000          41.000
 125980533.46747  98166635.16047  23973309.7394   23973313.1964   23973309.9224
        43.000          38.000
 128578712.69347 100191186.85947  24467729.2664   24467733.0474   24467728.7674
        43.000          38.000
 09  1 22  0 32  0.0000000  0 12G30G 9G14G 5G24G31G29G22G21G18G 6G12
 119895805.49247  93425285.64947  22815426.8604   22815430.5754   22815426.7744
        49.000          42.000
 126219159.97847  98352581.37747  24018715.5314   24018718.8404   24018715.6234
        42.000          37.000
 117908329.60147  91876609.51447  22437219.5494   22437222.0764   22437219.6964
        49.000          43.000
 123558119.01847  96279046.81047  23512333.8804   23512337.9844   23512334.3154
        45.000          40.000
 119523028.25347  93134815.81647  22744483.0524   22744487.7144   22744482.8934
        48.000          42.000
 113597772.18947  88517731.71247  21616946.7084   21616948.7484   21616946.5474
        52.000          47.000
 125408415.03847  97720822.85047  23864443.1264   23864446.1794   23864442.6914
        45.000          39.000
 123580648.81147  96296610.67247  23516613.3604   23516613.7014   23516613.3544
        46.000          40.000
 104996594.25947  81815512.25747  19980199.9744   19980201.7574   19980200.3534
        54.000          49.000
 120363609.78647  93789818.76947  22904438.0504   22904440.6774   22904438.5374
        48.000          41.000
 125959254.49347  98150054.14947  23969259.6354   23969264.2014   23969260.1974
        43.000          38.000
 128590039.70147 100200013.16447  24469884.4754   24469887.9164   24469884.2524
        44.000          38.000
 09  1 22  0 32 30.0000000  0 12G30G 9G14G 5G24G31G29G22G21G18G 6G12
 119869705.53447  93404948.05247  22810460.2424   22810463.8944   22810460.1154
        48.000          42.000
 126322752.45447  98433302.80047  24038428.6064   24038431.5934   24038429.0824
        42.000          37.000
 117946223.70947  91906137.40047  22444430.4314   22444433.2214   22444430.5324
        49.000          43.000
 123556100.85447  96277474.25247  23511949.7284   23511953.5864   23511950.3614
        45.000          39.000
 119601476.68047  93195944.43547  22759411.5804   22759416.1194   22759411.7744
        48.000          42.000
 113519216.07047  88456519.18947  21601998.1464   21601999.9284   21601997.5154
        52.000          47.000
 125475997.47247  97773484.47747  23877303.8254   23877306.8564   23877303.8834
        45.000          39.000
 123536184.58947  96261963.25647  23508151.9984   23508152.4314   23508152.0214
        46.000          40.000
 105011639.64847  81827235.93547  19983063.0324   19983064.7724   19983063.4424
        54.000          49.000
 120326290.32947  93760738.67847  22897336.6014   22897338.8824   22897337.1544
        48.000          41.000
 125938222.67247  98133665.72047  23965257.7624   23965262.4154   23965257.7314
        42.000          37.000
 128601566.15247 100208994.86947  24472077.8814   24472081.2034   24472077.5264
        44.000          38.000
 09  1 22  0 33  0.0000000  0 12G30G 9G14G 5G24G31G29G22G21G18G 6G12
 119843685.63947  93384672.82347  22805508.6884   22805512.5574   22805508.4904
        49.000          42.000
 126426553.98247  98514187.12647  24058181.4194   24058184.6654   24058181.8074
        43.000          37.000
 117984253.69047  91935771.16847  22451667.3594   22451669.9794   22451667.5594
        49.000          43.000
 123554309.49547  96276078.42547  23511608.3004   23511612.4324   23511608.7084
        45.000          39.000
 119680255.77747  93257330.73947  22774402.6214   22774407.5594   22774402.6034
        48.000          42.000
 113441043.77347  88395605.75047  21587122.4124   21587124.2664   21587122.2354
        52.000          47.000
 125543416.44547  97826018.71747  23890132.8894   23890136.3744   23890132.5674
        44.000          39.000
 123491535.14847  96227171.50347  23499655.5034   23499655.7004   23499655.3284
        46.000          40.000
 105027302.97547  81839441.12447  19986043.7144   19986045.4094   19986044.1234
        54.000          49.000
 120288925.95247  93731623.58147  22890226.4354   22890228.6504   22890226.9534
        48.000          41.000
 125917437.21647  98117469.26147  23961302.1754   23961306.6954   23961302.2124
        41.000          37.000
 128613294.27947 100218133.74047  24474310.0694   24474313.2844   24474310.0784
        44.000          38.000
 09  1 22  0 33 30.0000000  0 12G30G 9G14G 5G24G31G29G22G21G18G 6G12
 119817744.59047  93364459.05247  22800572.5274   22800576.1054   22800572.5524
        48.000          42.000
 126530558.30147  98595229.45447  24077973.1204   24077976.3624   24077973.2564
        43.000          38.000
 118022413.36247  91965506.00147  22458928.7424   22458931.1454   22458929.2334
        49.000          43.000
 123552743.18247  96274857.94747  23511310.5694   23511314.7934   23511311.3804
        45.000          39.000
 119759359.77947  93318970.19847  22789455.7364   22789460.3484   22789455.8034
        48.000          42.000
 113363254.09347  88334990.44847  21572319.5934   21572321.4414   21572319.1994
        53.000          47.000
 125610667.04247  97878421.74547  23902929.8914   23902933.8144   23902929.6884
        44.000          39.000
 123446697.95947  96192233.44747  23491122.9754   23491123.7884   23491122.7224
        46.000          40.000
 105043580.04647  81852124.56047  19989141.1954   19989142.8394   19989141.5734
        54.000          49.000
 120251515.18947  93702472.33447  22883107.5144   22883109.5984   22883107.8424
        48.000          41.000
 125896893.29447  98101461.00047  23957392.5564   23957398.1794   23957392.3814
        42.000          37.000
 128625221.95347 100227428.08547  24476579.2404   24476583.0304   24476578.6204
        43.000          38.000
 09  1 22  0 34  0.0000000  0 12G30G 9G14G 5G24G31G29G22G21G18G 6G12
 119791889.28147  93344312.07847  22795652.0134   22795655.8654   22795651.6834
        49.000          42.000
 126634766.71747  98676430.84447  24097803.1604   24097806.3384   24097803.3574
        43.000          38.000
 118060704.61847  91995343.36047  22466215.3984   22466217.9384   22466215.5554
        49.000          43.000
 123551408.35047  96273817.85247  23511056.0164   23511060.6474   23511056.3974
        45.000          39.000
 119838791.21247  93380864.80447  22804571.2074   22804575.8914   22804571.2764
        49.000          42.000
 113285854.12147  88274678.81047  21557590.7714   21557592.6374   21557590.3454
        53.000          47.000
 125677752.36447  97930695.99447  23915695.7014   23915699.8484   23915695.2354
        43.000          39.000
 123401678.31347  96157153.21947  23482555.9814   23482556.7994   23482555.8464
        46.000          40.000
 105060475.25247  81865289.65847  19992356.3124   19992357.9464   19992356.7534
        54.000          49.000
 120214064.52147  93673289.99147  22875981.0854   22875983.0254   22875981.6184
        48.000          41.000
 125876594.03247  98085643.41247  23953529.3094   23953534.8234   23953530.0934
        43.000          37.000
 128637355.24147 100236882.66047  24478888.8044   24478891.9634   24478888.0374
        44.000          38.000
 09  1 22  0 34 30.0000000  0 12G30G 9G14G 5G24G31G29G22G21G18G 6G12
 119766119.25947  93324231.57547  22790748.4394   22790751.7004   22790748.1584
        49.000          42.000
 126739173.84047  98757787.06147  24117671.2974   24117674.6274   24117671.4414
        44.000          38.000
 118099122.25347  92025279.19547  22473526.2134   22473528.6334   22473526.2454
        49.000          43.000
 123550304.45147  96272957.71947  23510846.2094   23510850.0384   23510846.4894
        45.000          39.000
 119918545.35447  93443010.87447  22819747.9824   22819752.6024   22819747.9454
        48.000          42.000
 113208844.28847  88214671.18547  21542936.1484   21542938.3094   21542935.7414
        52.000          47.000
 125744668.31547  97982838.26547  23928429.2584   23928433.4874   23928429.1044
        44.000          39.000
 123356474.75647  96121929.68447  23473954.2894   23473954.4974   23473954.2754
        46.000          40.000
 105077985.75747  81878934.20947  19995688.4424   19995690.1194   19995688.8474
        54.000          49.000
 120176573.43347  93644076.17147  22868846.4744   22868848.4904   22868846.9054
        48.000          41.000
 125856535.94247  98070013.72247  23949713.2294   23949717.6914   23949713.3524
        42.000          37.000
 128649693.45947 100246496.91947  24481235.9924   24481239.8144   24481235.6064
        43.000          39.000
 09  1 22  0 35  0.0000000  0 12G30G 9G14G 5G24G31G29G22G21G18G 6G12
 119740437.20547  93304219.59747  22785860.8994   22785865.0564   22785860.4304
        48.000          42.000
 126843777.31947  98839296.27047  24137576.6454   24137579.6114   24137576.7364
        43.000          38.000
 118137663.78847  92055311.57647  22480860.1474   22480862.3194   22480860.5244
        49.000          43.000
 123549433.78147  96272279.29547  23510680.7774   23510684.7304   23510681.2974
        45.000          39.000
 119998620.32947  93505406.93247  22834985.4864   22834990.3264   22834985.5004
        48.000          41.000
 113132227.38547  88154969.73647  21528356.5844   21528358.4584   21528355.9954
        53.000          47.000
 125811413.81447  98034847.72547  23941130.6964   23941134.9164   23941130.4354
        44.000          39.000
 123311089.04747  96086564.22347  23465317.7524   23465318.1024   23465317.7744
        47.000          40.000
 105096111.37847  81893058.07347  19999137.5254   19999139.4064   19999137.8544
        54.000          49.000
 120139044.76747  93614833.06647  22861704.8444   22861707.1224   22861705.4124
        48.000          41.000
 125836717.81147  98054571.02847  23945941.3244   23945946.3984   23945941.7864
        42.000          37.000
 128662238.37547 100256272.23247  24483623.8644   24483626.9064   24483623.4664
        43.000          39.000
 09  1 22  0 35 30.0000000  0 12G30G 9G14G 5G24G31G29G22G21G18G 6G12
 119714845.18947  93284277.79047  22780990.8444   22780994.7114   22780990.5754
        48.000          42.000
 126948573.83547  98920955.92547  24157518.7204   24157521.8374   24157519.1334
        43.000          38.000
 118176326.59247  92085438.45047  22488217.0984   22488219.8274   22488217.6164
        49.000          43.000
 123548797.86147  96271783.80047  23510559.7994   23510563.9934   23510560.5344
        45.000          39.000
 120079013.61447  93568051.03047  22850283.9374   22850288.5374   22850284.1144
        48.000          41.000
 113056005.87247  88095576.38247  21513852.0494   21513853.8804   21513852.0374
        53.000          47.000
 125877987.40447  98086723.23347  23953799.2424   23953803.5374   23953799.1044
        45.000          39.000
 123265521.34147  96051056.93247  23456646.0724   23456646.7734   23456646.0434
        47.000          40.000
 105114851.31347  81907660.62347  20002703.5794   20002705.5544   20002703.9994
        54.000          49.000
 120101479.39647  93585561.35347  22854556.1354   22854558.7824   22854556.7664
        48.000          41.000
 125817138.23647  98039314.19447  23942215.8164   23942220.4534   23942215.6824
        43.000          37.000
 128674991.26647 100266209.60247  24486050.4034   24486053.4314   24486049.9024
        43.000          38.000
 09  1 22  0 36  0.0000000  0 12G30G 9G14G 5G24G31G29G22G21G18G 6G12
 119689350.39647  93264411.74947  22776139.4374   22776142.9944   22776139.1374
        49.000          42.000
 127053565.67947  99002767.77447  24177498.3314   24177501.3994   24177498.2554
        42.000          37.000
 118215112.93647  92115661.60347  22495598.1464   22495600.3874   22495598.6164
        49.000          43.000
 123548403.63747  96271476.63047  23510484.9634   23510489.1854   23510485.4424
        45.000          40.000
 120159727.87647  93630945.23447  22865643.0724   22865648.0134   22865643.2724
        47.000          41.000
 112980187.50447  88036497.15447  21499424.4204   21499426.1244   21499423.5894
        53.000          47.000
 125944393.13147  98138467.95847  23966436.2084   23966439.9494   23966435.7984
        44.000          39.000
 123219778.22647  96015412.95647  23447941.8824   23447942.1844   23447941.6484
        47.000          41.000
 105134209.99547  81922745.31347  20006387.3474   20006389.1744   20006387.7004
        54.000          49.000
 120063884.52347  93556266.65647  22847402.4654   22847404.8874   22847402.7314
        49.000          41.000
 125797800.71547  98024245.98347  23938536.3804   23938540.3354   23938536.7354
        42.000          37.000
 128687959.01747 100276314.38547  24488517.8664   24488521.1644   24488517.4144
        43.000          38.000
 09  1 22  0 36 30.0000000  0 12G30G 9G14G 5G24G31G29G22G21G18G 6G12
 119663945.45847  93244615.72247  22771305.1024   22771309.0364   22771304.8144
        49.000          43.000
 127158740.15347  99084721.93347  24197512.0224   24197514.1604   24197512.0064
        43.000          37.000
 118254010.60947  92145971.50147  22502999.8244   22503002.5534   22503000.1514
        48.000          43.000
 123548243.28047  96271351.71247  23510453.9954   23510458.2834   23510454.5234
        45.000          39.000
 120240751.38747  93694080.41047  22881061.6424   22881066.3714   22881061.4924
        47.000          41.000
 112904764.83347  87977726.26747  21485071.9304   21485073.4624   21485071.6924
        53.000          47.000
 126010619.78347  98190073.10947  23979039.0324   23979042.5264   23979038.6674
        44.000          39.000
 123173850.90347  95979625.44247  23439201.7614   23439202.5544   23439202.1794
        47.000          41.000
 105154177.28847  81938304.24347  20010186.8734   20010188.9024   20010187.2614
        54.000          49.000
 120026252.92747  93526943.33347  22840241.6164   22840243.8444   22840241.8084
        48.000          42.000
 125778694.08047  98009357.71147  23934900.4234   23934905.2994   23934900.5484
        43.000          37.000
 128701132.82847 100286579.73647  24491024.8714   24491028.5664   24491024.8594
        44.000          38.000
 09  1 22  0 37  0.0000000  0 12G30G 9G14G 5G24G31G29G22G21G18G 6G12
 119638639.20147  93224896.58647  22766490.1454   22766493.3504   22766489.6684
        50.000          43.000
 127264100.67547  99166821.07047  24217561.5424   24217564.3884   24217561.5304
        42.000          37.000
 118293023.10047  92176370.85947  22510423.7194   22510426.5164   22510423.9464
        48.000          43.000
 123548324.94047  96271415.37447  23510469.6974   23510473.6584   23510470.2364
        45.000          39.000
 120322088.19647  93757459.73247  22896539.2894   22896544.2244   22896539.2374
        46.000          41.000
 112829746.78447  87919270.67147  21470796.3224   21470797.7444   21470795.8484
        53.000          47.000
 126076672.14647  98241542.44647  23991607.7134   23991612.1114   23991607.1304
        44.000          39.000
 123127746.78047  95943700.16647  23430428.4364   23430429.1794   23430428.4134
        47.000          41.000
 105174759.22047  81954342.10847  20014103.7164   20014105.6604   20014104.0274
        54.000          49.000
 119988592.84347  93497597.81047  22833075.0604   22833077.3904   22833075.4584
        49.000          42.000
 125759823.55547  97994653.38447  23931309.4824   23931313.8674   23931310.0024
        43.000          37.000
 128714521.10647 100297012.19247  24493572.6224   24493575.3374   24493572.5214
        44.000          38.000
 09  1 22  0 37 30.0000000  0 12G30G 9G14G 5G24G31G29G22G21G18G 6G12
 119613434.01547  93205256.21447  22761693.4534   22761696.7874   22761693.2374
        49.000          43.000
 127369644.61847  99249063.11547  24237646.3474   24237648.9044   24237646.0734
        41.000          36.000
 118332147.86547  92206857.71047  22517868.9564   22517871.7474   22517869.3004
        49.000          43.000
 123548650.85247  96271669.35847  23510531.0594   23510535.7014   23510531.6454
        44.000          39.000
 120403736.30647  93821081.61447  22912076.3114   22912081.1754   22912076.4994
        47.000          41.000
 112755135.67447  87861132.16847  21456598.3164   21456599.8344   21456597.9824
        53.000          47.000
 126142549.18547  98292875.18847  24004143.9014   24004148.3934   24004143.2224
        43.000          39.000
 123081467.14647  95907638.13447  23421621.8344   23421622.2774   23421621.5714
        47.000          41.000
 105195954.73147  81970858.09247  20018137.1444   20018139.0184   20018137.6134
        54.000          49.000
 119950906.67947  93468231.96947  22825903.2354   22825905.6694   22825903.5364
        48.000          42.000
 125741187.91547  97980132.11847  23927762.8944   23927767.5594   23927762.9794
        43.000          37.000
 128728125.37447 100307612.97747  24496161.5134   24496164.8204   24496161.4244
        43.000          38.000
 09  1 22  0 38  0.0000000  0 12G30G 9G14G 5G24G31G29G22G21G18G 6G12
 119588329.63247  93185694.38447  22756916.4894   22756919.5604   22756916.1154
        50.000          43.000
 127475366.23647  99331443.61547  24257763.5784   24257766.7544   24257764.3144
        40.000          36.000
 118371380.23947  92237428.40947  22525334.8244   22525337.2864   22525335.0274
        49.000          43.000
 123549220.05847  96272112.93747  23510639.6554   23510644.0064   23510640.0794
        45.000          39.000
 120485690.89047  93884942.30247  22927671.4684   22927676.5634   22927671.4994
        47.000          41.000
 112680932.44847  87803311.49847  21442477.8294   21442479.3644   21442477.6804
        53.000          47.000
 126208247.39547  98344068.59347  24016645.4914   24016650.3164   24016645.1714
        44.000          39.000
 123035010.46747  95871438.14447  23412781.5664   23412782.1944   23412781.5304
        47.000          41.000
 105217760.75847  81987849.79747  20022286.5144   20022288.6274   20022286.9214
        54.000          49.000
 119913193.56947  93438845.14247  22818726.8634   22818729.0984   22818727.4694
        49.000          42.000
 125722782.98947  97965790.60047  23924260.8804   23924264.8294   23924261.1044
        42.000          37.000
 128741944.80847 100318381.40147  24498791.0854   24498793.9804   24498790.7734
        44.000          38.000
 09  1 22  0 38 30.0000000  0 12G30G 9G14G 5G24G31G29G22G21G18G 6G12
 119563330.40547  93166214.49747  22752159.3954   22752162.3484   22752159.2174
        49.000          43.000
 127581264.89447  99413962.06747  24277915.6294   24277918.8164   24277916.2224
        39.000          36.000
 118410719.33847  92268082.28047  22532820.5324   22532823.2314   22532820.6874
        48.000          43.000
 123550036.65447  96272749.26847  23510795.3834   23510799.3094   23510795.8434
        45.000          40.000
 120567951.70147  93949041.60347  22943325.1764   22943330.2254   22943325.3154
        47.000          40.000
 112607141.34047  87745811.95547  21428435.7564   21428437.6174   21428435.3094
        53.000          47.000
 126273767.48847  98395123.19847  24029113.8744   24029118.3084   24029113.5794
        43.000          38.000
 122988379.87147  95835102.63647  23403907.6544   23403908.8744   23403907.7294
        47.000          41.000
 105240178.92947  82005318.49847  20026552.6184   20026554.5894   20026552.9504
        54.000          49.000
 119875457.90447  93409440.71947  22811546.1444   22811548.0334   22811546.5434
        49.000          42.000
 125704609.89147  97951629.75347  23920802.0494   23920806.8584   23920802.1504
        42.000          37.000
 128755982.98547 100329320.30247  24501462.3294   24501465.3454   24501462.4314
        44.000          38.000
 09  1 22  0 39  0.0000000  0 12G30G 9G14G 5G24G31G29G22G21G18G 6G12
 119538437.01047  93146817.07847  22747421.9534   22747425.4304   22747421.7344
        49.000          43.000
 127687336.16047  99496615.01547  24298099.6834   24298103.0414   24298099.8914
        39.000          36.000
 118450161.16647  92298816.18547  22540326.3434   22540328.6794   22540326.4934
        48.000          43.000
 123551100.94447  96273578.62747  23510997.6894   23511001.7174   23510998.2464
        44.000          39.000
 120650514.87647  94013376.51947  22959036.8104   22959041.6514   22959036.8954
        47.000          40.000
 112533763.26847  87688634.26147  21414472.1684   21414474.5324   21414471.5644
        53.000          47.000
 126339106.66447  98446036.80647  24041547.0084   24041551.3214   24041547.3974
        43.000          38.000
 122941575.25247  95798631.51947  23395001.2334   23395001.9914   23395001.2154
        47.000          42.000
 105263207.01847  82023262.45847  20030934.6164   20030936.7554   20030934.9884
        54.000          49.000
 119837700.27347  93380019.19447  22804360.9854   22804363.1254   22804361.5074
        49.000          42.000
 125686665.33847  97937646.97047  23917387.6704   23917393.0724   23917388.0114
        42.000          37.000
 128770239.86547 100340429.59747  24504174.3224   24504177.9994   24504173.9104
        43.000          38.000
 09  1 22  0 39 30.0000000  0 12G30G 9G14G 5G24G31G29G22G21G18G 6G12
 119513653.93047  93127505.60947  22742705.8574   22742709.2734   22742705.6284
        50.000          43.000
 127793579.28047  99579401.86847  24318317.6514   24318321.3914   24318317.2754
        39.000          35.000
 118489705.14347  92329629.69347  22547851.1044   22547853.6534   22547851.2134
        48.000          43.000
 123552416.78147  96274603.97147  23511248.0654   23511252.6544   23511248.5344
        45.000          39.000
 120733380.30747  94077946.96247  22974805.3334   22974810.5124   22974805.4084
        46.000          40.000
 112460802.58347  87631781.80547  21400588.2144   21400590.5314   21400587.9864
        53.000          47.000
 126404265.73547  98496810.07247  24053946.9514   24053950.7794   24053946.7944
        44.000          38.000
 122894599.41147  95762026.96947  23386062.3364   23386062.9104   23386062.5554
        48.000          42.000
 105286846.48047  82041682.81047  20035433.0394   20035435.1814   20035433.4724
        54.000          49.000
 119799924.95647  93350583.87547  22797172.8524   22797174.5874   22797173.1334
        49.000          42.000
 125668950.24647  97923843.00447  23914016.4924   23914021.3564   23914016.8294
        43.000          37.000
 128784719.11147 100351712.14847  24506930.1104   24506933.6884   24506930.0304
        44.000          38.000
 09  1 22  0 40  0.0000000  0 12G30G 9G14G 5G24G31G29G22G21G18G 6G12
 119488982.83947  93108281.41347  22738010.7424   22738014.1954   22738010.7214
        49.000          43.000
 127899990.75647  99662319.91647  24338567.0214   24338570.2314   24338567.2654
        39.000          35.000
 118529348.15447  92360520.38147  22555394.8454   22555397.5534   22555395.1494
        48.000          43.000
 123553985.41247  96275826.33247  23511546.4864   23511550.8644   23511546.9844
        44.000          39.000
 120816545.27747  94142750.81047  22990630.8094   22990636.0944   22990631.0214
        46.000          40.000
 112388261.59947  87575256.37947  21386784.1814   21386786.2264   21386783.8304
        53.000          47.000
 126469242.90747  98547441.62947  24066311.5074   24066315.8464   24066311.4474
        44.000          39.000
 122847453.16847  95725289.66847  23377090.5114   23377091.2304   23377090.8364
        48.000          42.000
 105311095.76547  82060578.35147  20040047.4904   20040049.6194   20040047.8164
        54.000          49.000
 119762133.35247  93321135.86147  22789981.3514   22789983.2584   22789981.9694
        48.000          42.000
 125651462.53747  97910216.20447  23910689.2954   23910693.6514   23910689.1994
        44.000          38.000
 128799421.60847 100363168.70347  24509727.6574   24509731.3644   24509727.5754
        42.000          38.000
 09  1 22  0 40 30.0000000  0 12G30G 9G14G 5G24G31G29G22G21G18G 6G12
 119464423.43747  93089144.23547  22733337.4304   22733341.3474   22733337.4344
        49.000          43.000
 128006565.01647  99745364.79247  24358847.3314   24358850.9824   24358847.9214
        41.000          35.000
 118569085.08647  92391484.23647  22562956.4044   22562959.2864   22562956.5454
        48.000          43.000
 123555806.31447  96277245.23647  23511893.2644   23511897.2934   23511893.8024
        46.000          39.000
 120900004.75547  94207784.13647  23006512.9084   23006518.0154   23006512.8974
        47.000          40.000
 112316140.25247  87519057.94647  21373060.1624   21373062.0174   21373059.8304
        53.000          47.000
 126534034.71147  98597928.71747  24078641.5774   24078645.5764   24078641.2564
        44.000          39.000
 122800135.10847  95688418.47147  23368086.0124   23368086.6354   23368086.1884
        47.000          41.000
 105335951.74747  82079946.64447  20044777.4814   20044779.5864   20044777.8254
        54.000          49.000
 119724324.94047  93291674.78447  22782786.3444   22782788.8124   22782786.6534
        48.000          42.000
 125634198.33847  97896763.58047  23907404.2194   23907408.0814   23907404.2164
        43.000          38.000
 128814346.36147 100374798.41547  24512567.7234   24512571.1864   24512567.6484
        43.000          38.000
 09  1 22  0 41  0.0000000  0 12G30G 9G14G 5G24G31G29G22G21G18G 6G12
 119439982.08347  93070099.03847  22728686.3384   22728689.9814   22728686.0764
        49.000          43.000
 128113303.05947  99828537.34047  24379158.7514   24379161.6844   24379158.9044
        39.000          35.000
 118608917.00347  92422522.12447  22570536.4464   22570538.7304   22570536.6104
        48.000          43.000
 123557885.06547  96278865.08447  23512289.1644   23512292.6754   23512289.7244
        46.000          39.000
 120983760.33647  94273048.20047  23022451.2584   23022456.4794   23022451.2484
        46.000          40.000
 112244444.53747  87463191.18147  21359417.0204   21359418.7444   21359416.9234
        53.000          47.000
 126598643.64047  98648273.33547  24090935.8084   24090940.4984   24090935.7074
        44.000          39.000
 122752650.41647  95651417.43547  23359049.7734   23359050.8934   23359049.8904
        47.000          41.000
 105361417.52247  82099790.10047  20049623.6334   20049625.5224   20049624.0564
        54.000          49.000
 119686506.07647  93262205.54747  22775589.2934   22775592.0084   22775589.8234
        48.000          42.000
 125617160.10347  97883487.03447  23904161.7114   23904166.4254   23904162.0364
        43.000          38.000
 128829498.63447 100386605.41247  24515451.8234   24515454.9804   24515451.6734
        43.000          38.000
 09  1 22  0 41 30.0000000  0 12G30G 9G14G 5G24G31G29G22G21G18G 6G12
 119415657.81647  93051145.09047  22724057.7274   22724061.3914   22724057.3614
        50.000          43.000
 128220198.97447  99911832.85147  24399500.0654   24399503.2634   24399499.7254
        39.000          35.000
 118648838.54747  92453629.82847  22578133.4084   22578135.6944   22578133.4894
        49.000          43.000
 123560220.46847  96280684.90647  23512732.9774   23512736.6674   23512733.3604
        45.000          39.000
 121067806.82747  94338538.95747  23038444.6334   23038450.2954   23038444.7484
        47.000          40.000
 112173173.96947  87407655.69947  21345854.4674   21345856.2524   21345853.9074
        53.000          47.000
 126663065.60847  98698472.24447  24103195.2044   24103198.7764   24103195.6244
        43.000          38.000
 122704997.03747  95614284.94647  23349981.8024   23349982.4764   23349981.6874
        48.000          41.000
 105387489.24247  82120105.72047  20054584.8494   20054586.7494   20054585.1904
        54.000          49.000
 119648675.59047  93232727.24847  22768390.9664   22768393.2694   22768391.3024
        49.000          42.000
 125600343.18647  97870382.91847  23900961.7774   23900965.9314   23900961.4604
        43.000          38.000
 128844876.90247 100398588.52347  24518378.0264   24518381.1374   24518377.7544
        43.000          38.000
 09  1 22  0 42  0.0000000  0 12G30G 9G14G 5G24G31G29G22G21G18G 6G12
 119391456.32047  93032286.80147  22719452.1404   22719455.6604   22719452.0114
        49.000          43.000
 128327253.28447  99995251.80847  24419872.0624   24419875.7474   24419871.7714
        40.000          35.000
 118688850.08747  92484807.66947  22585747.1524   22585749.3764   22585747.5754
        48.000          43.000
 123562817.23947  96282708.39847  23513226.9164   23513231.5194   23513227.5954
        45.000          39.000
 121152144.88347  94404256.89147  23054493.8164   23054499.3724   23054494.1144
        46.000          40.000
 112102334.44247  87352456.09447  21332374.1984   21332375.9324   21332373.7414
        53.000          47.000
 126727302.71047  98748527.10747  24115418.9344   24115422.7984   24115418.8064
        43.000          38.000
 122657179.40147  95577024.47647  23340882.3494   23340883.3014   23340882.3434
        48.000          42.000
 105414168.85447  82140895.02347  20059661.8664   20059663.7634   20059662.3084
        54.000          49.000
 119610838.84347  93203244.07547  22761191.0344   22761192.8034   22761191.0964
        48.000          42.000
 125583749.29247  97857452.60947  23897804.0264   23897808.2084   23897803.9734
        44.000          38.000
 128860485.65647 100410751.22947  24521348.5024   24521351.6644   24521348.1854
        44.000          38.000
 09  1 22  0 42 30.0000000  0 12G30G 9G14G 5G24G31G29G22G21G18G 6G12
 119367377.49047  93013524.09247  22714870.0164   22714873.6744   22714870.0224
        50.000          43.000
 128434460.36447 100078789.81747  24440272.6874   24440275.8804   24440273.3884
        40.000          35.000
 118728946.50247  92516051.64747  22593377.2594   22593379.4334   22593377.3814
        48.000          42.000
 123565674.66547  96284935.01047  23513770.4364   23513774.9954   23513771.3944
        45.000          39.000
 121236769.72447  94470198.28847  23070597.3374   23070602.7844   23070597.4884
        47.000          40.000
 112031925.76747  87297592.22047  21318975.6614   21318977.4564   21318975.3884
        53.000          47.000
 126791350.73647  98798434.64847  24127606.8964   24127610.6414   24127606.7924
        44.000          38.000
 122609196.18947  95539634.98047  23331751.3514   23331752.4484   23331751.4414
        48.000          42.000
 105441452.88747  82162155.30447  20064853.8594   20064855.7744   20064854.2674
        54.000          49.000
 119572995.33547  93173755.64047  22753989.1674   22753991.7534   22753989.5124
        49.000          42.000
 125567374.47347  97844693.00347  23894688.2404   23894691.9784   23894688.5784
        44.000          38.000
 128876323.77647 100423092.66147  24524361.9904   24524364.8894   24524361.7014
        43.000          37.000
 09  1 22  0 43  0.0000000  0 12G30G 9G14G 5G24G31G29G22G21G18G 6G12
 119343424.71047  92994859.60347  22710312.2134   22710315.6354   22710311.7654
        50.000          43.000
 128541818.37747 100162445.43547  24460701.8064   24460706.0674   24460703.1714
        41.000          34.000
 118769126.33247  92547360.62147  22601023.0324   22601025.3474   22601023.4404
        48.000          43.000
 123568795.91247  96287367.18147  23514364.9554   23514368.7594   23514365.4864
        45.000          39.000
 121321680.47447  94536362.48547  23086755.4754   23086761.1384   23086755.8284
        47.000          41.000
 111961951.36347  87243066.73447  21305659.8504   21305661.9184   21305658.9474
        53.000          47.000
 126855210.61947  98848195.57747  24139759.4014   24139762.9344   24139759.0274
        44.000          39.000
 122561049.87147  95502118.37047  23322589.6444   23322590.2994   23322589.7514
        48.000          42.000
 105469341.72047  82183886.85847  20070160.8004   20070162.9604   20070161.1764
        54.000          49.000
 119535148.56347  93144264.64447  22746787.3744   22746789.7394   22746787.8894
        49.000          42.000
 125551218.53547  97832103.94247  23891613.7144   23891617.9554   23891613.4674
        43.000          38.000
 128892394.24447 100435615.14647  24527420.0964   24527423.1864   24527419.5504
        43.000          37.000
 09  1 22  0 43 30.0000000  0 12G30G 9G14G 5G24G31G29G22G21G18G 6G12
 119319598.30447  92976293.59347  22705778.4244   22705781.2484   22705778.2614
        50.000          43.000
 128649322.51047 100246214.91347  24481161.0334   24481163.0154   24481160.2814
        40.000          34.000
 118809385.40447  92578731.33347  22608684.1874   22608686.7134   22608684.5924
        48.000          43.000
 123572180.69047  96290004.70847  23515008.6624   23515013.1404   23515008.9874
        45.000          40.000
 121406872.69247  94602746.00347  23102966.9804   23102972.9374   23102967.1704
        47.000          41.000
 111892411.91347  87188880.18447  21292426.9794   21292429.1524   21292426.9214
        53.000          47.000
 126918878.47947  98897806.88047  24151875.1254   24151878.6064   24151874.7454
        44.000          39.000
 122512739.85147  95464474.20947  23313396.5124   23313397.2594   23313396.8354
        48.000          41.000
 105497832.64747  82206087.57847  20075582.4414   20075584.5254   20075582.8334
        54.000          49.000
 119497298.79547  93114771.33347  22739585.2234   22739587.2124   22739585.6944
        49.000          42.000
 125535278.05447  97819682.76947  23888580.5194   23888584.3724   23888580.4814
        43.000          38.000
 128908696.54247 100448318.27547  24530521.8804   24530525.2474   24530521.6724
        42.000          37.000
 09  1 22  0 44  0.0000000  0 12G30G 9G14G 5G24G31G29G22G21G18G 6G12
 119295904.10147  92957830.60547  22701269.2254   22701272.7984   22701269.1224
        50.000          43.000
 128756973.53547 100330098.88147  24501644.7244   24501648.2464   24501644.8224
        39.000          33.000
 118849724.43447  92610164.36847  22616360.5394   22616362.9784   22616360.8964
        48.000          43.000
 123575834.31447  96292851.72947  23515703.8414   23515708.2754   23515704.2474
        45.000          40.000
 121492347.38547  94669349.64247  23119232.4554   23119237.7844   23119232.7474
        47.000          41.000
 111823313.13447  87135037.00947  21279277.7624   21279280.0624   21279277.3474
        53.000          48.000
 126982356.84747  98947270.53147  24163954.2074   24163958.2994   24163953.9274
        44.000          39.000
 122464270.61947  95426705.99147  23304173.3234   23304173.7324   23304173.2764
        48.000          41.000
 105526928.23647  82228759.46047  20081119.2634   20081121.1094   20081119.6034
        54.000          49.000
 119459451.82447  93085280.19047  22732382.9564   22732384.6774   22732383.3994
        49.000          42.000
 125519554.98047  97807431.02847  23885587.9534   23885592.8924   23885587.7044
        44.000          38.000
 128925235.11947 100461205.54447  24533669.1524   24533672.8454   24533668.7764
        42.000          37.000
 09  1 22  0 44 30.0000000  0 11G30G14G 5G24G31G29G22G21G18G 6G12
 119272343.68647  92939471.86547  22696785.9874   22696789.0204   22696785.7514
        50.000          43.000
 118890139.94147  92641656.98247  22624051.1804   22624053.5704   22624051.5244
        48.000          42.000
 123579757.49447  96295908.79047  23516450.4884   23516454.8994   23516451.0324
        45.000          40.000
 121578101.22747  94736170.78547  23135551.0364   23135556.4024   23135551.2974
        47.000          40.000
 111754656.34747  87081538.24347  21266212.9964   21266214.9894   21266212.5264
        53.000          48.000
 127045643.86847  98996585.09947  24175996.9004   24176001.1634   24175996.9614
        43.000          38.000
 122415642.95447  95388814.31347  23294919.8804   23294920.3324   23294919.9104
        48.000          41.000
 105556626.43247  82251900.90447  20086770.6484   20086772.4894   20086770.9554
        54.000          49.000
 119421608.57847  93055791.94047  22725181.6034   22725183.6294   22725182.0004
        49.000          42.000
 125504046.91747  97795346.79247  23882637.2564   23882641.5914   23882637.4804
        43.000          38.000
 128942011.02947 100474277.71647  24536861.2144   24536864.6994   24536861.1664
        43.000          37.000
 09  1 22  0 45  0.0000000  0 11G30G14G 5G24G31G29G22G21G18G 6G12
 119248916.70247  92921217.07647  22692327.8714   22692330.9814   22692327.7714
        50.000          43.000
 118930626.83847  92673205.22647  22631755.4774   22631757.8504   22631755.8304
        48.000          42.000
 123583949.39947  96299175.25247  23517247.9304   23517252.6364   23517248.5814
        45.000          40.000
 121664129.36747  94803205.67147  23151921.7024   23151926.4894   23151922.1674
        47.000          40.000
 111686441.53747  87028383.87947  21253231.8234   21253234.0474   21253231.6434
        53.000          48.000
 127108736.06347  99045747.81947  24188003.0444   24188007.0794   24188002.8044
        44.000          38.000
 122366854.89547  95350797.66447  23285635.5444   23285636.0254   23285635.7124
        48.000          41.000
 105586923.59347  82275509.08147  20092535.9574   20092537.8304   20092536.3614
        54.000          49.000
 119383768.85647  93026306.43147  22717980.7784   22717983.0544   22717981.1544
        49.000          42.000
 125488749.86147  97783427.00047  23879725.8784   23879730.9164   23879725.8544
        44.000          38.000
 128959022.59547 100487533.53847  24540098.9784   24540101.7604   24540099.0004
        43.000          37.000
 09  1 22  0 45 30.0000000  0 11G30G14G 5G24G31G29G22G21G18G 6G12
 119225626.70347  92903069.02947  22687896.1194   22687899.1574   22687895.5794
        50.000          43.000
 118971183.82147  92704808.10147  22639473.6194   22639475.7844   22639474.0354
        48.000          42.000
 123588413.16547  96302653.55347  23518097.5414   23518101.5284   23518097.8294
        45.000          39.000
 121750431.07347  94870453.71747  23168344.5144   23168348.9434   23168344.5824
        47.000          40.000
 111618672.55247  86975576.90547  21240335.9674   21240338.1284   21240335.2644
        53.000          48.000
 127171633.54247  99094758.82847  24199972.1674   24199976.1414   24199972.0084
        44.000          38.000
 122317909.73747  95312658.59247  23276321.6634   23276321.9144   23276321.4734
        48.000          41.000
 105617819.92847  82299584.14247  20098415.1664   20098417.2574   20098415.5394
        54.000          49.000
 119345936.28847  92996826.49947  22710781.5754   22710783.6064   22710781.8774
        49.000          42.000
 125473663.67547  97771671.53047  23876855.1324   23876859.6944   23876855.4434
        43.000          38.000
 128976273.13647 100500975.54147  24543381.8254   24543384.3104   24543381.3764
        43.000          37.000
 09  1 22  0 46  0.0000000  0 11G30G14G 5G24G31G29G22G21G18G 6G12
 119202478.90647  92885031.80647  22683491.2444   22683494.3124   22683490.9804
        50.000          43.000
 119011811.85047  92736466.31647  22647204.7034   22647207.1984   22647205.0274
        48.000          42.000
 123593153.79847  96306347.59547  23518999.2774   23519003.8944   23518999.9464
        45.000          40.000
 121837007.03047  94937915.46547  23184819.1104   23184824.4874   23184819.3464
        46.000          40.000
 111551354.87847  86923121.60447  21227525.9664   21227527.8794   21227525.8084
        53.000          48.000
 127234338.62547  99143619.90247  24211905.0544   24211908.9154   24211904.6424
        43.000          38.000
 122268811.44347  95274400.17847  23266978.1904   23266979.0334   23266978.0384
        47.000          41.000
 105649317.62947  82324127.80047  20104409.0004   20104411.0214   20104409.3764
        54.000          49.000
 119308116.22247  92967356.32247  22703584.5384   22703586.4194   22703585.0994
        49.000          42.000
 125458789.95647  97760081.61547  23874024.8814   23874028.8104   23874024.7164
        43.000          38.000
 128993766.99847 100514607.18347  24546710.3334   24546713.7354   24546710.2254
        42.000          37.000
 09  1 22  0 46 30.0000000  0 11G30G14G 5G24G31G29G22G21G18G 6G12
 119179471.94247  92867104.33047  22679113.0784   22679116.3804   22679112.5664
        50.000          43.000
 119052503.90047  92768174.42947  22654947.8404   22654950.7694   22654948.1884
        48.000          42.000
 123598168.71947  96310255.35147  23519953.9724   23519958.1064   23519954.3644
        46.000          40.000
 121923850.67347  95005585.79047  23201345.0174   23201349.9234   23201345.0854
        46.000          40.000
 111484486.39547  86871016.31747  21214801.1464   21214803.2374   21214800.6094
        53.000          48.000
 127296846.01747  99192326.95747  24223799.5184   24223804.1764   24223799.2624
        43.000          38.000
 122219557.43547  95236020.45047  23257605.4294   23257606.3624   23257605.3694
        47.000          41.000
 105681411.16547  82349135.74747  20110516.3364   20110518.2444   20110516.7184
        54.000          49.000
 119270306.92947  92937894.52347  22696389.6414   22696391.4644   22696390.2384
        49.000          42.000
 125444123.19847  97748652.97947  23871233.1204   23871238.5464   23871233.6344
        43.000          38.000
 129011501.20247 100528426.08847  24550085.3384   24550088.5684   24550085.5494
        42.000          37.000
 09  1 22  0 47  0.0000000  0 11G30G14G 5G24G31G29G22G21G18G 6G12
 119156608.93047  92849289.02347  22674762.0434   22674765.5974   22674761.9744
        50.000          43.000
 119093258.39447  92799931.20647  22662703.0254   22662705.7784   22662703.4644
        48.000          42.000
 123603460.69247  96314379.00247  23520960.8244   23520965.3804   23520961.6324
        45.000          40.000
 122010960.71647  95073463.71447  23217921.6254   23217926.5374   23217921.7284
        46.000          40.000
 111418070.48047  86819263.68047  21202162.7934   21202164.7344   21202162.2374
        53.000          48.000
 127359155.77447  99240880.01647  24235656.6314   24235661.4614   24235656.1724
        43.000          39.000
 122170150.21947  95197521.32447  23248203.5624   23248204.2714   23248203.6744
        48.000          41.000
 105714100.59747  82374608.03247  20116736.8124   20116738.8084   20116737.1514
        54.000          49.000
 119232511.28547  92908443.36947  22689197.4584   22689199.3714   22689197.9244
        49.000          42.000
 125429662.67847  97737385.01247  23868482.6774   23868486.0884   23868482.5394
        43.000          38.000
 129029478.34147 100542434.27947  24553506.2014   24553509.6114   24553505.4864
        42.000          37.000
 09  1 22  0 47 30.0000000  0 11G30G14G 5G24G31G29G22G21G18G 6G12
 119133893.70047  92831588.86747  22670439.6024   22670442.8834   22670439.3214
        50.000          43.000
 119134074.40847  92831735.90047  22670470.1944   22670472.8434   22670470.3374
        48.000          43.000
 123609032.78047  96318720.92147  23522021.3884   23522025.9124   23522021.8124
        46.000          40.000
 122098336.07047  95141548.36247  23234548.8824   23234553.3414   23234549.0704
        47.000          40.000
 111352111.05747  86767866.75447  21189611.1534   21189613.0094   21189610.9154
        54.000          48.000
 127421268.20547  99289279.29247  24247475.9604   24247481.0354   24247475.9554
        44.000          38.000
 122120592.33747  95158904.81647  23238773.1024   23238773.7364   23238773.1714
        48.000          41.000
 105747386.24947  82400544.89647  20123070.9484   20123073.0324   20123071.4294
        54.000          49.000
 119194733.22947  92879005.91747  22682008.6784   22682010.7864   22682008.9504
        49.000          42.000
 125415408.38847  97726277.76147  23865769.3204   23865773.3954   23865769.4464
        43.000          37.000
 129047701.35247 100556634.06747  24556973.5494   24556976.8614   24556973.4784
        42.000          37.000
 09  1 22  0 48  0.0000000  0 11G30G14G 5G24G31G29G22G21G18G 6G12
 119111327.50647  92814004.85547  22666145.1914   22666148.7404   22666144.9034
        49.000          43.000
 119174948.60147  92863585.94047  22678248.5454   22678250.9054   22678248.9054
        48.000          42.000
 123614885.68447  96323281.65547  23523134.8004   23523139.5934   23523135.4464
        46.000          40.000
 122185973.42447  95209837.17447  23251225.4684   23251230.8954   23251225.2754
        46.000          40.000
 111286609.25647  86716826.41747  21177146.4244   21177148.3994   21177146.0644
        53.000          48.000
 127483181.36147  99337523.30847  24259258.3004   24259262.2004   24259258.2874
        44.000          39.000
 122070884.36447  95120171.33847  23229314.1234   23229314.1434   23229313.9904
        48.000          41.000
 105781265.65047  82426944.42847  20129517.9284   20129519.9744   20129518.3454
        54.000          49.000
 119156973.85847  92849583.03247  22674823.2324   22674825.2494   22674823.5064
        49.000          42.000
 125401357.68247  97715329.15147  23863096.2424   23863100.3854   23863096.0344
        43.000          38.000
 129066170.37947 100571025.52847  24560488.3444   24560491.3944   24560487.8054
        41.000          37.000
 09  1 22  0 48 30.0000000  0 11G30G14G 5G24G31G29G22G21G18G 6G12
 119088912.08647  92796538.32347  22661879.3074   22661883.0684   22661879.1504
        49.000          43.000
 119215877.42647  92895478.55747  22686036.9274   22686039.1724   22686037.2924
        48.000          42.000
 123621020.24847  96328061.85947  23524302.2514   23524306.6464   23524302.9364
        46.000          40.000
 122273869.46947  95278327.56547  23267951.2244   23267956.3314   23267951.0134
        46.000          40.000
 111221566.48747  86666143.76647  21164769.2234   21164771.0894   21164768.7804
        54.000          48.000
 127544893.44847  99385610.65347  24271001.4184   24271006.0404   24271001.2574
        43.000          39.000
 122021026.80547  95081321.29847  23219826.4894   23219826.9454   23219826.5414
        48.000          41.000
 105815737.23247  82453805.39347  20136077.7204   20136079.6664   20136078.1114
        54.000          49.000
 119119234.50847  92820175.74747  22667641.5944   22667643.9134   22667642.2154
        49.000          42.000
 125387508.33247  97704537.45947  23860460.6424   23860464.8674   23860460.6904
        44.000          38.000
 129084885.90847 100585609.09547  24564050.1714   24564053.1434   24564049.9154
        41.000          37.000
 09  1 22  0 49  0.0000000  0 11G30G14G 5G24G31G29G22G21G18G 6G12
 119066651.66247  92779192.56847  22657643.4724   22657646.8954   22657643.0534
        49.000          43.000
 119256860.17747  92927413.18247  22693835.6074   22693838.2984   22693835.9604
        48.000          43.000
 123627440.01447  96333064.31047  23525523.6674   23525528.0544   23525524.4894
        45.000          39.000
 122362023.63247  95347019.08347  23284726.1384   23284731.6394   23284726.5524
        46.000          40.000
 111156987.02147  86615822.12847  21152480.1964   21152481.8664   21152479.7844
        53.000          48.000
 127606405.35347  99433542.01247  24282706.7184   24282710.8524   24282706.7224
        44.000          38.000
 121971022.84147  95042357.18647  23210311.2204   23210311.3394   23210311.4634
        48.000          41.000
 105850801.08647  82481127.87247  20142750.1604   20142752.2364   20142750.4864
        54.000          49.000
 119081519.44547  92790787.38447  22660464.7594   22660466.7804   22660465.0964
        49.000          42.000
 125373860.67847  97693902.92947  23857863.7574   23857867.8334   23857863.9584
        44.000          38.000
 129103851.07747 100600387.19447  24567658.4064   24567661.9774   24567658.0214
        42.000          37.000
 09  1 22  0 49 30.0000000  0 11G30G14G 5G24G31G29G22G21G18G 6G12
 119044548.58947  92761969.40947  22653437.6104   22653440.5974   22653437.2904
        49.000          43.000
 119297894.33447  92959387.87547  22701644.1614   22701646.7494   22701644.1534
        48.000          42.000
 123634146.81647  96338290.41547  23526800.0914   23526804.3174   23526800.5734
        45.000          39.000
 122450433.85047  95415910.11847  23301550.5344   23301555.4654   23301550.5964
        46.000          40.000
 111092873.16247  86565863.30047  21140279.7974   21140281.3794   21140279.3484
        54.000          48.000
 127667716.28347  99481316.75547  24294374.0924   24294377.9914   24294373.1194
        43.000          38.000
 121920874.09747  95003280.23547  23200768.2514   23200768.7634   23200768.4384
        47.000          41.000
 105886456.35747  82508911.19547  20149535.1774   20149537.0804   20149535.5714
        54.000          49.000
 119043831.24747  92761419.95147  22653292.9524   22653295.0164   22653293.4084
        49.000          42.000
 125360413.21747  97683424.37147  23855304.6124   23855308.8634   23855304.8584
        44.000          38.000
 129123067.46947 100615361.06747  24571315.2484   24571318.9924   24571315.3584
        41.000          37.000
 09  1 22  0 50  0.0000000  0 11G30G14G 5G24G31G29G22G21G18G 6G12
 119022603.16147  92744869.09547  22649261.6874   22649265.0714   22649261.5524
        50.000          43.000
 119338975.74347  92991399.38547  22709461.4354   22709464.1824   22709461.4804
        48.000          42.000
 123641140.31347  96343739.91847  23528130.9474   23528134.5984   23528131.6054
        45.000          39.000
 122539095.68747  95484997.22747  23318422.3424   23318427.1724   23318422.6224
        46.000          40.000
 111029225.20147  86516267.51247  21128168.1384   21128169.5524   21128167.8044
        54.000          48.000
 127728823.62447  99528932.86247  24306002.5184   24306006.3404   24306002.3214
        44.000          38.000
 121870579.69847  94964089.81047  23191197.2494   23191197.6334   23191197.4364
        48.000          41.000
 105922699.52747  82537152.62347  20156431.6724   20156433.9884   20156432.0334
        54.000          49.000
 119006170.15147  92732073.63547  22646126.2534   22646128.4174   22646126.5114
        49.000          42.000
 125347162.44347  97673099.08447  23852783.0244   23852786.9184   23852783.0584
        44.000          38.000
 129142534.52947 100630530.25647  24575020.6194   24575022.8614   24575020.0504
        42.000          37.000
 09  1 22  0 50 30.0000000  0 11G30G14G 5G24G31G29G22G21G18G 6G12
 119000818.93747  92727894.40547  22645116.4734   22645119.5934   22645116.1094
        50.000          43.000
 119380103.08547  93023446.68547  22717288.1474   22717290.3544   22717288.3344
        48.000          42.000
 123648423.42547  96349415.09647  23529516.8334   23529520.5804   23529517.3524
        46.000          39.000
 122628008.22447  95554279.68247  23335341.8554   23335346.8604   23335342.0074
        46.000          40.000
 110966046.40847  86467037.29947  21116145.4634   21116147.0294   21116145.0974
        54.000          48.000
 127789727.48747  99576390.41847  24317592.2864   24317596.5924   24317592.0464
        44.000          38.000
 121820142.68847  94924788.24147  23181599.6554   23181599.8334   23181599.9094
        47.000          41.000
 105959530.54147  82565852.10647  20163440.4384   20163442.7844   20163440.7904
        54.000          49.000
 118968539.74947  92702751.24647  22638964.9424   22638967.4994   22638965.2514
        49.000          42.000
 125334108.13647  97662926.89147  23850298.8854   23850302.5824   23850298.9884
        44.000          38.000
 129162254.82347 100645896.76247  24578772.3854   24578775.4874   24578772.2434
        41.000          36.000
 09  1 22  0 51  0.0000000  0 11G30G14G 5G24G31G29G22G21G18G 6G12
 118979197.66647  92711046.67747  22641001.9834   22641005.2184   22641001.6014
        50.000          43.000
 119421273.34747  93055527.42047  22725122.5204   22725124.8824   22725122.9524
        48.000          42.000
 123655997.17747  96355316.76247  23530958.0204   23530961.9264   23530958.4124
        45.000          39.000
 122717167.99747  95623754.79347  23352308.6584   23352313.4684   23352308.8054
        46.000          39.000
 110903338.42947  86418173.95047  21104212.4974   21104214.0424   21104212.1594
        53.000          48.000
 127850426.37547  99623688.24547  24329142.9854   24329147.3014   24329142.9824
        44.000          38.000
 121769563.92247  94885376.23747  23171974.2504   23171975.3494   23171974.5414
        46.000          40.000
 105996947.58447  82595008.23947  20170560.7714   20170562.8784   20170561.0924
        54.000          49.000
 118930941.73347  92673454.10247  22631810.0334   22631812.8244   22631810.5854
        49.000          42.000
 125321248.13947  97652906.11447  23847851.8194   23847855.6544   23847852.2374
        44.000          38.000
 129182229.02247 100661461.13347  24582573.6144   24582575.6214   24582573.6154
        42.000          36.000
 09  1 22  0 51 30.0000000  0 11G30G14G 5G24G31G29G22G21G18G 6G12
 118957743.78247  92694329.39447  22636919.4394   22636922.4904   22636919.1244
        50.000          43.000
 119462486.23347  93087641.38447  22732964.6484   22732967.1324   22732965.1744
        48.000          42.000
 123663865.33647  96361447.84147  23532455.1924   23532459.6334   23532455.6294
        46.000          39.000
 122806574.87947  95693422.45947  23369321.9404   23369326.9594   23369321.8054
        46.000          40.000
 110841105.81347  86369681.01647  21092369.6314   21092371.6384   21092369.1494
        53.000          48.000
 127910921.64047  99670827.42347  24340654.7914   24340658.6144   24340654.4064
        44.000          38.000
 121718846.64247  94845856.28247  23162323.0214   23162324.4254   23162322.9524
        46.000          40.000
 106034951.54247  82624621.70547  20177792.8314   20177794.8294   20177793.3474
        54.000          49.000
 118893380.51847  92644185.61147  22624663.1334   22624665.1584   22624663.5214
        49.000          42.000
 125308582.89247  97643037.07647  23845441.8224   23845445.8794   23845441.8024
        44.000          38.000
 129202460.58447 100677226.03247  24586423.2484   24586425.9204   24586422.5664
        41.000          37.000
 09  1 22  0 52  0.0000000  0 11G30G14G 5G24G31G29G22G21G18G 6G12
 118936457.03247  92677742.34447  22632868.3754   22632871.5134   22632868.2064
        49.000          43.000
 119503736.62247  93119784.55947  22740814.5304   22740816.7294   22740814.7934
        48.000          42.000
 123672026.79447  96367807.44947  23534008.1574   23534012.2434   23534008.7654
        46.000          39.000
 122896223.92447  95763278.82747  23386381.7444   23386387.0374   23386381.2954
        46.000          40.000
 110779348.02647  86321558.08447  21080617.3634   21080619.6434   21080617.0874
        53.000          48.000
 127971209.62547  99717805.08947  24352126.4074   24352130.4414   24352126.4924
        42.000          37.000
 121667989.80547  94806227.58247  23152645.6884   23152646.4084   23152645.7164
        47.000          41.000
 106073538.01047  82654689.07647  20185135.5424   20185137.8224   20185135.9354
        54.000          49.000
 118855855.77447  92614945.53847  22617522.6414   22617524.2014   22617523.0334
        50.000          42.000
 125296108.22947  97633316.54047  23843068.6904   23843072.1974   23843068.2894
        44.000          38.000
 129222948.00447 100693190.29947  24590321.6824   24590324.5984   24590321.7754
        42.000          37.000
 09  1 22  0 52 30.0000000  0 11G30G14G 5G24G31G29G22G21G18G 6G12
 118915339.01147  92661286.76647  22628850.0184   22628853.0764   22628849.7214
        50.000          43.000
 119545021.07247  93151954.27547  22748670.5784   22748672.8824   22748670.6034
        47.000          42.000
 123680482.26547  96374396.15447  23535617.4914   23535621.7504   23535617.8524
        46.000          40.000
 122986112.01847  95833321.44747  23403486.8344   23403492.2034   23403486.9964
        45.000          39.000
 110718066.23947  86273806.05147  21068955.9054   21068957.9314   21068955.4654
        53.000          48.000
 128031288.55747  99764619.83947  24363559.1004   24363563.4584   24363559.1214
        43.000          37.000
 121616994.61147  94766491.07547  23142941.7544   23142942.0804   23142941.8394
        47.000          41.000
 106112704.98747  82685208.78947  20192588.9584   20192591.0344   20192589.3784
        54.000          49.000
 118818369.04247  92585735.09247  22610388.8664   22610390.5394   22610389.2044
        49.000          42.000
 125283821.59547  97623742.52247  23840729.7994   23840734.5214   23840729.6474
        44.000          38.000
 129243691.72647 100709354.28447  24594268.9234   24594271.8814   24594268.6744
        41.000          37.000
 09  1 22  0 53  0.0000000  0 11G30G14G 5G24G31G29G22G21G18G 6G12
 118894397.21447  92644968.50247  22624864.8024   22624867.8284   22624864.5234
        49.000          43.000
 119586342.47147  93184152.78847  22756533.6174   22756536.2144   22756533.7134
        47.000          42.000
 123689238.64147  96381219.34047  23537283.7994   23537288.2304   23537283.9664
        46.000          40.000
 123076241.92147  95903552.50047  23420638.0184   23420643.2214   23420638.1234
        44.000          39.000
 110657267.53847  86226430.45447  21057386.4294   21057388.2744   21057386.1564
        53.000          48.000
 128091163.04647  99811275.27647  24374952.8544   24374956.5924   24374952.6634
        42.000          37.000
 121565867.18947  94726651.53847  23133212.1304   23133213.0934   23133212.3104
        47.000          41.000
 106152456.74647  82716184.17447  20200153.4294   20200155.4214   20200153.8604
        55.000          49.000
 118780927.58047  92556559.91547  22603264.1404   22603265.9454   22603264.6924
        50.000          42.000
 125271726.70347  97614317.92047  23838428.4074   23838432.6534   23838428.4404
        45.000          38.000
 129264698.21147 100725723.01647  24598266.7994   24598269.1774   24598266.9104
        42.000          37.000
 09  1 22  0 53 30.0000000  0 11G30G14G 5G24G31G29G22G21G18G 6G12
 118873628.33947  92628784.98347  22620912.3934   22620916.1404   22620911.9604
        49.000          43.000
 119627692.51447  93216373.61347  22764402.4114   22764405.0954   22764402.5694
        47.000          42.000
 123698291.63347  96388273.64547  23539006.2414   23539011.0914   23539006.8784
        45.000          40.000
 123166605.38347  95973965.53847  23437833.3394   23437839.0634   23437833.4594
        45.000          39.000
 110596948.74647  86179428.81447  21045908.1864   21045910.0644   21045907.7764
        54.000          48.000
 128150826.75547  99857766.49647  24386306.7334   24386311.0554   24386306.3054
        42.000          37.000
 121514602.72747  94686705.21847  23123457.1354   23123457.6244   23123457.4004
        48.000          41.000
 106192784.91647  82747608.71547  20207827.6784   20207829.5264   20207828.1014
        54.000          49.000
 118743528.35647  92527417.64147  22596147.3004   22596149.1964   22596147.9544
        50.000          43.000
 125259816.17747  97605036.98447  23836161.9414   23836166.2514   23836161.9494
        44.000          38.000
 129285963.00847 100742293.02547  24602312.9014   24602315.2084   24602313.3424
        42.000          37.000
 09  1 22  0 54  0.0000000  0 11G30G14G 5G24G31G29G22G21G18G 6G12
 118853038.54547  92612741.01247  22616994.1944   22616997.6834   22616993.9374
        49.000          43.000
 119669072.71747  93248617.93247  22772276.8244   22772279.4184   22772277.0304
        47.000          42.000
 123707646.89147  96395563.50147  23540786.5494   23540791.1504   23540786.8114
        45.000          39.000
 123257203.85147  96044561.72047  23455073.6564   23455079.3864   23455073.8784
        46.000          39.000
 110537115.58147  86132805.57947  21034522.3564   21034524.1474   21034522.0224
        54.000          48.000
 128210281.81647  99904095.11747  24397620.6624   24397624.4614   24397620.5534
        43.000          37.000
 121463208.49647  94646657.77347  23113677.0864   23113677.3704   23113677.2524
        47.000          41.000
 106233692.22547  82779484.52747  20215611.8874   20215613.8704   20215612.4174
        54.000          49.000
 118706177.37047  92498312.97347  22589039.9214   22589041.7574   22589040.3874
        50.000          43.000
 125248092.47547  97595901.61447  23833930.7824   23833935.5034   23833930.6124
        44.000          38.000
 129307491.26247 100759068.31747  24606410.2464   24606412.1124   24606409.4544
        42.000          37.000
 09  1 22  0 54 30.0000000  0 11G30G14G 5G24G31G29G22G21G18G 6G12
 118832628.05147  92596836.75547  22613110.4454   22613113.7504   22613109.8974
        50.000          43.000
 119710478.59947  93280882.25647  22780155.7564   22780158.8474   22780156.1574
        47.000          42.000
 123717303.80447  96403088.39647  23542623.7104   23542628.8084   23542624.0614
        45.000          39.000
 123348032.75547  96115337.44847  23472358.2234   23472363.3144   23472358.3824
        46.000          39.000
 110477767.95747  86086560.68947  21023228.8934   21023230.5964   21023228.5654
        54.000          48.000
 128269526.20647  99950259.60447  24408894.6434   24408898.1864   24408894.1274
        42.000          37.000
 121411682.30247  94606507.49547  23103871.9024   23103872.1874   23103871.7824
        48.000          41.000
 106275175.14147  82811808.87347  20223505.8664   20223508.0564   20223506.1074
        54.000          49.000
 118668875.07747  92469246.24847  22581941.1034   22581943.5674   22581941.7394
        50.000          43.000
 125236551.70647  97586908.79247  23831734.6654   23831739.0234   23831734.9294
        44.000          38.000
 129329282.18147 100776048.28047  24610556.9834   24610559.0144   24610556.6504
        42.000          37.000
 09  1 22  0 55  0.0000000  0 11G30G14G 5G24G31G29G22G21G18G 6G12
 118812399.86347  92581074.55347  22609260.7564   22609264.2094   22609260.5974
        49.000          43.000
 119751908.22247  93313165.10147  22788039.9254   22788042.6154   22788040.0464
        48.000          42.000
 123727264.49647  96410849.99947  23544519.0604   23544523.7744   23544519.7574
        45.000          39.000
 123439090.34747  96186291.38747  23489685.8544   23489690.9634   23489686.1524
        46.000          39.000
 110418908.91747  86040696.51847  21012028.3284   21012030.1374   21012028.0274
        53.000          48.000
 128328559.51147  99996259.58947  24420127.9894   24420132.2104   24420127.9474
        43.000          38.000
 121360026.71347  94566256.39947  23094042.1694   23094042.3894   23094042.2744
        48.000          41.000
 106317233.05547  82844581.26347  20231509.3684   20231511.4514   20231509.8304
        54.000          49.000
 118631624.56747  92440219.87547  22574852.7074   22574854.8334   22574853.1174
        50.000          42.000
 125225192.97147  97578057.81247  23829573.2194   23829577.7034   23829573.3294
        43.000          38.000
 129351337.44547 100793234.24847  24614753.6544   24614755.5014   24614753.7234
        42.000          37.000
 09  1 22  0 55 30.0000000  0 11G30G14G 5G24G31G29G22G21G18G 6G12
 118792355.61747  92565455.69847  22605446.5074   22605449.6474   22605446.2954
        49.000          43.000
 119793358.85347  93345464.29547  22795928.3514   22795930.2614   22795928.4724
        48.000          42.000
 123737530.04947  96418849.15247  23546472.7454   23546477.2434   23546473.4084
        45.000          39.000
 123530373.57347  96257421.13247  23507056.4294   23507062.2764   23507056.6504
        45.000          39.000
 110360539.63347  85995213.97647  21000920.9544   21000922.9644   21000920.4444
        54.000          48.000
 128387380.23047 100042093.91847  24431321.4204   24431324.9944   24431321.2954
        43.000          37.000
 121308243.16847  94525905.58247  23084188.0424   23084188.8394   23084188.2404
        48.000          41.000
 106359863.61047  82877799.87247  20239621.4804   20239623.7604   20239621.8624
        54.000          49.000
 118594427.30247  92411234.99047  22567774.2764   22567776.3294   22567774.7554
        49.000          42.000
 125214014.16347  97569347.05447  23827446.0314   23827450.6944   23827445.7704
        43.000          38.000
 129373657.90147 100810626.84847  24619000.8464   24619003.8704   24619000.7294
        41.000          37.000
 09  1 22  0 56  0.0000000  0 11G30G14G 5G24G31G29G22G21G18G 6G12
 118772499.46747  92549983.40347  22601668.2554   22601671.3324   22601667.9894
        50.000          43.000
 119834829.90847  93377779.41247  22803819.5734   22803821.9594   22803819.5894
        48.000          42.000
 123748103.70447  96427088.39047  23548485.1754   23548489.4644   23548485.9034
        45.000          39.000
 123621881.69647  96328726.11547  23524469.8204   23524475.5544   23524470.2164
        44.000          39.000
 110302664.03547  85950116.12247  20989907.7974   20989909.4864   20989907.5164
        53.000          48.000
 128445989.59547 100087763.54747  24442474.3014   24442478.1904   24442474.6364
        43.000          38.000
 121256334.98947  94485457.66447  23074310.4254   23074310.8024   23074310.4314
        48.000          41.000
 106403066.84047  82911464.72147  20247842.8264   20247845.0144   20247843.2514
        54.000          49.000
 118557287.98047  92382295.24847  22560706.9144   22560709.0514   22560707.4154
        50.000          43.000
 125203015.43947  97560776.60847  23825352.9004   23825357.6864   23825352.8054
        43.000          38.000
 129396246.45647 100828228.36147  24623298.8394   24623302.0574   24623298.6384
        41.000          36.000
 09  1 22  0 56 30.0000000  0 11G30G14G 5G24G31G29G22G21G18G 6G12
 118752832.75847  92534658.72147  22597925.6414   22597929.0414   22597925.4364
        49.000          43.000
 119876317.60847  93410107.50247  22811714.1894   22811716.7724   22811714.1894
        48.000          42.000
 123758985.83447  96435567.99147  23550555.8494   23550560.0424   23550556.4404
        45.000          39.000
 123713611.36847  96400203.72947  23541925.7654   23541930.8934   23541925.8784
        45.000          39.000
 110245283.09247  85905403.71547  20978988.2534   20978990.3094   20978987.9194
        53.000          48.000
 128504385.85547 100133267.11847  24453587.1414   24453591.1934   24453587.3034
        43.000          38.000
 121204302.02247  94444912.50947  23064408.8694   23064409.1704   23064409.1144
        48.000          42.000
 106446840.34447  82945573.93347  20256172.7914   20256174.8634   20256173.1994
        54.000          49.000
 118520207.67047  92353401.50247  22553650.5734   22553652.6894   22553651.0574
        49.000          42.000
 125192194.11147  97552344.40647  23823293.6844   23823298.1064   23823294.0464
        44.000          38.000
 129419103.53647 100846039.10647  24627647.7124   24627651.1634   24627647.9174
        40.000          36.000
 09  1 22  0 57  0.0000000  0 11G30G14G 5G24G31G29G22G21G18G 6G12
 118733357.30447  92519483.06247  22594219.5134   22594223.1244   22594219.1974
        50.000          43.000
 119917819.22647  93442446.43847  22819612.0294   22819614.2754   22819612.1444
        48.000          42.000
 123770177.38947  96444288.70747  23552686.1684   23552689.3734   23552686.7184
        46.000          39.000
 123805559.38247  96471851.51247  23559422.6994   23559428.0914   23559422.3054
        45.000          39.000
 110188397.73747  85861077.48447  20968163.3064   20968165.3264   20968162.8644
        53.000          48.000
 128562567.58747 100178603.55047  24464658.1104   24464662.5984   24464657.9954
        41.000          37.000
 121152145.73147  94404271.25347  23054483.5204   23054484.4824   23054483.4764
        48.000          42.000
 106491181.48747  82980125.46947  20264610.5114   20264612.7644   20264610.8894
        54.000          49.000
 118483187.70847  92324554.78747  22546606.0974   22546607.9684   22546606.6664
        49.000          42.000
 125181547.67447  97544048.46447  23821267.6244   23821272.1794   23821268.2404
        44.000          38.000
 129442229.08247 100864059.03647  24632049.7224   24632051.9404   24632048.8964
        42.000          36.000
 09  1 22  0 57 30.0000000  0 11G30G14G 5G24G31G29G22G21G18G 6G12
 118714075.35247  92504458.17547  22590550.0664   22590553.8134   22590549.8034
        50.000          43.000
 119959332.41247  93474794.38147  22827511.9874   22827514.1744   22827512.0834
        48.000          42.000
 123781679.99647  96453251.80147  23554874.8414   23554878.6824   23554875.4064
        45.000          39.000
 123897723.76747  96543667.87447  23576961.2884   23576966.2084   23576961.4784
        46.000          39.000
 110132010.58247  85817139.45947  20957433.1054   20957434.9304   20957432.6474
        54.000          48.000
 128620534.17347 100223772.33347  24475688.5484   24475692.9934   24475688.8274
        42.000          37.000
 121099868.16047  94363535.48147  23044535.6944   23044536.5434   23044535.5244
        48.000          42.000
 106536088.73247  83015118.11547  20273156.0814   20273158.2994   20273156.4944
        54.000          49.000
 118446230.99547  92295757.35247  22539573.3224   22539575.3034   22539573.7234
        49.000          42.000
 125171074.89247  97535887.85547  23819274.7154   23819279.0984   23819274.8034
        44.000          38.000
 129465624.76247 100882289.48647  24636501.5984   24636504.3374   24636500.7454
        42.000          36.000
 09  1 22  0 58  0.0000000  0 11G30G14G 5G24G31G29G22G21G18G 6G12
 118694990.55547  92489586.91947  22586918.5034   22586921.8784   22586918.1424
        50.000          43.000
 120000856.64347  93507150.92647  22835413.5514   22835416.2334   22835413.9334
        48.000          42.000
 123793496.67747  96462459.63447  23557123.4734   23557127.2904   23557124.0344
        45.000          39.000
 123990103.32847  96615651.91747  23594541.0214   23594545.4034   23594541.0384
        45.000          39.000
 110076124.88847  85773592.17847  20946798.5884   20946800.3484   20946798.2104
        53.000          48.000
 128678286.50347 100268774.14447  24486678.6494   24486683.3614   24486678.4294
        42.000          37.000
 121047472.24447  94322707.49747  23034564.7244   23034565.7554   23034564.6824
        48.000          42.000
 106581562.24047  83050552.00047  20281809.3574   20281811.5374   20281809.7414
        54.000          49.000
 118409341.54647  92267012.32047  22532553.3984   22532555.3364   22532554.0384
        49.000          42.000
 125160775.54447  97527862.36347  23817315.2184   23817319.4344   23817315.3064
        43.000          38.000
 129489293.05847 100900732.34447  24641005.0634   24641008.0984   24641004.7324
        41.000          37.000
 09  1 22  0 58 30.0000000  0 11G30G14G 5G24G31G29G22G21G18G 6G12
 118676104.94647  92474870.88247  22583324.5784   22583327.9694   22583324.4044
        50.000          43.000
 120042388.39847  93539513.35547  22843316.7064   22843318.9794   22843316.8274
        48.000          42.000
 123805628.09647  96471912.73047  23559431.4864   23559435.6994   23559431.9894
        44.000          39.000
 124082694.87647  96687801.14247  23612160.3794   23612165.2144   23612160.2534
        45.000          39.000
 110020741.96947  85730436.68047  20936259.6124   20936261.3424   20936259.2834
        54.000          48.000
 128735823.21547 100313607.96947  24497627.0744   24497631.7714   24497626.9984
        42.000          37.000
 120994958.77147  94281787.91047  23024572.1404   23024572.7764   23024572.0284
        49.000          42.000
 106627599.29947  83086425.02847  20290569.9594   20290571.9484   20290570.3884
        54.000          48.000
 118372520.98447  92238320.96347  22525546.6944   22525548.6194   22525547.0564
        49.000          42.000
 125150647.37547  97519970.29247  23815387.3754   23815392.4204   23815387.6104
        44.000          38.000
 129513234.53847 100919388.07547  24645561.2114   24645563.4504   24645560.6684
        42.000          37.000
 09  1 22  0 59  0.0000000  0 11G30G14G 5G24G31G29G22G21G18G 6G12
 118657418.65347  92460310.15547  22579769.1294   22579772.3234   22579768.6634
        50.000          43.000
 120083923.11447  93571878.07047  22851220.6484   22851222.8234   22851220.4534
        48.000          42.000
 123818073.60347  96481610.55447  23561799.7024   23561804.0764   23561800.1804
        45.000          39.000
 124175494.02247  96760112.13947  23629819.3444   23629824.1114   23629819.6454
        45.000          39.000
 109965861.47447  85687672.67647  20925816.2164   20925817.9894   20925815.7114
        54.000          48.000
 128793141.45147 100358271.53947  24508534.5094   24508538.5394   24508534.4524
        42.000          37.000
 120942327.24547  94240776.35447  23014556.8114   23014557.4094   23014556.8374
        49.000          43.000
 106674195.79647  83122733.97547  20299436.9074   20299439.1314   20299437.2504
        54.000          48.000
 118335769.72847  92209683.64447  22518552.6324   22518554.9534   22518553.0994
        49.000          42.000
 125140686.32847  97512208.43447  23813492.1774   23813496.5774   23813492.6574
        43.000          38.000
 129537447.98547 100938255.73547  24650169.7574   24650171.7224   24650168.9954
        41.000          37.000
 09  1 22  0 59 30.0000000  0 11G30G14G 5G24G31G29G22G21G18G 6G12
 118638935.39547  92445907.63947  22576251.7634   22576255.0344   22576251.5334
        50.000          43.000
 120125460.05547  93604244.51947  22859124.6694   22859126.9874   22859124.8564
        48.000          42.000
 123830836.08447  96491555.36647  23564228.3994   23564232.6444   23564229.1544
        45.000          39.000
 124268499.56147  96832583.95047  23647517.6924   23647522.8814   23647518.0554
        45.000          38.000
 109911486.76247  85645302.79147  20915469.0784   20915470.9054   20915468.7984
        54.000          49.000
 128850242.25247 100402765.69147  24519401.1304   24519405.4684   24519400.6964
        42.000          37.000
 120889580.54347  94199675.02847  23004519.3214   23004520.1924   23004519.4044
        49.000          43.000
 106721351.69447  83159478.82447  20308410.4254   20308412.7324   20308410.7464
        54.000          48.000
 118299091.59047  92181103.27747  22511573.6514   22511575.9144   22511574.1454
        50.000          43.000
 125130892.44647  97504576.82847  23811628.1774   23811632.9024   23811628.1824
        43.000          38.000
 129561936.33947 100957337.61147  24654829.1424   24654831.8954   24654829.2824
        42.000          37.000
 09  1 22  1  0  0.0000000  0 11G30G14G 5G24G31G29G22G21G18G 6G12
 118620658.64347  92431666.03247  22572773.8014   22572776.5344   22572773.4044
        50.000          43.000
 120166998.15547  93636611.88547  22867029.3064   22867031.6954   22867029.5284
        49.000          42.000
 123843918.25447  96501749.27647  23566717.6724   23566722.2084   23566718.2374
        46.000          39.000
 124361710.41647  96905215.74047  23665254.6914   23665260.0494   23665255.1604
        44.000          38.000
 109857620.98747  85603329.47647  20905218.6994   20905220.5964   20905218.2164
        54.000          49.000
 128907125.97347 100447090.68647  24530225.1724   24530229.8304   24530224.8824
        41.000          37.000
 120836721.55647  94158486.21747  22994460.6454   22994461.2184   22994460.7534
        49.000          43.000
 106769066.36247  83196659.07447  20317490.4184   20317492.4364   20317490.9214
        54.000          48.000
 118262490.06347  92152582.60747  22504608.7314   22504610.5514   22504609.1394
        50.000          43.000
 125121265.22147  97497075.07747  23809796.2614   23809800.8944   23809796.4014
        44.000          38.000
 129586701.67147 100976635.31047  24659542.0994   24659543.6694   24659541.8404
        43.000          37.000
 09  1 22  1  0 30.0000000  0 11G30G14G 5G24G31G29G22G21G18G 6G12
 118602590.99647  92417587.37147  22569335.6554   22569338.6134   22569335.4524
        50.000          43.000
 120208535.32947  93668978.52447  22874933.5944   22874935.8794   22874933.8614
        48.000          42.000
 123857321.60247  96512193.46647  23569268.6504   23569272.4144   23569269.0634
        45.000          39.000
 124455124.37747  96978005.79947  23683030.9644   23683036.7004   23683031.2604
        44.000          38.000
 109804266.00647  85561754.17547  20895065.5634   20895067.3824   20895065.2174
        54.000          49.000
 128963791.66547 100491245.79347  24541008.2834   24541013.0754   24541008.5254
        43.000          37.000
 120783752.61547  94117211.72747  22984380.8464   22984381.4804   22984380.9534
        49.000          43.000
 106817338.17747  83234273.46447  20326676.2174   20326678.2234   20326676.5604
        54.000          48.000
 118225967.75847  92124123.66147  22497658.9974   22497660.7194   22497659.4954
        50.000          43.000
 125111803.23247  97489702.09147  23807995.8704   23808000.6414   23807995.5194
        44.000          39.000
 129611745.18547 100996149.79147  24664307.2764   24664309.8124   24664307.1214
        42.000          37.000
 09  1 22  1  1  0.0000000  0 11G30G14G 5G24G31G29G22G21G18G 6G12
 118584732.49147  92403671.67047  22565936.9244   22565940.2364   22565936.5634
        49.000          43.000
 120250067.17447  93701341.01747  22882836.3174   22882839.1054   22882836.6754
        47.000          42.000
 123871045.33147  96522887.31347  23571879.8244   23571884.2824   23571880.2794
        45.000          40.000
 124548736.77247  97050950.48847  23700844.5284   23700850.8914   23700844.6084
        44.000          38.000
 109751421.69747  85520576.80347  20885009.6014   20885011.3594   20885009.1294
        54.000          49.000
 129020236.95647 100535229.14347  24551749.4974   24551753.9524   24551750.0484
        43.000          37.000
 120730672.92147  94075850.93247  22974280.2484   22974280.6144   22974280.4424
        48.000          42.000
 106866163.06247  83272318.81747  20335967.4194   20335969.1824   20335967.7804
        55.000          48.000
 118189525.40947  92095727.04047  22490723.8084   22490726.1224   22490724.3464
        49.000          43.000
 125102502.51647  97482454.77147  23806226.2394   23806230.1914   23806226.3454
        45.000          39.000
 129637065.94947 101015880.28547  24669125.3244   24669128.5704   24669125.3194
        42.000          37.000
 09  1 22  1  1 30.0000000  0 11G30G14G 5G24G31G29G22G21G18G 6G12
 118567086.66447  92389921.70447  22562579.0914   22562582.6974   22562578.7734
        49.000          43.000
 120291592.14647  93733698.14947  22890738.4884   22890740.8784   22890738.6524
        48.000          42.000
 123885091.89447  96533832.71347  23574553.1874   23574557.3034   23574553.8434
        45.000          39.000
 124642546.06347  97124048.59947  23718695.8004   23718702.3374   23718696.0604
        44.000          38.000
 109699090.52747  85479799.28547  20875051.3424   20875053.1844   20875050.9444
        54.000          49.000
 129076462.28247 100579041.09447  24562449.2724   24562453.4074   24562448.8864
        43.000          37.000
 120677484.94247  94034405.76647  22964158.8434   22964159.1114   22964158.7454
        49.000          42.000
 106915540.35447  83310794.61947  20345363.5874   20345365.3594   20345363.9794
        54.000          48.000
 118153165.98847  92067395.01447  22483804.6064   22483807.1154   22483804.9814
        49.000          43.000
 125093362.48347  97475332.64547  23804486.8934   23804491.3604   23804487.5454
        44.000          38.000
 129662666.00447 101035828.43647  24673997.2024   24673999.6954   24673996.8734
        41.000          37.000
 09  1 22  1  2  0.0000000  0 11G30G14G 5G24G31G29G22G21G18G 6G12
 118549656.04247  92376339.42347  22559262.0174   22559265.5754   22559261.5784
        49.000          43.000
 120333108.43847  93766048.51747  22898638.7864   22898641.3004   22898639.0154
        47.000          42.000
 123899463.06847  96545031.06147  23577287.9264   23577291.5494   23577288.4194
        45.000          40.000
 124736550.27147  97197298.60447  23736584.6804   23736590.4264   23736584.6534
        44.000          38.000
 109647275.00547  85439423.57047  20865191.1274   20865193.0584   20865190.8554
        54.000          49.000
 129132467.59147 100622681.60347  24573106.9264   24573110.7934   24573106.3584
        43.000          37.000
 120624191.94947  93992878.76147  22954017.6234   22954017.9884   22954017.6074
        49.000          42.000
 106965468.33147  83349699.52547  20354864.4694   20354866.3794   20354864.8424
        54.000          48.000
 118116892.73247  92039130.14047  22476902.3654   22476904.5684   22476902.6564
        50.000          43.000
 125084381.78647  97468334.70147  23802777.3214   23802782.4254   23802776.7924
        44.000          38.000
 129688546.84647 101055995.36547  24678922.2014   24678924.5404   24678921.3874
        41.000          36.000
 09  1 22  1  2 30.0000000  0 11G30G14G 5G24G31G29G22G21G18G 6G12
 118532441.56747  92362925.56647  22555986.4544   22555989.6274   22555986.3234
        50.000          43.000
 120374612.72847  93798389.53847  22906536.2844   22906539.0704   22906536.4744
        47.000          42.000
 123914159.12347  96556482.57147  23580084.6444   23580088.4014   23580085.0024
        45.000          39.000
 124830745.68747  97270697.61847  23754509.4054   23754514.7494   23754509.2624
        44.000          38.000
 109595975.57447  85399450.00247  20855429.0114   20855431.0444   20855428.5854
        54.000          49.000
 129188251.07647 100666149.27347  24583722.0874   24583725.5574   24583721.7604
        43.000          37.000
 120570793.92647  93951269.92347  22943856.1884   22943856.8884   22943856.2464
        49.000          42.000
 107015944.04547  83389031.24147  20364469.8274   20364471.6234   20364470.3274
        55.000          48.000
 118080706.43747  92010933.04347  22470016.4864   22470018.6874   22470017.0414
        50.000          43.000
 125075557.70147  97461458.77947  23801098.7134   23801103.2104   23801098.5374
        44.000          38.000
 129714708.23547 101076380.89047  24683900.1534   24683903.4894   24683900.7054
        42.000          37.000
 09  1 22  1  3  0.0000000  0 11G30G14G 5G24G31G29G22G21G18G 6G12
 118515448.65647  92349684.35847  22552752.9684   22552756.0234   22552752.6454
        50.000          43.000
 120416105.40147  93830721.49347  22914432.1234   22914434.7464   22914432.2494
        47.000          41.000
 123929184.19747  96568190.44347  23582943.4194   23582947.5404   23582943.7424
        46.000          39.000
 124925132.65247  97344245.87247  23772470.4784   23772476.4194   23772470.8354
        45.000          38.000
 109545196.90847  85359882.22047  20845766.2544   20845768.1734   20845765.8884
        54.000          49.000
 129243814.99447 100709445.82547  24594295.4524   24594299.5834   24594295.2474
        41.000          38.000
 120517294.70747  93909582.24147  22933675.6684   22933675.9794   22933675.5924
        48.000          42.000
 107066968.33547  83428790.41547  20374179.3244   20374181.2954   20374179.7594
        54.000          48.000
 118044612.57347  91982807.95747  22463147.9684   22463149.9494   22463148.5014
        50.000          43.000
 125066891.31847  97454705.74647  23799449.4134   23799453.8534   23799449.1804
        44.000          38.000
 129741154.23147 101096988.18947  24688932.7844   24688935.2814   24688932.4374
        41.000          37.000
 09  1 22  1  3 30.0000000  0 11G30G14G 5G24G31G29G22G21G18G 6G12
 118498674.40947  92336613.53747  22549560.9464   22549564.0054   22549560.7174
        50.000          43.000
 120457579.16547  93863038.72047  22922324.6544   22922326.5904   22922324.9594
        47.000          42.000
 123944534.65247  96580151.85147  23585864.8584   23585868.4174   23585865.3464
        44.000          39.000
 125019703.93447  97417937.75547  23790466.9804   23790472.1124   23790467.2704
        44.000          38.000
 109494935.97347  85320717.86647  20836201.7454   20836203.9014   20836201.4454
        53.000          49.000
 129299153.74147 100752566.93047  24604825.8714   24604829.7944   24604825.5724
        41.000          37.000
 120463691.69047  93867813.67047  22923475.3814   22923475.8124   22923475.1534
        49.000          42.000
 107118534.26547  83468971.64947  20383992.0354   20383994.0254   20383992.5634
        54.000          48.000
 118008608.85147  91954753.09847  22456296.9154   22456299.0024   22456297.3824
        50.000          43.000
 125058376.05547  97448070.47447  23797828.8244   23797832.9114   23797829.5144
        44.000          38.000
 129767880.77947 101117814.10947  24694018.1934   24694021.5614   24694018.4574
        42.000          36.000
 09  1 22  1  4  0.0000000  0 11G30G14G 5G24G31G29G22G21G18G 6G12
 118482126.28547  92323718.92247  22546411.9014   22546414.7724   22546411.6704
        50.000          43.000
 120499037.10647  93895343.61847  22930213.9344   22930216.1024   22930214.1234
        47.000          42.000
 123960217.00447  96592371.88947  23588848.5854   23588852.2704   23588848.9674
        45.000          39.000
 125114462.18247  97491775.31047  23808499.0144   23808504.1244   23808499.0174
        44.000          38.000
 109445199.05747  85281961.84047  20826737.0934   20826739.0244   20826736.7134
        54.000          49.000
 129354272.02247 100795516.25947  24615315.3404   24615318.9394   24615314.9434
        41.000          37.000
 120409992.24847  93825969.96047  22913256.4584   22913257.0524   22913256.6424
        48.000          42.000
 107170645.24847  83509577.60147  20393908.3004   20393910.3524   20393908.6064
        54.000          48.000
 117972702.84947  91926774.39347  22449464.1964   22449466.0194   22449464.7414
        50.000          43.000
 125050015.19447  97441555.50347  23796237.7354   23796242.6954   23796237.6334
        43.000          38.000
 129794893.94647 101138863.37347  24699159.2384   24699161.4094   24699158.4484
        41.000          36.000
 09  1 22  1  4 30.0000000  0 11G30G14G 5G24G31G29G22G21G18G 6G12
 118465808.45247  92311003.74347  22543306.6584   22543309.3964   22543306.3804
        50.000          43.000
 120540478.49047  93927635.61047  22938099.8734   22938102.4634   22938100.0074
        47.000          42.000
 123976234.14747  96604852.80247  23591896.7694   23591900.7524   23591897.2264
        45.000          39.000
 125209406.54247  97565757.91547  23826566.4464   23826571.7084   23826566.4044
        44.000          38.000
 109395990.06947  85243617.18147  20817373.0734   20817374.8354   20817372.4414
        54.000          49.000
 129409170.91947 100838294.61147  24625762.4144   24625766.8024   24625762.1984
        42.000          37.000
 120356199.44247  93784053.49347  22903020.0254   22903020.4924   22903019.8984
        48.000          42.000
 107223300.41747  83550607.58347  20403928.2864   20403930.4004   20403928.8584
        54.000          48.000
 117936898.60847  91898874.99747  22442650.2284   22442652.8354   22442650.6564
        50.000          43.000
 125041808.89147  97435160.97947  23794676.2964   23794681.2864   23794675.9994
        43.000          38.000
 129822196.36847 101160138.03847  24704353.8394   24704357.1184   24704353.6774
        41.000          36.000
 09  1 22  1  5  0.0000000  0 11G30G14G 5G24G31G29G22G21G18G 6G12
 118449715.37947  92298463.71247  22540244.3974   22540246.5764   22540244.0614
        50.000          43.000
 120581892.72847  93959906.45947  22945980.8154   22945983.1294   22945981.1134
        47.000          42.000
 123992579.44547  96617589.42447  23595006.8814   23595011.1884   23595007.4004
        44.000          39.000
 125304526.56447  97639877.37747  23844667.1194   23844672.7614   23844667.6534
        44.000          38.000
 109347302.08347  85205678.50447  20808108.2974   20808109.8254   20808108.1104
        54.000          49.000
 129463841.95147 100880895.40047  24636165.7944   24636169.5064   24636164.7924
        41.000          37.000
 120302306.94447  93742059.34747  22892764.5944   22892764.7464   22892764.5814
        48.000          42.000
 107276489.77847  83592053.82847  20414049.9224   20414052.0614   20414050.1924
        54.000          48.000
 117901190.88447  91871050.80747  22435855.4354   22435857.6984   22435855.7894
        50.000          43.000
 125033747.35847  97428879.24247  23793141.9264   23793147.2394   23793142.5354
        43.000          38.000
 129849781.19547 101181632.71747  24709602.8494   24709606.0164   24709602.2954
        42.000          36.000
 09  1 22  1  5 30.0000000  0 11G30G14G 5G24G31G29G22G21G18G 6G12
 118433850.95547  92286101.83847  22537225.5014   22537228.0024   22537225.2314
        50.000          43.000
 120623280.18447  93992156.43347  22953856.4354   22953858.6994   22953856.8424
        47.000          42.000
 124009256.19147  96630584.31547  23598180.8224   23598184.4584   23598181.0714
        45.000          39.000
 125399821.82647  97714133.40047  23862800.8524   23862806.3124   23862801.0794
        44.000          38.000
 109299139.30947  85168149.08247  20798943.0894   20798944.7334   20798942.6434
        54.000          49.000
 129518286.56547 100923319.78247  24646525.8854   24646529.8484   24646526.1794
        42.000          37.000
 120248318.67447  93699990.58347  22882491.0084   22882491.2934   22882491.2444
        48.000          42.000
 107330213.67647  83633916.58847  20424273.2324   20424275.4704   20424273.7724
        54.000          48.000
 117865583.98447  91843305.17447  22429080.0664   22429081.5324   22429080.3154
        50.000          43.000
 125025830.98447  97422710.63247  23791635.8154   23791640.4624   23791636.0404
        43.000          38.000
 129877651.22447 101203349.65547  24714906.8394   24714909.0694   24714907.1944
        42.000          37.000
 09  1 22  1  6  0.0000000  0 11G30G14G 5G24G31G29G22G21G18G 6G12
 118418220.29847  92273922.12747  22534250.8334   22534253.8124   22534250.1514
        50.000          43.000
 120664641.37447  94024385.94447  22961727.2204   22961729.7834   22961727.2504
        47.000          42.000
 124026268.39147  96643840.60447  23601417.8754   23601421.9704   23601418.7054
        44.000          39.000
 125495292.73747  97788526.29347  23880968.6524   23880973.8894   23880968.3284
        44.000          38.000
 109251506.13247  85131032.32947  20789878.6644   20789880.4314   20789878.2624
        54.000          49.000
 129572507.31447 100965569.71747  24656843.0804   24656847.9074   24656843.5314
        41.000          37.000
 120194239.49547  93657850.97847  22872200.0054   22872200.8814   22872200.0194
        48.000          42.000
 107384473.04547  83676196.60147  20434598.3814   20434600.6674   20434598.6204
        55.000          48.000
 117830083.10747  91815642.15847  22422324.6984   22422326.3294   22422325.0304
        51.000          43.000
 125018060.94647  97416656.03447  23790157.4804   23790162.5084   23790157.1514
        44.000          38.000
 129905810.46447 101225291.95547  24720264.7384   24720268.2444   24720264.7054
        41.000          36.000
 09  1 22  1  6 30.0000000  0 11G30G14G 5G24G31G29G22G21G18G 6G12
 118402827.17247  92261927.49947  22531321.4934   22531324.7794   22531321.4164
        49.000          43.000
 120705975.29347  94056594.20247  22969592.8534   22969595.0354   22969593.2384
        47.000          41.000
 124043618.72447  96657360.37147  23604719.5784   23604723.2934   23604720.1044
        45.000          39.000
 125590937.78847  97863054.85847  23899169.2994   23899174.2554   23899169.8974
        45.000          38.000
 109204405.53347  85094330.57247  20780915.8244   20780917.6224   20780915.3724
        54.000          49.000
 129626504.87747 101007645.73347  24667118.2264   24667123.0804   24667118.0264
        41.000          36.000
 120140072.26947  93615642.75847  22861892.6444   22861892.9464   22861892.5174
        49.000          42.000
 107439266.79647  83718893.01347  20445025.3484   20445027.5064   20445025.7684
        54.000          48.000
 117794692.05447  91788064.71647  22415589.2854   22415591.8814   22415589.8464
        49.000          43.000
 125010436.60347  97410714.96747  23788706.1264   23788710.9484   23788706.1154
        42.000          38.000
 129934261.04147 101247461.28647  24725679.6004   24725681.8694   24725678.8604
        41.000          36.000
 09  1 22  1  7  0.0000000  0 11G30G14G 5G24G31G29G22G21G18G 6G12
 118387669.81747  92250116.58847  22528436.9594   22528440.1864   22528436.4944
        50.000          43.000
 120747275.97247  94088776.56047  22977451.9754   22977454.5484   22977452.0404
        47.000          41.000
 124061304.54047  96671141.54947  23608084.9864   23608088.6164   23608085.9474
        45.000          39.000
 125686750.77747  97937714.29647  23917402.1294   23917407.4244   23917402.5594
        44.000          38.000
 109157835.07747  85058041.91347  20772053.7574   20772055.3554   20772053.3734
        54.000          49.000
 129680275.04047 101049544.54547  24677350.7084   24677354.3954   24677350.6914
        40.000          36.000
 120085815.18347  93573364.52747  22851567.8324   22851568.0204   22851567.9814
        49.000          42.000
 107494589.01947  83762001.22347  20455552.8334   20455554.9784   20455553.1174
        54.000          48.000
 117759409.62047  91760571.91747  22408875.4514   22408877.7954   22408875.8384
        49.000          43.000
 125002952.62447  97404883.29047  23787281.8474   23787287.2334   23787281.4704
        43.000          38.000
 129963000.33747 101269855.56847  24731148.0684   24731151.2214   24731147.9874
        41.000          36.000
 09  1 22  1  7 30.0000000  0 11G30G14G 5G24G31G29G22G21G18G 6G12
 118372753.14847  92238493.23547  22525598.8934   22525601.9084   22525598.6484
        50.000          43.000
 120788543.49147  94120933.09347  22985304.4664   22985307.2164   22985304.6854
        47.000          41.000
 124079329.51347  96685187.00547  23611515.1594   23611518.8644   23611515.7384
        45.000          39.000
 125782731.72847  98012504.61047  23935666.8594   23935671.8924   23935666.5184
        44.000          38.000
 109111798.50347  85022169.27447  20763293.3434   20763294.8494   20763293.1644
        54.000          49.000
 129733820.10847 101091267.98247  24687540.0274   24687544.9864   24687540.2584
        40.000          36.000
 120031472.52847  93531019.60747  22841226.8444   22841226.9144   22841226.9004
        49.000          42.000
 107550439.87947  83805521.35747  20466181.0134   20466183.0624   20466181.4294
        55.000          48.000
 117724241.11747  91733167.88947  22402182.9084   22402185.3824   22402183.0754
        49.000          43.000
 124995609.61847  97399161.46447  23785884.8974   23785889.6764   23785885.3224
        42.000          38.000
 129992031.40147 101292477.20647  24736672.7544   24736674.5744   24736672.4344
        42.000          36.000
 09  1 22  1  8  0.0000000  0 11G30G14G 5G24G31G29G22G21G18G 6G12
 118358077.43747  92227057.63647  22522805.9694   22522808.9974   22522805.3864
        49.000          43.000
 120829774.04547  94153060.81947  22993151.1964   22993153.3684   22993151.0064
        47.000          41.000
 124097692.89147  96699496.16247  23615009.2424   23615013.1264   23615009.7124
        44.000          39.000
 125878876.49147  98087422.56647  23953962.5814   23953967.8654   23953962.5244
        44.000          38.000
 109066295.70547  84986712.55347  20754634.4824   20754635.9934   20754633.8704
        54.000          49.000
 129787137.63647 101132814.10747  24697686.6854   24697690.9634   24697685.1814
        41.000          36.000
 119977044.57147  93488608.21047  22830869.3514   22830869.4714   22830869.2944
        49.000          42.000
 107606815.77347  83849450.61247  20476909.1844   20476911.1414   20476909.6614
        55.000          48.000
 117689186.45347  91705852.56047  22395512.4874   22395514.7774   22395512.7554
        50.000          43.000
 124988403.96147  97393546.66947  23784513.4164   23784518.3824   23784513.6804
        44.000          38.000
 130021353.26547 101315325.43447  24742252.1184   24742255.8824   24742252.1154
        40.000          36.000
 09  1 22  1  8 30.0000000  0 11G30G14G 5G24G31G29G22G21G18G 6G12
 118343647.76947  92215813.75947  22520060.3334   22520063.2304   22520059.7654
        50.000          43.000
 120870967.66147  94185159.74647  23000989.4754   23000992.2754   23000990.0044
        46.000          41.000
 124116398.79047  96714072.21547  23618568.8134   23618572.7154   23618569.5304
        44.000          39.000
 125975185.19747  98162468.27847  23972290.0484   23972294.9894   23972290.4064
        44.000          38.000
 109021330.86847  84951675.03247  20746077.9374   20746079.5614   20746077.6444
        54.000          49.000
 129840229.56947 101174184.41747  24707789.9504   24707794.1894   24707789.2364
        41.000          37.000
 119922535.65747  93446133.73447  22820496.7714   22820496.8894   22820496.8724
        49.000          42.000
 107663716.95147  83893789.17447  20487737.0404   20487739.1704   20487737.4634
        55.000          48.000
 117654251.35647  91678630.40047  22388864.6164   22388866.7164   22388865.0994
        50.000          43.000
 124981336.89147  97388039.84247  23783169.1924   23783173.8184   23783169.1584
        44.000          38.000
 130050969.50847 101338403.04647  24747888.0434   24747890.5554   24747887.5304
        41.000          36.000
 09  1 22  1  9  0.0000000  0 11G30G14G 5G24G31G29G22G21G18G 6G12
 118329463.54447  92204761.13347  22517361.1054   22517363.8934   22517360.8344
        50.000          43.000
 120912119.84247  94217226.38747  23008820.4794   23008823.0234   23008820.8224
        46.000          41.000
 124135445.69847  96728913.98347  23622193.8554   23622197.2974   23622194.2124
        44.000          38.000
 126071652.91747  98237637.88847  23990647.2834   23990652.3994   23990647.7514
        45.000          38.000
 108976902.77347  84917055.74547  20737623.7854   20737625.3214   20737623.3324
        55.000          49.000
 129893092.83547 101215376.56447  24717849.5944   24717852.4734   24717848.8194
        41.000          36.000
 119867944.73647  93403595.35947  22810108.6544   22810108.3684   22810108.4734
        49.000          42.000
 107721138.59347  83938533.29047  20498664.0204   20498666.1714   20498664.5044
        54.000          48.000
 117619435.55947  91651501.21647  22382239.1804   22382241.4714   22382239.5984
        50.000          43.000
 124974403.93747  97382637.53647  23781849.7924   23781853.9444   23781849.7614
        43.000          38.000
 130080878.43847 101361708.72647  24753579.7464   24753581.5494   24753578.7754
        42.000          36.000
 09  1 22  1  9 30.0000000  0 11G30G14G 5G24G31G29G22G21G18G 6G12
 118315528.92447  92193903.00047  22514709.1864   22514712.4794   22514708.9474
        50.000          43.000
 120953230.09547  94249260.37447  23016643.5584   23016646.0384   23016644.0834
        47.000          41.000
 124154836.41147  96744023.65847  23625883.5064   23625886.8144   23625884.4764
        44.000          39.000
 126168278.99147  98312930.89547  24009034.6414   24009039.8354   24009035.2424
        43.000          38.000
 108933014.64547  84882857.21047  20729271.8174   20729273.7204   20729271.2034
        54.000          49.000
 129945729.03647 101256391.77647  24727864.6414   24727869.2334   24727864.9764
        40.000          36.000
 119813275.63447  93360996.05347  22799705.2084   22799705.2404   22799705.2204
        50.000          43.000
 107779080.13647  83983682.52947  20509689.7714   20509691.9224   20509690.0614
        54.000          48.000
 117584743.64947  91624468.57747  22375637.5304   22375639.6354   22375638.0354
        49.000          43.000
 124967605.03647  97377339.69847  23780555.8934   23780560.4024   23780555.5924
        44.000          38.000
 130111082.49047 101385244.39247  24759327.5434   24759329.7784   24759327.5624
        42.000          36.000
 09  1 22  1 10  0.0000000  0 11G30G14G 5G24G31G29G22G21G18G 6G12
 118301848.17847  92183242.70847  22512105.6224   22512109.1024   22512105.3564
        49.000          43.000
 120994298.88247  94281262.03847  23024458.7264   23024461.4544   23024459.0274
        46.000          41.000
 124174574.40347  96759403.94747  23629640.0864   23629643.0974   23629640.6104
        44.000          39.000
 126265062.87447  98388346.87147  24027451.9024   24027456.9354   24027452.3384
        43.000          38.000
 108889670.18647  84849082.31747  20721023.6854   20721025.4684   20721023.3994
        54.000          49.000
 129998139.98647 101297231.45647  24737838.3164   24737842.1324   24737838.2304
        40.000          36.000
 119758533.16547  93318339.58847  22789288.4264   22789288.1854   22789288.5384
        49.000          43.000
 107837541.64447  84029236.93647  20520814.6644   20520816.7144   20520815.0674
        54.000          48.000
 117550180.00547  91597535.86447  22369060.6724   22369062.6904   22369061.1514
        50.000          43.000
 124960940.82947  97372146.78747  23779287.8114   23779292.4784   23779287.9874
        43.000          38.000
 130141585.09247 101409012.67647  24765132.9334   24765134.6354   24765131.9724
        41.000          36.000
 09  1 22  1 10 30.0000000  0 12G30G16G14G 5G24G31G29G22G21G18G 6G12
 118288416.42247  92172776.42247  22509549.8814   22509552.7904   22509549.4714
        50.000          43.000
 141720359.01157  92639212.32057  25065573.7235   25065578.7805   25065575.2265
        40.000          34.000
 121035316.15547  94313223.54647  23032264.0254   23032266.8054   23032264.0604
        46.000          41.000
 124194653.54347  96775050.03947  23633460.2694   23633464.2514   23633461.0484
        44.000          39.000
 126361994.70447  98463878.12547  24045897.5554   24045902.2344   24045897.3134
        44.000          38.000
 108846863.43447  84815726.41647  20712877.8984   20712879.4364   20712877.4064
        54.000          49.000
 130050318.08447 101337889.67547  24747767.4954   24747772.1504   24747767.1534
        41.000          36.000
 119703711.12347  93275621.12047  22778855.8834   22778856.3014   22778855.7924
        50.000          43.000
 107896513.42147  84075188.95047  20532036.6384   20532038.7084   20532037.0724
        54.000          48.000
 117515739.94347  91570699.45547  22362506.5514   22362508.9394   22362506.8784
        49.000          43.000
 124954402.06047  97367051.65447  23778043.1184   23778048.5924   23778042.9564
        44.000          38.000
 130172379.58847 101433008.39447  24770992.1144   24770994.8784   24770991.4584
        41.000          36.000
 09  1 22  1 11  0.0000000  0 12G30G16G14G 5G24G31G29G22G21G18G 6G12
 118275241.86247  92162510.55447  22507042.8284   22507045.8494   22507042.3834
        50.000          43.000
 141654953.51347  92588247.11847  25053129.5754   25053131.9774   25053129.4124
        41.000          34.000
 121076285.92247  94345148.05447  23040060.5114   23040062.6294   23040060.6414
        46.000          41.000
 124215080.68447  96790967.32347  23637347.8124   23637351.2604   23637348.2714
        45.000          39.000
 126459078.02747  98539527.42447  24064371.6314   24064376.8014   24064371.9144
        43.000          38.000
 108804601.62347  84782795.14647  20704835.4274   20704837.3804   20704834.9414
        54.000          49.000
 130102268.75847 101378370.68347  24757653.7754   24757657.3384   24757654.3624
        42.000          36.000
 119648817.70747  93232847.03747  22768410.0174   22768410.4474   22768410.0934
        49.000          43.000
 107955999.21447  84121541.49247  20543356.4944   20543358.4344   20543356.8734
        55.000          48.000
 117481431.83447  91543965.86247  22355977.9554   22355980.4064   22355978.4884
        50.000          43.000
 124947992.96747  97362057.54147  23776823.9274   23776828.4004   23776824.7704
        43.000          38.000
 130203472.28247 101457236.54047  24776908.4714   24776911.9424   24776908.0364
        41.000          36.000
 09  1 22  1 11 30.0000000  0 12G30G16G14G 5G24G31G29G22G21G18G 6G12
 118262323.58847  92152444.39547  22504584.4134   22504587.6574   22504584.3244
        50.000          43.000
 141589302.95047  92537090.94647  25040634.7794   25040639.9884   25040635.9064
        41.000          34.000
 121117203.26747  94377031.70447  23047846.5264   23047849.0654   23047846.9084
        47.000          41.000
 124235854.12247  96807154.45147  23641300.2774   23641304.4994   23641301.0784
        45.000          39.000
 126556307.58247  98615290.66947  24082873.7264   24082878.5374   24082873.9014
        43.000          37.000
 108762883.19147  84750287.28947  20696896.9294   20696898.5884   20696896.5654
        54.000          49.000
 130153988.82247 101418672.00347  24767495.4284   24767499.9734   24767495.6104
        41.000          36.000
 119593851.70747  93190016.40847  22757950.2864   22757950.4904   22757950.2884
        49.000          43.000
 108015994.11347  84168290.74947  20554773.1334   20554775.1704   20554773.5184
        54.000          48.000
 117447255.45147  91517334.92547  22349474.6384   22349476.6504   22349475.1264
        50.000          43.000
 124941708.95347  97357160.89647  23775627.8154   23775632.8154   23775627.4214
        44.000          38.000
 130234861.50047 101481695.66347  24782881.0334   24782884.1874   24782881.1704
        41.000          36.000
 09  1 22  1 12  0.0000000  0 12G30G16G14G 5G24G31G29G22G21G18G 6G12
 118249666.28247  92142581.57647  22502175.7484   22502179.1474   22502175.3264
        50.000          43.000
 141523410.24647  92485746.07047  25028096.5274   25028100.5234   25028096.7444
        40.000          34.000
 121158068.19947  94408874.52747  23055623.2224   23055625.3844   23055623.4044
        47.000          41.000
 124256977.28047  96823614.07047  23645320.4834   23645324.3014   23645321.2014
        45.000          39.000
 126653683.22647  98691167.76247  24101403.8504   24101409.0224   24101403.9494
        43.000          37.000
 108721712.04647  84718205.88947  20689062.3224   20689063.9344   20689061.8304
        54.000          49.000
 130205480.26347 101458795.22047  24777294.3704   24777298.3894   24777294.2854
        41.000          36.000
 119538817.44947  93147132.58947  22747477.2444   22747477.7384   22747477.3914
        49.000          43.000
 108076497.97847  84215436.59447  20566286.7444   20566288.8424   20566287.1854
        55.000          48.000
 117413215.55147  91490810.35047  22342996.6744   22342999.3214   22342997.1554
        50.000          43.000
 124935550.53647  97352362.10747  23774456.6524   23774460.8664   23774456.5764
        44.000          38.000
 130266550.65047 101506388.54447  24788912.0404   24788914.0004   24788911.8104
        40.000          36.000
 09  1 22  1 12 30.0000000  0 12G30G16G14G 5G24G31G29G22G21G18G 6G12
 118237270.12947  92132922.26947  22499816.9264   22499820.2124   22499816.8884
        50.000          43.000
 141457274.44347  92434211.79647  25015510.5144   25015515.3144   25015511.3444
        40.000          34.000
 121198877.11847  94440673.70147  23063389.2304   23063391.2004   23063389.3634
        47.000          41.000
 124278449.38547  96840345.61147  23649406.3574   23649409.9594   23649406.8684
        44.000          39.000
 126751200.82247  98767155.47947  24119960.9414   24119966.0264   24119960.6814
        44.000          37.000
 108681087.51347  84686550.41547  20681331.6424   20681333.3144   20681331.1194
        54.000          49.000
 130256741.33247 101498738.91547  24787049.1444   24787053.3174   24787048.9004
        40.000          36.000
 119483715.53447  93104196.03947  22736991.6214   22736992.3174   22736991.5244
        49.000          43.000
 108137506.63747  84262975.78847  20577896.2854   20577898.4154   20577896.6924
        54.000          48.000
 117379312.93447  91464392.73247  22336545.4044   22336547.7134   22336546.0364
        50.000          43.000
 124929514.38947  97347658.62047  23773307.3534   23773312.0414   23773307.5464
        44.000          38.000
 130298538.12747 101531313.87547  24794998.6514   24795001.3364   24794998.7834
        40.000          35.000
 09  1 22  1 13  0.0000000  0 12G30G16G14G 5G24G31G29G22G21G18G 6G12
 118225137.07047  92123467.95747  22497508.2614   22497511.3374   22497507.7394
        50.000          43.000
 141390896.11247  92382488.50547  25002879.2444   25002884.1124   25002879.3054
        41.000          34.000
 121239627.32347  94472427.12447  23071143.5554   23071145.5354   23071143.9644
        47.000          41.000
 124300271.35747  96857349.76547  23653558.2114   23653562.7474   23653558.5384
        44.000          39.000
 126848857.84747  98843251.82547  24138544.0974   24138549.1934   24138543.9084
        43.000          37.000
 108641010.59347  84655321.66347  20673705.4604   20673707.0804   20673705.3904
        54.000          49.000
 130307771.03947 101538502.25147  24796759.3604   24796763.4474   24796759.0134
        41.000          36.000
 119428547.50647  93061207.96547  22726493.7804   22726494.2144   22726493.9744
        49.000          43.000
 108199017.30547  84310906.15847  20589601.5354   20589603.5204   20589601.8594
        54.000          48.000
 117345549.66247  91438083.70047  22330120.5254   22330122.6644   22330120.8734
        50.000          43.000
 124923598.33447  97343048.68847  23772181.4884   23772187.1444   23772181.9384
        44.000          38.000
 130330824.77947 101556472.32847  24801142.3724   24801144.3124   24801142.4264
        40.000          35.000
 09  1 22  1 13 30.0000000  0 12G30G16G14G 5G24G31G29G22G21G18G 6G12
 118213271.73247  92114222.26147  22495250.2414   22495253.4674   22495250.0964
        49.000          43.000
 141324278.27547  92330578.60547  24990202.5474   24990206.5554   24990202.3134
        39.000          34.000
 121280319.34847  94504135.21047  23078886.8524   23078888.7014   23078886.9134
        46.000          41.000
 124322446.54247  96874629.15047  23657778.3414   23657782.4894   23657778.5724
        44.000          39.000
 126946653.74147  98919456.38847  24157153.9824   24157159.2654   24157154.2214
        43.000          37.000
 108601485.31047  84624522.74747  20666183.9344   20666185.6274   20666183.3034
        55.000          49.000
 130358571.75147 101578087.22747  24806426.7784   24806429.4794   24806426.3884
        40.000          36.000
 119373317.60747  93018171.68147  22715983.9444   22715984.1294   22715983.8894
        49.000          43.000
 108261030.17847  84359227.85447  20601402.1984   20601404.0854   20601402.7094
        54.000          48.000
 117311931.12747  91411887.44147  22323723.0194   22323724.8214   22323723.5774
        50.000          43.000
 124917802.91947  97338532.77047  23771078.4204   23771083.7114   23771078.9004
        43.000          38.000
 130363413.68547 101581866.34047  24807344.0894   24807345.9704   24807343.8164
        40.000          35.000
 09  1 22  1 14  0.0000000  0 12G30G16G14G 5G24G31G29G22G21G18G 6G12
 118201674.43447  92105185.43447  22493043.0044   22493046.1314   22493042.6404
        50.000          43.000
 141257419.83847  92278481.23447  24977479.3364   24977484.0554   24977479.0554
        40.000          34.000
 121320949.25647  94535794.90047  23086618.4624   23086620.4384   23086618.6434
        47.000          41.000
 124344974.29347  96892183.26547  23662065.1944   23662069.3094   23662065.2554
        44.000          39.000
 127044584.30747  98995765.86247  24175789.5704   24175795.0204   24175790.4254
        42.000          37.000
 108562510.79847  84594153.00747  20658767.3614   20658768.9624   20658767.0454
        54.000          49.000
 130409141.20647 101617492.00447  24816049.6604   24816052.5364   24816049.3084
        40.000          36.000
 119318026.25847  92975087.52947  22705462.1904   22705462.6504   22705462.4054
        49.000          43.000
 108323541.20447  84407937.72647  20613297.5314   20613299.5844   20613297.8724
        55.000          48.000
 117278457.84247  91385804.36647  22317353.3274   22317355.2534   22317353.7214
        50.000          43.000
 124912124.93147  97334108.35147  23769998.3584   23770002.8584   23769998.2594
        43.000          38.000
 130396303.51247 101607494.81547  24813603.2124   24813605.6824   24813603.3974
        42.000          35.000
 09  1 22  1 14 30.0000000  0 12G30G16G14G 5G24G31G29G22G21G18G 6G12
 118190347.69247  92096359.42147  22490887.6754   22490890.8464   22490887.4834
        50.000          43.000
 141190321.90347  92226197.23647  24964710.9864   24964714.9204   24964711.4354
        40.000          35.000
 121361515.42447  94567404.92147  23094337.7954   23094339.7404   23094337.8144
        47.000          41.000
 124367855.82247  96910013.04047  23666419.4994   23666423.1584   23666419.8384
        44.000          38.000
 127142647.53347  99072178.71747  24194450.4234   24194455.8924   24194451.1004
        42.000          37.000
 108524088.61847  84564213.65947  20651456.1064   20651457.4304   20651455.7294
        55.000          49.000
 130459479.56447 101656716.70347  24825628.3314   24825632.5894   24825628.0094
        41.000          36.000
 119262676.09947  92931957.53747  22694929.5834   22694929.9334   22694929.5804
        49.000          43.000
 108386547.68047  84457033.66047  20625287.1014   20625289.3314   20625287.3104
        54.000          48.000
 117245132.61647  91359836.65147  22311012.0544   22311013.9764   22311012.4204
        50.000          43.000
 124906562.65047  97329774.10247  23768939.7664   23768944.2704   23768940.2364
        43.000          38.000
 130429495.88447 101633359.00547  24819919.8684   24819922.1154   24819919.5624
        39.000          35.000
 09  1 22  1 15  0.0000000  0 12G30G16G14G 5G24G31G29G22G21G18G 6G12
 118179294.05947  92087746.22147  22488784.5884   22488787.4794   22488784.0834
        50.000          43.000
 141122985.85247  92173727.67547  24951897.8264   24951902.4584   24951897.8844
        41.000          34.000
 121402015.93047  94598963.76747  23102044.7324   23102046.6084   23102044.6134
        46.000          41.000
 124391092.48247  96928119.54647  23670841.2904   23670845.1014   23670841.7744
        44.000          39.000
 127240841.13647  99148693.17847  24213136.0824   24213141.6224   24213136.2574
        42.000          37.000
 108486220.29647  84534705.87647  20644249.7284   20644251.3194   20644249.1844
        55.000          49.000
 130509586.74547 101695761.26747  24835164.0234   24835167.5544   24835163.1404
        40.000          36.000
 119207268.54447  92888782.81647  22684385.9544   22684386.4734   22684386.0604
        49.000          43.000
 108450048.30347  84506514.65047  20637371.0044   20637373.1054   20637371.3804
        55.000          48.000
 117211958.37647  91333986.60147  22304698.9104   22304701.1204   22304699.4644
        50.000          43.000
 124901114.77647  97325529.00347  23767903.6114   23767907.6204   23767903.9614
        44.000          38.000
 130462991.59147 101659459.57847  24826292.9514   24826295.8524   24826293.0234
        40.000          35.000
 09  1 22  1 15 30.0000000  0 12G30G16G14G 5G24G31G29G22G21G18G 6G12
 118168513.89647  92079346.11447  22486732.9304   22486736.0494   22486732.4554
        50.000          43.000
 141055410.17347  92121071.38447  24939037.7134   24939042.4164   24939038.9884
        41.000          35.000
 121442446.71047  94630468.26947  23109738.6654   23109740.5374   23109738.9954
        46.000          41.000
 124414683.27247  96946502.00347  23675329.9644   23675334.0784   23675330.4034
        44.000          38.000
 127339160.86447  99225305.90147  24231845.1604   24231851.2074   24231845.3434
        42.000          37.000
 108448904.49347  84505628.63847  20637148.7914   20637150.3564   20637148.4814
        54.000          49.000
 130559460.58747 101734623.99647  24844655.4334   24844658.3764   24844653.7464
        41.000          36.000
 119151804.38447  92845563.99947  22673831.1264   22673831.8304   22673831.5804
        49.000          43.000
 108514038.45647  84556377.09247  20649548.0474   20649550.1344   20649548.5094
        54.000          48.000
 117178935.40847  91308254.42547  22298414.9564   22298416.9484   22298415.3974
        50.000          43.000
 124895777.39547  97321370.01147  23766887.2744   23766892.0214   23766886.8814
        43.000          38.000
 140496768.11057  91685774.33257  24832723.0375   24832727.4755   24832723.1985
        37.000          35.000
 09  1 22  1 16  0.0000000  0 12G30G16G14G 5G24G31G29G22G21G18G 6G12
 118158012.80047  92071163.47047  22484734.6344   22484737.7214   22484734.4134
        50.000          44.000
 140987599.27147  92068231.81747  24926134.2094   24926137.0104   24926134.9584
        41.000          34.000
 121482809.25047  94661919.61547  23117419.0454   23117421.5234   23117419.1524
        46.000          40.000
 124438632.59247  96965163.83647  23679887.9244   23679891.3194   23679888.2304
        45.000          39.000
 127437607.70547  99302017.69647  24250579.5584   24250585.0274   24250579.7364
        43.000          36.000
 108412146.42147  84476985.99447  20630153.8364   20630155.6044   20630153.4434
        54.000          49.000
 130609104.56347 101773307.60347  24854101.0134   24854105.2174   24854101.1534
        41.000          36.000
 119096289.04847  92802305.31147  22663266.8594   22663267.5174   22663266.8014
        50.000          43.000
 108578519.11947  84606621.74947  20661818.2354   20661820.3504   20661818.5784
        54.000          48.000
 117146070.15147  91282645.12647  22292160.7794   22292162.8474   22292161.4254
        50.000          43.000
 124890552.34647  97317298.52947  23765893.6004   23765897.2004   23765893.9644
        44.000          38.000
 120530906.47257 111712383.38457  24839214.5495   24839216.5925   24839213.5835
        41.000          35.000
 09  1 22  1 16 30.0000000  0 12G30G16G14G 5G24G31G29G22G21G18G 6G12
 118147790.63947  92063198.16547  22482789.3754   22482792.3524   22482789.1984
        50.000          44.000
 140919551.88047  92015207.96847  24913185.5974   24913188.8674   24913187.0944
        41.000          34.000
 121523099.20247  94693314.40747  23125085.6694   23125088.7424   23125085.9794
        46.000          41.000
 124462939.17547  96984104.05347  23684512.9994   23684516.6644   23684513.9194
        45.000          39.000
 127536176.98047  99378824.88447  24269336.9594   24269342.2154   24269337.1264
        42.000          36.000
 108375945.19347  84448777.24747  20623264.8334   20623266.5104   20623264.3664
        54.000          49.000
 130658516.10147 101811810.10047  24863503.8534   24863508.2784   24863504.3824
        40.000          36.000
 119040721.94847  92759006.26947  22652693.2414   22652693.6214   22652693.3354
        49.000          43.000
 108643485.64547  84657245.00047  20674180.8984   20674183.0064   20674181.3564
        54.000          47.000
 117113362.71647  91257158.80747  22285936.9644   22285939.0524   22285937.5054
        51.000          43.000
 124885435.64047  97313311.47547  23764919.2924   23764924.1994   23764919.1314
        43.000          38.000
 120565314.27347 111739194.66747  24845762.2034   24845764.4994   24845762.5074
        40.000          35.000
 09  1 22  1 17  0.0000000  0 12G30G16G14G 5G24G31G29G22G21G18G 6G12
 118137848.82947  92055451.31447  22480897.7854   22480900.4654   22480897.6854
        50.000          44.000
 140851268.24347  91962000.03347  24900191.0594   24900195.0964   24900191.7454
        39.000          34.000
 121563314.31047  94724650.86547  23132738.9614   23132740.8504   23132739.1884
        46.000          40.000
 124487603.54147  97003323.06147  23689206.8404   23689210.0414   23689207.5104
        45.000          39.000
 127634865.79447  99455725.19647  24288116.2294   24288122.0294   24288117.2254
        42.000          36.000
 108340301.02347  84421002.57547  20616481.9874   20616483.7284   20616481.7004
        54.000          49.000
 130707694.58447 101850130.99247  24872862.2564   24872866.1274   24872862.1674
        40.000          36.000
 118985104.88547  92715668.30047  22642109.4164   22642109.6174   22642109.4654
        50.000          43.000
 108708934.87947  84708244.38347  20686635.5184   20686637.7024   20686635.9444
        54.000          47.000
 117080815.27347  91231797.16347  22279743.3764   22279745.4474   22279743.9824
        50.000          43.000
 124880425.21447  97309407.22547  23763966.6004   23763970.9624   23763967.2284
        44.000          39.000
 120600027.03447 111766243.63147  24852366.6724   24852369.3274   24852367.5704
        39.000          35.000
 09  1 22  1 17 30.0000000  0 12G30G16G14G 5G24G31G29G22G21G18G 6G12
 118128190.58547  92047925.42947  22479059.5524   22479062.7274   22479059.3094
        50.000          43.000
 140782749.95247  91908609.27547  24887152.1854   24887155.5664   24887152.6524
        41.000          35.000
 121603453.53347  94755928.19047  23140377.4334   23140379.0274   23140377.7464
        46.000          41.000
 124512627.51847  97022822.26847  23693968.9504   23693972.3074   23693969.3844
        45.000          39.000
 127733672.43247  99532717.34247  24306919.0554   24306925.2324   24306919.1534
        42.000          36.000
 108305215.96247  84393663.57147  20609805.5004   20609807.2154   20609805.0224
        54.000          49.000
 130756640.67747 101888270.80447  24882176.0944   24882180.4724   24882176.3834
        40.000          36.000
 118929441.12847  92672293.92947  22631517.0854   22631517.0704   22631516.9754
        50.000          43.000
 108774865.39647  84759618.79447  20699181.5764   20699183.8684   20699181.8944
        54.000          47.000
 117048431.09647  91206562.74947  22273580.7524   22273582.6764   22273581.1574
        50.000          43.000
 124875520.04247  97305585.01947  23763032.7694   23763036.9444   23763032.3894
        43.000          39.000
 140635091.90957  91793578.09657  24859031.2045   24859034.3085   24859031.1035
        39.000          34.000
 09  1 22  1 18  0.0000000  0 12G30G16G14G 5G24G31G29G22G21G18G 6G12
 118118818.31047  92040622.37747  22477276.3144   22477279.1334   22477275.8504
        50.000          43.000
 140713998.38847  91855036.72347  24874068.4184   24874073.7084   24874070.1854
        41.000          35.000
 121643514.93747  94787144.86147  23148000.2644   23148002.4304   23148000.7384
        46.000          41.000
 124538012.13847  97042602.50647  23698799.6054   23698802.8614   23698799.9244
        46.000          39.000
 127832594.69347  99609799.59947  24325743.3874   24325748.8224   24325742.3054
        41.000          36.000
 108270691.13847  84366761.11647  20603235.5514   20603237.3744   20603235.1464
        54.000          49.000
 130805354.51247 101926229.61547  24891446.2634   24891450.5724   24891445.8174
        41.000          36.000
 118873732.75947  92628884.81347  22620915.8744   22620916.2484   22620915.9034
        49.000          43.000
 108841274.84547  84811366.39947  20711818.9594   20711821.0514   20711819.3614
        54.000          47.000
 117016213.27347  91181457.96447  22267450.0094   22267451.9724   22267450.4934
        50.000          43.000
 124870718.68847  97301843.69147  23762119.1524   23762123.8214   23762119.4904
        44.000          38.000
 140670418.09447  91821104.99247  24865753.6044   24865755.2884   24865753.0504
        38.000          34.000
 09  1 22  1 18 30.0000000  0 12G30G16G14G 5G24G31G29G22G21G18G 6G12
 118109734.29847  92033543.95547  22475547.3714   22475550.6734   22475547.2144
        50.000          44.000
 140645014.43947  91801283.08547  24860943.0064   24860946.1314   24860943.6104
        42.000          35.000
 121683496.19447  94818299.09047  23155608.5364   23155610.7574   23155608.8604
        47.000          41.000
 124563758.39847  97062664.54847  23703698.5804   23703702.0844   23703698.9184
        44.000          38.000
 127931630.10247  99686970.00047  24344588.8664   24344594.7764   24344588.5324
        42.000          36.000
 108236727.69947  84340296.10647  20596772.6084   20596774.3194   20596772.2104
        54.000          49.000
 130853835.97147 101964007.34747  24900672.2174   24900676.8774   24900671.8144
        40.000          36.000
 118817981.99747  92585442.65247  22610307.0484   22610307.3184   22610307.0294
        49.000          43.000
 108908160.78947  84863485.30247  20724547.0384   20724549.0994   20724547.5014
        54.000          47.000
 116984164.41147  91156484.81747  22261351.0074   22261353.4754   22261351.5884
        50.000          43.000
 124866019.34847  97298181.84247  23761225.1284   23761229.7584   23761224.9674
        42.000          38.000
 140706051.97347  91848871.68847  24872534.7934   24872536.7914   24872533.9264
        38.000          34.000
 09  1 22  1 19  0.0000000  0 12G30G16G14G 5G24G31G29G22G21G18G 6G12
 118100938.67647  92026690.24647  22473873.4944   22473876.8054   22473873.3594
        50.000          43.000
 140575797.40047  91747347.82847  24847769.6454   24847774.0384   24847771.1234
        42.000          35.000
 121723394.64247  94849388.80447  23163201.3814   23163203.1694   23163201.8144
        47.000          41.000
 124589865.59547  97083007.83747  23708665.5234   23708670.4904   23708666.1164
        44.000          38.000
 128030774.76647  99764225.55447  24363455.4184   24363461.2394   24363455.3614
        41.000          36.000
 108203325.09247  84314268.10747  20590416.3204   20590418.1364   20590415.8924
        54.000          49.000
 130902083.35747 102001602.69947  24909852.7414   24909858.3134   24909852.9284
        42.000          37.000
 118762189.21947  92541967.77447  22599689.8634   22599690.7204   22599689.9184
        49.000          43.000
 108975518.96747  84915972.17447  20737364.9574   20737366.9874   20737365.3224
        54.000          47.000
 116952285.09447  91131643.79947  22255284.7354   22255286.9904   22255285.0834
        50.000          43.000
 124861418.59547  97294596.84747  23760349.6254   23760354.2134   23760349.2694
        44.000          39.000
 120741915.41257 111876800.22457  24879372.9145   24879375.4265   24879371.3625
        38.000          34.000
 09  1 22  1 19 30.0000000  0 12G30G16G14G 5G24G31G29G22G21G18G 6G12
 118092435.84647  92020064.69447  22472255.6914   22472258.4394   22472255.4974
        50.000          43.000
 140506350.29347  91693233.27947  24834554.6564   24834558.8684   24834555.7994
        41.000          35.000
 121763209.90047  94880413.68947  23170777.4894   23170779.8614   23170778.0554
        46.000          41.000
 124616336.80447  97103634.75847  23713703.7534   23713707.5044   23713704.1164
        44.000          38.000
 128130028.45947  99841566.05547  24382343.2214   24382348.4404   24382342.7864
        42.000          36.000
 108170486.53447  84288679.62847  20584167.3924   20584169.1774   20584167.0784
        55.000          50.000
 130950098.75147 102039017.30747  24918990.5334   24918994.6954   24918989.7324
        41.000          37.000
 118706358.99347  92498463.71047  22589065.5264   22589066.2214   22589065.5864
        49.000          43.000
 109043348.97647  84968826.71147  20750272.4274   20750274.6784   20750272.7304
        54.000          47.000
 116920580.65947  91106939.04847  22249251.8834   22249253.4944   22249252.3554
        50.000          43.000
 124856917.05147  97291089.12547  23759492.8064   23759497.5304   23759493.3744
        43.000          38.000
 120778165.49347 111905047.03447  24886271.8624   24886274.3764   24886270.5174
        38.000          34.000
 09  1 22  1 20  0.0000000  0 12G30G16G14G 5G24G31G29G22G21G18G 6G12
 118084226.31147  92013667.67747  22470693.3514   22470696.3454   22470693.0554
        49.000          43.000
 140436672.62347  91638939.07647  24821295.0504   24821298.8574   24821296.4554
        41.000          34.000
 121802938.71547  94911371.19747  23178337.5354   23178340.0884   23178337.6264
        46.000          41.000
 124643171.33847  97124544.81547  23718810.4834   23718813.7804   23718811.0414
        45.000          38.000
 128229387.46247  99918988.63547  24401250.3274   24401255.9854   24401250.0474
        42.000          36.000
 108138211.08347  84263529.93447  20578025.7664   20578027.3554   20578025.3774
        55.000          50.000
 130997880.38747 102076249.74347  24928082.8994   24928086.3224   24928082.2864
        40.000          36.000
 118650491.74447  92454930.78447  22578434.4934   22578434.8684   22578434.4384
        49.000          43.000
 109111646.66247  85022045.66747  20763269.1204   20763271.4144   20763269.6214
        54.000          47.000
 116889051.76847  91082371.08247  22243251.9794   22243253.7774   22243252.3454
        50.000          43.000
 124852511.40947  97287656.16047  23758653.9314   23758659.1634   23758653.9474
        44.000          38.000
 120814724.26547 111933534.41747  24893229.3024   24893231.8954   24893228.5504
        38.000          34.000
 09  1 22  1 20 30.0000000  0 12G30G16G14G 5G24G31G29G22G21G18G 6G12
 118076311.52847  92007500.34647  22469187.2734   22469190.3484   22469186.7174
        49.000          43.000
 140366764.39747  91584465.20847  24807992.3594   24807996.0554   24807992.7384
        40.000          35.000
 121842578.08547  94942259.02047  23185880.7644   23185883.3874   23185881.1234
        46.000          40.000
 124670369.03247  97145737.83947  23723985.5964   23723989.2424   23723986.3154
        44.000          38.000
 128328848.11147  99996490.39947  24420176.3954   24420182.5634   24420176.6134
        40.000          35.000
 108106499.17047  84238819.36447  20571991.0304   20571992.7934   20571990.5994
        54.000          50.000
 131045427.10747 102113299.13147  24937130.8144   24937134.6274   24937130.6924
        41.000          36.000
 118594588.77447  92411370.03447  22567796.2644   22567796.9834   22567796.0704
        49.000          43.000
 109180408.94647  85075626.65647  20776354.0314   20776356.3014   20776354.4874
        54.000          47.000
 116857699.80847  91057940.98347  22237285.8054   22237287.9214   22237286.0964
        50.000          43.000
 124848198.88347  97284295.72947  23757834.3154   23757838.4774   23757834.4334
        44.000          39.000
 120851590.93747 111962261.70247  24900244.0734   24900246.3884   24900243.1744
        37.000          34.000
 09  1 22  1 21  0.0000000  0 12G30G16G14G 5G24G31G29G22G21G18G 6G12
 118068695.94347  92001566.15947  22467737.7154   22467741.0624   22467737.2814
        49.000          43.000
 140296629.35947  91529814.59847  24794646.8264   24794650.8544   24794646.4764
        40.000          35.000
 121882128.92247  94973077.85447  23193406.9294   23193409.5434   23193407.1454
        46.000          41.000
 124697933.42647  97167216.59147  23729231.3254   23729234.3574   23729231.5924
        44.000          38.000
 128428410.42847 100074071.39047  24439122.1954   24439128.6894   24439122.0514
        40.000          35.000
 108075354.10947  84214550.49347  20566064.2354   20566065.9264   20566063.9984
        54.000          50.000
 131092741.63447 102150167.57647  24946133.9604   24946138.9714   24946133.7884
        39.000          36.000
 118538654.99347  92367785.27547  22557152.6924   22557153.1534   22557152.7454
        50.000          43.000
 109249635.70347  85129569.56747  20789527.3544   20789529.6724   20789527.6184
        54.000          47.000
 116826530.19447  91033652.97947  22231354.0444   22231356.3214   22231354.6034
        50.000          43.000
 124843980.46047  97281008.65247  23757030.8314   23757035.4574   23757030.6724
        44.000          38.000
 140888838.13257  91991295.76157  24907320.3105   24907321.3505   24907318.9125
        39.000          34.000
 09  1 22  1 21 30.0000000  0 12G30G16G14G 5G24G31G29G22G21G18G 6G12
 118061380.14447  91995865.56647  22466346.0734   22466348.8694   22466345.7544
        50.000          43.000
 140226266.75147  91474986.68247  24781256.3894   24781260.3484   24781256.7244
        40.000          35.000
 121921587.76147  95003825.00147  23200915.9034   23200917.9824   23200915.9074
        46.000          40.000
 124725863.92947  97188980.64247  23734545.6844   23734550.1254   23734546.0754
        44.000          38.000
 128528070.90047 100151728.88147  24458086.9174   24458092.9554   24458086.9314
        41.000          36.000
 108044775.49047  84190723.01347  20560245.4004   20560247.0514   20560245.0994
        55.000          50.000
 131139823.05747 102186854.37347  24955093.0154   24955098.4134   24955092.9004
        40.000          35.000
 118482691.12247  92324177.07047  22546503.2854   22546503.3424   22546503.3104
        50.000          43.000
 109319322.92647  85183871.28947  20802788.6044   20802790.6814   20802789.1614
        54.000          47.000
 116795544.11347  91009507.98647  22225457.9134   22225460.0964   22225458.3674
        51.000          43.000
 124839852.92847  97277792.37247  23756245.5654   23756250.2394   23756246.0204
        43.000          38.000
 120926290.78557 112020475.69757  24914451.9335   24914453.9715   24914452.4605
        39.000          34.000
 09  1 22  1 22  0.0000000  0 12G30G16G14G 5G24G31G29G22G21G18G 6G12
 118054366.57447  91990400.47347  22465011.2504   22465014.0034   22465010.9614
        50.000          43.000
 140155677.83647  91419982.40647  24767824.2204   24767827.3684   24767823.7964
        41.000          35.000
 121960952.72347  95034499.01947  23208406.6444   23208409.0014   23208406.8214
        46.000          41.000
 124754161.29947  97211030.56847  23739930.3194   23739934.8644   23739931.4284
        44.000          38.000
 128627827.27047 100229461.06447  24477070.8554   24477077.0314   24477070.4924
        41.000          36.000
 108014764.22647  84167337.62347  20554534.3874   20554536.1304   20554533.8764
        54.000          50.000
 131186670.74647 102223359.04147  24964008.8254   24964012.4674   24964008.6604
        40.000          36.000
 118426699.30747  92280547.08147  22535848.1884   22535848.6614   22535848.2324
        50.000          43.000
 109389468.14247  85238529.88847  20816136.8094   20816138.9134   20816137.1674
        54.000          47.000
 116764744.43147  90985508.22847  22219597.0454   22219599.2114   22219597.8124
        50.000          43.000
 124835814.72647  97274645.73947  23755476.9634   23755482.2594   23755476.7814
        44.000          38.000
 120964090.39847 112049929.99947  24921646.7494   24921647.7274   24921645.8004
        40.000          34.000
 09  1 22  1 22 30.0000000  0 12G30G16G14G 5G24G31G29G22G21G18G 6G12
 118047655.94547  91985171.43147  22463734.3034   22463737.2654   22463734.0324
        49.000          44.000
 140084862.43747  91364801.62847  24754349.3184   24754352.0644   24754349.1434
        41.000          35.000
 122000220.58947  95065097.36647  23215879.3014   23215881.4254   23215879.4244
        46.000          41.000
 124782825.00147  97233365.94647  23745385.3824   23745388.8314   23745385.7774
        44.000          38.000
 128727675.55047 100307264.87647  24496071.2274   24496077.7644   24496072.0014
        41.000          36.000
 107985319.48847  84144393.68347  20548931.2054   20548932.7064   20548930.8774
        55.000          50.000
 131233283.37447 102259680.54647  24972879.1444   24972882.5114   24972878.7754
        40.000          36.000
 118370680.52147  92236896.08147  22525188.5174   22525188.7874   22525188.3794
        50.000          44.000
 109460066.99047  85293541.95847  20829571.3584   20829573.5524   20829571.7394
        54.000          47.000
 116734132.30847  90961654.63947  22213771.2114   22213773.8914   22213771.7864
        50.000          43.000
 124831862.53447  97271566.08347  23754725.3064   23754729.6584   23754725.8094
        44.000          38.000
 121002200.29347 112079626.04347  24928896.9974   24928900.3554   24928897.0484
        38.000          34.000
 09  1 22  1 23  0.0000000  0 12G30G16G14G 5G24G31G29G22G21G18G 6G12
 118041252.41947  91980181.70147  22462515.5754   22462518.3594   22462514.9804
        50.000          43.000
 140013823.95847  91309447.03047  24740830.3754   24740833.4354   24740830.5274
        41.000          35.000
 122039392.35747  95095620.82247  23223333.4574   23223335.3964   23223333.6424
        47.000          41.000
 124811858.32147  97255989.33747  23750909.5004   23750914.1624   23750910.1814
        43.000          38.000
 128827615.99347 100385140.51147  24515089.7764   24515095.1574   24515089.8184
        41.000          35.000
 107956444.94947  84121894.05647  20543436.4724   20543438.2424   20543436.2394
        55.000          50.000
 131279663.33847 102295820.77547  24981703.5824   24981709.0424   24981703.7244
        39.000          36.000
 118314639.61147  92193227.83947  22514524.4174   22514524.7564   22514524.5914
        50.000          43.000
 109531119.71947  85348907.71147  20843092.3954   20843094.4044   20843092.7484
        54.000          47.000
 116703712.81647  90937951.14747  22207983.0304   22207985.1834   22207983.4754
        51.000          43.000
 124827997.26947  97268554.19547  23753989.0744   23753994.1044   23753989.0224
        43.000          38.000
 121040623.48747 112109566.18447  24936209.7354   24936212.6314   24936209.1064
        39.000          34.000
 09  1 22  1 23 30.0000000  0 12G30G16G14G 5G24G31G29G22G21G18G 6G12
 118035155.71347  91975431.04547  22461355.3764   22461358.1934   22461355.1534
        50.000          44.000
 139942560.66747  91253917.25247  24727268.4804   24727272.4534   24727269.0814
        40.000          35.000
 122078463.34747  95126065.76247  23230768.3914   23230770.4324   23230768.6424
        47.000          41.000
 124841259.58947  97278899.42547  23756505.0154   23756508.4254   23756505.1304
        44.000          38.000
 128927643.60547 100463084.09647  24534123.7214   24534129.4504   24534124.2274
        41.000          36.000
 107928138.83747  84099837.36047  20538049.8694   20538051.7724   20538049.3754
        54.000          50.000
 131325808.59947 102331778.12047  24990485.1944   24990490.3514   24990484.5614
        39.000          36.000
 118258576.36147  92149542.19947  22503855.6674   22503855.9444   22503855.6434
        50.000          43.000
 109602621.10747  85404623.05947  20856698.7524   20856700.5954   20856699.3034
        54.000          47.000
 116673486.07047  90914397.84947  22202230.8804   22202232.9834   22202231.3024
        50.000          43.000
 124824214.73047  97265606.75347  23753269.8234   23753275.2434   23753269.9244
        43.000          38.000
 121079357.74147 112139748.75247  24943580.0054   24943582.9524   24943579.7474
        38.000          35.000
 09  1 22  1 24  0.0000000  0 12G30G16G14G 5G24G31G29G22G21G18G 6G12
 118029368.31547  91970921.40147  22460254.4414   22460257.2474   22460254.2224
        50.000          44.000
 139871074.35447  91198213.64247  24713666.0724   24713668.1104   24713665.5114
        40.000          35.000
 122117432.09047  95156431.04547  23238183.9054   23238186.1364   23238184.1684
        46.000          41.000
 124871029.79847  97302097.00747  23762169.7384   23762173.9164   23762170.4894
        45.000          38.000
 129027756.66647 100541094.24547  24553174.7604   24553180.5824   24553174.9774
        42.000          36.000
 107900402.01247  84078224.26247  20532771.8434   20532773.7304   20532771.5154
        55.000          50.000
 131371719.35747 102367552.73647  24999221.9364   24999226.6384   24999221.5144
        39.000          35.000
 118202493.26747  92105841.10247  22493183.2344   22493183.7414   22493183.3964
        49.000          43.000
 109674568.98847  85460686.32947  20870389.8274   20870391.7624   20870390.1034
        54.000          47.000
 116643455.07147  90890997.08647  22196516.1774   22196518.4344   22196516.5964
        50.000          43.000
 124820513.52947  97262722.70247  23752565.3254   23752570.1054   23752565.7184
        44.000          38.000
 121118404.34147 112170174.69247  24951010.5754   24951012.7624   24951010.2694
        39.000          35.000
 09  1 22  1 24 30.0000000  0 12G30G16G14G 5G24G31G29G22G21G18G 6G12
 118023894.20347  91966655.87547  22459212.5894   22459215.4614   22459212.2854
        50.000          43.000
 139799368.10547  91142338.69347  24700020.6084   24700023.6944   24700020.6864
        41.000          35.000
 122156298.82447  95186716.80647  23245579.8234   23245582.1914   23245580.1214
        46.000          41.000
 124901171.79747  97325584.28547  23767905.4004   23767910.2354   23767905.8824
        44.000          38.000
 129127954.47547 100619170.45647  24572241.6834   24572247.5804   24572241.6164
        41.000          35.000
 107873237.56647  84057057.17747  20527602.7204   20527604.3504   20527602.3834
        54.000          50.000
 131417397.86847 102403146.42247  25007913.5024   25007918.3294   25007913.3374
        39.000          35.000
 118146394.72347  92062127.95547  22482508.1244   22482508.6164   22482507.8604
        50.000          43.000
 109746962.40147  85517096.76347  20884165.8294   20884167.8634   20884166.3114
        54.000          47.000
 116613624.32447  90867752.35547  22190839.9694   22190841.4744   22190840.4254
        50.000          43.000
 124816893.99947  97259902.28847  23751877.0954   23751881.5384   23751877.3694
        44.000          39.000
 121157764.98047 112200845.33547  24958500.6854   24958503.3524   24958500.8924
        38.000          35.000
 09  1 22  1 25  0.0000000  0 12G30G16G14G 5G24G31G29G22G21G18G 6G12
 118018732.91047  91962634.09947  22458230.3544   22458233.2714   22458230.1394
        49.000          43.000
 139727440.42347  91086291.18347  24686333.1134   24686336.5694   24686333.0474
        41.000          36.000
 122195059.49047  95216919.91847  23252955.6744   23252957.9794   23252955.9834
        45.000          41.000
 124931683.69747  97349359.80947  23773711.9924   23773715.7224   23773712.2344
        44.000          38.000
 129228232.26847 100697308.97047  24591323.9224   24591329.6444   24591323.8444
        40.000          35.000
 107846643.55647  84036334.58047  20522541.9184   20522543.6724   20522541.5794
        55.000          50.000
 131462841.23747 102438556.87547  25016561.8474   25016566.2054   25016560.8574
        40.000          35.000
 118090280.11647  92018402.29447  22471829.5724   22471830.3944   22471829.6634
        50.000          44.000
 109819796.22347  85573850.37447  20898025.8054   20898027.7844   20898026.2204
        54.000          47.000
 116583993.70547  90844663.57547  22185201.2404   22185202.9854   22185201.6014
        50.000          43.000
 124813351.69247  97257142.04947  23751202.7474   23751207.1304   23751203.1224
        44.000          39.000
 121197438.40747 112231759.72147  24966050.6524   24966053.0184   24966050.4124
        40.000          35.000
 09  1 22  1 25 30.0000000  0 12G30G16G14G 5G24G31G29G22G21G18G 6G12
 118013895.45347  91958864.66447  22457309.5674   22457312.4904   22457309.1904
        50.000          43.000
 139655301.34347  91030078.95647  24672604.5334   24672609.3714   24672604.8664
        41.000          35.000
 122233720.99847  95247045.77147  23260312.8274   23260314.8534   23260313.0754
        46.000          41.000
 124962575.14047  97373431.08647  23779590.1754   23779594.2924   23779590.6114
        44.000          38.000
 129328596.75647 100775515.04747  24610423.4564   24610428.7784   24610423.0204
        40.000          35.000
 107820629.43447  84016063.84747  20517591.6374   20517593.2594   20517591.2754
        55.000          50.000
 131508058.57947 102473791.19247  25025165.9354   25025170.6014   25025165.5244
        40.000          35.000
 118034160.84747  91974672.99647  22461150.8404   22461151.0654   22461150.6534
        50.000          43.000
 109893076.86647  85630952.16147  20911970.5354   20911972.7144   20911970.7974
        54.000          47.000
 116554575.04847  90821739.94447  22179602.9994   22179605.0904   22179603.3994
        50.000          43.000
 124809894.15747  97254447.85047  23750544.5384   23750549.8384   23750544.4594
        44.000          38.000
 121237433.75447 112262924.91947  24973661.6714   24973663.5624   24973660.8614
        39.000          34.000
 09  1 22  1 26  0.0000000  0 12G30G16G14G 5G24G31G29G22G21G18G 6G12
 118009367.80947  91955336.63947  22456447.9544   22456450.9274   22456447.5784
        49.000          43.000
 139582935.88047  90973690.30147  24658833.9734   24658838.3144   24658834.3564
        42.000          36.000
 122272265.45647  95277080.41947  23267647.7114   23267649.9464   23267647.7754
        46.000          41.000
 124993830.69847  97397786.07947  23785538.1754   23785541.9594   23785538.7264
        45.000          38.000
 129429029.12647 100853774.00547  24629534.8754   24629539.8554   24629534.9414
        41.000          35.000
 107795179.79247  83996232.96447  20512748.7794   20512750.3594   20512748.3444
        55.000          50.000
 131553033.91247 102508836.90547  25033724.8394   25033728.6894   25033725.4454
        40.000          35.000
 117978023.06047  91930929.25747  22450468.0814   22450468.4504   22450468.0894
        50.000          44.000
 109966785.24347  85688387.24247  20925996.8794   20925999.0094   20925997.3444
        54.000          47.000
 116525354.76447  90798970.91547  22174042.4914   22174044.6884   22174042.9384
        50.000          43.000
 124806503.20847  97251805.51947  23749899.4644   23749903.2074   23749900.1654
        43.000          38.000
 121277735.19647 112294328.67447  24981330.2714   24981333.2904   24981329.6874
        38.000          34.000
 09  1 22  1 26 30.0000000  0 12G30G16G14G 5G24G31G29G22G21G18G 6G12
 118005160.36547  91952058.12647  22455647.3414   22455650.3044   22455646.9884
        49.000          43.000
 139510353.74147  90917132.83147  24645022.8004   24645026.5014   24645023.1254
        42.000          36.000
 122310699.60547  95307029.09547  23274961.5954   23274963.7594   23274961.6824
        46.000          41.000
 125025459.45247  97422431.86947  23791556.8114   23791560.6584   23791557.2154
        44.000          38.000
 129529535.59747 100932090.70547  24648661.0594   24648666.5074   24648660.8064
        42.000          35.000
 107770303.89547  83976849.15547  20508015.0914   20508016.6974   20508014.6924
        55.000          50.000
 131597775.77647 102543700.69947  25042240.0844   25042243.6084   25042238.9174
        40.000          35.000
 117921877.54747  91887179.50847  22439784.0064   22439784.4104   22439783.9884
        50.000          44.000
 110040927.53447  85746160.44347  20940105.6814   20940107.7194   20940106.0444
        54.000          47.000
 116496343.72947  90776364.92747  22168522.1094   22168524.0134   22168522.5714
        51.000          43.000
 124803185.72347  97249220.47247  23749267.7524   23749272.6964   23749268.0354
        43.000          38.000
 141318299.61057  92325925.84057  24989058.1265   24989064.4645   24989057.9155
        37.000          33.000
 09  1 22  1 27  0.0000000  0 12G30G16G14G 5G24G31G29G22G21G18G 6G12
 118001266.28447  91949023.78147  22454906.5194   22454909.4514   22454906.0414
        49.000          43.000
 139437547.13447  90860400.43247  24631168.4884   24631172.1384   24631168.1584
        41.000          36.000
 122349012.98047  95336883.67147  23282252.4774   23282254.3834   23282252.6474
        46.000          41.000
 125057453.27947  97447362.15047  23797645.3854   23797648.4064   23797645.8554
        45.000          38.000
 129630105.15347 101010456.60547  24667799.0114   24667804.1024   24667798.2584
        41.000          36.000
 107745993.48947  83957905.99047  20503389.0004   20503390.6604   20503388.6874
        55.000          50.000
 141642320.50457  92578419.79857  25050707.5035   25050711.4055   25050707.0455
        38.000          35.000
 117865718.30447  91843419.05647  22429097.2594   22429097.6414   22429097.3334
        50.000          44.000
 110115491.98347  85804262.60147  20954294.8764   20954296.9094   20954295.3404
        54.000          47.000
 116467535.90047  90753917.25847  22163040.1754   22163041.7414   22163040.7424
        51.000          44.000
 124799931.38647  97246684.61047  23748648.8604   23748653.9384   23748648.7484
        43.000          38.000
 121359212.60357 112357804.94557  24996845.0575   24996850.3035   24996846.4155
        39.000          33.000
 09  1 22  1 27 30.0000000  0 12G30G16G14G 5G24G31G29G22G21G18G 6G12
 117997705.57947  91946249.23047  22454229.0264   22454231.7754   22454228.8894
        49.000          43.000
 139364535.52947  90803508.29247  24617274.1264   24617278.1344   24617274.6974
        43.000          36.000
 122387221.79747  95366656.77947  23289523.2744   23289525.3884   23289523.4694
        46.000          41.000
 125089830.98847  97472591.56347  23803806.7834   23803810.3064   23803807.2864
        45.000          38.000
 129730753.80347 101088884.12147  24686951.2444   24686956.6834   24686950.6854
        41.000          35.000
 107722267.31647  83939418.07047  20498874.1594   20498875.5524   20498873.7934
        55.000          50.000
 141686596.55447  92612920.63747  25059132.4174   25059136.8564   25059131.8514
        39.000          35.000
 117809565.30247  91799663.48147  22418411.1874   22418412.1124   22418411.2514
        50.000          44.000
 110190494.13347  85862705.82247  20968567.1654   20968569.4514   20968567.4254
        53.000          47.000
 116438951.63047  90731643.80447  22157600.6554   22157602.4414   22157601.0674
        51.000          44.000
 124796756.44347  97244210.64047  23748044.1334   23748049.4914   23748044.6374
        43.000          38.000
 121400461.00747 112389946.58347  25004696.3284   25004698.7834   25004695.8234
        40.000          35.000
 09  1 22  1 28  0.0000000  0 12G30G16G14G 5G24G31G29G22G21G18G 6G12
 117994469.61747  91943727.71347  22453612.7614   22453615.9734   22453612.6284
        49.000          43.000
 139291309.46147  90746449.06247  24603339.6104   24603343.3564   24603340.8804
        42.000          36.000
 122425313.74247  95396338.82347  23296771.7434   23296773.8184   23296771.9614
        46.000          40.000
 125122582.55747  97498112.26447  23810039.3254   23810042.4014   23810039.8644
        45.000          38.000
 129831468.42347 101167363.02747  24706116.5104   24706121.9374   24706116.3064
        41.000          35.000
 107699115.11447  83921377.39547  20494468.3184   20494469.9974   20494467.9624
        55.000          50.000
 141730638.18447  92647238.84147  25067512.9214   25067517.9574   25067513.1074
        40.000          36.000
 117753409.96947  91755906.07947  22407725.4834   22407726.3024   22407725.5974
        51.000          44.000
 110265920.69847  85921479.74647  20982920.2264   20982922.6194   20982920.5674
        54.000          47.000
 116410583.49447  90709538.77847  22152202.3394   22152204.3774   22152202.7394
        51.000          44.000
 124793648.55647  97241788.88947  23747453.8384   23747457.7114   23747453.7034
        44.000          38.000
 121442024.31547 112422333.59047  25012605.5724   25012608.2154   25012605.2284
        39.000          35.000
 09  1 22  1 28 30.0000000  0 12G30G16G14G 5G24G31G29G22G21G18G 6G12
 117991559.67147  91941460.24947  22453059.0234   22453062.4674   22453058.6904
        50.000          43.000
 139217869.29847  90689222.99947  24589363.7664   24589368.0144   24589365.2244
        42.000          36.000
 122463286.44547  95425927.93547  23303997.5964   23303999.4474   23303997.7964
        46.000          40.000
 125155707.73747  97523924.10547  23816342.1654   23816346.2384   23816342.9104
        44.000          38.000
 129932245.71247 101245890.83247  24725294.4274   24725298.7644   24725293.5644
        41.000          35.000
 107676537.02147  83903784.08547  20490171.7864   20490173.4644   20490171.4564
        55.000          50.000
 141774444.68047  92681373.77947  25075849.3974   25075853.9704   25075849.7554
        41.000          36.000
 117697254.29747  91712148.41547  22397039.7374   22397040.0584   22397039.8314
        51.000          44.000
 110341767.70747  85980581.29747  20997353.5844   20997355.6964   20997354.0394
        53.000          47.000
 116382433.07847  90687603.38547  22146845.6014   22146847.3404   22146846.0204
        51.000          44.000
 124790605.23247  97239417.46947  23746874.0234   23746878.5854   23746873.7184
        43.000          38.000
 121483902.10747 112454965.69147  25020574.7374   25020575.6504   25020574.3134
        40.000          35.000
 09  1 22  1 29  0.0000000  0 12G30G16G14G 5G24G31G29G22G21G18G 6G12
 117988978.88647  91939449.26047  22452568.0564   22452570.6834   22452567.7144
        49.000          44.000
 139144217.60947  90631832.09447  24575349.4054   24575352.4314   24575350.2074
        43.000          36.000
 122501139.23947  95455423.63247  23311200.7144   23311202.8744   23311200.6604
        46.000          40.000
 125189208.33747  97550028.49247  23822717.6264   23822720.5994   23822718.1164
        45.000          38.000
 130033084.56647 101324466.57347  24744482.7604   24744488.1144   24744483.1354
        41.000          35.000
 107654534.37347  83886639.16547  20485984.8784   20485986.3604   20485984.3874
        55.000          50.000
 141818017.79747  92715326.86247  25084141.5464   25084145.4684   25084140.9394
        41.000          36.000
 117641102.01447  91668393.38447  22386354.2164   22386354.7134   22386354.3854
        50.000          43.000
 110418033.93647  86040009.51147  21011866.5834   21011868.6794   21011866.8974
        54.000          47.000
 116354504.39147  90665840.77247  22141530.8314   22141532.8904   22141531.4044
        50.000          43.000
 124787625.90447  97237095.87447  23746307.6624   23746311.8494   23746308.0324
        44.000          38.000
 121526095.72447 112487843.84147  25028603.9764   25028606.9064   25028602.7584
        40.000          35.000
 09  1 22  1 29 30.0000000  0 12G30G16G14G 5G24G31G29G22G21G18G 6G12
 117986728.74447  91937695.92147  22452140.0294   22452142.8334   22452139.7174
        49.000          44.000
 139070354.92647  90574276.76547  24561292.9164   24561297.3494   24561294.0304
        42.000          36.000
 122538870.44647  95484824.58447  23318380.9954   23318382.9164   23318381.0114
        46.000          40.000
 125223084.62047  97576425.59747  23829164.2404   23829167.5504   23829164.5984
        45.000          38.000
 130133982.16147 101403088.04847  24763683.4434   24763687.8974   24763683.6524
        42.000          35.000
 107633107.27947  83869942.73447  20481907.2944   20481908.8114   20481907.0214
        55.000          50.000
 141861357.05947  92749097.73447  25092388.0354   25092392.8744   25092388.3784
        41.000          36.000
 117584954.73447  91624642.25947  22375669.5564   22375670.1464   22375669.5114
        50.000          44.000
 110494716.14947  86099761.86847  21026458.7464   21026461.0564   21026459.1194
        53.000          46.000
 116326799.12147  90644252.24247  22136258.6464   22136260.6314   22136258.9794
        51.000          44.000
 124784708.46847  97234822.55447  23745752.4554   23745756.9164   23745751.7394
        43.000          38.000
 121568605.20347 112520968.19847  25036692.2704   25036694.8294   25036692.1494
        39.000          35.000
 09  1 22  1 30  0.0000000  0 12G30G16G14G 5G24G31G29G22G21G18G 6G12
 117984811.15147  91936201.70647  22451774.8144   22451778.0144   22451774.2654
        50.000          43.000
 138996282.46547  90516557.97547  24547198.5154   24547201.9134   24547197.7744
        43.000          36.000
 122576477.98547  95514129.15647  23325537.2184   23325539.6464   23325537.3224
        46.000          40.000
 125257336.93047  97603115.71647  23835682.1014   23835685.5924   23835682.3164
        44.000          38.000
 130234936.22447 101481753.56847  24782894.7334   24782899.1844   24782894.7954
        42.000          35.000
 107612255.87547  83853694.89247  20477939.4274   20477941.1294   20477939.0254
        55.000          50.000
 141904462.60547  92782686.45747  25100591.6774   25100596.0984   25100591.0724
        40.000          36.000
 117528814.89047  91580896.93147  22364986.5314   22364986.9454   22364986.6884
        50.000          44.000
 110571811.42447  86159836.09247  21041129.6734   21041131.8184   21041130.1954
        54.000          46.000
 116299319.98747  90622839.91847  22131029.6234   22131031.7464   22131030.1334
        50.000          44.000
 124781851.32647  97232596.18547  23745208.7454   23745213.2664   23745209.2534
        45.000          39.000
 121611430.78847 112554338.81347  25044842.0684   25044844.3084   25044841.2924
        38.000          34.000
 09  1 22  1 30 30.0000000  0 12G30G16G14G 5G24G31G29G22G21G18G 6G12
 117983228.85747  91934968.77647  22451473.8134   22451476.8454   22451473.4494
        49.000          43.000
 138922002.87047  90458677.79947  24533062.7374   24533067.1054   24533062.8874
        42.000          36.000
 122613961.40747  95543337.00647  23332669.9574   23332672.7504   23332670.2094
        45.000          40.000
 125291967.07447  97630100.26547  23842271.5744   23842275.5444   23842271.8324
        43.000          38.000
 130335945.73547 101560462.33447  24802115.5514   24802120.4564   24802115.8224
        41.000          36.000
 107591982.20347  83837897.22847  20474081.4574   20474083.1744   20474081.0864
        55.000          50.000
 141947335.71147  92816094.04047  25108749.7924   25108755.5554   25108749.2154
        40.000          36.000
 117472686.21547  91537160.30147  22354305.8514   22354305.8584   22354305.9364
        50.000          44.000
 110649318.13447  86220230.92147  21055878.6064   21055880.7444   21055879.0744
        54.000          46.000
 116272070.94347  90601606.90647  22125843.8224   22125846.3474   22125844.3074
        50.000          44.000
 124779053.77647  97230416.24847  23744676.3294   23744681.2774   23744676.2464
        43.000          38.000
 121654573.98447 112587956.91747  25053050.8844   25053054.1164   25053050.4494
        39.000          34.000
 09  1 22  1 31  0.0000000  0 12G30G16G14G 5G24G31G29G22G21G18G 6G12
 117981982.75247  91933997.79747  22451236.4504   22451239.7474   22451236.0234
        49.000          43.000
 138847516.36947  90400636.38147  24518888.6764   24518892.5264   24518888.3484
        42.000          36.000
 122651317.79547  95572445.88547  23339778.6874   23339781.1704   23339778.9614
        45.000          40.000
 125326974.35147  97657378.68747  23848933.4404   23848937.2044   23848933.2214
        44.000          38.000
 130437007.19547 101639211.53147  24821346.9154   24821352.1104   24821346.9194
        41.000          35.000
 107572285.37947  83822549.06447  20470333.2984   20470335.0714   20470332.9784
        55.000          50.000
 141989975.58847  92849319.89847  25116863.6054   25116868.2454   25116863.4814
        41.000          36.000
 117416569.78247  91493433.21447  22343627.3154   22343627.5854   22343627.4344
        51.000          44.000
 110727232.52147  86280943.41647  21070705.1324   21070707.2064   21070705.4494
        53.000          46.000
 116245053.21547  90580554.12147  22120703.1684   22120705.0934   22120703.6914
        51.000          44.000
 124776313.15047  97228280.72447  23744154.1694   23744159.4694   23744153.7394
        44.000          38.000
 121698033.96747 112621821.90547  25061321.7064   25061324.4204   25061320.9324
        38.000          33.000
 09  1 22  1 31 30.0000000  0 12G30G16G14G 5G24G31G29G22G21G18G 6G12
 117981073.77947  91933289.53147  22451063.8164   22451066.8054   22451063.6094
        49.000          43.000
 138772823.29647  90342434.00847  24504674.8894   24504678.9974   24504675.2264
        43.000          36.000
 122688544.86847  95601453.98447  23346862.7024   23346865.1934   23346862.9734
        45.000          40.000
 125362358.45847  97684950.71147  23855666.6194   23855670.2254   23855667.0664
        44.000          38.000
 130538117.41647 101717998.75247  24840586.7534   24840592.8604   24840587.5914
        41.000          35.000
 107553164.81747  83807649.92647  20466694.7904   20466696.5294   20466694.3484
        55.000          50.000
 142032381.57247  92882363.50547  25124933.4554   25124937.5514   25124933.7554
        41.000          36.000
 117360467.18947  91449716.90747  22332951.3044   22332951.5064   22332951.3734
        51.000          44.000
 110805550.67147  86341970.53547  21085608.2794   21085610.7074   21085608.7034
        53.000          46.000
 116218268.48547  90559682.90747  22115605.8684   22115608.0584   22115606.4564
        50.000          44.000
 124773626.87047  97226187.50547  23743643.4744   23743648.1314   23743643.5684
        44.000          38.000
 121741810.05647 112655933.16047  25069651.4224   25069655.1664   25069651.5104
        39.000          35.000
 09  1 22  1 32  0.0000000  0 12G30G16G14G 5G24G31G29G22G21G18G 6G12
 117980505.67847  91932846.86947  22450955.7414   22450958.3274   22450955.4974
        49.000          43.000
 138697926.47047  90284072.88647  24490422.2524   24490426.8074   24490423.0474
        42.000          36.000
 122725642.58447  95630361.29447  23353922.2424   23353924.5914   23353922.2524
        46.000          40.000
 125398121.43647  97712817.98847  23862472.1014   23862476.2294   23862472.4884
        43.000          37.000
 130639275.63447 101796823.37147  24859837.2214   24859842.9084   24859837.3234
        39.000          34.000
 107534622.70147  83793201.53547  20463166.4564   20463167.9154   20463166.1934
        55.000          50.000
 142074555.87947  92915226.54347  25132959.1784   25132963.2584   25132959.3364
        41.000          36.000
 117304382.57247  91406014.61547  22322278.8864   22322279.0524   22322278.9314
        51.000          44.000
 110884271.71847  86403311.60147  21100588.4474   21100590.9754   21100588.7134
        53.000          46.000
 116191721.12447  90538996.65347  22110554.1534   22110556.4764   22110554.5074
        51.000          44.000
 124770994.71347  97224136.47147  23743142.5094   23743147.2024   23743142.2594
        44.000          38.000
 121785904.07447 112690292.19547  25078043.4644   25078044.9684   25078042.6354
        40.000          34.000
 09  1 22  1 32 30.0000000  0 12G30G16G14G 5G24G31G29G22G21G18G 6G12
 117980278.86147  91932670.16047  22450912.5374   22450914.9574   22450912.2084
        50.000          43.000
 138622825.30647  90225552.51247  24476130.9704   24476134.9204   24476131.5274
        42.000          36.000
 122762607.67647  95659165.25647  23360957.0874   23360958.9694   23360957.2134
        46.000          40.000
 125434262.04347  97740979.50247  23869348.6574   23869353.0494   23869348.9064
        43.000          37.000
 130740477.97347 101875682.36047  24879094.9804   24879100.3774   24879094.8634
        40.000          35.000
 107516657.39247  83779202.59947  20459747.6744   20459749.1964   20459747.2204
        55.000          50.000
 142116496.43447  92947907.45347  25140940.6384   25140944.4544   25140940.0534
        40.000          36.000
 117248316.32047  91362326.63047  22311609.5714   22311610.0074   22311609.8724
        51.000          44.000
 110963390.91147  86464962.90147  21115644.4824   21115647.0084   21115644.9124
        53.000          46.000
 116165411.78247  90518495.85147  22105547.9024   22105549.4614   22105548.3334
        51.000          44.000
 124768413.30747  97222124.97347  23742651.2744   23742656.3084   23742651.5774
        44.000          38.000
 121830314.62047 112724897.88647  25086494.5994   25086496.8304   25086494.1314
        38.000          34.000
 09  1 22  1 33  0.0000000  0 12G30G16G14G 5G24G31G29G22G21G18G 6G12
 117980395.65947  91932761.18647  22450935.1134   22450937.4934   22450934.7134
        50.000          43.000
 138547522.09347  90166874.69947  24461801.6444   24461805.6744   24461801.8264
        42.000          36.000
 122799438.96047  95687864.96647  23367965.4964   23367967.7714   23367965.9934
        45.000          40.000
 125470781.45947  97769436.20647  23876298.5454   23876302.0914   23876299.3574
        43.000          38.000
 130841722.71447 101954574.39447  24898361.0374   24898366.5194   24898360.9264
        40.000          34.000
 107499269.68947  83765653.74947  20456438.9894   20456440.5824   20456438.7074
        55.000          50.000
 142158204.34747  92980407.08547  25148876.8904   25148881.1414   25148876.2924
        40.000          36.000
 117192271.64447  91318655.45947  22300944.8404   22300945.2124   22300945.0534
        51.000          44.000
 111042906.07747  86526922.75547  21130775.5984   21130778.0984   21130775.9714
        53.000          46.000
 116139343.90047  90498183.21547  22100587.3354   22100589.2194   22100587.8554
        51.000          44.000
 124765881.50747  97220152.13647  23742169.2934   23742174.0754   23742169.1054
        44.000          38.000
 121875042.96047 112759751.13447  25095006.0104   25095008.2024   25095005.2224
        39.000          34.000
 09  1 22  1 33 30.0000000  0 12G30G16G14G 5G24G31G29G22G21G18G 6G12
 117980857.89947  91933121.38147  22451022.7444   22451025.4324   22451022.4764
        49.000          43.000
 138472018.42947  90108040.67847  24447433.8734   24447438.0184   24447433.5374
        41.000          36.000
 122836135.11947  95716459.36747  23374948.3474   23374950.6774   23374948.6774
        45.000          40.000
 125507680.07047  97798188.37347  23883320.1694   23883324.0934   23883320.8044
        43.000          37.000
 130943007.44547 102033497.55247  24917635.9484   24917639.3804   24917635.2374
        40.000          34.000
 107482460.45447  83752555.65247  20453240.2814   20453241.9504   20453239.8624
        55.000          50.000
 142199680.12247  93012725.81347  25156769.3134   25156773.7714   25156769.5684
        41.000          36.000
 117136251.29647  91275003.24247  22290284.4634   22290284.9584   22290284.4614
        51.000          44.000
 111122814.56547  86589189.08847  21145982.0144   21145984.1834   21145982.6034
        53.000          46.000
 116113519.92547  90478060.64647  22095673.2204   22095675.2604   22095673.6594
        51.000          44.000
 124763397.98347  97218216.90947  23741697.0524   23741701.8944   23741697.1724
        44.000          39.000
 121920088.91847 112794851.92147  25103576.3774   25103580.8804   25103576.4004
        38.000          34.000
 09  1 22  1 34  0.0000000  0 12G30G16G14G 5G24G31G29G22G21G18G 6G12
 117981667.61247  91933752.35047  22451176.9164   22451179.5424   22451176.6664
        50.000          43.000
 138396315.38947  90049051.31747  24433028.0284   24433031.6294   24433027.7744
        42.000          36.000
 122872694.60547  95744947.26847  23381905.2714   23381907.6614   23381905.6064
        45.000          40.000
 125544958.59547  97827236.56147  23890414.1724   23890417.9134   23890414.5704
        44.000          37.000
 131044330.41047 102112450.51947  24936915.9284   24936921.8594   24936916.7074
        40.000          34.000
 107466229.76547  83739908.37147  20450151.6894   20450153.2224   20450151.3464
        55.000          50.000
 142240924.02447  93044863.82647  25164617.9394   25164621.8994   25164617.9164
        41.000          36.000
 117080257.85347  91231371.98447  22279629.1164   22279629.4794   22279629.1304
        51.000          44.000
 111203113.67947  86651759.80347  21161262.4844   21161264.6484   21161262.8524
        53.000          46.000
 116087942.81147  90458130.41947  22090805.9024   22090807.8114   22090806.1504
        51.000          44.000
 124760961.04447  97216317.98847  23741232.9334   23741238.1794   23741233.1514
        44.000          39.000
 121965452.99447 112830200.61047  25112209.9574   25112211.5354   25112209.6254
        40.000          35.000
 09  1 22  1 34 30.0000000  0 12G30G16G14G 5G24G31G29G22G21G18G 6G12
 117982824.87547  91934654.12647  22451396.7124   22451400.1074   22451396.1934
        49.000          43.000
 138320413.11447  89989906.69647  24418583.7194   24418587.1244   24418584.0684
        42.000          36.000
 122909114.48747  95773326.39447  23388836.1714   23388838.1894   23388836.2664
        46.000          40.000
 125582615.80047  97856579.86847  23897580.6634   23897583.6234   23897581.0904
        44.000          37.000
 131145687.51947 102191430.09847  24956204.2054   24956209.0934   24956204.5224
        40.000          34.000
 107450576.31447  83727710.88547  20447172.7914   20447174.5384   20447172.3884
        55.000          50.000
 142281935.01847  93076820.40847  25172422.4774   25172426.6444   25172421.4754
        39.000          36.000
 117024292.18147  91187762.36347  22268979.0794   22268979.4284   22268979.0714
        51.000          44.000
 111283799.39547  86714631.76247  21176616.4844   21176618.6914   21176616.8974
        53.000          46.000
 116062613.49847  90438393.29347  22085985.4244   22085988.1004   22085985.9284
        51.000          44.000
 124758567.56447  97214452.92547  23740777.7604   23740782.2904   23740778.0804
        44.000          39.000
 122011133.75147 112865796.01647  25120902.1874   25120904.2604   25120902.2744
        39.000          34.000
 09  1 22  1 35  0.0000000  0 12G30G16G14G 5G24G31G29G22G21G18G 6G12
 117984334.23047  91935830.27247  22451683.8064   22451687.0374   22451683.5444
        49.000          43.000
 138244315.16447  89930609.61447  24404102.7034   24404106.1984   24404102.9404
        42.000          36.000
 122945395.58747  95801597.37847  23395740.4524   23395742.0304   23395740.4924
        45.000          40.000
 125620654.49847  97886220.40847  23904818.8884   23904822.5904   23904819.0634
        43.000          38.000
 131247079.32847 102270436.67247  24975499.2304   24975503.7534   24975498.6124
        40.000          34.000
 107435502.65247  83715965.18547  20444304.0524   20444306.0424   20444303.5854
        54.000          50.000
 142322715.98647  93108597.69247  25180183.3684   25180187.1204   25180181.9094
        39.000          36.000
 116968359.08747  91144178.12147  22258335.4604   22258335.6044   22258335.5324
        51.000          44.000
 111364870.59747  86777804.10447  21192043.9184   21192046.0124   21192044.1934
        53.000          46.000
 116037536.96847  90418853.14347  22081214.0464   22081216.2844   22081214.3864
        51.000          44.000
 124756218.26947  97212622.28747  23740330.5054   23740334.6734   23740331.0474
        44.000          38.000
 122057133.54747 112901640.06547  25129656.2234   25129657.8784   25129655.4314
        39.000          34.000
 09  1 22  1 35 30.0000000  0 12G30G16G14G 5G24G31G29G22G21G18G 6G12
 117986193.49847  91937279.07147  22452037.4524   22452041.0314   22452037.0514
        49.000          43.000
 138168019.44647  89871158.40447  24389584.1744   24389587.7664   24389584.7734
        43.000          36.000
 122981532.67947  95829756.14747  23402616.8554   23402618.7344   23402616.9814
        45.000          40.000
 125659071.32747  97916155.59647  23912129.1914   23912133.2664   23912129.8574
        43.000          38.000
 131348499.62747 102349465.48947  24994798.0044   24994802.8104   24994797.8524
        39.000          34.000
 107421005.09447  83704668.39647  20441545.3784   20441547.2014   20441544.9564
        55.000          50.000
 142363263.22147  93140192.87047  25187898.2404   25187901.9514   25187898.3204
        40.000          35.000
 116912457.21647  91100618.22147  22247697.7074   22247697.9094   22247697.9474
        51.000          44.000
 111446320.65447  86841271.65847  21207543.3314   21207545.4204   21207543.8034
        53.000          46.000
 116012712.06047  90399509.05647  22076489.9604   22076492.1844   22076490.2904
        51.000          44.000
 124753907.72647  97210821.86447  23739890.8724   23739895.7984   23739890.4524
        44.000          38.000
 122103449.10047 112937730.12447  25138468.9684   25138471.5584   25138468.8474
        37.000          34.000
 09  1 22  1 36  0.0000000  0 12G30G16G14G 5G24G31G29G22G21G18G 6G12
 117988408.00347  91939004.67347  22452459.3624   22452462.1174   22452458.9034
        49.000          43.000
 138091531.05247  89811557.03947  24375029.2434   24375033.1044   24375029.3064
        43.000          36.000
 123017527.97547  95857804.41647  23409466.3644   23409468.6084   23409466.7004
        45.000          40.000
 125697870.29547  97946388.55847  23919512.4524   23919516.1534   23919512.8194
        43.000          37.000
 131449949.63947 102428517.45747  25014103.4454   25014107.3894   25014103.2024
        40.000          34.000
 107407087.81047  83693823.76947  20438897.0064   20438898.8434   20438896.6214
        54.000          50.000
 142403580.77447  93171609.09147  25195570.9694   25195575.1574   25195571.0814
        40.000          35.000
 116856592.86647  91057087.56447  22237066.9174   22237067.4994   22237067.0604
        50.000          44.000
 111528150.86847  86905035.42547  21223115.0604   21223117.2454   21223115.4784
        53.000          46.000
 115988145.04947  90380365.91647  22071814.7244   22071817.2884   22071815.2144
        51.000          44.000
 124751638.02347  97209053.25947  23739458.8344   23739463.8114   23739458.6984
        44.000          39.000
 122150084.23247 112974069.19747  25147342.8614   25147346.1374   25147343.0504
        39.000          34.000
 09  1 22  1 36 30.0000000  0 12G30G16G14G 5G24G31G29G22G21G18G 6G12
 117990978.56947  91941007.73147  22452948.0704   22452951.4364   22452947.8664
        49.000          43.000
 138014849.92047  89751805.49047  24360437.3474   24360440.8684   24360437.3984
        42.000          36.000
 123053378.56547  95885739.93647  23416288.5724   23416291.3374   23416288.7584
        45.000          40.000
 125737050.36947  97976918.50947  23926968.0184   23926971.2774   23926968.1844
        44.000          37.000
 131551425.69647 102507589.73447  25033413.7034   25033419.2134   25033413.2654
        40.000          34.000
 107393749.13347  83683430.00547  20436358.7494   20436360.6124   20436358.3804
        55.000          50.000
 142443667.81647  93202845.69447  25203198.7274   25203202.9714   25203198.6514
        39.000          35.000
 116800767.12647  91013586.98847  22226443.5244   22226444.3364   22226443.7714
        50.000          44.000
 111610356.62347  86969091.82947  21238758.1844   21238760.4864   21238758.6454
        53.000          46.000
 115963837.12147  90361424.66447  22067189.3674   22067191.3284   22067189.8514
        51.000          44.000
 124749405.80047  97207313.85947  23739034.4134   23739039.0354   23739035.1314
        45.000          39.000
 122197037.42147 113010656.13347  25156278.6534   25156280.9654   25156278.2104
        40.000          34.000
 09  1 22  1 37  0.0000000  0 12G30G16G14G 5G24G31G29G22G21G18G 6G12
 117993904.95147  91943288.04947  22453505.1724   22453508.2234   22453504.8284
        49.000          43.000
 137937975.86847  89691903.63347  24345808.9524   24345812.3774   24345808.0684
        42.000          36.000
 123089080.97047  95913559.97647  23423082.3444   23423084.7724   23423082.5074
        45.000          39.000
 125776610.08747  98007744.25147  23934496.1274   23934499.7614   23934496.5104
        44.000          38.000
 131652924.12247 102586679.42247  25052726.9294   25052733.6224   25052728.1064
        39.000          34.000
 107380987.45147  83673485.84647  20433930.2764   20433932.1334   20433929.7724
        55.000          50.000
 142483522.82447  93233901.47247  25210782.5504   25210787.6224   25210782.4774
        40.000          36.000
 116744980.81347  90970117.13247  22215827.8424   22215828.2324   22215827.9524
        50.000          44.000
 111692933.65647  87033437.54147  21254472.2394   21254474.4294   21254472.5654
        53.000          46.000
 115939788.64047  90342685.59647  22062612.9744   22062615.0164   22062613.4034
        51.000          44.000
 124747207.92247  97205601.19147  23738616.6344   23738620.5764   23738616.4974
        43.000          38.000
 122244307.20547 113047489.73947  25165273.7184   25165276.6074   25165274.0224
        40.000          34.000
 09  1 22  1 37 30.0000000  0 12G30G16G14G 5G24G31G29G22G21G18G 6G12
 117997190.85147  91945848.50347  22454130.5474   22454133.3924   22454130.1924
        49.000          43.000
 137860912.45447  89631854.21847  24331143.6224   24331146.8654   24331143.6814
        41.000          36.000
 123124635.94847  95941265.15147  23429847.9974   23429850.4604   23429848.1274
        45.000          39.000
 125816551.87147  98038867.71447  23942096.4684   23942100.7684   23942097.2734
        43.000          37.000
 131754444.83547 102665786.47947  25072047.3264   25072052.5964   25072046.9624
        40.000          34.000
 107368804.86347  83663992.93247  20431612.2494   20431613.8724   20431611.9934
        55.000          50.000
 142523148.48047  93264778.56147  25218324.2814   25218328.0254   25218323.4024
        40.000          36.000
 116689238.63947  90926681.67347  22205220.2544   22205220.9974   22205220.2654
        50.000          44.000
 111775880.95147  87098071.76947  21270256.5144   21270258.8694   21270256.9024
        53.000          46.000
 115916004.21647  90324152.26747  22058087.0074   22058088.8464   22058087.6164
        51.000          44.000
 124745044.85347  97203915.68447  23738204.0754   23738209.2844   23738203.9934
        43.000          38.000
 122291896.22947 113084572.12147  25174330.2104   25174331.9374   25174329.7844
        39.000          34.000
 09  1 22  1 38  0.0000000  0 12G30G16G14G 5G24G31G29G22G21G18G 6G12
 118000836.14147  91948688.99547  22454824.3684   22454827.2484   22454824.1124
        50.000          43.000
 137783659.06847  89571656.78247  24316442.9474   24316445.9244   24316443.2334
        42.000          36.000
 123160039.92447  95968852.67347  23436585.3804   23436587.3634   23436585.7584
        45.000          39.000
 125856874.00047  98070287.56147  23949769.8384   23949772.5664   23949770.1504
        44.000          37.000
 131855983.65847 102744907.68447  25091368.5384   25091373.7234   25091369.4504
        39.000          34.000
 107357199.75947  83654949.99847  20429403.8254   20429405.4694   20429403.3274
        55.000          50.000
 142562543.11547  93295475.66647  25225819.9714   25225824.7234   25225819.8744
        40.000          36.000
 116633540.93347  90883280.86247  22194621.5574   22194622.3714   22194621.4824
        51.000          44.000
 111859193.47747  87162990.59047  21286110.4294   21286112.6884   21286110.9614
        53.000          46.000
 115892484.92847  90305825.55547  22053611.4734   22053613.5054   22053611.8774
        51.000          44.000
 124742912.77647  97202254.29947  23737798.8684   23737802.6404   23737799.0524
        44.000          38.000
 122339801.88447 113121901.26747  25183445.8584   25183447.7664   25183445.6064
        39.000          34.000
 09  1 22  1 38 30.0000000  0 12G30G16G14G 5G24G31G29G22G21G18G 6G12
 118004844.92447  91951812.73947  22455587.2194   22455590.0594   22455586.6534
        49.000          43.000
 137706219.56047  89511314.33347  24301706.6374   24301710.6914   24301706.9164
        41.000          36.000
 123195294.26147  95996323.58047  23443294.1624   23443296.4914   23443294.5784
        45.000          40.000
 125897578.85347  98102005.63947  23957515.5824   23957519.2824   23957516.6674
        44.000          38.000
 131957540.33347 102824042.73947  25110694.6654   25110700.3964   25110695.1204
        40.000          34.000
 107346174.13147  83646358.61147  20427305.6934   20427307.3144   20427305.3524
        55.000          50.000
 142601709.22247  93325994.68447  25233273.2514   25233277.8654   25233273.3574
        40.000          35.000
 116577892.48147  90839918.42547  22184032.1544   22184032.6644   22184032.4104
        51.000          44.000
 111942870.58647  87228193.49847  21302033.5624   21302035.9324   21302033.9574
        52.000          46.000
 115869235.38247  90287709.01147  22049187.1874   22049189.0944   22049187.7374
        51.000          44.000
 124740812.20347  97200617.48447  23737399.0354   23737403.7634   23737399.1574
        44.000          38.000
 142388094.56457  93159544.95157  25192623.3695   25192623.7485   25192622.2035
        40.000          34.000
 09  1 22  1 39  0.0000000  0 12G30G16G14G 5G24G31G29G22G21G18G 6G12
 118009215.83247  91955218.66547  22456419.0414   22456421.4824   22456418.6074
        50.000          43.000
 137628592.54647  89450825.77047  24286935.0374   24286938.0894   24286934.5484
        41.000          36.000
 123230393.83347  96023673.90547  23449973.6064   23449975.6064   23449973.9384
        45.000          39.000
 125938663.95847  98134019.99947  23965334.0554   23965337.5104   23965334.5624
        44.000          38.000
 132059109.75647 102903187.76447  25130022.3324   25130027.2304   25130022.9404
        40.000          35.000
 107335724.78347  83638216.27247  20425317.1704   20425318.9694   20425316.6604
        55.000          50.000
 142640644.46347  93356333.76947  25240682.7434   25240686.9174   25240682.2284
        40.000          36.000
 116522292.97747  90796594.13247  22173451.9144   22173452.2704   22173451.8104
        51.000          44.000
 112026906.62747  87293676.09447  21318025.0794   21318027.5434   21318025.5154
        53.000          45.000
 115846255.17847  90269802.36247  22044814.3454   22044816.3024   22044814.6424
        51.000          44.000
 124738738.90647  97199001.89847  23737004.6324   23737009.5044   23737004.3944
        44.000          38.000
 122436606.74257 113197338.23057  25201860.3615   25201862.6905   25201858.7745
        39.000          33.000
 09  1 22  1 39 30.0000000  0 12G30G16G14G 5G24G31G29G22G21G18G 6G12
 118013952.90147  91958909.91947  22457320.2534   22457322.8594   22457319.8304
        49.000          43.000
 137550781.54047  89390193.81847  24272128.3844   24272131.1354   24272127.1204
        42.000          36.000
 123265339.86647  96050904.57947  23456623.1514   23456625.4564   23456623.4234
        44.000          39.000
 125980131.78247  98166332.56947  23973225.2324   23973228.3854   23973225.0464
        44.000          37.000
 132160692.16947 102982342.92647  25149352.9364   25149358.4974   25149353.5094
        41.000          34.000
 107325854.19047  83630524.90347  20423438.8634   20423440.5584   20423438.4604
        55.000          50.000
 142679351.35147  93386494.93347  25248048.5484   25248052.3454   25248047.7654
        40.000          36.000
 116466747.27647  90753311.76047  22162881.7604   22162881.9474   22162881.8534
        51.000          44.000
 112111300.98247  87359437.90547  21334085.0304   21334087.0144   21334085.3954
        53.000          45.000
 115823548.96447  90252109.19347  22040493.6014   22040495.4284   22040493.9504
        51.000          44.000
 124736693.38747  97197407.95247  23736615.8754   23736619.7274   23736615.8924
        44.000          39.000
 122485466.51047 113235410.83147  25211158.9624   25211159.8344   25211157.1834
        39.000          34.000
 09  1 22  1 40  0.0000000  0 12G30G16G14G 5G24G31G29G22G21G18G 6G12
 118019056.69447  91962886.92447  22458291.4644   22458294.0114   22458291.3164
        50.000          43.000
 137472787.34647  89329419.14147  24257286.2804   24257289.7514   24257286.3454
        43.000          36.000
 123300129.99647  96078013.77047  23463243.9254   23463245.6994   23463243.8774
        46.000          40.000
 126021981.48247  98198942.73847  23981188.3464   23981192.5824   23981188.4934
        43.000          37.000
 132262284.41247 103061505.74447  25168685.3294   25168691.0204   25168685.9444
        40.000          34.000
 107316561.30047  83623283.69747  20421670.5614   20421672.0784   20421670.1644
        55.000          50.000
 142717829.39047  93416477.78947  25255369.2804   25255376.0044   25255370.0864
        39.000          35.000
 116411257.00247  90710072.57847  22152322.2684   22152322.7944   22152322.2684
        51.000          44.000
 112196049.53947  87425475.71947  21350212.0104   21350214.0904   21350212.2984
        52.000          45.000
 115801118.43347  90234630.85147  22036225.0634   22036227.0194   22036225.3104
        51.000          44.000
 124734672.91547  97195833.55647  23736230.4384   23736235.5304   23736230.8014
        45.000          38.000
 122534643.95147 113273730.92447  25220516.5914   25220518.2914   25220515.2314
        40.000          35.000
 09  1 22  1 40 30.0000000  0 12G30G16G14G 5G24G31G29G22G21G18G 6G12
 118024527.63847  91967150.01947  22459332.7784   22459335.1564   22459332.5134
        49.000          44.000
 137394610.15447  89268501.88747  24242408.9014   24242413.3324   24242409.1104
        42.000          37.000
 123334761.70047  96104999.51747  23469834.2334   23469836.3214   23469834.6264
        46.000          40.000
 126064211.99647  98231849.64047  23989224.8064   23989228.7244   23989226.2064
        44.000          38.000
 132363883.07747 103140673.58047  25188018.3164   25188024.1334   25188018.9044
        40.000          34.000
 107307844.74747  83616491.58547  20420011.7844   20420013.4434   20420011.4154
        55.000          50.000
 142756077.99747  93446281.85547  25262649.4274   25262654.1224   25262649.2844
        41.000          36.000
 116355823.39147  90666877.56047  22141773.6864   22141774.1014   22141773.9924
        51.000          45.000
 112281148.30747  87491786.41847  21366405.8384   21366407.8194   21366406.1874
        52.000          45.000
 115778964.83747  90217368.30647  22032009.5224   22032011.5304   22032009.9784
        51.000          44.000
 124732674.69747  97194276.48047  23735850.5614   23735855.6164   23735850.7834
        45.000          38.000
 122584137.70647 113312297.49747  25229935.0084   25229936.9864   25229934.5214
        40.000          34.000
 09  1 22  1 41  0.0000000  0 11G30G16G14G 5G24G31G22G21G18G 6G12
 118030369.97647  91971702.51447  22460444.1514   22460447.2544   22460443.7024
        50.000          43.000
 137316254.28847  89207445.36647  24227498.8034   24227502.1734   24227499.1224
        43.000          37.000
 123369235.90247  96131862.53147  23476394.1104   23476396.1424   23476394.4004
        46.000          39.000
 126106826.26947  98265055.54047  23997334.0684   23997338.4444   23997335.3584
        43.000          38.000
 132465488.64247 103219846.80847  25207354.2324   25207358.9284   25207354.0014
        40.000          35.000
 107299706.88547  83610150.40247  20418463.1264   20418464.6474   20418462.7424
        55.000          50.000
 116300451.65947  90623730.74947  22131236.9974   22131237.1414   22131237.1474
        52.000          45.000
 112366596.86747  87558369.67747  21382666.0594   21382668.4424   21382666.5114
        52.000          45.000
 115757093.26847  90200325.51347  22027847.1094   22027849.0964   22027847.7514
        51.000          44.000
 124730699.70947  97192737.52547  23735475.0604   23735479.1694   23735474.3944
        45.000          38.000
 122633950.53347 113351112.68547  25239412.1344   25239415.0634   25239412.8294
        39.000          34.000
 09  1 22  1 41 30.0000000  0 10G30G16G14G 5G31G22G21G18G 6G12
 118036582.69947  91976543.62447  22461626.1154   22461629.4074   22461625.9044
        49.000          43.000
 137237718.38047  89146248.57947  24212553.8504   24212557.6854   24212554.0624
        42.000          37.000
 123403548.56547  96158599.67747  23482923.4784   23482925.7344   23482923.7044
        45.000          40.000
 126149821.50847  98298558.31647  24005516.5544   24005519.7324   24005516.5914
        44.000          38.000
 107292144.67047  83604257.77347  20417024.1514   20417025.6734   20417023.7294
        55.000          50.000
 116245141.63547  90580632.02147  22120711.8384   22120711.8104   22120711.9374
        52.000          45.000
 112452389.65647  87625221.16947  21398991.8814   21398994.1044   21398992.0144
        52.000          45.000
 115735503.31947  90183502.16747  22023738.9784   22023740.9064   22023739.2914
        51.000          44.000
 124728743.42247  97191213.10747  23735102.6904   23735106.5864   23735103.1544
        44.000          38.000
 122684079.51647 113390174.27747  25248952.3854   25248955.8234   25248952.1694
        40.000          34.000
 09  1 22  1 42  0.0000000  0 10G30G16G14G 5G31G22G21G18G 6G12
 118043168.51447  91981675.43747  22462879.6874   22462882.4914   22462879.2764
        49.000          43.000
 137159005.24647  89084913.69847  24197575.4364   24197578.8924   24197575.5014
        43.000          37.000
 123437699.37647  96185210.70547  23489422.3964   23489424.5034   23489422.6974
        45.000          39.000
 126193198.94847  98332358.94647  24013770.0914   24013774.0374   24013770.9464
        43.000          38.000
 107285158.97947  83598814.38547  20415694.8254   20415696.3714   20415694.4334
        55.000          50.000
 116189896.94047  90537584.20247  22110199.1204   22110199.3414   22110199.1374
        51.000          45.000
 112538524.67047  87692339.32847  21415382.8654   21415385.1804   21415383.3914
        52.000          45.000
 115714198.72247  90166901.17247  22019684.8614   22019686.9984   22019685.3424
        51.000          44.000
 124726805.36047  97189702.93547  23734733.8934   23734738.2644   23734733.3924
        44.000          38.000
 122734525.62947 113429482.93647  25258552.5824   25258554.9924   25258552.0794
        38.000          34.000
 09  1 22  1 42 30.0000000  0 10G30G16G14G 5G31G22G21G18G 6G12
 118050128.19047  91987098.58347  22464204.1354   22464206.8824   22464203.9824
        50.000          43.000
 137080115.56347  89023441.26147  24182562.7534   24182566.6484   24182563.4554
        43.000          37.000
 123471686.12747  96211693.90047  23495889.9584   23495891.5784   23495889.9404
        45.000          39.000
 126236958.00447  98366456.87347  24022097.5704   24022101.1664   24022098.0284
        44.000          38.000
 107278748.97147  83593819.57947  20414475.0874   20414476.6814   20414474.6694
        55.000          50.000
 116134719.20647  90494588.56547  22099699.0144   22099699.5034   22099699.2384
        51.000          45.000
 112624998.23547  87759721.29547  21431838.3664   21431840.8864   21431838.8804
        52.000          45.000
 115693181.25647  90150523.92647  22015685.4024   22015687.2194   22015685.9734
        51.000          44.000
 124724883.17547  97188205.10247  23734368.3734   23734372.9104   23734368.9994
        44.000          38.000
 122785288.11547 113469038.11047  25268210.9494   25268213.8194   25268211.0234
        40.000          35.000
 09  1 22  1 43  0.0000000  0 10G30G16G14G 5G31G22G21G18G 6G12
 118057464.39547  91992815.12747  22465600.2364   22465602.9174   22465600.0174
        49.000          43.000
 137001052.38747  88961833.63247  24167517.8154   24167521.9234   24167518.2964
        42.000          37.000
 123505508.96347  96238049.35847  23502325.9474   23502328.1074   23502325.8184
        44.000          39.000
 126281100.02047  98400853.22347  24030497.5714   24030501.2414   24030497.8094
        43.000          38.000
 107272915.65447  83589274.14447  20413365.1944   20413366.5614   20413364.8364
        55.000          50.000
 116079612.31747  90451648.13147  22089212.3984   22089213.0874   22089212.5684
        51.000          44.000
 112711808.59047  87827365.70247  21448357.6534   21448360.2904   21448358.0004
        52.000          45.000
 115672454.41647  90134373.13947  22011741.4054   22011743.3814   22011741.8044
        51.000          44.000
 124722976.49547  97186719.38547  23734004.9174   23734010.0494   23734004.0934
        43.000          38.000
 122836368.27947 113508840.83447  25277932.2744   25277934.5084   25277932.3994
        41.000          36.000
 09  1 22  1 43 30.0000000  0 10G30G16G14G 5G31G22G21G18G 6G12
 118065177.18447  91998825.11347  22467067.7664   22467070.3664   22467067.3914
        49.000          43.000
 136921815.49647  88900090.63647  24152439.4744   24152443.3764   24152439.7924
        43.000          37.000
 123539164.96047  96264274.80247  23508730.5864   23508732.9044   23508730.7274
        45.000          39.000
 126325623.43947  98435546.80047  24038970.3464   24038973.1544   24038970.9824
        43.000          38.000
 107267657.03747  83585176.52847  20412364.5004   20412365.9424   20412364.1524
        55.000          50.000
 116024577.94547  90408764.19647  22078739.4874   22078740.4624   22078739.5994
        51.000          45.000
 112798951.10047  87895268.92647  21464940.3694   21464942.8414   21464940.9814
        52.000          45.000
 115652019.16047  90118449.55447  22007852.5064   22007854.3714   22007853.0164
        51.000          44.000
 124721082.09647  97185243.22447  23733644.3444   23733649.3314   23733644.5384
        45.000          38.000
 122887764.44547 113548889.79047  25287713.0124   25287714.4284   25287712.2204
        40.000          36.000
 09  1 22  1 44  0.0000000  0 10G30G16G14G 5G31G22G21G18G 6G12
 118073268.44147  92005130.01347  22468607.2204   22468610.2474   22468607.1844
        50.000          43.000
 136842407.02647  88838213.92747  24137328.2504   24137332.4344   24137328.8434
        43.000          37.000
 123572652.86847  96290369.27347  23515103.4514   23515105.5284   23515103.7574
        45.000          39.000
 126370528.54547  98470537.79147  24047514.8744   24047518.0204   24047515.9644
        43.000          38.000
 107262973.11347  83581526.71947  20411472.9214   20411474.6174   20411472.4814
        55.000          50.000
 115969618.08447  90365938.32347  22068281.0914   22068281.8504   22068281.0934
        52.000          45.000
 112886423.34047  87963429.08547  21481585.7044   21481588.6584   21481585.9714
        52.000          45.000
 115631878.08947  90102755.21047  22004019.8874   22004021.5974   22004020.3914
        51.000          44.000
 124719198.53847  97183775.48147  23733286.2074   23733290.7884   23733286.6564
        43.000          38.000
 122939476.64947 113589185.01947  25297552.5454   25297555.1174   25297551.7614
        41.000          35.000
 09  1 22  1 44 30.0000000  0 10G30G16G14G 5G31G22G21G18G 6G12
 118081741.46047  92011732.37647  22470219.7174   22470222.5674   22470219.2714
        50.000          43.000
 136762830.21347  88776206.07147  24122185.7264   24122189.3154   24122186.2034
        43.000          37.000
 123605973.17447  96316333.16447  23521444.0864   23521446.1304   23521444.1334
        45.000          39.000
 126415817.25347  98505827.67447  24056133.0134   24056136.8064   24056133.3684
        44.000          37.000
 107258865.29347  83578325.83247  20410691.3984   20410692.7884   20410690.9674
        55.000          50.000
 115914737.43447  90323174.16847  22057838.1124   22057838.2444   22057838.1354
        51.000          45.000
 112974223.85147  88031845.03747  21498293.7174   21498296.5464   21498294.2054
        52.000          45.000
 115612035.76447  90087293.64147  22000244.0994   22000245.7024   22000244.4764
        51.000          44.000
 124717326.09747  97182316.43847  23732929.8244   23732933.8944   23732929.5094
        45.000          38.000
 122991506.29847 113629727.61747  25307454.6124   25307456.0874   25307453.7304
        41.000          36.000
 09  1 22  1 45  0.0000000  0 10G30G16G14G 5G31G22G21G18G 6G12
 118090594.18747  92018630.63347  22471904.1854   22471906.8864   22471904.0864
        49.000          43.000
 136683083.26847  88714065.64547  24107010.8734   24107013.4364   24107010.6784
        43.000          37.000
 123639121.03847  96342162.67947  23527751.4654   23527753.8694   23527751.7074
        45.000          39.000
 126461485.95447  98541413.67047  24064823.9904   24064827.2644   24064824.5264
        43.000          38.000
 107255329.47347  83575570.65447  20410018.5734   20410019.9564   20410018.1164
        55.000          50.000
 115859935.05347  90280471.01247  22047409.2894   22047410.0724   22047409.3354
        51.000          45.000
 113062346.13847  88100511.72147  21515062.9154   21515065.6894   21515063.3864
        52.000          45.000
 115592490.67147  90072063.70647  21996524.3614   21996526.5064   21996524.6934
        51.000          44.000
 124715459.48547  97180861.91247  23732574.8384   23732579.0474   23732575.1254
        44.000          38.000
 123043849.89947 113670514.82847  25317414.6604   25317416.9604   25317414.1284
        41.000          36.000
 09  1 22  1 45 30.0000000  0 10G30G16G14G 5G31G22G21G18G 6G12
 118099830.29147  92025827.60247  22473661.9134   22473664.8384   22473661.4954
        49.000          43.000
 136603169.80647  88651795.45647  24091804.0674   24091807.1364   24091804.0364
        44.000          37.000
 123672097.22647  96367858.40047  23534026.8124   23534028.5554   23534027.1354
        45.000          39.000
 126507536.68847  98577297.36247  24073586.7834   24073590.4864   24073587.0964
        43.000          37.000
 107252367.50247  83573262.62947  20409454.9444   20409456.3414   20409454.6344
        55.000          50.000
 115805215.66347  90237832.52047  22036996.3714   22036997.1844   22036996.5014
        51.000          45.000
 113150789.47747  88169428.58047  21531893.4514   21531895.8874   21531893.7744
        52.000          45.000
 115573247.38447  90057068.93047  21992862.5204   21992864.9094   21992863.1944
        51.000          44.000
 124713599.24147  97179412.35147  23732221.0514   23732225.2594   23732221.2544
        43.000          38.000
 123096509.65647 113711548.40347  25327435.4014   25327437.4694   25327435.4694
        42.000          36.000
 09  1 22  1 46  0.0000000  0 10G30G16G14G 5G31G22G21G18G 6G12
 118109451.53247  92033324.69647  22475493.2744   22475495.3654   22475492.8664
        50.000          43.000
 136523092.26747  88589397.40647  24076565.3834   24076569.0294   24076565.7804
        44.000          37.000
 123704901.07547  96393419.85047  23540269.3094   23540271.4714   23540269.2574
        45.000          39.000
 126553969.87047  98613479.04147  24082423.3004   24082426.1414   24082423.5244
        44.000          37.000
 107249979.34847  83571401.73747  20409000.5104   20409001.9394   20409000.1274
        55.000          50.000
 115750582.15447  90195260.94047  22026600.0384   22026600.8994   22026599.9534
        51.000          45.000
 113239551.03847  88238593.40447  21548783.9374   21548786.7794   21548784.2864
        52.000          45.000
 115554308.89047  90042311.65447  21989258.6414   21989260.8184   21989259.0064
        51.000          44.000
 124711743.92047  97177966.65547  23731867.2774   23731872.7914   23731867.0234
        43.000          38.000
 123149485.37647 113752828.19347  25337517.0284   25337518.5844   25337516.7184
        42.000          37.000
 09  1 22  1 46 30.0000000  0 10G30G16G14G 5G31G22G21G18G 6G12
 118119457.82547  92041121.81447  22477397.0574   22477399.5404   22477396.8694
        50.000          43.000
 136442850.79947  88526871.62847  24061295.7664   24061298.8354   24061296.3264
        45.000          38.000
 123737530.00847  96418844.99347  23546478.0544   23546480.1904   23546478.0354
        44.000          39.000
 126600784.13947  98649957.69847  24091330.7184   24091335.0984   24091331.9874
        44.000          37.000
 107248163.07847  83569986.46647  20408654.7824   20408656.2424   20408654.4284
        55.000          50.000
 115696035.75147  90152757.24447  22016220.1234   22016220.8194   22016220.1714
        51.000          45.000
 113328626.53447  88308002.84347  21565734.4344   21565737.3924   21565734.8944
        51.000          45.000
 115535675.93247  90027792.45247  21985712.8444   21985715.1914   21985713.0864
        50.000          44.000
 124709890.90747  97176522.75447  23731514.4874   23731519.9814   23731514.9724
        44.000          38.000
 123202775.71647 113794353.13147  25347656.8534   25347659.2904   25347656.4834
        41.000          35.000
 09  1 22  1 47  0.0000000  0 10G30G16G14G 5G31G22G21G18G 6G12
 118129850.66147  92049220.15547  22479374.7514   22479377.4854   22479374.3764
        49.000          43.000
 136362446.92147  88464219.30347  24045995.2524   24045999.1114   24045995.1764
        43.000          38.000
 123769982.31447  96444132.50247  23552653.2214   23552655.5584   23552653.4424
        43.000          39.000
 126647979.29047  98686733.11247  24100312.0374   24100316.3724   24100312.8034
        44.000          38.000
 107246918.17147  83569016.41547  20408417.9564   20408419.2824   20408417.5774
        55.000          50.000
 115641579.31847  90110323.65647  22005857.8634   22005858.3614   22005857.8044
        52.000          45.000
 113418012.82647  88377654.47147  21582744.2914   21582746.8734   21582744.5784
        52.000          45.000
 115517351.21247  90013513.43447  21982225.9124   21982228.0534   21982226.4314
        51.000          44.000
 124708038.34047  97175079.17047  23731162.4114   23731167.1344   23731162.6134
        43.000          38.000
 123256380.26647 113836122.89647  25357857.7254   25357860.5104   25357857.6134
        40.000          35.000
 09  1 22  1 47 30.0000000  0 10G30G16G14G 5G31G22G21G18G 6G12
 118140633.13247  92057622.08847  22481426.3984   22481428.8284   22481426.0084
        49.000          43.000
 136281883.80347  88401442.87247  24030664.2504   24030668.3514   24030664.3984
        44.000          38.000
 123802258.53347  96469282.79047  23558795.5174   23558798.0554   23558795.3324
        44.000          39.000
 126695556.95247  98723806.61847  24109365.8964   24109369.3514   24109366.1294
        44.000          37.000
 107246245.87847  83568492.55147  20408289.8874   20408291.3904   20408289.4984
        55.000          50.000
 115587217.20247  90067963.54747  21995513.1304   21995513.3274   21995513.3464
        52.000          45.000
 113507708.92547  88447547.50547  21599812.9574   21599815.5294   21599813.3874
        52.000          45.000
 115499338.70847  89999477.70447  21978798.0864   21978800.3444   21978798.6424
        50.000          44.000
 124706186.42947  97173636.11447  23730810.5054   23730815.0874   23730810.9074
        45.000          38.000
 123310300.46647 113878138.62447  25368117.6264   25368120.9024   25368117.4574
        41.000          35.000
 09  1 22  1 48  0.0000000  0 10G30G16G14G 5G31G22G21G18G 6G12
 118151803.82247  92066326.53847  22483552.1114   22483554.7094   22483552.0254
        50.000          43.000
 136201160.59547  88338541.69747  24015303.6064   24015306.8944   24015303.4734
        44.000          38.000
 123834354.72347  96494292.82447  23564903.3334   23564905.2484   23564903.3504
        45.000          39.000
 126743514.23747  98761175.93947  24118492.4864   24118495.4444   24118492.9844
        44.000          38.000
 107246142.60547  83568412.09247  20408270.4614   20408271.7844   20408270.1894
        55.000          50.000
 115532948.85547  90025676.51147  21985186.1444   21985186.4654   21985186.1514
        51.000          45.000
 113597708.70047  88517677.17847  21616939.0604   21616941.8044   21616939.2044
        51.000          44.000
 115481637.86047  89985684.83847  21975429.8064   21975431.9954   21975430.3314
        50.000          44.000
 124704330.56347  97172189.98547  23730456.8394   23730461.7034   23730456.8774
        44.000          38.000
 123364533.40247 113920398.07347  25378437.9984   25378440.3244   25378437.9134
        39.000          35.000
 09  1 22  1 48 30.0000000  0 10G30G16G14G 5G31G22G21G18G 6G12
 118163365.42347  92075335.59547  22485752.6004   22485754.8354   22485752.5134
        50.000          43.000
 136120280.33947  88275518.13547  23999912.2764   23999916.1254   23999912.7754
        45.000          38.000
 123866270.84247  96519162.52447  23570976.8774   23570978.9024   23570977.1494
        44.000          39.000
 126791852.36947  98798842.01947  24127690.6354   24127693.6884   24127690.8904
        44.000          37.000
 107246609.24847  83568775.70847  20408359.0874   20408360.6194   20408358.6394
        55.000          50.000
 115478778.40847  89983465.76547  21974877.7734   21974878.2134   21974877.8114
        51.000          45.000
 113688010.37447  88588042.08847  21634123.1324   21634125.6314   21634123.6744
        52.000          44.000
 115464252.25047  89972137.60147  21972121.6044   21972123.6154   21972122.0494
        51.000          44.000
 124702470.55747  97170740.61147  23730103.2214   23730107.2254   23730103.4924
        44.000          38.000
 123419079.98947 113962901.91747  25388818.0984   25388820.2874   25388817.8034
        40.000          35.000
 09  1 22  1 49  0.0000000  0 10G30G16G14G 5G31G22G21G18G 6G12
 118175320.25747  92084651.07247  22488027.5274   22488029.6244   22488027.3694
        50.000          43.000
 136039246.05647  88212374.53947  23984492.1684   23984495.6844   23984492.4154
        44.000          38.000
 123898006.98847  96543891.99547  23577015.9294   23577018.0864   23577015.6464
        45.000          40.000
 126840572.14247  98836805.47647  24136961.8204   24136964.5964   24136962.0984
        44.000          37.000
 107247646.22347  83569583.74647  20408556.4804   20408557.9544   20408556.1984
        55.000          50.000
 115424709.60047  89941334.21447  21964588.7774   21964589.1084   21964588.7984
        52.000          45.000
 113778612.41747  88658641.05747  21651363.9714   21651366.1654   21651364.4824
        51.000          44.000
 115447185.41347  89958838.75647  21968874.0404   21968875.8824   21968874.6124
        51.000          44.000
 124700605.81947  97169287.56747  23729748.0314   23729752.8584   23729747.7284
        43.000          38.000
 123473941.25147 114005650.92347  25399257.6064   25399260.2774   25399257.5604
        40.000          34.000
