     2.11           OBSERVATION DATA    G (GPS)             RINEX VERSION / TYPE
teqc  2013Mar15     gpsops              20140516 00:23:18UTCPGM / RUN BY / DATE
Linux 2.4.21-27.ELsmp|Opteron|gcc -static|Linux x86_64|=+   COMMENT
BIT 2 OF LLI FLAGS DATA COLLECTED UNDER A/S CONDITION       COMMENT
GLPS                                                        MARKER NAME
42005M002                                                   MARKER NUMBER
GGN                 JPL                                     OBSERVER / AGENCY
ZR220013847         ASHTECH UZ-12       CQ00                REC # / TYPE / VERS
CR519992104         ASH701945B_M    SCIT                    ANT # / TYPE
   -33801.4662 -6377516.5323   -82154.3508                  APPROX POSITION XYZ
        0.0083        0.0000        0.0000                  ANTENNA: DELTA H/E/N
     1     1                                                WAVELENGTH FACT L1/2
     7    L1    L2    P1    P2    C1    S1    S2            # / TYPES OF OBSERV
    30.0000                                                 INTERVAL
                                                            COMMENT
This data is provided as a public service by NASA/JPL.      COMMENT
No warranty is expressed or implied regarding suitability   COMMENT
for use.  For further information, contact:                 COMMENT
Dave Stowers, NASA/JPL m/s 238-600                          COMMENT
4800 Oak Grove Drive, Pasadena CA 91109 USA                 COMMENT
                                                            COMMENT
Forced Modulo Decimation to 30 seconds                      COMMENT
 SNR is mapped to RINEX snr flag value [0-9]                COMMENT
  L1 & L2: min(max(int(snr_dBHz/6), 0), 9)                  COMMENT
pseudorange smoothing corrections not applied               COMMENT
  2014     5    15     0     0    0.0000000     GPS         TIME OF FIRST OBS
                                                            END OF HEADER
 14  5 15  0  0  0.0000000  0 11G26G13G07G09G04G01G10G08G28G17G20
   -639436.42847   -477367.71746  24124845.7474   24124860.1824   24124845.405
        42.0004         37.0004
  14579282.18147  11354447.02646  24018329.0114   24018338.2884   24018328.600
        42.0004         37.0004
 -22537511.45148 -17547395.48648  20392906.4864   20392913.3834   20392906.497
        53.0004         48.0004
 -20779147.34149 -16178430.83048  20085756.8314   20085764.7064   20085756.859
        54.0004         49.0004
 -23181095.77848 -17579645.69047  21421481.7294   21421489.8374   21421481.303
        50.0004         46.0004
  -5397516.58047  -4173732.84846  23670039.4764   23670053.9214   23670039.399
        44.0004         40.0004
  -8276962.96847  -6437225.57046  24135537.8324   24135550.0894   24135538.714
        43.0004         38.0004
 -25914163.94249 -20151711.34048  19985856.5544   19985864.5394   19985857.022
        54.0004         49.0004
  -4322511.29647  -3332090.05546  23703440.9704   23703452.7524   23703440.427
        44.0004         39.0004
 -13296332.92648 -10300970.17347  22539334.5874   22539343.5564   22539333.460
        49.0004         45.0004
  -4683800.04346  -3586409.93346  23632776.7144   23632789.1824   23632777.478
        41.0004         36.0004
 14  5 15  0  0 30.0000000  0 11G26G13G07G09G04G01G10G08G28G17G20
   -655510.86847   -489893.03046  24121786.1444   24121800.4774   24121785.518
        42.0004         37.0004
  14653557.09547  11412323.71446  24032461.7864   24032471.0424   24032462.819
        42.0004         37.0004
 -22496113.66348 -17515137.43448  20400784.5194   20400790.9514   20400784.098
        53.0004         49.0004
 -20804866.66249 -16198471.76748  20080862.6834   20080870.1954   20080862.597
        54.0004         49.0004
 -23256056.05048 -17638056.18247  21407217.4194   21407225.4994   21407217.325
        51.0004         46.0004
  -5298859.74747  -4096857.44946  23688813.8044   23688827.9804   23688813.479
        44.0004         40.0004
  -8331507.60147  -6479727.70046  24125159.4654   24125171.7494   24125159.365
        43.0004         38.0004
 -25940813.22349 -20172476.92448  19980785.2444   19980793.0004   19980785.549
        54.0004         49.0004
  -4369585.55447  -3368771.08946  23694482.7504   23694493.9764   23694482.687
        44.0004         39.0004
 -13254925.62748 -10268704.72847  22547213.4844   22547223.3744   22547212.960
        49.0004         45.0004
  -4675390.30146  -3579856.81846  23634378.0214   23634386.5924   23634378.150
        41.0004         37.0004
 14  5 15  0  1  0.0000000  0 11G26G13G07G09G04G01G10G08G28G17G20
   -671237.55447   -502147.34746  24118792.7214   24118810.0274   24118793.247
        42.0004         37.0004
  14727655.25946  11470062.69546  24046561.4994   24046569.9654   24046562.563
        41.0004         37.0004
 -22454147.71848 -17482436.68448  20408770.2674   20408776.9984   20408769.740
        53.0004         48.0004
 -20829990.17049 -16218048.43148  20076081.7364   20076089.6164   20076081.674
        54.0004         49.0004
 -23330635.90348 -17696170.23747  21393025.2724   21393033.7974   21393024.832
        51.0004         46.0004
  -5199989.49747  -4019815.75046  23707627.9194   23707643.3664   23707627.573
        44.0004         40.0004
  -8386272.41347  -6522401.37846  24114736.6094   24114748.6534   24114737.713
        43.0004         38.0004
 -25966835.04449 -20192753.58448  19975833.6274   19975841.6294   19975833.733
        54.0004         49.0004
  -4416869.33247  -3405615.39346  23685484.8214   23685496.1764   23685484.424
        44.0004         39.0004
 -13213443.27948 -10236380.79347  22555106.9494   22555116.9654   22555106.685
        49.0004         44.0004
  -4666747.48546  -3573122.08346  23636021.7554   23636032.5624   23636022.450
        41.0004         37.0004
 14  5 15  0  1 30.0000000  0 11G26G13G07G09G04G01G10G08G28G17G20
   -686619.05547   -514132.72646  24115865.6964   24115881.1404   24115865.728
        42.0004         37.0004
  14801573.59546  11527661.53046  24060628.2484   24060637.7674   24060628.407
        41.0004         36.0004
 -22411616.90348 -17449295.74648  20416863.7924   20416870.0954   20416863.176
        53.0004         48.0004
 -20854518.39649 -16237161.24048  20071413.9734   20071421.5454   20071413.947
        54.0004         49.0004
 -23404834.43848 -17753987.15747  21378905.9464   21378914.0884   21378905.560
        51.0004         46.0004
  -5100909.89047  -3942610.90746  23726482.2454   23726496.3974   23726481.519
        44.0004         40.0004
  -8441258.10947  -6565247.16246  24104273.6974   24104284.5734   24104274.437
        43.0004         38.0004
 -25992229.22649 -20212541.17048  19971001.3414   19971008.7934   19971001.481
        54.0004         49.0004
  -4464363.02247  -3442623.26546  23676446.4644   23676457.8014   23676446.564
        43.0004         39.0004
 -13171889.85148 -10204001.48047  22563014.8764   22563023.6714   22563014.176
        49.0004         44.0004
  -4657871.36546  -3566205.57846  23637711.6864   23637720.0014   23637712.444
        41.0004         37.0004
 14  5 15  0  2  0.0000000  0 11G26G13G07G09G04G01G10G08G28G17G20
   -701656.95847   -525850.34746  24113005.4814   24113018.6364   24113004.872
        42.0004         38.0004
  14875310.30946  11585118.84346  24074660.1734   24074669.1164   24074660.142
        41.0004         36.0004
 -22368522.91048 -17415715.97148  20425064.1414   20425070.6964   20425063.543
        53.0004         48.0004
 -20878450.20049 -16255809.30348  20066859.9504   20066867.3964   20066859.694
        54.0004         49.0004
 -23478649.14448 -17811504.99747  21364858.8444   21364868.0474   21364858.723
        51.0004         46.0004
  -5001623.71547  -3865245.10646  23745375.0494   23745390.6394   23745375.290
        44.0004         40.0004
  -8496464.18647  -6608264.69146  24093768.0084   24093781.3994   24093768.635
        43.0004         38.0004
 -26016993.88449 -20231838.22548  19966288.6324   19966296.3904   19966288.768
        54.0004         49.0004
  -4512064.92947  -3479793.38346  23667370.2394   23667380.0794   23667369.091
        43.0004         38.0004
 -13130267.71548 -10171568.63047  22570934.6344   22570944.4864   22570934.750
        49.0004         44.0004
  -4648760.10446  -3559105.83346  23639444.5684   23639455.5024   23639445.943
        41.0004         37.0004
 14  5 15  0  2 30.0000000  0 11G26G13G07G09G04G01G10G08G28G17G20
   -716350.86347   -537299.93346  24110207.6474   24110223.2564   24110207.502
        42.0004         37.0004
  14948865.54446  11642434.75346  24088657.4394   24088666.4454   24088657.009
        41.0004         37.0004
 -22324865.38648 -17381697.08448  20433372.1264   20433378.3214   20433371.647
        53.0004         49.0004
 -20901783.27549 -16273990.82348  20062419.7204   20062426.8164   20062419.661
        54.0004         49.0004
 -23552076.09448 -17868720.69047  21350886.8564   21350894.5514   21350886.374
        51.0004         46.0004
  -4902131.95447  -3787719.10546  23764307.9404   23764323.2664   23764307.652
        44.0004         40.0004
  -8551888.29147  -6651452.10646  24083221.0834   24083233.1164   24083221.810
        43.0004         38.0004
 -26041126.31949 -20250642.63248  19961696.2264   19961703.8304   19961696.469
        54.0004         49.0004
  -4559971.93747  -3517123.32846  23658252.6564   23658263.5154   23658252.474
        43.0004         39.0004
 -13088577.21948 -10139082.51347  22578868.1634   22578877.5824   22578868.260
        49.0004         44.0004
  -4639410.67846  -3551820.51946  23641223.3974   23641233.7644   23641224.985
        41.0004         37.0004
 14  5 15  0  3  0.0000000  0 11G26G13G07G09G04G01G10G08G28G17G20
   -730704.32247   -548484.24446  24107477.0374   24107491.0844   24107476.458
        42.0004         37.0004
  15022235.49846  11699606.29446  24102618.5754   24102626.8704   24102618.744
        41.0004         36.0004
 -22280647.98048 -17347241.91848  20441786.1834   20441793.1064   20441785.643
        53.0004         49.0004
 -20924519.00449 -16291706.88148  20058092.9784   20058100.4864   20058093.020
        54.0004         49.0004
 -23625114.97048 -17925633.98847  21336987.6854   21336995.8604   21336986.915
        51.0004         46.0004
  -4802439.61047  -3710036.81746  23783278.4934   23783294.5264   23783277.981
        44.0004         40.0004
  -8607531.54047  -6694810.27746  24072632.5994   24072644.2754   24072633.049
        43.0004         38.0004
 -26064627.30549 -20268955.00548  19957224.1114   19957231.6604   19957224.263
        54.0004         49.0004
  -4608085.18247  -3554613.96946  23649095.4624   23649108.7374   23649096.627
        43.0004         38.0004
 -13046824.00948 -10106547.51847  22586813.7314   22586823.5734   22586813.757
        49.0004         45.0004
  -4629823.52446  -3544349.94246  23643049.3244   23643059.0384   23643049.273
        41.0004         37.0004
 14  5 15  0  3 30.0000000  0 11G26G13G07G09G04G01G10G08G28G17G20
   -744717.79247   -559403.64346  24104810.9334   24104825.6774   24104809.738
        42.0004         37.0004
  15095419.49746  11756632.93646  24116544.7464   24116553.9284   24116545.646
        41.0004         37.0004
 -22235871.33748 -17312350.99148  20450306.9274   20450313.2664   20450306.306
        53.0004         48.0004
 -20946655.66449 -16308956.13648  20053880.2474   20053887.7734   20053880.257
        54.0004         49.0004
 -23697762.64948 -17982242.45547  21323162.9064   21323171.2544   21323162.541
        51.0004         46.0004
  -4702548.34747  -3632199.53246  23802287.5604   23802302.9844   23802286.684
        44.0004         40.0004
  -8663392.36447  -6738337.97946  24062003.0924   24062013.3054   24062003.553
        43.0004         38.0004
 -26087494.45949 -20286773.48348  19952872.5294   19952880.3884   19952872.809
        54.0004         49.0004
  -4656402.43647  -3592263.58746  23639902.6274   23639913.3284   23639902.386
        43.0004         39.0004
 -13005009.31648 -10073964.61347  22594770.0834   22594780.9874   22594770.594
        49.0004         45.0004
  -4619996.53847  -3536692.49446  23644918.3014   23644929.5084   23644919.242
        42.0004         37.0004
 14  5 15  0  4  0.0000000  0 12G26G02G13G07G09G04G01G10G08G28G17G20
   -758394.07847   -570060.28346  24102206.6194   24102221.0604   24102206.350
        42.0004         37.0004
  -1515424.40148  -1123036.17846  24073794.0994   24073805.5424   24073795.060
        50.0004         38.0004
  15168414.60146  11813512.38846  24130434.8404   24130443.9824   24130435.541
        41.0004         36.0004
 -22190538.92148 -17277026.98848  20458933.3404   20458939.5164   20458932.821
        53.0004         48.0004
 -20968193.68949 -16325738.92048  20049781.8584   20049789.1794   20049782.024
        54.0004         49.0004
 -23770018.18748 -18038545.36347  21309413.3684   21309421.4884   21309412.523
        51.0004         46.0004
  -4602462.48547  -3554210.60846  23821334.2474   23821348.3034   23821333.317
        44.0004         39.0004
  -8719471.32647  -6782035.66546  24051330.2104   24051343.4414   24051331.421
        43.0004         38.0004
 -26109727.97249 -20304098.21948  19948641.4994   19948649.1244   19948641.776
        54.0004         49.0004
  -4704923.75247  -3630072.22246  23630668.4674   23630679.0624   23630668.862
        44.0004         39.0004
 -12963137.32348 -10041337.07147  22602738.9914   22602747.4554   22602738.423
        49.0004         44.0004
  -4609929.73246  -3528848.18246  23646835.1564   23646843.9574   23646834.782
        41.0004         37.0004
 14  5 15  0  4 30.0000000  0 12G26G02G13G07G09G04G01G10G08G28G17G20
   -771731.23947   -580452.69246  24099670.8364   24099684.1664   24099669.098
        42.0004         37.0004
  -1609157.30247  -1196074.52746  24055957.6914   24055967.5794   24055957.231
        45.0004         38.0004
  15241222.45946  11870245.93246  24144290.7194   24144300.7854   24144290.413
        41.0004         36.0004
 -22144648.84648 -17241268.44748  20467665.9084   20467671.9454   20467665.517
        53.0004         48.0004
 -20989129.18749 -16342052.20248  20045797.8024   20045805.5484   20045797.899
        54.0004         49.0004
 -23841875.84248 -18094538.23247  21295738.4324   21295746.9374   21295738.859
        51.0004         46.0004
  -4502181.37447  -3476069.55246  23840416.1774   23840430.9394   23840415.610
        44.0004         39.0004
  -8775764.30047  -6825900.09846  24040616.4644   24040630.3954   24040619.158
        42.0004         38.0004
 -26131323.39549 -20320925.74248  19944532.0244   19944539.5404   19944532.265
        54.0004         49.0004
  -4753644.57447  -3668036.30446  23621395.6504   23621408.1434   23621397.032
        44.0004         39.0004
 -12921207.13248 -10008664.16847  22610718.2294   22610727.1614   22610717.683
        49.0004         44.0004
  -4599618.15946  -3520813.13846  23648797.9694   23648806.7514   23648796.508
        41.0004         36.0004
 14  5 15  0  5  0.0000000  0 12G26G02G13G07G09G04G01G10G08G28G17G20
   -784732.12746   -590583.08746  24097195.0254   24097209.2814   24097193.390
        41.0004         37.0004
  -1702731.68147  -1268989.37946  24038150.8514   24038162.6154   24038150.086
        43.0004         38.0004
  15313840.48046  11926831.54846  24158110.1614   24158116.5134   24158109.766
        41.0004         36.0004
 -22098204.05248 -17205077.66348  20476504.1074   20476510.6674   20476503.568
        53.0004         48.0004
 -21009462.61249 -16357896.33748  20041928.3924   20041935.9644   20041928.392
        54.0004         49.0004
 -23913334.65348 -18150220.32247  21282140.7754   21282148.3174   21282140.156
        51.0004         46.0004
  -4401709.00647  -3397779.45146  23859536.0034   23859550.9514   23859535.467
        44.0004         39.0004
  -8832271.60347  -6869931.56146  24029864.4404   24029875.9684   24029865.856
        42.0004         38.0004
 -26152280.58849 -20337255.94148  19940543.8274   19940551.9114   19940544.244
        54.0004         49.0004
  -4802564.44947  -3706155.49546  23612087.8404   23612099.9564   23612087.526
        44.0004         39.0004
 -12879222.45648  -9975948.81947  22618706.8714   22618716.7874   22618706.667
        49.0004         44.0004
  -4589061.46346  -3512587.08946  23650804.6304   23650815.6184   23650805.927
        41.0004         36.0004
 14  5 15  0  5 30.0000000  0 12G26G02G13G07G09G04G01G10G08G28G17G20
   -797397.88046   -600452.32846  24094784.9534   24094800.0994   24094784.868
        41.0004         37.0004
  -1796145.21047  -1341778.88146  24020373.8604   24020383.6884   24020374.785
        43.0004         38.0004
  15386267.26446  11983268.16846  24171891.3834   24171901.4104   24171891.751
        41.0004         36.0004
 -22051206.49948 -17168456.14848  20485447.2994   20485453.5894   20485446.783
        53.0004         48.0004
 -21029192.80649 -16373270.42648  20038174.1204   20038181.4334   20038174.003
        54.0004         49.0004
 -23984391.99748 -18205589.57747  21268619.0424   21268626.7524   21268618.474
        51.0004         46.0004
  -4301047.90847  -3319342.29546  23878690.6184   23878705.8864   23878690.512
        44.0004         39.0004
  -8888992.37047  -6914129.33746  24019071.5584   24019082.1894   24019071.489
        42.0004         38.0004
 -26172598.01649 -20353087.62448  19936677.5784   19936685.0374   19936677.957
        54.0004         49.0004
  -4851682.11447  -3744428.79846  23602740.5964   23602752.7334   23602741.013
        44.0004         39.0004
 -12837185.70148  -9943192.89247  22626707.2114   22626716.7714   22626706.405
        49.0004         44.0004
  -4578258.20146  -3504168.91146  23652860.3894   23652870.7514   23652860.807
        41.0004         36.0004
 14  5 15  0  6  0.0000000  0 12G26G02G13G07G09G04G01G10G08G28G17G20
   -809728.30446   -610060.27046  24092436.1174   24092453.9514   24092436.616
        41.0004         37.0004
  -1889394.00647  -1414440.01546  24002630.0124   24002640.1364   24002630.686
        42.0004         38.0004
  15458502.66346  12039555.64246  24185637.4814   24185645.8764   24185636.434
        41.0004         36.0004
 -22003656.12348 -17131403.86748  20494496.1774   20494502.4584   20494495.303
        53.0004         48.0004
 -21048317.57949 -16388172.75748  20034534.5184   20034541.6304   20034534.541
        54.0004         49.0004
 -24055043.96648 -18260642.96147  21255173.7494   21255182.2534   21255173.900
        51.0004         46.0004
  -4200199.16847  -3240758.92746  23897882.1594   23897898.0134   23897881.133
        44.0004         39.0004
  -8945924.15347  -6958491.54946  24008236.9114   24008249.4864   24008237.414
        42.0004         38.0004
 -26192273.02149 -20368418.71948  19932933.7074   19932941.0824   19932933.878
        54.0004         49.0004
  -4900994.18447  -3782853.58746  23593356.7984   23593369.2754   23593356.701
        44.0004         39.0004
 -12795097.72748  -9910397.05447  22634715.6174   22634724.6644   22634715.271
        49.0004         44.0004
  -4567205.58146  -3495556.41146  23654964.7864   23654974.9104   23654964.322
        41.0004         36.0004
 14  5 15  0  6 30.0000000  0 12G26G02G13G07G09G04G01G10G08G28G17G20
   -821728.82046   -619411.15446  24090153.5434   24090168.8384   24090154.278
        41.0004         37.0004
  -1982479.37447  -1486973.82546  23984916.6364   23984925.7914   23984916.558
        42.0004         38.0004
  15530541.72546  12095690.11746  24199348.3784   24199353.0994   24199345.475
        41.0004         36.0004
 -21955558.40348 -17093925.07548  20503648.5914   20503654.8144   20503647.989
        53.0004         48.0004
 -21066840.39549 -16402606.03348  20031009.6544   20031016.7944   20031009.600
        54.0004         49.0004
 -24125292.32748 -18315381.84347  21241806.1934   21241814.8894   21241805.792
        51.0004         47.0004
  -4099169.36747  -3162034.47946  23917107.4734   23917122.3144   23917106.602
        44.0004         39.0004
  -9003069.89647  -7003020.47846  23997362.1604   23997374.1264   23997363.279
        43.0004         38.0004
 -26211308.12749 -20383251.18948  19929311.2394   19929318.5784   19929311.442
        54.0004         49.0004
  -4950503.04347  -3821431.69746  23583934.9104   23583947.5144   23583935.552
        44.0004         39.0004
 -12752964.96148  -9877566.31047  22642734.1884   22642743.6274   22642732.348
        49.0004         44.0004
  -4555905.23346  -3486750.90446  23657114.1954   23657125.9474   23657114.108
        41.0004         36.0004
 14  5 15  0  7  0.0000000  0 12G26G02G13G07G09G04G01G10G08G28G17G20
   -833397.37246   -628503.36946  24087933.1074   24087950.0084   24087932.753
        41.0004         36.0004
  -2075395.96647  -1559376.11746  23967234.2654   23967243.4514   23967234.764
        42.0004         38.0004
  15602386.26346  12151673.02946  24213017.1034   24213026.5074   24213016.888
        41.0004         36.0004
 -21906911.63148 -17056018.45548  20512905.2674   20512911.8014   20512905.115
        53.0004         48.0004
 -21084757.13149 -16416567.04548  20027600.4454   20027607.4974   20027600.248
        54.0004         49.0004
 -24195131.15348 -18369801.61147  21228516.0674   21228524.3344   21228516.083
        51.0004         46.0004
  -3997957.72747  -3083168.34446  23936367.3884   23936382.7074   23936367.002
        44.0004         39.0004
  -9060424.95147  -7047712.51446  23986446.7694   23986459.3984   23986448.893
        43.0004         38.0004
 -26229698.78949 -20397581.49948  19925811.5734   19925819.0844   19925811.776
        54.0004         49.0004
  -5000203.92947  -3860159.45146  23574476.7204   23574488.2324   23574478.006
        44.0004         39.0004
 -12710786.23148  -9844699.74547  22650759.7444   22650768.3994   22650758.760
        49.0004         44.0004
  -4544352.57046  -3477748.76246  23659311.0194   23659321.5034   23659312.657
        41.0004         36.0004
 14  5 15  0  7 30.0000000  0 12G26G02G13G07G09G04G01G10G08G28G17G20
   -844735.93846   -637338.44846  24085775.7634   24085790.7894   24085775.600
        41.0004         36.0004
  -2168141.88547  -1631645.42246  23949584.7364   23949594.3974   23949584.691
        42.0004         38.0004
  15674034.31846  12207502.82346  24226652.0414   24226659.0034   24226651.167
        40.0004         36.0004
 -21857718.06948 -17017685.76248  20522266.7904   20522273.3034   20522266.385
        53.0004         48.0004
 -21102067.79649 -16430055.79148  20024305.8814   20024313.1554   20024305.899
        54.0004         49.0004
 -24264558.76448 -18423900.95747  21215304.4944   21215312.4834   21215304.085
        51.0004         46.0004
  -3896567.57747  -3004163.09546  23955661.7234   23955676.2364   23955661.041
        44.0004         39.0004
  -9117989.16447  -7092567.53846  23975493.0164   23975505.6584   23975494.664
        43.0004         38.0004
 -26247444.60149 -20411409.32948  19922434.4714   19922442.1284   19922435.023
        54.0004         49.0004
  -5050095.96747  -3899036.16046  23564983.5364   23564994.9544   23564983.487
        44.0004         39.0004
 -12668564.73848  -9811799.85747  22658794.8374   22658803.4864   22658793.711
        49.0004         44.0004
  -4532546.93146  -3468549.50446  23661557.4744   23661568.3804   23661558.556
        41.0004         36.0004
 14  5 15  0  8  0.0000000  0 12G26G02G13G07G09G04G01G10G08G28G17G20
   -855748.47446   -645919.49346  24083681.1504   24083695.3214   24083679.507
        41.0004         37.0004
  -2260717.28747  -1703781.85846  23931968.6784   23931979.0114   23931968.771
        42.0004         38.0004
  15745482.12746  12263176.59545  24240247.0504   24240254.8704   24240247.162
        40.0004         35.0004
 -21807982.03348 -16978930.34948  20531731.2504   20531737.5734   20531730.633
        53.0004         48.0004
 -21118773.88849 -16443073.44548  20021126.9054   20021134.0794   20021126.813
        54.0004         49.0004
 -24333575.24048 -18477679.93747  21202170.9744   21202179.4514   21202170.773
        51.0004         46.0004
  -3795003.85247  -2925022.59646  23974987.7464   23975002.7304   23974987.886
        43.0004         39.0004
  -9175764.24647  -7137586.85946  23964499.9654   23964510.9394   23964499.765
        43.0004         38.0004
 -26264546.57449 -20424735.47348  19919180.0294   19919187.5354   19919180.294
        54.0004         49.0004
  -5100179.73347  -3938062.24846  23555453.6874   23555463.7924   23555452.733
        44.0004         39.0004
 -12626305.08548  -9778870.22947  22666835.9684   22666845.3794   22666835.490
        49.0004         44.0004
  -4520489.02346  -3459153.66846  23663852.8514   23663863.4474   23663853.762
        41.0004         36.0004
 14  5 15  0  8 30.0000000  0 12G26G02G13G07G09G04G01G10G08G28G17G20
   -866431.84346   -654244.05046  24081647.9924   24081661.1614   24081646.461
        41.0004         37.0004
  -2353115.29347  -1775780.06146  23914385.3284   23914395.1604   23914386.629
        42.0004         38.0004
  15816732.77446  12318696.74245  24253804.1554   24253814.1694   24253805.353
        40.0004         35.0004
 -21757700.90248 -16939750.20148  20541299.4414   20541306.2294   20541298.917
        53.0004         48.0004
 -21134870.33949 -16455616.05548  20018063.6604   20018070.9284   20018063.743
        54.0004         49.0004
 -24402173.66548 -18531133.15647  21189117.1264   21189125.3514   21189116.991
        51.0004         47.0004
  -3693264.87647  -2845745.53346  23994349.0154   23994363.0544   23994348.337
        43.0004         39.0004
  -9233744.33847  -7182765.93446  23953464.9064   23953477.8714   23953466.361
        43.0004         38.0004
 -26280999.02849 -20437555.49348  19916049.4254   19916056.7144   19916049.501
        54.0004         49.0004
  -5150449.30547  -3977233.13646  23545886.6764   23545898.4854   23545885.748
        44.0004         39.0004
 -12584005.35648  -9745909.37047  22674884.3564   22674894.0724   22674884.139
        49.0004         44.0004
  -4508172.77646  -3449556.52046  23666196.1414   23666208.7994   23666198.100
        41.0004         36.0004
 14  5 15  0  9  0.0000000  0 12G26G02G13G07G09G04G01G10G08G28G17G20
   -876791.52746   -662316.36446  24079675.4394   24079690.6464   24079674.769
        41.0004         37.0004
  -2445337.29047  -1847641.11146  23896835.5954   23896846.3514   23896835.878
        42.0004         38.0004
  15887781.09846  12374059.20645  24267326.4544   24267335.1414   24267325.219
        40.0004         35.0004
 -21706880.48348 -16900149.82648  20550970.1274   20550976.8454   20550969.416
        53.0004         48.0004
 -21150360.53149 -16467686.25548  20015115.9094   20015123.1534   20015115.809
        54.0004         49.0004
 -24470355.92448 -18584262.09847  21176142.6504   21176150.3554   21176142.353
        51.0004         47.0004
  -3591357.15547  -2766337.00546  24013741.4294   24013756.2684   24013741.030
        43.0004         39.0004
  -9291932.32947  -7228107.01146  23942392.9524   23942404.9474   23942393.285
        43.0004         39.0004
 -26296804.79049 -20449871.60048  19913041.3184   19913048.8744   19913041.758
        54.0004         49.0004
  -5200906.81547  -4016550.46246  23536284.1504   23536295.3244   23536284.365
        44.0004         40.0004
 -12541671.77048  -9712922.13747  22682940.0664   22682950.1714   22682940.237
        49.0004         44.0004
  -4495600.73646  -3439760.08046  23668590.1484   23668599.9404   23668590.509
        41.0004         36.0004
 14  5 15  0  9 30.0000000  0 12G26G02G13G07G09G04G01G10G08G28G17G20
   -886826.30746   -670135.52846  24077764.3894   24077782.1254   24077765.523
        41.0004         37.0004
  -2537378.75347  -1919361.47846  23879320.3534   23879331.8644   23879319.963
        43.0004         38.0004
  15958628.14646  12429264.83846  24280808.6904   24280814.7524   24280807.511
        40.0004         36.0004
 -21655519.72948 -16860128.41148  20560743.8914   20560749.8854   20560743.259
        53.0004         48.0004
 -21165241.27749 -16479281.56748  20012284.6634   20012291.3974   20012284.568
        54.0004         49.0004
 -24538116.63548 -18637062.55247  21163247.8044   21163256.2394   21163247.626
        51.0004         47.0004
  -3489280.67047  -2686796.96646  24033166.6694   24033179.8874   24033165.569
        44.0004         39.0004
  -9350324.56747  -7273607.24346  23931280.9434   23931291.8284   23931281.566
        43.0004         39.0004
 -26311960.29849 -20461681.01348  19910157.1874   19910164.8134   19910157.530
        54.0004         49.0004
  -5251548.29147  -4056011.14346  23526647.5034   23526657.7574   23526647.917
        44.0004         40.0004
 -12499304.10948  -9679908.34647  22691003.4274   22691012.8194   22691002.755
        49.0004         44.0004
  -4482768.65646  -3429760.99346  23671031.1734   23671041.9904   23671031.024
        41.0004         36.0004
 14  5 15  0 10  0.0000000  0 12G26G02G13G07G09G04G01G10G08G28G17G20
   -896541.10846   -677705.36146  24075916.8334   24075932.6774   24075916.044
        41.0004         36.0004
  -2629240.46247  -1990941.78946  23861840.2814   23861850.0434   23861840.552
        43.0004         38.0004
  16029269.13446  12484309.87645  24294250.9774   24294256.7454   24294249.561
        40.0004         35.0004
 -21603623.85048 -16819690.01348  20570618.8934   20570625.1304   20570618.216
        53.0004         48.0004
 -21179515.53649 -16490404.28648  20009567.9524   20009575.1794   20009567.835
        54.0004         50.0004
 -24605457.33648 -18689535.72947  21150433.5604   21150441.0314   21150433.448
        51.0004         47.0004
  -3387041.51947  -2607130.17546  24052620.6754   24052636.7034   24052621.318
        43.0004         39.0004
  -9408923.52447  -7319268.55446  23920130.4464   23920142.1064   23920130.255
        43.0004         39.0004
 -26326467.85849 -20472985.53548  19907396.8864   19907404.0884   19907396.966
        54.0004         49.0004
  -5302375.41847  -4095616.47146  23516974.9044   23516986.5964   23516975.397
        45.0004         40.0004
 -12456908.15548  -9646872.50747  22699070.1654   22699081.0534   22699070.084
        49.0004         44.0004
  -4469678.64846  -3419560.91846  23673520.0894   23673531.5934   23673521.994
        41.0004         36.0004
 14  5 15  0 10 30.0000000  0 12G26G02G13G07G09G04G01G10G08G28G17G20
   -905932.11246   -685022.87646  24074127.7094   24074145.1344   24074129.600
        41.0004         36.0004
  -2720914.79247  -2062376.07946  23844395.3174   23844404.6874   23844395.556
        43.0004         38.0004
  16099708.19846  12539197.58446  24307654.7474   24307660.7804   24307653.750
        40.0004         36.0004
 -21551189.36548 -16778831.92548  20580597.2954   20580603.1594   20580596.670
        53.0004         48.0004
 -21193177.56749 -16501049.95348  20006968.0614   20006975.1244   20006968.017
        54.0004         49.0004
 -24672370.22248 -18741675.54047  21137700.3154   21137708.1344   21137700.026
        51.0004         47.0004
  -3284637.00947  -2527334.51746  24072108.7654   24072123.8654   24072108.424
        43.0004         39.0004
  -9467722.80247  -7365085.94846  23908940.6844   23908951.9724   23908941.024
        43.0004         39.0004
 -26340321.08349 -20483780.18248  19904760.3864   19904767.5024   19904760.666
        54.0004         49.0004
  -5353381.48147  -4135361.24146  23507269.2584   23507278.9954   23507268.963
        45.0004         40.0004
 -12414481.17148  -9613812.50347  22707143.8194   22707153.2064   22707144.110
        49.0004         44.0004
  -4456323.62146  -3409154.36146  23676063.1934   23676075.1574   23676062.909
        41.0004         36.0004
 14  5 15  0 11  0.0000000  0 12G26G02G13G07G09G04G01G10G08G28G17G20
   -915005.73046   -692093.07646  24072402.0084   24072417.6594   24072402.360
        41.0004         36.0004
  -2812404.37947  -2133666.41546  23826985.4554   23826995.8614   23826985.784
        43.0004         38.0004
  16169939.35346  12593923.28846  24321017.5214   24321026.1154   24321017.935
        40.0004         36.0004
 -21498223.33848 -16737559.64948  20590676.0854   20590682.4354   20590675.546
        53.0004         48.0004
 -21206231.74849 -16511221.96948  20004483.6414   20004491.0504   20004483.802
        54.0004         49.0004
 -24738858.14648 -18793484.20547  21125048.3174   21125055.6854   21125047.817
        51.0004         47.0004
  -3182074.70647  -2447415.90746  24091625.7574   24091639.8644   24091625.199
        44.0004         39.0004
  -9526726.38847  -7411062.54746  23897713.2114   23897724.8944   23897712.799
        43.0004         39.0004
 -26353523.85749 -20494067.98648  19902248.1904   19902255.1814   19902248.417
        54.0004         49.0004
  -5404569.35747  -4175247.68946  23497527.5214   23497539.5924   23497528.405
        45.0004         40.0004
 -12372030.28048  -9580733.85847  22715222.6254   22715231.9814   22715222.345
        49.0004         44.0004
  -4442707.42846  -3398544.28146  23678655.9954   23678664.2794   23678655.124
        41.0004         37.0004
 14  5 15  0 11 30.0000000  0 12G26G02G13G07G09G04G01G10G08G28G17G20
   -923760.88346   -698915.13246  24070736.4314   24070752.5424   24070737.640
        41.0004         36.0004
  -2903704.17547  -2204808.86546  23809610.6454   23809620.8554   23809611.596
        43.0004         39.0004
  16239963.99446  12648488.06245  24334343.8674   24334351.0924   24334342.950
        40.0004         35.0004
 -21444725.12248 -16695872.68148  20600856.7164   20600862.2534   20600856.147
        53.0004         48.0004
 -21218674.98949 -16520917.92548  20002115.8234   20002122.8074   20002115.616
        54.0004         49.0004
 -24804915.77948 -18844957.57947  21112477.5564   21112485.7264   21112477.196
        52.0004         47.0004
  -3079354.58547  -2367374.32546  24111172.7194   24111188.2124   24111172.230
        44.0004         39.0004
  -9585930.26247  -7457195.21446  23886446.7914   23886458.2554   23886446.908
        43.0004         39.0004
 -26366072.79849 -20503846.31148  19899860.2074   19899867.4494   19899860.271
        54.0004         49.0004
  -5455934.88647  -4215272.57146  23487753.0384   23487764.7054   23487753.346
        45.0004         40.0004
 -12329555.09648  -9547636.28547  22723305.8604   22723315.3284   22723304.722
        49.0004         44.0004
  -4428825.83446  -3387727.39446  23681296.6834   23681308.0264   23681295.757
        41.0004         36.0004
 14  5 15  0 12  0.0000000  0 12G26G02G13G07G09G04G01G10G08G28G17G20
   -932201.07346   -705491.74046  24069130.6864   24069144.8244   24069129.754
        41.0004         37.0004
  -2994814.00047  -2275803.27846  23792273.1434   23792282.9154   23792273.101
        43.0004         38.0004
  16309778.77746  12702889.30645  24347628.8654   24347638.2984   24347628.415
        40.0004         35.0004
 -21390698.42148 -16653773.90248  20611137.2324   20611143.8864   20611136.764
        53.0004         48.0004
 -21230509.04449 -16530139.19348  19999863.8314   19999870.8014   19999863.818
        54.0004         50.0004
 -24870543.23748 -18896095.74547  21099988.8094   21099996.9964   21099988.569
        52.0004         47.0004
  -2976481.31147  -2287213.41146  24130748.6334   24130764.0144   24130748.201
        44.0004         39.0004
  -9645335.30147  -7503484.64046  23875142.9064   23875152.4034   23875142.565
        43.0004         39.0004
 -26377968.87149 -20513115.90448  19897595.9804   19897603.4154   19897596.495
        54.0004         49.0004
  -5507478.41447  -4255436.14146  23477944.5694   23477954.7984   23477944.702
        45.0004         40.0004
 -12287059.90448  -9514523.12047  22731391.9364   22731401.1114   22731391.623
        49.0004         44.0004
  -4414679.33346  -3376704.10346  23683987.0364   23683998.8134   23683989.057
        41.0004         37.0004
 14  5 15  0 12 30.0000000  0 12G26G02G13G07G09G04G01G10G08G28G17G20
   -940326.31446   -711822.92846  24067585.3214   24067598.6184   24067584.620
        41.0004         37.0004
  -3085729.93947  -2346646.61446  23774971.8264   23774980.6594   23774972.084
        43.0004         39.0004
  16379383.84646  12757127.13646  24360874.6244   24360884.6164   24360874.088
        40.0004         36.0004
 -21336143.74148 -16611263.71448  20621518.7974   20621525.3774   20621518.150
        53.0004         48.0004
 -21241731.60949 -16538883.97448  19997728.2104   19997735.4784   19997728.061
        54.0004         49.0004
 -24935736.80448 -18946895.80547  21087583.3234   21087590.9054   21087582.573
        52.0004         47.0004
  -2873455.97647  -2206934.01246  24150353.5064   24150368.2984   24150352.986
        44.0004         39.0004
  -9704938.95347  -7549928.81946  23863799.5804   23863810.1144   23863800.526
        43.0004         39.0004
 -26389209.79149 -20521874.99348  19895456.7834   19895464.2604   19895457.524
        54.0004         49.0004
  -5559196.81747  -4295735.98446  23468102.8714   23468113.9884   23468103.110
        45.0004         40.0004
 -12244545.66948  -9481395.10247  22739482.1044   22739492.2124   22739481.801
        49.0004         44.0004
  -4400265.20546  -3365472.27246  23686731.9984   23686739.9604   23686731.511
        41.0004         36.0004
 14  5 15  0 13  0.0000000  0 12G26G02G13G07G09G04G01G10G08G28G17G20
   -948138.39247   -717910.11446  24066098.4034   24066112.8304   24066097.176
        42.0004         37.0004
  -3176449.58347  -2417336.99346  23757707.8444   23757717.2364   23757708.982
        43.0004         38.0004
  16448777.98946  12811200.59946  24374080.3224   24374088.3704   24374079.437
        40.0004         36.0004
 -21281063.25848 -16568343.81148  20631999.9544   20632006.2984   20631999.539
        53.0004         48.0004
 -21252342.60249 -16547152.20448  19995708.8874   19995716.0014   19995708.863
        54.0004         49.0004
 -25000494.10348 -18997355.91847  21075260.0214   21075267.5654   21075259.857
        52.0004         47.0004
  -2770281.42947  -2126538.34346  24169987.6214   24170001.8094   24169986.407
        43.0004         39.0004
  -9764740.22547  -7596526.99046  23852419.4514   23852431.5744   23852420.697
        44.0004         39.0004
 -26399794.76349 -20530122.95348  19893443.0164   19893450.1454   19893443.165
        54.0004         49.0004
  -5611088.44447  -4336170.81146  23458228.1254   23458238.3814   23458228.399
        45.0004         40.0004
 -12202014.99748  -9448254.28247  22747575.7844   22747583.7634   22747574.712
        49.0004         44.0004
  -4385582.00546  -3354030.76746  23689525.1674   23689535.4544   23689526.201
        41.0004         36.0004
 14  5 15  0 13 30.0000000  0 12G26G02G13G07G09G04G01G10G08G28G17G20
   -955639.02847   -723754.58246  24064670.5704   24064684.5534   24064669.824
        42.0004         37.0004
  -3266971.04147  -2487872.93046  23740482.9024   23740492.9084   23740483.380
        43.0004         39.0004
  16517959.63646  12865108.46846  24387245.5584   24387250.1104   24387243.381
        40.0004         36.0004
 -21225459.09848 -16525015.84748  20642580.9684   20642587.3334   20642580.856
        53.0004         48.0004
 -21262341.77849 -16554943.68848  19993806.0454   19993813.4684   19993806.122
        54.0004         49.0004
 -25064813.36248 -19047474.70147  21063020.1164   21063027.7324   21063019.653
        52.0004         47.0004
  -2666960.42647  -2046028.54546  24189648.4954   24189664.1594   24189647.839
        43.0004         38.0004
  -9824738.21047  -7643278.44946  23841001.1854   23841013.2144   23841003.036
        44.0004         39.0004
 -26409723.00949 -20537859.17848  19891553.4694   19891560.6974   19891553.647
        54.0004         49.0004
  -5663151.91447  -4376739.55346  23448320.8244   23448331.3264   23448321.057
        45.0004         41.0004
 -12159470.19448  -9415102.46247  22755671.3174   22755680.4284   22755670.894
        49.0004         44.0004
  -4370628.44246  -3342378.59446  23692371.8254   23692378.7084   23692371.571
        41.0004         36.0004
 14  5 15  0 14  0.0000000  0 12G26G02G13G07G09G04G01G10G08G28G17G20
   -962830.23147   -729357.96746  24063301.5024   24063315.8004   24063301.045
        42.0004         37.0004
  -3357292.35447  -2558252.92846  23723294.6694   23723303.8314   23723295.409
        43.0004         38.0004
  16586927.12646  12918849.46045  24400366.5834   24400376.2764   24400367.848
        40.0004         35.0004
 -21169333.49448 -16481281.55848  20653261.4684   20653267.3634   20653261.294
        53.0004         48.0004
 -21271729.52549 -16562258.73848  19992019.5254   19992026.9674   19992019.738
        54.0004         49.0004
 -25128692.71148 -19097250.69547  21050864.4254   21050871.7664   21050863.747
        52.0004         47.0004
  -2563496.08047  -1965407.06646  24209336.9384   24209352.8014   24209336.384
        43.0004         38.0004
  -9884932.05347  -7690182.52346  23829547.8754   23829558.2524   23829548.153
        44.0004         39.0004
 -26418994.30449 -20545083.49548  19889788.9444   19889796.5574   19889789.439
        54.0004         49.0004
  -5715385.67347  -4417440.99046  23438380.6504   23438390.3244   23438380.958
        45.0004         41.0004
 -12116913.98148  -9381941.73847  22763770.3204   22763779.3264   22763768.888
        49.0004         44.0004
  -4355403.74646  -3330515.17246  23695267.2964   23695278.0964   23695267.688
        40.0004         36.0004
 14  5 15  0 14 30.0000000  0 12G26G02G13G07G09G04G01G10G08G28G17G20
   -969711.14447   -734719.54246  24061992.3014   24062005.9864   24061991.950
        42.0004         37.0004
  -3447408.67747  -2628473.18846  23706146.7984   23706154.6464   23706146.286
        43.0004         38.0004
  16655682.02146  12972424.79245  24413451.2794   24413460.2114   24413451.747
        40.0004         35.0004
 -21112686.04448 -16437140.64148  20664040.8704   20664047.3014   20664040.276
        53.0004         48.0004
 -21280503.31649 -16569095.38348  19990350.1374   19990356.8844   19990349.851
        54.0004         49.0004
 -25192127.85848 -19146680.55547  21038793.2744   21038800.7454   21038792.890
        52.0004         47.0004
  -2459888.49047  -1884673.94946  24229053.7074   24229067.9914   24229052.598
        43.0004         38.0004
  -9945318.24447  -7737236.47846  23818056.7504   23818066.8264   23818056.621
        43.0004         39.0004
 -26427605.39949 -20551793.36648  19888150.5344   19888157.5744   19888150.701
        54.0004         49.0004
  -5767785.51447  -4458271.84546  23428409.1604   23428419.8044   23428409.668
        45.0004         41.0004
 -12074346.35848  -9348772.12947  22771869.9794   22771879.7094   22771869.156
        49.0004         44.0004
  -4339904.01746  -3318437.42746  23698217.6404   23698226.3674   23698218.050
        40.0004         36.0004
 14  5 15  0 15  0.0000000  0 12G26G02G13G07G09G04G01G10G08G28G17G20
   -976287.33147   -739843.69946  24060740.8824   24060755.2344   24060740.854
        42.0004         38.0004
  -3537321.86147  -2698535.16546  23689035.4254   23689044.8934   23689036.283
        43.0004         39.0004
  16724219.17146  13025830.46145  24426495.6784   24426501.3774   24426493.981
        40.0004         35.0004
 -21055523.13648 -16392598.06948  20674919.0574   20674924.9944   20674918.621
        53.0004         48.0004
 -21288666.75849 -16575456.42948  19988796.3054   19988803.7004   19988796.336
        54.0004         49.0004
 -25255120.26048 -19195765.43147  21026805.5264   21026813.5004   21026805.378
        52.0004         47.0004
  -2356144.34147  -1803834.42746  24248794.4194   24248810.7924   24248794.631
        42.0004         38.0004
 -10005899.48147  -7784442.41546  23806527.2264   23806538.6264   23806528.503
        43.0004         39.0004
 -26435559.62349 -20557991.40048  19886636.7704   19886643.7254   19886637.025
        54.0004         49.0004
  -5820353.91247  -4499234.05346  23418404.2604   23418416.4564   23418406.607
        45.0004         41.0004
 -12031773.65448  -9315598.56047  22779970.6574   22779982.0064   22779970.446
        49.0004         44.0004
  -4324131.94646  -3306147.47146  23701219.6154   23701226.8854   23701219.040
        40.0004         36.0004
 14  5 15  0 15 30.0000000  0 12G26G02G13G07G09G04G01G10G08G28G17G20
   -982558.94047   -744730.51046  24059546.9174   24059560.7684   24059546.876
        42.0004         38.0004
  -3627027.76247  -2768435.61446  23671965.1954   23671974.2854   23671966.316
        43.0004         39.0004
  16792538.49446  13079066.38246  24439494.1264   24439502.6484   24439493.679
        40.0004         36.0004
 -20997845.21748 -16347654.19148  20685894.3384   20685900.3804   20685893.904
        53.0004         48.0004
 -21296217.87349 -16581340.34748  19987359.3984   19987365.9924   19987359.508
        54.0004         49.0004
 -25317666.29548 -19244502.49247  21014903.4114   21014911.1304   21014903.244
        52.0004         47.0004
  -2252264.65547  -1722889.27646  24268562.0124   24268578.3124   24268562.325
        42.0004         37.0004
 -10066672.98447  -7831798.17946  23794962.1044   23794972.7554   23794963.384
        43.0004         39.0004
 -26442854.65749 -20563675.77148  19885248.3844   19885255.4844   19885248.770
        54.0004         49.0004
  -5873087.49447  -4540324.97246  23408370.8374   23408380.5874   23408370.969
        45.0004         40.0004
 -11989196.47248  -9282421.49847  22788073.3204   22788083.3144   22788072.543
        49.0004         44.0004
  -4308084.37246  -3293642.83346  23704271.9294   23704282.3084   23704272.970
        40.0004         36.0004
 14  5 15  0 16  0.0000000  0 12G26G02G13G07G09G04G01G10G08G28G17G20
   -988523.91347   -749378.37646  24058412.5494   24058425.9234   24058411.889
        43.0004         38.0004
  -3716520.66847  -2838170.09746  23654934.6334   23654944.1194   23654936.220
        43.0004         39.0004
  16860642.68946  13132134.68245  24452453.7504   24452462.5214   24452453.094
        40.0004         35.0004
 -20939650.72448 -16302307.78648  20696968.8254   20696974.8044   20696968.342
        53.0004         48.0004
 -21303152.88549 -16586744.17648  19986039.6044   19986046.5824   19986039.738
        54.0004         49.0004
 -25379760.41148 -19292887.40947  21003087.0714   21003095.3654   21003087.000
        52.0004         47.0004
  -2148248.47547  -1641837.77846  24288357.7314   24288371.0714   24288356.067
        42.0004         37.0004
 -10127634.16947  -7879300.16146  23783362.0674   23783373.1324   23783362.859
        43.0004         39.0004
 -26449486.15249 -20568843.10248  19883986.6304   19883993.3154   19883986.798
        54.0004         49.0004
  -5925980.67247  -4581540.24546  23398305.8724   23398315.6414   23398305.645
        45.0004         40.0004
 -11946613.33548  -9249239.80047  22796176.4734   22796186.0024   22796176.174
        49.0004         44.0004
  -4291756.26846  -3280919.59546  23707378.3074   23707388.8694   23707380.141
        40.0004         36.0004
 14  5 15  0 16 30.0000000  0 12G26G02G13G07G09G04G01G10G08G28G17G20
   -994189.69447   -753793.10746  24057334.1074   24057347.0354   24057333.057
        43.0004         38.0004
  -3805803.88347  -2907741.18846  23637945.1074   23637953.0884   23637945.616
        43.0004         39.0004
  16928524.87646  13185029.96445  24465370.5014   24465378.5064   24465370.832
        40.0004         35.0004
 -20880947.64248 -16256565.07248  20708138.8574   20708145.8524   20708138.590
        53.0004         48.0004
 -21309477.57249 -16591672.43148  19984836.1614   19984842.9254   19984836.125
        54.0004         49.0004
 -25441406.15648 -19340922.95047  20991356.4914   20991364.3844   20991356.065
        52.0004         47.0004
  -2044104.20746  -1560686.46846  24308174.0324   24308189.9914   24308173.565
        41.0004         37.0004
 -10188787.30347  -7926951.73546  23771724.5994   23771734.4994   23771725.316
        43.0004         39.0004
 -26455459.50949 -20573497.60248  19882849.5784   19882856.5594   19882850.176
        54.0004         49.0004
  -5979037.50547  -4622883.03846  23388208.4354   23388219.6074   23388209.198
        45.0004         40.0004
 -11904032.57848  -9216059.94947  22804280.1784   22804288.2164   22804279.028
        49.0004         44.0004
  -4275152.14646  -3267981.30046  23710538.4014   23710548.4494   23710540.206
        40.0004         36.0004
 14  5 15  0 17  0.0000000  0 12G26G02G13G07G09G04G01G10G08G28G17G20
   -999556.92647   -757975.21146  24056313.3114   24056327.4374   24056312.401
        43.0004         38.0004
  -3894874.31447  -2977146.46846  23620995.4604   23621003.9514   23620996.422
        44.0004         39.0004
  16996185.11846  13237752.31845  24478244.9684   24478255.5084   24478245.910
        40.0004         35.0004
 -20821736.76848 -16210426.69148  20719406.8344   20719413.1794   20719406.398
        53.0004         48.0004
 -21315190.68449 -16596124.13548  19983749.0724   19983756.0464   19983749.009
        54.0004         50.0004
 -25502600.41248 -19388606.69347  20979711.7784   20979719.1144   20979710.945
        52.0004         47.0004
  -1939833.45046  -1479436.59646  24328015.7344   24328032.6844   24328016.087
        41.0004         36.0004
 -10250130.05747  -7974751.06646  23760050.9914   23760062.1214   23760051.786
        43.0004         39.0004
 -26460772.89049 -20577637.83248  19881838.3674   19881845.6864   19881838.851
        54.0004         49.0004
  -6032255.00147  -4664351.03046  23378081.9624   23378092.1664   23378082.043
        45.0004         40.0004
 -11861455.36248  -9182882.86047  22812382.0094   22812390.1104   22812380.851
        49.0004         44.0004
  -4258269.86246  -3254826.24745  23713751.5664   23713761.3744   23713751.695
        40.0004         35.0004
 14  5 15  0 17 30.0000000  0 12G26G02G13G07G09G04G01G10G08G28G17G20
  -1004623.80747   -761923.24946  24055347.9634   24055362.3774   24055347.732
        43.0004         38.0004
  -3983725.99647  -3046381.29946  23604087.7034   23604095.0554   23604087.256
        44.0004         39.0004
  17063625.96046  13290303.69745  24491081.3194   24491088.3714   24491079.532
        40.0004         35.0004
 -20762016.76848 -16163891.57748  20730770.9804   20730777.4824   20730770.331
        52.0004         48.0004
 -21320288.72949 -16600096.56448  19982778.7024   19982785.4184   19982778.698
        54.0004         49.0004
 -25563337.25048 -19435934.00647  20968153.4924   20968161.3904   20968153.531
        52.0004         47.0004
  -1835435.18946  -1398087.36346  24347883.8914   24347899.2934   24347882.701
        41.0004         37.0004
 -10311657.69847  -8022694.46646  23748342.9924   23748352.2634   23748343.160
        44.0004         39.0004
 -26465422.50049 -20581260.83848  19880953.6924   19880960.9264   19880953.975
        54.0004         49.0004
  -6085628.04747  -4705940.23046  23367925.1224   23367934.5874   23367925.267
        45.0004         40.0004
 -11818880.31548  -9149707.45947  22820483.1824   22820491.6364   22820482.409
        49.0004         44.0004
  -4241104.61546  -3241450.71346  23717018.6474   23717028.9024   23717018.742
        40.0004         36.0004
 14  5 15  0 18  0.0000000  0 12G26G02G13G07G09G04G01G10G08G28G17G20
  -1009393.50747   -765639.73246  24054440.8674   24054453.6124   24054440.095
        43.0004         38.0004
  -4072358.08447  -3115445.02546  23587220.4304   23587229.7064   23587221.428
        44.0004         39.0004
  17130844.52346  13342681.89245  24503871.3904   24503880.0234   24503871.019
        40.0004         35.0004
 -20701791.58048 -16116962.81748  20742231.6564   20742237.7944   20742231.074
        52.0004         48.0004
 -21324773.31049 -16603590.97148  19981925.2514   19981932.2844   19981925.182
        54.0004         49.0004
 -25623616.51048 -19482904.76947  20956683.0854   20956690.4754   20956682.668
        52.0004         47.0004
  -1730913.70546  -1316642.11946  24367773.1674   24367789.0274   24367772.533
        41.0004         36.0004
 -10373370.62047  -8070782.22046  23736599.9394   23736610.2084   23736599.730
        44.0004         39.0004
 -26469409.20949 -20584367.30248  19880194.9214   19880202.1364   19880195.372
        54.0004         49.0004
  -6139156.30547  -4747650.37046  23357739.3394   23357748.2444   23357739.212
        45.0004         40.0004
 -11776311.24748  -9116536.72147  22828583.5384   22828593.9984   22828583.429
        49.0004         44.0004
  -4223656.44346  -3227854.71946  23720338.6314   23720346.6164   23720339.290
        40.0004         36.0004
 14  5 15  0 18 30.0000000  0 12G26G02G13G07G09G04G01G10G08G28G17G20
  -1013869.27347   -769127.16446  24053587.3104   24053602.2274   24053587.808
        42.0004         38.0004
  -4160769.83447  -3184337.04646  23570395.4574   23570405.0724   23570397.111
        44.0004         39.0004
  17197838.19046  13394884.81445  24516618.7664   24516624.9984   24516619.764
        40.0004         35.0004
 -20641064.87448 -16069643.25548  20753787.3954   20753793.3214   20753787.027
        52.0004         48.0004
 -21328645.78449 -16606608.40748  19981188.3924   19981194.9254   19981188.510
        54.0004         49.0004
 -25683437.68548 -19529518.58647  20945299.5104   20945306.8244   20945298.948
        52.0004         47.0004
  -1626273.09046  -1235104.04246  24387685.5404   24387698.7024   24387684.698
        41.0004         36.0004
 -10435268.87647  -8119014.40746  23724819.8344   23724830.3114   23724820.324
        44.0004         39.0004
 -26472734.06849 -20586958.03948  19879562.3234   19879569.2994   19879562.554
        54.0004         49.0004
  -6192839.48747  -4789481.23446  23347522.6764   23347533.5874   23347523.101
        44.0004         40.0004
 -11733751.92948  -9083373.58047  22836683.0414   22836692.0544   22836682.282
        49.0004         44.0004
  -4205925.34146  -3214038.24646  23723713.0664   23723721.7434   23723713.507
        40.0004         36.0004
 14  5 15  0 19  0.0000000  0 12G26G02G13G07G09G04G01G10G08G28G17G20
  -1018049.31547   -772384.18946  24052792.4954   24052806.4834   24052792.792
        42.0004         37.0004
  -4248955.50047  -3253052.89646  23553615.3124   23553623.7684   23553616.057
        44.0004         39.0004
  17264609.25946  13446914.30645  24529326.9024   24529333.3114   24529326.244
        40.0004         35.0004
 -20579835.18248 -16021931.75948  20765438.7914   20765444.6474   20765438.191
        52.0004         48.0004
 -21331902.64749 -16609146.14948  19980568.4714   19980575.4994   19980568.543
        54.0004         49.0004
 -25742795.26048 -19575771.15647  20934004.0804   20934010.9904   20934003.277
        52.0004         47.0004
  -1521512.52746  -1153472.50446  24407619.5814   24407635.0504   24407619.742
        41.0004         36.0004
 -10497347.79747  -8167387.36746  23713006.6904   23713017.4924   23713007.326
        44.0004         39.0004
 -26475392.93649 -20589029.82148  19879056.2544   19879063.3774   19879056.558
        54.0004         49.0004
  -6246671.88947  -4831428.37146  23337280.6104   23337287.4414   23337278.806
        44.0004         40.0004
 -11691201.09448  -9050217.04747  22844779.7234   22844788.5454   22844779.487
        49.0004         44.0004
  -4187907.08746  -3199998.03646  23727139.5364   23727149.9144   23727142.047
        41.0004         36.0004
 14  5 15  0 19 30.0000000  0 12G26G02G13G07G09G04G01G10G08G28G17G20
  -1021940.04247   -775415.76746  24052050.9014   24052065.5914   24052051.441
        42.0004         38.0004
  -4336917.78147  -3321594.69146  23536876.8164   23536884.0404   23536876.336
        44.0004         39.0004
  17331152.27046  13498766.07745  24541987.1224   24541999.3904   24541988.237
        40.0004         35.0004
 -20518109.63648 -15973833.88648  20777184.9064   20777190.7354   20777184.405
        52.0004         48.0004
 -21334548.64349 -16611207.89048  19980064.8944   19980071.6274   19980064.676
        54.0004         49.0004
 -25801691.75648 -19621664.44847  20922796.4574   20922803.6034   20922795.757
        52.0004         47.0004
  -1416639.23146  -1071753.13146  24427577.4394   24427593.7184   24427576.240
        41.0004         36.0004
 -10559611.09747  -8215904.00746  23701158.7174   23701168.4654   23701159.274
        44.0004         39.0004
 -26477390.33049 -20590586.16948  19878675.9284   19878683.1654   19878676.348
        54.0004         49.0004
  -6300656.67347  -4873494.24846  23327005.3074   23327015.2174   23327005.847
        44.0004         40.0004
 -11648665.77348  -9017072.59947  22852873.6124   22852883.7024   22852873.701
        49.0004         44.0004
  -4169604.50246  -3185736.24946  23730624.1384   23730631.1814   23730624.168
        40.0004         36.0004
 14  5 15  0 20  0.0000000  0 12G26G02G13G07G09G04G01G10G08G28G17G20
  -1025540.64147   -778221.27846  24051365.7114   24051380.9854   24051366.762
        42.0004         38.0004
  -4424651.55347  -3389958.43046  23520180.4274   23520189.4414   23520180.910
        44.0004         39.0004
  17397468.86846  13550441.41445  24554606.5114   24554615.1954   24554608.481
        40.0004         35.0004
 -20455888.01348 -15925349.45848  20789025.4174   20789031.1764   20789024.623
        52.0004         48.0004
 -21336581.41049 -16612791.79948  19979677.8324   19979685.3554   19979677.928
        54.0004         49.0004
 -25860122.69348 -19667194.96447  20911677.0274   20911684.2884   20911676.568
        52.0004         47.0004
  -1311653.34146   -989945.99946  24447554.6874   24447569.9384   24447554.670
        41.0004         36.0004
 -10622054.64047  -8264561.10946  23689275.8504   23689285.7374   23689275.615
        44.0004         39.0004
 -26478723.42149 -20591624.87748  19878422.0414   19878429.4324   19878422.593
        54.0004         49.0004
  -6354789.37147  -4915675.38846  23316703.8554   23316713.6034   23316704.906
        44.0004         40.0004
 -11606145.66648  -8983940.00447  22860965.5524   22860974.9854   22860964.723
        49.0004         44.0004
  -4151014.07246  -3171250.18345  23734162.2094   23734174.0054   23734162.651
        40.0004         35.0004
 14  5 15  0 20 30.0000000  0 12G26G02G13G07G09G04G01G10G08G28G17G20
  -1028851.12647   -780800.73146  24050736.6374   24050751.1084   24050736.084
        42.0004         38.0004
  -4512152.48947  -3458140.72846  23503530.3224   23503537.1754   23503530.653
        44.0004         39.0004
  17463559.41846  13601940.62245  24567186.8694   24567194.0554   24567184.612
        40.0004         35.0004
 -20393170.74448 -15876478.81248  20800959.8734   20800965.6384   20800959.706
        52.0004         48.0004
 -21337999.19149 -16613896.49448  19979408.0804   19979414.9554   19979408.286
        54.0004         50.0004
 -25918084.33448 -19712359.78747  20900646.9354   20900654.4294   20900646.447
        52.0004         47.0004
  -1206555.69346   -908051.79346  24467554.1464   24467570.5834   24467554.309
        41.0004         36.0004
 -10684675.20947  -8313356.12946  23677358.5994   23677369.1214   23677359.385
        44.0004         39.0004
 -26479389.93849 -20592144.18248  19878295.4724   19878302.4754   19878295.804
        54.0004         49.0004
  -6409066.29747  -4957968.89846  23306375.8964   23306385.3014   23306375.843
        44.0004         40.0004
 -11563641.13748  -8950819.54647  22869053.9774   22869062.4954   22869053.000
        49.0004         44.0004
  -4132132.80346  -3156537.49046  23737752.9104   23737764.2754   23737754.513
        40.0004         36.0004
 14  5 15  0 21  0.0000000  0 12G26G02G13G07G09G04G01G10G08G28G17G20
  -1031875.85447   -783157.49746  24050161.5214   24050176.3284   24050161.023
        43.0004         38.0004
  -4599421.29747  -3526142.16246  23486922.5934   23486931.3334   23486923.920
        44.0004         39.0004
  17529420.34746  13653260.87445  24579716.5554   24579724.3764   24579718.184
        40.0004         35.0004
 -20329962.50548 -15827225.59248  20812987.7534   20812993.4774   20812987.424
        52.0004         48.0004
 -21338804.80449 -16614524.17948  19979254.7254   19979261.6634   19979255.001
        54.0004         50.0004
 -25975577.31348 -19757159.42047  20889706.2724   20889714.2784   20889706.224
        52.0004         47.0004
  -1101351.42246   -826074.50746  24487575.5924   24487591.1364   24487574.258
        41.0004         36.0004
 -10747473.94847  -8362289.99146  23665407.8994   23665419.1424   23665409.318
        44.0004         39.0004
 -26479392.31249 -20592145.97448  19878294.6954   19878301.9304   19878295.311
        54.0004         49.0004
  -6463488.06547  -5000375.29346  23296019.6144   23296029.4964   23296019.659
        44.0004         40.0004
 -11521156.85848  -8917714.87447  22877137.8354   22877147.6074   22877137.564
        48.0004         44.0004
  -4112962.04846  -3141599.22345  23741404.5954   23741411.0164   23741404.248
        40.0004         35.0004
 14  5 15  0 21 30.0000000  0 12G26G02G13G07G09G04G01G10G08G28G17G20
  -1034617.57447   -785293.76946  24049639.6284   24049652.6524   24049638.897
        43.0004         38.0004
  -4686456.89247  -3593961.86346  23470360.7524   23470369.1054   23470360.507
        44.0004         40.0004
  17595049.73946  13704400.72045  24592204.9554   24592214.8274   24592206.252
        39.0004         35.0004
 -20266266.96348 -15777592.65948  20825109.2224   20825114.4084   20825108.453
        52.0004         48.0004
 -21338999.30349 -16614675.67448  19979218.0064   19979224.4374   19979217.855
        54.0004         50.0004
 -26032600.72148 -19801593.14747  20878855.3764   20878862.7904   20878854.759
        52.0004         47.0004
   -996044.25646   -744017.04546  24507613.8974   24507630.9924   24507613.500
        41.0004         37.0004
 -10810450.86347  -8411362.70146  23653423.8094   23653433.9054   23653425.020
        44.0004         39.0004
 -26478731.06649 -20591630.66148  19878420.8334   19878427.6824   19878421.094
        54.0004         49.0004
  -6518054.28747  -5042894.23946  23285635.8344   23285645.3264   23285636.031
        45.0004         40.0004
 -11478696.11448  -8884628.54047  22885217.4524   22885226.6984   22885217.632
        48.0004         44.0004
  -4093501.76046  -3126435.32645  23745107.3344   23745116.9404   23745106.399
        40.0004         35.0004
 14  5 15  0 22  0.0000000  0 12G26G02G13G07G09G04G01G10G08G28G17G20
  -1037074.58147   -787208.16946  24049172.6064   24049185.9924   24049172.165
        43.0004         38.0004
  -4773253.24447  -3661595.14846  23453844.1414   23453851.5404   23453844.410
        44.0004         40.0004
  17660450.04746  13755362.05845  24604650.4794   24604660.0894   24604651.460
        39.0004         35.0004
 -20202082.75148 -15727578.94048  20837322.8624   20837328.5994   20837322.214
        52.0004         48.0004
 -21338579.33549 -16614348.36148  19979297.7244   19979304.5034   19979297.814
        54.0004         50.0004
 -26089149.09448 -19845656.71547  20868094.0454   20868101.4634   20868094.053
        52.0004         47.0004
   -890633.20346   -661878.61546  24527674.8974   24527688.6624   24527672.882
        41.0004         37.0004
 -10873600.96947  -8460570.36746  23641407.4194   23641417.3444   23641406.681
        44.0004         39.0004
 -26477402.60049 -20590595.43148  19878673.3414   19878680.4954   19878673.908
        54.0004         49.0004
  -6572758.67647  -5085520.85046  23275226.3744   23275235.4204   23275225.985
        45.0004         40.0004
 -11436257.93848  -8851559.78347  22893294.0844   22893302.8074   22893293.272
        48.0004         44.0004
  -4073747.01846  -3111042.01345  23748863.4514   23748875.4614   23748865.996
        40.0004         35.0004
 14  5 15  0 22 30.0000000  0 12G26G02G13G07G09G04G01G10G08G28G17G20
  -1039251.52447   -788904.34046  24048757.6414   24048770.4154   24048757.007
        43.0004         38.0004
  -4859810.85847  -3729042.39846  23437372.8374   23437380.3114   23437373.207
        44.0004         40.0004
  17725617.64446  13806142.06645  24617052.8704   24617060.0724   24617051.845
        40.0004         35.0004
 -20137415.10648 -15677188.52748  20849628.6144   20849634.1694   20849628.164
        52.0004         48.0004
 -21337548.14449 -16613544.77148  19979493.8484   19979500.5394   19979493.973
        54.0004         50.0004
 -26145223.22848 -19889350.74448  20857423.7944   20857431.3084   20857423.441
        52.0004         48.0004
   -785123.81546   -579663.56746  24547750.3304   24547766.3824   24547750.580
        41.0004         37.0004
 -10936925.57747  -8509914.00946  23629356.2304   23629366.5044   23629356.618
        44.0004         39.0004
 -26475409.46349 -20589042.27648  19879052.9384   19879059.5644   19879053.036
        54.0004         49.0004
  -6627602.16547  -5128255.85046  23264789.6094   23264799.2614   23264789.607
        45.0004         41.0004
 -11393847.26948  -8818512.45747  22901364.2724   22901373.5824   22901363.597
        48.0004         44.0004
  -4053699.49846  -3095420.53145  23752678.5314   23752689.1894   23752680.370
        40.0004         35.0004
 14  5 15  0 23  0.0000000  0 12G26G02G13G07G09G04G01G10G08G28G17G20
  -1041150.39847   -790383.83846  24048396.4814   24048409.3914   24048395.923
        43.0004         38.0004
  -4946127.74147  -3796302.07546  23420945.9954   23420955.1484   23420946.347
        44.0004         40.0004
  17790551.57346  13856739.97845  24629410.2964   24629416.9044   24629408.582
        40.0004         35.0004
 -20072266.47148 -15626423.31247  20862025.7594   20862031.7794   20862025.349
        52.0004         47.0004
 -21335905.94149 -16612265.07148  19979805.9794   19979812.9064   19979806.363
        54.0004         50.0004
 -26200821.75448 -19932674.16347  20846843.6954   20846851.1904   20846843.556
        52.0004         47.0004
   -679518.78746   -497373.99946  24567846.6004   24567861.7074   24567846.451
        41.0004         37.0004
 -11000423.43647  -8559392.64646  23617273.1264   23617283.2744   23617273.714
        44.0004         39.0004
 -26472751.46549 -20586971.05048  19879558.5334   19879565.3814   19879558.690
        54.0004         49.0004
  -6682583.34447  -5171098.14646  23254326.5324   23254335.7074   23254326.856
        45.0004         40.0004
 -11351466.07148  -8785488.10847  22909428.2234   22909438.1994   22909428.206
        48.0004         44.0004
  -4033358.12446  -3079570.09645  23756549.9164   23756560.0424   23756550.633
        40.0004         35.0004
 14  5 15  0 23 30.0000000  0 12G26G02G13G07G09G04G01G10G08G28G17G20
  -1042768.39347   -791644.45746  24048088.3194   24048101.3444   24048087.337
        43.0004         38.0004
  -5032197.17747  -3863368.94046  23404568.5914   23404575.7144   23404567.901
        44.0004         40.0004
  17855254.86246  13907158.17445  24641721.5284   24641728.7924   24641720.672
        40.0004         35.0004
 -20006634.73948 -15575281.65947  20874515.7164   20874520.7264   20874514.603
        52.0004         47.0004
 -21333648.55149 -16610506.00548  19980235.9784   19980242.6894   19980235.762
        54.0004         50.0004
 -26255937.79848 -19975621.63147  20836355.5124   20836362.7204   20836354.856
        52.0004         47.0004
   -573816.12846   -415008.34846  24587962.3574   24587976.8554   24587961.132
        41.0004         37.0004
 -11064088.62247  -8609001.66046  23605158.0274   23605167.5084   23605158.576
        44.0004         39.0004
 -26469424.14749 -20584378.26848  19880191.8074   19880198.9404   19880191.906
        54.0004         49.0004
  -6737695.73247  -5214042.68146  23243839.2594   23243847.7954   23243839.135
        45.0004         41.0004
 -11309112.27448  -8752485.11647  22917488.9264   22917498.2674   22917488.325
        48.0004         44.0004
  -4012717.24346  -3063486.29445  23760478.3634   23760489.5004   23760479.484
        40.0004         35.0004
 14  5 15  0 24  0.0000000  0 12G26G02G13G07G09G04G01G10G08G28G17G20
  -1044113.23547   -792692.23546  24047832.5894   24047845.5714   24047831.220
        43.0004         38.0004
  -5118022.71647  -3930245.74646  23388235.2664   23388242.8264   23388236.126
        44.0004         40.0004
  17919720.93246  13957391.53045  24653989.0094   24653997.2364   24653988.838
        40.0004         35.0004
 -19940528.26748 -15523770.07047  20887094.4444   20887100.5394   20887094.067
        52.0004         47.0004
 -21330782.14349 -16608272.38048  19980781.1164   19980788.1154   19980781.254
        54.0004         50.0004
 -26310575.78748 -20018196.58247  20825957.4704   20825965.3754   20825957.203
        52.0004         47.0004
   -468024.31146   -332573.22846  24608093.8684   24608109.4594   24608092.595
        41.0004         37.0004
 -11127925.68847  -8658744.61846  23593010.1954   23593019.7714   23593011.091
        44.0004         39.0004
 -26465433.43449 -20581268.55748  19880951.3384   19880958.0234   19880951.444
        54.0004         49.0004
  -6792943.18947  -5257092.45246  23233324.9754   23233334.0714   23233326.366
        45.0004         41.0004
 -11266793.53148  -8719509.41947  22925540.9524   22925550.7474   22925540.949
        48.0004         44.0004
  -3991781.64846  -3047172.85345  23764463.1844   23764472.8764   23764462.070
        40.0004         35.0004
 14  5 15  0 24 30.0000000  0 12G26G02G13G07G09G04G01G10G08G28G17G20
  -1045184.52547   -793526.87746  24047628.2744   24047640.4404   24047628.161
        43.0004         38.0004
  -5203599.59647  -3996928.79746  23371950.1444   23371958.1264   23371951.227
        44.0004         40.0004
  17983951.16646  14007441.10445  24666214.0294   24666221.8924   24666210.892
        40.0004         35.0004
 -19873947.08748 -15471888.58247  20899764.6824   20899771.0734   20899764.181
        52.0004         47.0004
 -21327304.80749 -16605562.70048  19981443.1864   19981449.5884   19981442.962
        54.0004         50.0004
 -26364731.44448 -20060395.70647  20815652.5914   20815659.6134   20815652.594
        52.0004         47.0004
   -362143.73146   -250068.93246  24628240.2744   24628256.5384   24628241.073
        41.0004         37.0004
 -11191930.83247  -8708618.54446  23580829.9164   23580839.6804   23580831.065
        44.0004         39.0004
 -26460777.00249 -20577640.10848  19881837.0834   19881844.0204   19881837.363
        54.0004         49.0004
  -6848321.53847  -5300244.21846  23222787.0424   23222795.9104   23222787.723
        45.0004         41.0004
 -11224510.06448  -8686561.21747  22933588.7164   22933597.1804   22933587.353
        48.0004         44.0004
  -3970547.85246  -3030627.01045  23768502.0204   23768513.3744   23768503.579
        40.0004         35.0004
 14  5 15  0 25  0.0000000  0 12G26G02G13G07G09G04G01G10G08G28G17G20
  -1045974.59547   -794142.35446  24047477.2534   24047490.9644   24047476.407
        43.0004         38.0004
  -5288916.42947  -4063409.22146  23355714.5274   23355722.6304   23355715.057
        45.0004         40.0004
  18047954.13546  14057313.59345  24678390.8104   24678400.0394   24678391.196
        39.0004         35.0004
 -19806884.22648 -15419631.76547  20912526.4404   20912532.0334   20912525.818
        52.0004         47.0004
 -21323207.44449 -16602369.88248  19982222.3004   19982229.2544   19982222.270
        54.0004         50.0004
 -26418393.68648 -20102210.35448  20805440.6584   20805447.6654   20805439.921
        52.0004         48.0004
   -256167.42046   -167490.03646  24648411.7004   24648423.8154   24648407.627
        41.0004         36.0004
 -11256093.10647  -8758614.90946  23568620.7274   23568630.1454   23568621.352
        44.0004         40.0004
 -26455445.12249 -20573485.33748  19882851.5684   19882858.6804   19882851.994
        54.0004         49.0004
  -6903818.93347  -5343488.74946  23212225.8674   23212235.0544   23212226.516
        45.0004         40.0004
 -11182254.59548  -8653634.82647  22941628.2994   22941638.1214   22941628.122
        48.0004         43.0004
  -3949005.42446  -3013840.70045  23772601.2544   23772613.8344   23772602.668
        40.0004         35.0004
 14  5 15  0 25 30.0000000  0 12G26G02G13G07G09G04G01G10G08G28G17G20
  -1046505.19647   -794555.66546  24047376.6354   24047389.2744   24047376.649
        43.0004         38.0004
  -5373991.08047  -4129700.92646  23339525.8864   23339532.9874   23339525.544
        45.0004         40.0004
  18111709.08246  14106992.80745  24690523.1204   24690531.2434   24690522.874
        39.0004         35.0004
 -19739361.91348 -15367016.92347  20925375.3184   20925381.4874   20925374.757
        52.0004         47.0004
 -21318510.30049 -16598709.70348  19983116.4054   19983123.0974   19983116.537
        54.0004         50.0004
 -26471580.23048 -20143654.32848  20795320.1774   20795326.8354   20795319.540
        52.0004         48.0004
   -150117.92346    -84854.12146  24668589.7894   24668603.3544   24668587.902
        41.0004         36.0004
 -11320431.05847  -8808748.15746  23556377.7624   23556387.3384   23556377.852
        44.0004         40.0004
 -26449457.91949 -20568819.92648  19883991.1784   19883997.8254   19883991.215
        54.0004         49.0004
  -6959453.49847  -5386840.15346  23201639.0184   23201649.7204   23201639.393
        45.0004         40.0004
 -11140048.97148  -8620747.28547  22949660.1624   22949668.3734   22949659.919
        48.0004         43.0004
  -3927172.53946  -2996828.05645  23776756.1524   23776767.4824   23776758.495
        39.0004         35.0004
 14  5 15  0 26  0.0000000  0 12G26G02G13G07G09G04G01G10G08G28G17G20
  -1046765.16947   -794758.07146  24047325.8564   24047339.9794   24047326.085
        42.0004         38.0004
  -5458808.09647  -4195791.88046  23323386.1334   23323393.7124   23323385.737
        45.0004         40.0004
  18175228.52046  14156488.52945  24702611.7864   24702617.8214   24702610.710
        39.0004         35.0004
 -19671369.58148 -15314035.83847  20938314.1304   20938319.4604   20938313.655
        52.0004         47.0004
 -21313200.82949 -16594572.38848  19984126.8684   19984133.3704   19984126.868
        54.0004         50.0004
 -26524276.49548 -20184716.27248  20785292.6394   20785298.9814   20785291.790
        52.0004         48.0004
    -43984.71746     -2152.96646  24688784.1964   24688801.1004   24688785.061
        40.0004         36.0004
 -11384929.92547  -8859006.79046  23544103.0254   23544112.8994   23544103.759
        44.0004         40.0004
 -26442802.22649 -20563633.61248  19885257.3574   19885264.5154   19885257.637
        54.0004         49.0004
  -7015210.06547  -5430286.63846  23191028.9894   23191039.6544   23191029.152
        45.0004         40.0004
 -11097882.25848  -8587890.06947  22957684.0264   22957694.6124   22957683.702
        48.0004         44.0004
  -3905035.69746  -2979578.55445  23780970.3554   23780979.1164   23780970.168
        39.0004         34.0004
 14  5 15  0 26 30.0000000  0 12G26G02G13G07G09G04G01G10G08G28G17G20
  -1046760.03347   -794753.93846  24047327.7434   24047340.9514   24047327.173
        43.0004         38.0004
  -5543368.70047  -4261683.03446  23307293.1694   23307301.9994   23307294.356
        45.0004         40.0004
  18238507.39146  14205796.77345  24714652.4414   24714658.7094   24714652.252
        39.0004         35.0004
 -19602913.36648 -15260693.27847  20951340.6954   20951346.0114   20951340.136
        52.0004         47.0004
 -21307283.31749 -16589961.28048  19985252.5724   19985259.2624   19985252.461
        54.0004         50.0004
 -26576484.31948 -20225397.61648  20775357.0784   20775363.9014   20775356.635
        52.0004         48.0004
     62225.98346     80608.56445  24708998.8884   24709012.0774   24708996.022
        40.0004         35.0004
 -11449591.78147  -8909392.44446  23531798.8954   23531807.7094   23531799.089
        44.0004         40.0004
 -26435481.66849 -20557929.22548  19886650.7434   19886657.4664   19886650.813
        54.0004         49.0004
  -7071090.06547  -5473829.29146  23180395.8904   23180403.7944   23180395.588
        45.0004         41.0004
 -11055760.23648  -8555067.66647  22965700.0334   22965708.3744   22965699.078
        48.0004         44.0004
  -3882596.99846  -2962093.86345  23785240.2014   23785247.8154   23785240.744
        39.0004         35.0004
 14  5 15  0 27  0.0000000  0 12G26G02G13G07G09G04G01G10G08G28G17G20
  -1046488.66947   -794542.33046  24047378.6374   24047392.3934   24047379.226
        43.0004         38.0004
  -5627667.47247  -4327370.15546  23291251.9174   23291260.0804   23291252.450
        45.0004         40.0004
  18301548.07246  14254919.41045  24726647.8564   24726656.5744   24726648.016
        39.0004         34.0004
 -19533992.75648 -15206988.85347  20964455.9524   20964461.4334   20964455.294
        52.0004         47.0004
 -21300755.13849 -16584874.32648  19986495.4394   19986501.6924   19986495.206
        54.0004         50.0004
 -26628198.93248 -20265694.64148  20765515.9534   20765523.1314   20765515.545
        52.0004         48.0004
    168514.55646    163430.77245  24729222.2644   24729238.0844   24729221.621
        40.0004         35.0004
 -11514412.22147  -8959901.66346  23519463.1014   23519472.2624   23519463.305
        44.0004         40.0004
 -26427493.59449 -20551704.69248  19888170.3704   19888177.5384   19888170.691
        54.0004         49.0004
  -7127088.89547  -5517464.53446  23169739.5064   23169748.2534   23169739.168
        46.0004         41.0004
 -11013682.05948  -8522279.42347  22973706.0084   22973716.5874   22973706.347
        48.0004         43.0004
  -3859852.88646  -2944371.18245  23789568.1944   23789576.1344   23789567.439
        39.0004         34.0004
 14  5 15  0 27 30.0000000  0 12G26G02G13G07G09G04G01G10G08G28G17G20
  -1045956.49347   -794127.49946  24047479.5824   24047493.8604   24047480.051
        43.0004         38.0004
  -5711706.24447  -4392854.68146  23275259.4464   23275267.6934   23275260.443
        45.0004         40.0004
  18364346.40046  14303853.23545  24738598.8224   24738604.0624   24738597.843
        39.0004         34.0004
 -19464613.76748 -15152927.25547  20977657.6734   20977663.8524   20977657.457
        52.0004         47.0004
 -21293620.36649 -16579314.70248  19987852.6704   19987859.1064   19987852.392
        54.0004         49.0004
 -26679421.97348 -20305608.62748  20755768.7224   20755775.8474   20755768.397
        52.0004         48.0004
    274875.06046    246309.05945  24749460.1724   24749476.9284   24749461.653
        39.0004         35.0004
 -11579393.42447  -9010536.16046  23507097.1734   23507107.3684   23507097.590
        44.0004         40.0004
 -26418841.41849 -20544962.67848  19889816.5714   19889823.6594   19889817.001
        54.0004         49.0004
  -7183207.71247  -5561193.28246  23159059.7664   23159068.1494   23159059.912
        46.0004         41.0004
 -10971653.30748  -8489529.69447  22981704.3314   22981714.2534   22981704.326
        48.0004         43.0004
  -3836805.14246  -2926411.90545  23793950.2064   23793962.0674   23793953.738
        39.0004         34.0004
 14  5 15  0 28  0.0000000  0 12G26G02G13G07G09G04G01G10G08G28G17G20
  -1045163.34347   -793509.30746  24047630.5494   24047643.8274   24047630.726
        43.0004         38.0004
  -5795480.58047  -4458133.15846  23259317.6714   23259326.2054   23259318.111
        45.0004         40.0004
  18426903.30846  14352598.92645  24750504.3944   24750511.0204   24750502.162
        39.0004         34.0004
 -19394776.85048 -15098508.82447  20990947.4704   20990953.0314   20990947.085
        52.0004         47.0004
 -21285877.37249 -16573281.14348  19989325.8024   19989332.4604   19989325.952
        54.0004         49.0004
 -26730149.92048 -20345136.82648  20746115.1124   20746121.9084   20746114.529
        52.0004         48.0004
 -20099153.17646 -15629557.14445  24769714.8764   24769731.8904   24769714.920
        39.0004         34.0004
 -11644531.91247  -9061293.21246  23494702.0844   23494711.4334   23494702.354
        44.0004         40.0004
 -26409523.47749 -20537701.88848  19891590.0024   19891596.8164   19891590.200
        54.0004         49.0004
  -7239442.49247  -5605012.39146  23148358.9814   23148366.9734   23148358.443
        46.0004         41.0004
 -10929674.16048  -8456818.62747  22989692.5904   22989701.3134   22989692.023
        48.0004         43.0004
  -3813451.19746  -2908214.00945  23798397.5764   23798408.2604   23798397.514
        39.0004         35.0004
 14  5 15  0 28 30.0000000  0 12G26G02G13G07G09G04G01G10G08G28G17G20
  -1044111.51547   -792689.55946  24047829.9874   24047843.8814   24047830.949
        43.0004         38.0004
  -5878988.90247  -4523204.34446  23243426.7984   23243435.8764   23243428.099
        45.0004         41.0004
  18489217.80846  14401155.74745  24762360.3284   24762368.1984   24762360.074
        39.0004         35.0004
 -19324484.93748 -15043735.84847  21004323.7694   21004329.2744   21004323.181
        52.0004         47.0004
 -21277527.25449 -16566774.49848  19990915.3724   19990921.4424   19990914.936
        54.0004         49.0004
 -26780381.34248 -20384278.11348  20736556.4604   20736563.5444   20736556.591
        52.0004         48.0004
 -19992652.91446 -15546569.98645  24789983.7484   24789999.7704   24789980.689
        38.0004         34.0004
 -11709826.32947  -9112171.77246  23482276.6894   23482286.0354   23482277.471
        44.0004         40.0004
 -26399540.27849 -20529922.71648  19893489.7154   19893496.4424   19893490.044
        54.0004         49.0004
  -7295791.34847  -5648920.39347  23137635.2974   23137643.5824   23137635.562
        46.0004         42.0004
 -10887746.60448  -8424147.76447  22997671.4674   22997680.3974   22997671.212
        48.0004         43.0004
  -3789790.13646  -2889776.83045  23802901.7024   23802907.3824   23802899.910
        39.0004         34.0004
 14  5 15  0 29  0.0000000  0 12G26G02G13G07G09G04G01G10G08G28G17G20
  -1042802.88147   -791669.68246  24048080.1204   24048093.0984   24048079.942
        43.0004         38.0004
  -5962228.65147  -4588066.26346  23227587.4324   23227593.5274   23227587.408
        45.0004         41.0004
  18551289.07946  14449522.99945  24774171.3614   24774178.1704   24774171.748
        39.0004         35.0004
 -19253740.88548 -14988610.55747  21017785.4034   21017790.8274   21017785.101
        52.0004         47.0004
 -21268570.41749 -16559795.08448  19992619.2134   19992625.6404   19992619.080
        54.0004         50.0004
 -26830114.63548 -20423031.25148  20727092.6784   20727099.5064   20727091.996
        52.0004         48.0004
 -19886086.75346 -15463531.48445  24810257.6384   24810279.8304   24810259.742
        39.0004         34.0004
 -11775274.95547  -9163170.49446  23469822.6684   23469831.1614   23469822.728
        44.0004         40.0004
 -26388891.96849 -20521625.27048  19895515.8844   19895522.7274   19895516.315
        54.0004         49.0004
  -7352252.11747  -5692915.59447  23126891.8664   23126900.0454   23126891.368
        46.0004         42.0004
 -10845872.96548  -8391518.89847  23005640.0244   23005648.7654   23005638.913
        48.0004         43.0004
  -3765820.91646  -2871099.52945  23807463.4754   23807469.3874   23807461.848
        39.0004         35.0004
 14  5 15  0 29 30.0000000  0 12G26G02G13G07G09G04G01G10G08G28G17G20
  -1041238.47847   -790450.52446  24048377.3624   24048391.6494   24048377.646
        42.0004         38.0004
  -6045196.74847  -4652716.50746  23211798.3064   23211805.1634   23211797.891
        45.0004         41.0004
  18613117.02046  14497700.68745  24785936.7114   24785946.2154   24785937.086
        39.0004         35.0004
 -19182545.97748 -14933133.96147  21031333.6264   21031339.6824   21031333.141
        52.0004         47.0004
 -21259006.59849 -16552342.69348  19994439.3704   19994445.7134   19994439.417
        54.0004         50.0004
 -26879347.10248 -20461394.11548  20717723.3954   20717730.8824   20717723.375
        52.0004         48.0004
 -19779456.48056 -15380442.98255  24830551.0465   24830570.5715   24830550.990
        38.0004         34.0004
 -11840875.55047  -9214287.63546  23457338.8084   23457347.9004   23457339.775
        45.0004         40.0004
 -26377578.01849 -20512809.14648  19897668.5534   19897675.3644   19897669.112
        54.0004         49.0004
  -7408822.08347  -5736995.88647  23116126.4684   23116135.0084   23116126.463
        46.0004         42.0004
 -10804054.61948  -8358933.11147  23013596.9644   23013605.7144   23013596.912
        48.0004         43.0004
  -3741541.74546  -2852180.71045  23812081.5684   23812091.0804   23812081.896
        39.0004         34.0004
 14  5 15  0 30  0.0000000  0 12G26G02G13G07G09G04G01G10G08G28G17G20
  -1039422.50347   -789035.34046  24048723.6394   24048736.5964   24048722.182
        42.0004         38.0004
  -6127893.40147  -4717155.22446  23196060.9174   23196068.6964   23196061.879
        45.0004         41.0004
  18674698.86946  14545686.57045  24797658.8264   24797665.0814   24797656.683
        39.0004         35.0004
 -19110905.11248 -14877309.85447  21044966.4254   21044972.2464   21044965.776
        52.0004         47.0004
 -21248838.76149 -16544419.64048  19996374.0234   19996380.3394   19996373.967
        54.0004         50.0004
 -26928079.34548 -20499367.20948  20708450.3794   20708457.1364   20708450.260
        52.0004         48.0004
 -19672766.65346 -15297308.09345  24850853.1514   24850871.8364   24850853.553
        38.0004         33.0004
 -11906628.62247  -9265523.59846  23444826.8974   23444834.8154   23444827.196
        45.0004         40.0004
 -26365600.79849 -20503476.19448  19899947.9424   19899954.2784   19899948.363
        54.0004         49.0004
  -7465500.99947  -5781161.08446  23105340.2974   23105348.7334   23105340.396
        46.0004         41.0004
 -10762295.54848  -8326393.53747  23021544.3744   23021553.3974   23021543.465
        48.0004         43.0004
  -3716953.70046  -2833021.16045  23816758.7504   23816770.5904   23816761.212
        39.0004         35.0004
 14  5 15  0 30 30.0000000  0 12G26G02G13G07G09G04G01G10G08G28G17G20
  -1037348.75247   -787419.30246  24049118.3934   24049131.7944   24049118.220
        42.0004         38.0004
  -6210308.27347  -4781374.37546  23180378.1084   23180385.4374   23180378.722
        45.0004         41.0004
  18736041.94046  14593486.42245  24809327.2374   24809338.4344   24809329.577
        39.0004         35.0004
 -19038812.73548 -14821133.93247  21058684.7894   21058690.7664   21058684.683
        52.0004         47.0004
 -21238059.55349 -16536020.19448  19998425.3364   19998431.6414   19998425.141
        54.0004         50.0004
 -26976301.78148 -20536943.03648  20699273.6244   20699280.7444   20699272.940
        52.0004         48.0004
 -19566011.73756 -15214122.47955  24871168.4875   24871186.5085   24871168.258
        38.0004         33.0004
 -11972524.50147  -9316870.84246  23432286.8754   23432295.3074   23432286.981
        45.0004         40.0004
 -26352952.52949 -20493620.34648  19902354.8394   19902361.3104   19902355.089
        54.0004         49.0004
  -7522278.81047  -5825403.34546  23094536.4004   23094543.9734   23094536.035
        46.0004         41.0004
 -10720589.79948  -8293895.51247  23029479.0664   23029488.2294   23029479.740
        48.0004         43.0004
 -22597087.88546 -17544814.04745  23821499.6204   23821509.3324   23821499.390
        39.0004         35.0004
 14  5 15  0 31  0.0000000  0 12G26G02G13G07G09G04G01G10G08G28G17G20
  -1035034.73947   -785616.03646  24049556.2744   24049571.9444   24049556.711
        42.0004         38.0004
  -6292454.72847  -4845384.37946  23164746.2584   23164752.6044   23164746.682
        45.0004         41.0004
  18797130.11846  14641087.65745  24820953.1214   24820960.5804   24820953.822
        39.0004         35.0004
 -18966286.88048 -14764620.22147  21072485.9354   21072491.7084   21072485.713
        52.0004         47.0004
 -21226685.29449 -16527157.07548  20000589.7554   20000596.0114   20000589.791
        54.0004         50.0004
 -27024028.27348 -20574132.41648  20690191.4854   20690198.0144   20690191.414
        52.0004         48.0004
 -19459209.91256 -15130900.34855  24891490.8105   24891508.2775   24891492.477
        38.0004         33.0004
 -12038577.05847  -9368340.17946  23419716.2354   23419725.9664   23419717.473
        45.0004         40.0004
 -26339649.12449 -20483254.00548  19904886.5634   19904892.9554   19904886.781
        54.0004         49.0004
  -7579168.63347  -5869732.86846  23083710.0224   23083717.1864   23083709.401
        46.0004         41.0004
 -10678954.89547  -8261452.68747  23037403.0824   23037412.4034   23037402.413
        47.0004         43.0004
 -22571878.68546 -17525170.50545  23826297.7014   23826307.6424   23826297.540
        39.0004         34.0004
 14  5 15  0 31 30.0000000  0 11G26G02G13G07G09G04G10G08G28G17G20
  -1032467.73747   -783615.61746  24050046.3184   24050058.6014   24050046.956
        42.0004         38.0004
  -6374316.15947  -4909172.28046  23149169.0794   23149174.2314   23149168.558
        45.0004         41.0004
  18857977.16046  14688500.98545  24832533.0604   24832540.2244   24832533.135
        39.0004         34.0004
 -18893315.66048 -14707759.47947  21086372.3364   21086377.8104   21086371.991
        52.0004         47.0004
 -21214702.00849 -16517819.38948  20002870.0354   20002876.2714   20002869.970
        54.0004         50.0004
 -27071242.68948 -20610922.78848  20681206.7094   20681214.4574   20681206.402
        52.0004         48.0004
 -12104770.03347  -9419918.92946  23407120.9354   23407129.5694   23407120.947
        45.0004         40.0004
 -26325676.54949 -20472366.23048  19907545.4654   19907551.5564   19907545.504
        54.0004         49.0004
  -7636153.79447  -5914136.69146  23072866.1204   23072874.5754   23072865.929
        46.0004         41.0004
 -10637378.33147  -8229055.32647  23045314.5784   23045323.8844   23045313.834
        47.0004         43.0004
 -22546350.48646 -17505278.40045  23831155.5264   23831161.4624   23831155.663
        39.0004         34.0004
 14  5 15  0 32  0.0000000  0 11G26G02G13G07G09G04G10G08G28G17G20
  -1029660.80147   -781428.26546  24050579.7164   24050593.3874   24050579.682
        42.0004         38.0004
  -6455901.51947  -4972745.06346  23133642.6974   23133651.1424   23133642.680
        45.0004         41.0004
  18918571.01546  14735717.04745  24844063.3694   24844071.0534   24844062.599
        39.0004         34.0004
 -18819912.79648 -14650562.39247  21100340.0714   21100346.0004   21100339.403
        52.0004         47.0004
 -21202121.58749 -16508016.40448  20005263.9884   20005270.4014   20005263.683
        54.0004         50.0004
 -27117954.52348 -20647321.53448  20672317.5584   20672324.9074   20672317.355
        52.0004         48.0004
 -12171112.95647  -9471614.52146  23394495.6214   23394504.6484   23394496.037
        45.0004         40.0004
 -26311046.31649 -20460965.99848  19910329.0854   19910335.6314   19910329.366
        54.0004         49.0004
  -7693243.12347  -5958621.69146  23062002.9404   23062009.7784   23062001.459
        46.0004         41.0004
 -10595872.97447  -8196713.46347  23053212.8734   23053222.2934   23053212.287
        47.0004         43.0004
 -22520513.47546 -17485145.67345  23836071.4674   23836083.0614   23836071.457
        39.0004         34.0004
 14  5 15  0 32 30.0000000  0 11G26G02G13G07G09G04G10G08G28G17G20
  -1026609.63647   -779050.59246  24051160.4974   24051174.7974   24051160.858
        42.0004         38.0004
  -6537202.05447  -5036095.90146  23118171.3184   23118178.3604   23118172.187
        45.0004         41.0004
  18978918.09446  14782740.77845  24855548.6474   24855552.8454   24855547.043
        39.0004         34.0004
 -18746074.60148 -14593026.06747  21114390.7564   21114396.8654   21114390.511
        52.0004         47.0004
 -21188938.75649 -16497744.01148  20007772.5264   20007778.8324   20007772.571
        54.0004         50.0004
 -27164155.83548 -20683322.48648  20663526.1414   20663533.1224   20663525.751
        52.0004         48.0004
 -12237597.66947  -9523420.61146  23381844.4624   23381854.0464   23381844.388
        45.0004         40.0004
 -26295752.60248 -20449048.76148  19913239.4554   19913245.9274   19913239.832
        53.0004         49.0004
  -7750428.07847  -6003181.21746  23051119.4104   23051127.7254   23051119.668
        45.0004         41.0004
 -10554434.66547  -8164423.83147  23061098.2874   23061107.2644   23061098.049
        47.0004         43.0004
 -22494360.28246 -17464766.59745  23841047.4224   23841057.9614   23841049.142
        39.0004         35.0004
 14  5 15  0 33  0.0000000  0 11G26G02G13G07G09G04G10G08G28G17G20
  -1023316.95047   -776484.71846  24051786.5344   24051800.3094   24051786.701
        42.0004         38.0004
  -6618216.05047  -5099223.47446  23102755.9994   23102761.4894   23102754.892
        45.0004         41.0004
  19039016.05746  14829570.43845  24866981.5064   24866990.1224   24866983.531
        39.0004         34.0004
 -18671804.33248 -14535153.08547  21128523.9444   21128530.1344   21128523.658
        52.0004         47.0004
 -21175154.65249 -16487003.09648  20010395.1964   20010402.0364   20010395.376
        54.0004         50.0004
 -27209846.18048 -20718925.28148  20654831.3474   20654838.2194   20654830.994
        53.0004         48.0004
 -12304223.30147  -9575336.49446  23369164.9124   23369173.6794   23369165.730
        45.0004         40.0004
 -26279796.67948 -20436615.52148  19916275.5084   19916282.5094   19916275.797
        53.0004         49.0004
  -7807707.33747  -6047814.23646  23040220.8144   23040228.1054   23040220.116
        45.0004         41.0004
 -10513065.81248  -8132188.32847  23068971.2184   23068979.7774   23068970.174
        48.0004         43.0004
 -22467890.77646 -17444140.99245  23846086.0554   23846094.3304   23846085.657
        39.0004         34.0004
 14  5 15  0 33 30.0000000  0 11G26G02G13G07G09G04G10G08G28G17G20
  -1019785.62647   -773732.90546  24052459.7944   24052472.7204   24052458.786
        42.0004         38.0004
  -6698943.14447  -5162127.49846  23087393.2634   23087400.5284   23087393.377
        46.0004         41.0004
  19098864.01546  14876205.25845  24878370.6734   24878379.7374   24878371.956
        39.0004         34.0004
 -18597105.61248 -14476946.23447  21142738.6584   21142744.3884   21142738.320
        51.0004         47.0004
 -21160771.08449 -16475795.06648  20013132.5204   20013138.9364   20013132.451
        54.0004         50.0004
 -27255024.48248 -20754129.09048  20646234.5754   20646240.9394   20646234.000
        53.0004         48.0004
 -12370988.76147  -9627361.34346  23356459.9804   23356469.7934   23356460.261
        45.0004         40.0004
 -26263179.94548 -20423667.36748  19919437.5854   19919444.1784   19919437.962
        53.0004         49.0004
  -7865079.61947  -6092519.73446  23029301.8814   23029309.9014   23029302.399
        45.0004         41.0004
 -10471769.35948  -8100009.24347  23076828.1874   23076838.0324   23076827.970
        48.0004         43.0004
 -22441104.91146 -17423268.90745  23851182.6664   23851194.0774   23851183.239
        39.0004         34.0004
 14  5 15  0 34  0.0000000  0 11G26G02G13G07G09G04G10G08G28G17G20
  -1016017.71747   -770796.72246  24053176.0854   24053188.2524   24053175.383
        42.0004         38.0004
  -6779380.74147  -5224805.92846  23072086.2284   23072093.0464   23072087.202
        46.0004         41.0004
  19158461.16746  14922644.67145  24889711.8494   24889719.8824   24889712.586
        39.0004         34.0004
 -18521981.31148 -14418407.76347  21157034.0424   21157040.0184   21157033.603
        51.0004         47.0004
 -21145789.15149 -16464120.77848  20015983.6654   20015989.7224   20015983.216
        54.0004         50.0004
 -27299689.74848 -20788933.14048  20637734.7084   20637741.5704   20637734.364
        53.0004         48.0004
 -12437892.70947  -9679494.11646  23343728.9654   23343737.8144   23343729.418
        45.0004         40.0004
 -26245902.93348 -20410204.71648  19922725.3294   19922731.9944   19922725.577
        53.0004         49.0004
  -7922542.79647  -6137296.07746  23018367.9544   23018375.7714   23018367.167
        45.0004         41.0004
 -10430547.61048  -8067888.36647  23084673.1174   23084682.3944   23084672.451
        48.0004         43.0004
 -22414001.69946 -17402149.54745  23856339.7824   23856346.4824   23856340.184
        39.0004         34.0004
 14  5 15  0 34 30.0000000  0 11G26G02G13G07G09G04G10G08G28G17G20
  -1012014.03347   -767676.82946  24053939.0764   24053949.7324   24053938.180
        42.0004         38.0004
  -6859525.52747  -5287256.19746  23056834.6524   23056841.6444   23056834.967
        46.0004         41.0004
  19217807.66046  14968888.76745  24901004.4394   24901011.7104   24901006.057
        39.0004         34.0004
 -18446432.68648 -14359538.65847  21171410.3054   21171416.7734   21171410.364
        51.0004         47.0004
 -21130208.73349 -16451980.14048  20018948.1014   20018954.3564   20018948.332
        54.0004         50.0004
 -27343839.00148 -20823335.09648  20629333.4114   20629340.0364   20629332.939
        53.0004         48.0004
 -12504932.23147  -9731732.52346  23330971.5504   23330979.9274   23330972.209
        45.0004         40.0004
 -26227965.04048 -20396227.09448  19926138.6814   19926145.5054   19926138.984
        53.0004         49.0004
  -7980093.12847  -6182140.33946  23007415.8894   23007424.0474   23007415.573
        45.0004         41.0004
 -10389401.26448  -8035826.24147  23092503.6234   23092513.0074   23092502.534
        48.0004         43.0004
 -22386579.27946 -17380781.41945  23861557.4534   23861570.4374   23861558.039
        38.0004         34.0004
 14  5 15  0 35  0.0000000  0 11G26G02G13G07G09G04G10G08G28G17G20
  -1007777.69847   -764375.64346  24054743.7134   24054756.1764   24054743.425
        42.0004         38.0004
  -6939376.60047  -5349477.62446  23041639.3624   23041646.5534   23041639.704
        46.0004         41.0004
  19276902.02246  15014936.38945  24912251.7684   24912262.5104   24912251.549
        39.0004         35.0004
 -18370464.05848 -14300342.27447  21185867.2884   21185872.6524   21185866.580
        51.0004         47.0004
 -21114031.85549 -16439374.72948  20022026.7794   20022032.8854   20022026.696
        54.0004         50.0004
 -27387472.26348 -20857334.97748  20621030.1014   20621037.1974   20621029.676
        53.0004         48.0004
 -12572106.82747  -9784076.19046  23318187.4764   23318195.8574   23318188.658
        45.0004         40.0004
 -26209368.31248 -20381736.09748  19929677.8014   19929684.1204   19929678.170
        53.0004         49.0004
  -8037729.79747  -6227051.87446  22996446.5834   22996455.4524   22996447.562
        45.0004         41.0004
 -10348333.20648  -8003825.11547  23100318.0274   23100326.6024   23100317.400
        48.0004         43.0004
 -22358837.98946 -17359164.85245  23866836.9174   23866845.1454   23866838.286
        39.0004         34.0004
 14  5 15  0 35 30.0000000  0 11G26G02G13G07G09G04G10G08G28G17G20
  -1003310.93547   -760894.88246  24055593.6764   24055606.8404   24055593.134
        43.0004         38.0004
  -7018932.09947  -5411468.71846  23026500.0544   23026507.9704   23026501.062
        46.0004         41.0004
  19335743.48946  15060786.98445  24923449.3124   24923453.1644   24923447.746
        39.0004         34.0004
 -18294077.72248 -14240820.40647  21200402.7404   21200408.0154   21200402.567
        51.0004         47.0004
 -21097259.50949 -16426305.31948  20025218.0834   20025224.1274   20025218.062
        54.0004         50.0004
 -27430587.99448 -20890931.58748  20612825.8224   20612831.6524   20612825.639
        53.0004         48.0004
 -12639414.68747  -9836523.70246  23305380.5564   23305388.6624   23305380.057
        45.0004         40.0004
 -26190113.25948 -20366732.11548  19933341.5224   19933348.2554   19933342.032
        53.0004         49.0004
  -8095450.53447  -6272028.91146  22985463.6824   22985471.6754   22985463.206
        45.0004         41.0004
 -10307345.69048  -7971886.74847  23108116.7594   23108125.3264   23108116.824
        48.0004         43.0004
 -22330776.90846 -17337299.06645  23872175.1694   23872183.6014   23872176.529
        39.0004         34.0004
 14  5 15  0 36  0.0000000  0 11G26G02G13G07G09G04G10G08G28G17G20
   -998614.46847   -757235.16446  24056488.1034   24056500.8444   24056486.962
        43.0004         38.0004
  -7098188.64447  -5473226.87546  23011418.1304   23011425.0674   23011418.662
        46.0004         41.0004
  19394332.67746  15106440.99845  24934597.5444   24934605.2694   24934596.392
        39.0004         35.0004
 -18217275.57448 -14180974.53147  21215017.7804   21215023.1844   21215017.789
        51.0004         47.0004
 -21079891.38149 -16412771.66748  20028523.1384   20028529.2714   20028523.293
        54.0004         50.0004
 -27473183.71648 -20924122.98448  20604719.1494   20604726.4754   20604719.057
        53.0004         48.0004
 -12706852.83847  -9889072.74646  23292546.5234   23292554.9744   23292547.145
        45.0004         40.0004
 -26170199.12148 -20351214.55848  19937131.7734   19937137.7604   19937131.529
        53.0004         49.0004
  -8153251.74047  -6317068.66546  22974464.2124   22974473.4654   22974464.151
        46.0004         41.0004
 -10266439.19947  -7940011.53747  23115900.9964   23115910.6394   23115901.329
        47.0004         43.0004
 -22302394.15146 -17315182.68145  23877579.9234   23877589.6474   23877579.370
        39.0004         34.0004
 14  5 15  0 36 30.0000000  0 11G26G02G13G07G09G04G10G08G28G17G20
   -993690.63247   -753398.25246  24057424.2824   24057434.7004   24057423.995
        43.0004         38.0004
  -7177144.51947  -5534750.74546  22996393.0874   22996400.3444   22996393.463
        46.0004         41.0004
  19452668.81146  15151897.80345  24945701.2464   24945702.6494   24945698.143
        39.0004         34.0004
 -18140060.39748 -14120806.81847  21229711.3764   21229717.4064   21229711.031
        51.0004         47.0004
 -21061928.93349 -16398774.90548  20031941.1864   20031947.6034   20031941.141
        54.0004         50.0004
 -27515258.26648 -20956908.27448  20596713.0114   20596719.9384   20596713.060
        53.0004         48.0004
 -12774419.85547  -9941722.19746  23279689.2894   23279698.3574   23279689.219
        45.0004         41.0004
 -26149627.02448 -20335184.29748  19941046.1404   19941052.4874   19941046.145
        53.0004         49.0004
  -8211131.42947  -6362169.58546  22963448.9634   22963457.5634   22963449.740
        46.0004         41.0004
 -10225616.11048  -7908201.29947  23123669.3574   23123678.9364   23123669.522
        48.0004         43.0004
 -22273689.03146 -17292815.05445  23883038.3934   23883049.7294   23883040.170
        39.0004         34.0004
 14  5 15  0 37  0.0000000  0 11G26G02G13G07G09G04G10G08G28G17G20
   -988542.81047   -749386.81146  24058403.7664   24058416.7534   24058403.533
        43.0004         38.0004
  -7255798.73747  -5596039.57446  22981425.4274   22981432.5454   22981426.481
        46.0004         41.0004
  19510750.01246  15197155.97345  24956749.8564   24956758.9164   24956750.962
        39.0004         34.0004
 -18062436.13748 -14060320.33347  21244483.2734   21244488.5604   21244482.469
        51.0004         47.0004
 -21043374.54249 -16384316.89448  20035472.1924   20035478.0414   20035472.142
        54.0004         50.0004
 -27556811.56748 -20989287.39448  20588805.9394   20588812.5014   20588805.452
        53.0004         48.0004
 -12842115.23147  -9994471.67646  23266805.8584   23266814.9704   23266807.301
        45.0004         40.0004
 -26128399.42948 -20318643.25548  19945085.2174   19945091.5564   19945085.726
        53.0004         49.0004
  -8269088.60847  -6407330.88446  22952421.1364   22952430.0264   22952421.125
        46.0004         41.0004
 -10184879.64048  -7876458.54747  23131421.6554   23131430.6444   23131421.724
        48.0004         43.0004
 -22244661.91146 -17270196.54045  23888565.1484   23888576.4634   23888565.020
        39.0004         34.0004
 14  5 15  0 37 30.0000000  0 11G26G02G13G07G09G04G10G08G28G17G20
   -983172.84147   -745202.25846  24059424.7094   24059437.5544   24059425.051
        43.0004         38.0004
  -7334149.06947  -5657091.59446  22966516.5244   22966522.6654   22966516.940
        46.0004         41.0004
  19568575.71546  15242215.08345  24967754.7604   24967758.9634   24967754.436
        39.0004         34.0004
 -17984405.50448 -13999517.19547  21259331.5304   21259337.7444   21259330.900
        51.0004         47.0004
 -21024229.18049 -16369398.38448  20039115.2214   20039121.5894   20039115.165
        54.0004         50.0004
 -27597842.37848 -21021259.37948  20580997.9574   20581004.6734   20580997.388
        53.0004         48.0004
 -12909937.22347 -10047319.82446  23253900.1914   23253909.2214   23253901.483
        45.0004         40.0004
 -26106517.10348 -20301592.04548  19949249.4884   19949256.2524   19949249.879
        53.0004         49.0004
  -8327120.65647  -6452550.51346  22941378.6294   22941386.2164   22941377.414
        46.0004         41.0004
 -10144231.28347  -7844784.46147  23139156.8024   23139165.4104   23139156.750
        47.0004         43.0004
 -22215311.77246 -17247326.35745  23894150.7774   23894159.8334   23894149.638
        39.0004         34.0004
 14  5 15  0 38  0.0000000  0 11G26G02G13G07G09G04G10G08G28G17G20
   -977584.04247   -740847.20746  24060490.3844   24060501.8924   24060488.604
        42.0004         38.0004
  -7412194.96047  -5717906.40947  22951664.5044   22951671.5864   22951663.550
        46.0004         42.0004
  19626144.08046  15287073.64045  24978710.7074   24978716.3334   24978709.172
        39.0004         34.0004
 -17905972.51848 -13938400.55647  21274256.8674   21274261.8694   21274256.183
        51.0004         47.0004
 -21004495.24649 -16354021.24748  20042870.5014   20042876.9114   20042870.434
        54.0004         50.0004
 -27638350.51748 -21052824.09448  20573289.6024   20573295.8224   20573289.130
        53.0004         48.0004
 -12977885.10947 -10100266.07246  23240970.4554   23240979.3534   23240971.383
        45.0004         41.0004
 -26083981.93348 -20284032.12548  19953537.4794   19953544.1024   19953537.799
        53.0004         49.0004
  -8385226.62647  -6497827.75446  22930320.0764   22930328.8104   22930320.708
        46.0004         41.0004
 -10103674.19647  -7813181.49847  23146874.5014   23146884.6884   23146874.310
        47.0004         43.0004
 -22185639.49846 -17224205.12045  23899796.3794   23899807.6824   23899796.581
        39.0004         34.0004
 14  5 15  0 38 30.0000000  0 11G26G02G13G07G09G04G10G08G28G17G20
   -971773.56847   -736319.42746  24061594.1724   24061605.8234   24061594.708
        42.0004         38.0004
  -7489929.05247  -5778478.26647  22936872.3664   22936878.6684   22936872.856
        46.0004         42.0004
  19683459.78846  15331735.37445  24989614.0224   24989624.6444   24989615.084
        39.0004         34.0004
 -17827135.30148 -13876968.89247  21289258.6334   21289264.7664   21289258.709
        51.0004         46.0004
 -20984168.89349 -16338182.48448  20046738.3964   20046744.6564   20046738.311
        54.0004         50.0004
 -27678329.64448 -21083976.59348  20565681.3184   20565688.2204   20565680.963
        53.0004         48.0004
 -13045952.03347 -10153305.06846  23228018.5884   23228025.6134   23228018.705
        45.0004         41.0004
 -26060789.88549 -20265960.36848  19957951.0084   19957957.5374   19957951.363
        54.0004         49.0004
  -8443399.25947  -6543156.93446  22919250.6904   22919258.6344   22919250.632
        46.0004         41.0004
 -10063205.61147  -7781647.49047  23154574.8524   23154583.9524   23154575.036
        47.0004         43.0004
 -22155639.15446 -17200828.24345  23905508.2874   23905516.2364   23905506.124
        39.0004         35.0004
 14  5 15  0 39  0.0000000  0 11G26G02G13G07G09G04G10G08G28G17G20
   -965749.64547   -731625.31846  24062740.4844   24062754.5184   24062739.940
        42.0004         37.0004
  -7567355.86247  -5838810.66447  22922138.4684   22922143.6924   22922138.290
        46.0004         42.0004
  19740515.93846  15376194.79945  25000473.2374   25000478.6444   25000473.465
        38.0004         34.0004
 -17747902.53648 -13815229.02647  21304336.4624   21304341.8434   21304335.710
        51.0004         46.0004
 -20963257.40849 -16321887.77348  20050717.7514   20050723.8624   20050717.735
        54.0004         50.0004
 -27717784.81348 -21114720.81448  20558173.1334   20558179.8354   20558173.192
        53.0004         48.0004
 -13114142.32447 -10206440.19946  23215042.6214   23215050.2074   23215041.880
        45.0004         41.0004
 -26036947.98149 -20247382.23548  19962487.8664   19962494.4344   19962488.249
        54.0004         49.0004
  -8501642.29647  -6588540.98246  22908167.2494   22908176.6904   22908166.908
        46.0004         41.0004
 -10022833.25247  -7750188.47147  23162257.9264   23162267.0464   23162257.800
        47.0004         43.0004
 -22125315.94146 -17177199.79645  23911277.4004   23911284.8474   23911276.693
        39.0004         34.0004
 14  5 15  0 39 30.0000000  0 11G26G02G13G07G09G04G10G08G28G17G20
   -959508.88747   -726762.25046  24063928.5234   24063938.8854   24063928.249
        42.0004         38.0004
  -7644467.83747  -5898897.75347  22907464.3014   22907470.4274   22907464.337
        47.0004         42.0004
  19797317.51546  15420455.88345  25011281.8024   25011289.7124   25011282.488
        38.0004         34.0004
 -17668271.46148 -13753178.79747  21319489.4614   21319494.6484   21319489.117
        51.0004         46.0004
 -20941756.46149 -16305133.74348  20054809.2224   20054815.6744   20054808.947
        54.0004         50.0004
 -27756709.36448 -21145051.58048  20550766.2244   20550772.8814   20550765.889
        53.0004         48.0004
 -13182448.81947 -10259665.87846  23202043.2324   23202051.4244   23202043.168
        45.0004         40.0004
 -26012451.58949 -20228294.11648  19967149.4524   19967155.9604   19967149.795
        54.0004         49.0004
  -8559947.94047  -6633973.82646  22897071.6974   22897079.5094   22897071.689
        46.0004         41.0004
  -9982553.65447  -7718801.72447  23169922.6584   23169931.5444   23169922.311
        47.0004         43.0004
 -22094664.01646 -17153315.18945  23917109.1174   23917116.7564   23917109.053
        39.0004         34.0004
 14  5 15  0 40  0.0000000  0 11G26G02G13G07G09G04G10G08G28G17G20
   -953057.94547   -721735.39746  24065156.0304   24065167.5264   24065154.898
        42.0004         37.0004
  -7721267.41347  -5958741.40947  22892849.4724   22892855.5914   22892850.040
        47.0004         42.0004
  19853859.64446  15464514.80245  25022041.9024   25022049.8374   25022042.212
        38.0004         34.0004
 -17588249.59948 -13690824.04947  21334717.4994   21334723.1074   21334716.652
        51.0004         46.0004
 -20919672.04549 -16287925.06448  20059011.2894   20059017.8144   20059011.469
        54.0004         49.0004
 -27795106.66248 -21174971.49348  20543459.3464   20543465.5004   20543458.965
        53.0004         48.0004
 -13250874.20347 -10312984.20146  23189021.7224   23189030.4414   23189022.512
        45.0004         40.0004
 -25987306.33048 -20208700.37648  19971934.5574   19971940.9854   19971934.452
        53.0004         49.0004
  -8618318.44747  -6679457.20646  22885963.6174   22885972.7234   22885964.281
        46.0004         41.0004
  -9942373.08147  -7687492.14547  23177569.1734   23177577.9814   23177568.347
        47.0004         42.0004
 -22063687.15146 -17129177.42445  23923005.4484   23923009.1484   23923003.192
        39.0004         34.0004
 14  5 15  0 40 30.0000000  0 11G26G02G13G07G09G04G10G08G28G17G20
   -946382.61447   -716533.67946  24066426.3534   24066436.6814   24066425.085
        42.0004         37.0004
  -7797736.05747  -6018327.21347  22878298.1414   22878303.6184   22878298.203
        47.0004         42.0004
  19910157.85346  15508383.64645  25032750.8154   25032762.9764   25032754.816
        38.0004         33.0004
 -17507823.30648 -13628154.17947  21350022.0114   21350027.0184   21350021.535
        51.0004         46.0004
 -20896988.89749 -16270249.84448  20063327.9734   20063334.0614   20063328.195
        54.0004         50.0004
 -27832959.17448 -21204466.90548  20536256.0344   20536262.4604   20536255.726
        53.0004         48.0004
 -13319400.29247 -10366380.99046  23175981.9234   23175989.2764   23175982.354
        45.0004         41.0004
 -25961496.84548 -20188589.05048  19976845.7204   19976852.2554   19976846.024
        53.0004         49.0004
  -8676735.12147  -6724976.55846  22874848.4654   22874855.0754   22874847.753
        46.0004         41.0004
  -9902277.18447  -7656248.55647  23185198.8934   23185208.2164   23185198.832
        47.0004         42.0004
 -23607788.09746 -18332372.96745  23928961.5904   23928971.9254   23928962.327
        39.0004         34.0004
 14  5 15  0 41  0.0000000  0 11G26G02G13G07G09G04G10G08G28G17G20
   -939518.82747   -711185.12546  24067731.0534   24067745.0624   24067731.486
        42.0004         38.0004
  -7873905.96247  -6077680.22547  22863802.7644   22863808.9884   22863803.230
        47.0004         42.0004
  19966178.09646  15552035.89745  25043412.8224   25043421.1964   25043413.878
        38.0004         33.0004
 -17427029.35648 -13565197.82047  21365396.4574   21365401.0684   21365395.627
        51.0004         46.0004
 -20873742.26249 -16252135.53848  20067751.5944   20067757.8874   20067751.512
        54.0004         49.0004
 -27870299.69448 -21233563.36348  20529150.5504   20529156.7384   20529150.458
        53.0004         48.0004
 -13388059.05647 -10419881.16346  23162916.6364   23162924.6014   23162917.235
        45.0004         41.0004
 -25935058.14948 -20167987.41148  19981876.7784   19981883.0404   19981876.991
        53.0004         49.0004
  -8735229.45547  -6770556.44247  22863716.6774   22863723.8434   22863716.351
        46.0004         42.0004
  -9862301.52047  -7625098.65047  23192805.5204   23192814.9734   23192806.138
        47.0004         42.0004
 -23576160.09456 -18307727.81855  23934982.6275   23934989.1905   23934980.089
        38.0004         34.0004
 14  5 15  0 41 30.0000000  0 11G26G02G13G07G09G04G10G08G28G17G20
   -932446.43347   -705674.02146  24069078.0274   24069089.5704   24069077.591
        43.0004         38.0004
  -7949752.80247  -6136781.51147  22849369.8664   22849375.9974   22849370.071
        47.0004         42.0004
  13720262.03546  10685088.40745  25054025.1884   25054032.3284   25054024.445
        38.0004         33.0004
 -17345848.57548 -13501940.02847  21380844.4194   21380850.3954   21380844.202
        51.0004         46.0004
 -20849910.99649 -16233565.67848  20072286.6984   20072292.7874   20072286.520
        54.0004         50.0004
 -27907104.73348 -21262242.56048  20522147.0024   20522153.1974   20522146.352
        53.0004         48.0004
 -13456826.59947 -10473466.10146  23149829.3944   23149837.4154   23149830.528
        45.0004         41.0004
 -25907968.87348 -20146878.82548  19987031.6654   19987038.1374   19987032.010
        53.0004         49.0004
  -8793776.72747  -6816177.56147  22852576.4064   22852583.4534   22852574.966
        46.0004         42.0004
  -9822425.73447  -7594026.56847  23200395.0874   23200403.4844   23200393.704
        47.0004         42.0004
 -23544200.40846 -18282824.19145  23941062.7984   23941074.1534   23941063.932
        38.0004         34.0004
 14  5 15  0 42  0.0000000  0 11G26G02G13G07G09G04G10G08G28G17G20
   -925170.27047   -700004.13646  24070461.9714   24070471.9564   24070462.049
        43.0004         38.0004
  -8025277.41347  -6195631.70247  22834997.0124   22835004.5214   22834997.870
        47.0004         42.0004
  13775766.64146  10728338.78645  25064588.4204   25064595.7574   25064587.542
        38.0004         33.0004
 -17264286.30948 -13438384.98847  21396365.4224   21396370.3744   21396364.868
        51.0004         46.0004
 -20825499.41649 -16214543.61948  20076931.9744   20076938.0434   20076931.816
        54.0004         50.0004
 -27943375.88648 -21290505.73748  20515244.5134   20515251.0254   20515244.007
        53.0004         48.0004
 -13525703.36447 -10527136.16846  23136723.2374   23136731.7964   23136723.795
        45.0004         41.0004
 -25880232.97648 -20125266.38848  19992309.9974   19992315.7264   19992310.120
        53.0004         49.0004
  -8852377.09547  -6861840.05447  22841423.8304   22841431.4504   22841423.821
        46.0004         42.0004
  -9782654.41747  -7563035.88547  23207962.5774   23207971.2344   23207962.309
        47.0004         42.0004
 -23511910.92546 -18257663.58045  23947206.5604   23947217.2194   23947207.463
        39.0004         34.0004
 14  5 15  0 42 30.0000000  0 11G26G02G13G07G09G04G10G08G28G17G20
   -917689.96647   -694175.16946  24071885.5354   24071898.1234   24071885.453
        43.0004         38.0004
  -8100475.26047  -6254227.29247  22820686.8014   22820693.6394   22820687.073
        46.0004         42.0004
  13831013.61756  10771388.52455  25075095.0955   25075112.2845   25075099.753
        38.0004         33.0004
 -17182342.88048 -13374532.92247  21411958.2324   21411963.7444   21411958.162
        51.0004         46.0004
 -20800506.42549 -16195068.52048  20081687.7494   20081694.0934   20081687.759
        54.0004         50.0004
 -27979109.74348 -21318350.24848  20508444.4654   20508451.1914   20508444.343
        53.0004         48.0004
 -13594684.98147 -10580887.93246  23123597.5214   23123603.9784   23123596.828
        45.0004         41.0004
 -25851849.20748 -20103149.12948  19997710.8784   19997717.1644   19997710.815
        53.0004         49.0004
  -8911025.81347  -6907540.22147  22830262.7194   22830271.2124   22830263.191
        46.0004         42.0004
  -9742986.59947  -7532125.86647  23215511.1844   23215519.9784   23215510.717
        47.0004         42.0004
 -23479288.56946 -18232243.59045  23953416.9374   23953422.5014   23953416.890
        38.0004         34.0004
 14  5 15  0 43  0.0000000  0 11G26G02G13G07G09G04G10G08G28G17G20
   -910010.13747   -688190.73646  24073347.1704   24073358.7734   24073346.246
        43.0004         38.0004
  -8175346.73047  -6312568.54947  22806440.2564   22806446.9064   22806440.453
        47.0004         42.0004
                  10814235.74145                  25085571.9864   25085564.202
                        33.0004
 -17100023.71548 -13310388.07747  21427623.0544   21427629.0024   21427622.873
        51.0004         46.0004
 -20774935.78749 -16175143.30148  20086553.9124   20086560.0994   20086553.801
        54.0004         50.0004
 -28014307.46848 -21345776.99048  20501746.2894   20501753.1494   20501746.086
        53.0004         48.0004
 -13663771.91147 -10634721.76746  23110449.1484   23110457.1454   23110449.993
        45.0004         41.0004
 -25822820.99548 -20080529.72048  20003235.0674   20003241.2354   20003234.906
        53.0004         49.0004
  -8969722.80947  -6953277.99847  22819091.9174   22819101.5974   22819093.462
        46.0004         42.0004
  -9703426.77547  -7501299.99347  23223039.7314   23223048.1184   23223038.480
        47.0004         43.0004
 -23446335.06846 -18206565.53445  23959686.7514   23959697.1574   23959686.120
        38.0004         34.0004
 14  5 15  0 43 30.0000000  0 11G26G02G13G07G09G04G10G08G28G17G20
   -902132.47647   -682052.14246  24074845.9734   24074857.4824   24074845.601
        43.0004         38.0004
  -8249889.62147  -6370653.76747  22792255.8594   22792260.9184   22792256.181
        47.0004         42.0004
  13940727.23446  10856879.78845  25095978.7584   25095986.2014   25095978.717
        37.0004         33.0004
 -17017331.27948 -13245952.37247  21443359.3724   21443364.4744   21443358.513
        51.0004         46.0004
 -20748788.53749 -16154768.77448  20091529.4214   20091535.3634   20091529.314
        54.0004         50.0004
 -28048967.73548 -21372784.93148  20495151.1764   20495156.9764   20495150.787
        53.0004         48.0004
 -13732962.16747 -10688636.12546  23097283.1744   23097290.0324   23097283.684
        46.0004         41.0004
 -25793149.22848 -20057408.84748  20008881.0404   20008887.5194   20008881.382
        53.0004         49.0004
  -9028465.41447  -6999051.33447  22807915.1034   22807922.0584   22807915.120
        46.0004         42.0004
  -9663976.10247  -7470559.17047  23230546.4194   23230555.8504   23230545.961
        47.0004         42.0004
 -23413049.55346 -18180628.80545  23966019.0944   23966030.4244   23966021.090
        38.0004         34.0004
 14  5 15  0 44  0.0000000  0 11G26G02G13G07G09G04G10G08G28G17G20
   -894059.65747   -675761.47646  24076381.6554   24076392.6634   24076381.248
        43.0004         38.0004
  -8324102.39747  -6428481.74647  22778132.0654   22778138.6984   22778132.422
        47.0004         42.0004
  13995192.53746  10899320.42045  25106343.0914   25106349.9824   25106343.496
        38.0004         33.0004
 -16934268.89948 -13181228.40147  21459165.1604   21459171.0084   21459164.961
        51.0004         46.0004
 -20722066.55149 -16133946.40448  20096614.4304   20096620.5554   20096614.486
        54.0004         50.0004
 -28083090.04548 -21399373.68948  20488657.7514   20488664.6624   20488657.322
        53.0004         48.0004
 -13802254.17647 -10742629.77046  23084097.9174   23084103.6554   23084097.345
        46.0004         41.0004
 -25762835.86748 -20033788.03448  20014649.3514   20014655.3644   20014649.830
        53.0004         49.0004
  -9087251.54147  -7044858.56647  22796727.8914   22796735.5624   22796728.315
        46.0004         42.0004
  -9624636.73747  -7439905.09047  23238032.0684   23238040.8904   23238031.840
        47.0004         43.0004
 -23379432.04546 -18154433.39845  23972419.4034   23972425.1044   23972418.161
        39.0004         34.0004
 14  5 15  0 44 30.0000000  0 11G26G02G13G07G09G04G10G08G28G17G20
   -885794.57747   -669320.98546  24077954.5264   24077966.9224   24077954.475
        43.0004         38.0004
  -8397983.79047  -6486051.52147  22764073.3664   22764079.5344   22764073.984
        47.0004         42.0004
  14049395.61746  10941556.65145  25116657.3184   25116668.9484   25116658.228
        38.0004         33.0004
 -16850840.38448 -13116219.13947  21475041.6124   21475046.9384   21475040.987
        51.0004         46.0004
 -20694772.07649 -16112677.94248  20101808.2614   20101814.2214   20101808.109
        54.0004         50.0004
 -28116674.13748 -21425543.05448  20482267.0214   20482273.4334   20482266.642
        53.0004         48.0004
 -13871646.67847 -10796701.72246  23070891.9394   23070900.3444   23070892.364
        46.0004         41.0004
 -25731882.71348 -20009668.67348  20020539.5164   20020546.1974   20020540.078
        53.0004         49.0004
  -9146079.58347  -7090698.47647  22785532.9194   22785540.8664   22785533.403
        47.0004         42.0004
  -9585411.56947  -7409339.97747  23245496.1144   23245504.4924   23245496.065
        47.0004         42.0004
 -23345482.28246 -18127979.05445  23978875.4324   23978888.4724   23978878.210
        38.0004         34.0004
 14  5 15  0 45  0.0000000  0 11G26G02G13G07G09G04G10G08G28G17G20
   -877337.82747   -662731.15746  24079563.2724   24079575.5944   24079563.257
        43.0004         38.0004
  -8471530.71247  -6543360.66547  22750077.7934   22750084.0224   22750078.648
        47.0004         42.0004
  14103337.52946  10983589.39045  25126923.1674   25126927.9544   25126922.176
        38.0004         33.0004
 -16767047.06848 -13050925.61647  21490987.2844   21490991.9634   21490986.072
        51.0004         46.0004
 -20666905.11149 -16090963.38948  20107111.3264   20107117.5064   20107111.431
        54.0004         50.0004
 -28149717.67048 -21451291.20848  20475978.6754   20475985.0644   20475978.502
        53.0004         48.0004
 -13941136.06747 -10850849.17246  23057669.2784   23057675.7734   23057668.797
        46.0004         41.0004
 -25700289.45248 -19985050.51448  20026551.6494   20026557.8334   20026551.802
        53.0004         49.0004
  -9204945.53047  -7136567.91347  22774331.0054   22774340.0004   22774331.812
        47.0004         42.0004
  -9546300.63247  -7378863.88247  23252939.0874   23252948.4334   23252938.570
        47.0004         42.0004
 -23311198.42246 -18101264.35945  23985401.7484   23985412.7584   23985401.569
        38.0004         34.0004
 14  5 15  0 45 30.0000000  0 11G26G02G13G07G09G04G10G08G28G17G20
   -868692.68047   -655994.53046  24081208.6884   24081219.7404   24081208.010
        43.0004         38.0004
  -8544742.23947  -6600408.47147  22736145.5764   22736152.3014   22736146.021
        47.0004         43.0004
  14157016.98946  11025417.60445  25137139.4814   25137143.8954   25137137.677
        38.0004         34.0004
 -16682892.94048 -12985350.93647  21507000.2834   21507006.0754   21506999.778
        50.0004         46.0004
 -20638468.51949 -16068804.97148  20112522.5374   20112528.3454   20112522.496
        54.0004         50.0004
 -28182220.64548 -21476618.13948  20469793.6014   20469800.0534   20469792.787
        53.0004         48.0004
 -14010721.67447 -10905071.61546  23044426.6314   23044434.3044   23044427.652
        46.0004         41.0004
 -25668058.66048 -19959935.56348  20032685.0664   20032691.2004   20032685.136
        53.0004         49.0004
  -9263847.87047  -7182465.71747  22763122.9414   22763131.0034   22763123.079
        47.0004         42.0004
  -9507306.63847  -7348478.91547  23260359.0014   23260368.1004   23260358.922
        47.0004         43.0004
 -23276581.18046 -18074289.92245  23991989.0184   23992002.0154   23991990.897
        39.0004         34.0004
 14  5 15  0 46  0.0000000  0 11G26G02G13G07G09G04G10G08G28G17G20
   -859861.42347   -649112.87546  24082889.3664   24082901.2614   24082888.911
        43.0004         38.0004
  -8617616.46647  -6657193.42547  22722277.8434   22722283.9464   22722278.653
        47.0004         42.0004
  14210433.19046  11067040.69145  25147300.4784   25147310.6754   25147302.253
        38.0004         33.0004
 -16598380.87448 -12919497.35547  21523081.9934   21523088.0994   21523082.139
        50.0004         46.0004
 -20609463.79149 -16046203.84448  20118041.8034   20118047.9044   20118041.827
        54.0004         50.0004
 -28214182.35448 -21501523.31548  20463711.6404   20463717.5634   20463711.222
        53.0004         48.0004
 -14080401.42847 -10959367.41346  23031166.9944   23031174.3844   23031167.801
        46.0004         41.0004
 -25635191.77548 -19934324.94148  20038939.2294   20038945.3144   20038939.440
        53.0004         49.0004
  -9322784.35547  -7228390.13347  22751908.3784   22751914.7654   22751907.278
        47.0004         42.0004
  -9468431.50047  -7318186.56747  23267756.0764   23267765.9964   23267756.815
        47.0004         43.0004
 -23241629.73346 -18047055.03245  23998642.9824   23998647.5094   23998640.736
        38.0004         34.0004
 14  5 15  0 46 30.0000000  0 11G26G02G13G07G09G04G10G08G28G17G20
   -850846.31447   -642087.96046  24084605.4354   24084616.1404   24084604.280
        43.0004         38.0004
  -8690151.72747  -6713714.26247  22708475.5494   22708481.3514   22708475.775
        47.0004         42.0004
                  11108458.41745                  25157421.2214   25157415.837
                        32.0004
 -16513514.13048 -12853367.40147  21539231.9004   21539237.1764   21539231.713
        50.0004         46.0004
 -20579892.64049 -16023161.34748  20123668.9024   20123675.3224   20123668.863
        54.0004         50.0004
 -28245601.95848 -21526006.06648  20457732.3024   20457738.7574   20457731.964
        53.0004         48.0004
 -14150173.46847 -11013735.12547  23017889.7054   23017897.4824   23017890.155
        46.0004         42.0004
 -25601690.45848 -19908219.96848  20045314.0274   20045320.4914   20045314.505
        53.0004         49.0004
  -9381752.40547  -7274339.13747  22740686.1164   22740695.0954   22740686.457
        47.0004         42.0004
  -9429677.17747  -7287988.35747  23275131.2314   23275141.3014   23275130.715
        47.0004         43.0004
 -23206344.18446 -18019559.83645  24005357.4944   24005363.3274   24005355.822
        38.0004         34.0004
 14  5 15  0 47  0.0000000  0 11G26G02G13G07G09G04G10G08G28G17G20
   -841649.08447   -634921.12746  24086353.2574   24086365.0024   24086354.136
        43.0004         38.0004
  -8762345.71647  -6769969.17847  22694737.6914   22694742.7954   22694737.339
        47.0004         42.0004
  14316475.17246  11149670.90645  25167481.8754   25167485.0784   25167481.660
        38.0004         33.0004
 -16428295.04248 -12786962.88647  21555448.8454   21555455.2904   21555448.262
        50.0004         46.0004
 -20549756.17049 -15999678.33748  20129403.8444   20129409.9144   20129403.950
        54.0004         50.0004
 -28276478.36348 -21550065.55148  20451856.8794   20451863.4064   20451856.729
        53.0004         48.0004
 -14220035.39447 -11068172.87547  23004595.7204   23004603.2774   23004596.306
        46.0004         42.0004
 -25567555.72748 -19881621.43948  20051809.8224   20051815.7564   20051810.209
        53.0004         49.0004
  -9440749.06947  -7320310.43347  22729459.5334   22729467.4364   22729459.370
        47.0004         42.0004
  -9391044.88747  -7257885.23247  23282483.0764   23282491.4534   23282482.611
        47.0004         42.0004
 -23170723.02746 -17991803.13045  24012136.4164   24012146.0244   24012134.124
        39.0004         34.0004
 14  5 15  0 47 30.0000000  0 11G26G02G13G07G09G04G10G08G28G17G20
   -832271.37747   -627613.66146  24088139.2024   24088150.9294   24088138.563
        43.0004         38.0004
  -8834195.76247  -6825956.08047  22681064.5404   22681070.8354   22681064.851
        47.0004         42.0004
                  11190678.41245                  25177502.0154   25177496.156
                        33.0004
 -16342725.85148 -12720285.56247  21571732.4914   21571737.2234   21571731.783
        50.0004         46.0004
 -20519055.47349 -15975755.66948  20135245.6774   20135251.9014   20135245.717
        54.0004         50.0004
 -28306809.98748 -21573700.53048  20446084.8494   20446091.4504   20446084.204
        53.0004         48.0004
 -14289984.37447 -11122678.46747  22991284.5334   22991292.3904   22991285.421
        46.0004         42.0004
 -25532788.36748 -19854529.97148  20058425.8964   20058432.1634   20058425.805
        53.0004         49.0004
  -9499771.50247  -7366301.81347  22718228.6094   22718234.4384   22718227.676
        47.0004         42.0004
  -9352535.41347  -7227877.81947  23289810.3274   23289819.7044   23289810.706
        47.0004         42.0004
 -23134765.62346 -17963784.42845  24018976.3834   24018985.8974   24018977.150
        39.0004         34.0004
 14  5 15  0 48  0.0000000  0 11G26G02G13G07G09G04G10G08G28G17G20
   -822716.38347   -620168.05946  24089956.7824   24089969.2994   24089956.500
        43.0004         38.0004
  -8905701.62647  -6881674.79547  22667457.4684   22667462.7844   22667457.009
        47.0004         42.0004
  14421463.11446  11231479.82745  25187460.5854   25187469.1924   25187459.701
        37.0004         33.0004
 -16256811.00548 -12653338.89347  21588080.8284   21588086.9884   21588080.453
        50.0004         46.0004
 -20487793.45149 -15951395.61348  20141194.8324   20141200.7864   20141194.910
        54.0004         50.0004
 -28336596.98548 -21596911.12048  20440416.5334   20440422.4784   20440416.409
        53.0004         48.0004
 -14360019.62547 -11177251.28847  22977957.0224   22977964.1254   22977957.366
        46.0004         42.0004
 -25497390.94448 -19826947.55348  20065161.9734   20065167.9724   20065162.139
        53.0004         49.0004
  -9558818.26347  -7412312.14747  22706991.6754   22706999.3944   22706991.484
        47.0004         42.0004
  -9314151.81747  -7197968.48247  23297116.5934   23297124.2884   23297114.780
        47.0004         42.0004
 -23098472.41946 -17935504.02245  24025880.8034   24025892.5604   24025882.437
        38.0004         34.0004
 14  5 15  0 48 30.0000000  0 11G26G02G13G07G09G04G10G08G28G17G20
   -812986.26547   -612585.97946  24091808.0214   24091820.0164   24091807.903
        43.0004         38.0004
  -8976861.00247  -6937123.51047  22653915.6834   22653921.0124   22653917.054
        47.0004         42.0004
  14473560.29746  11272075.10845  25197374.3144   25197381.4314   25197372.969
        38.0004         33.0004
 -16170553.14148 -12586124.95047  21604495.7994   21604501.1504   21604495.277
        50.0004         46.0004
 -20455971.34249 -15926599.12848  20147250.4424   20147256.5234   20147250.464
        54.0004         50.0004
 -28365838.70348 -21619696.82248  20434851.9524   20434858.4164   20434851.449
        53.0004         48.0004
 -14430138.95247 -11231889.61847  22964614.6194   22964621.0694   22964614.499
        47.0004         42.0004
 -25461364.79648 -19798875.21548  20072016.9364   20072023.7264   20072017.365
        53.0004         48.0004
  -9617886.38947  -7458339.12847  22695751.6094   22695758.2384   22695750.793
        47.0004         42.0004
  -9275895.60447  -7168158.40047  23304395.2894   23304404.3004   23304394.842
        47.0004         42.0004
 -23061842.67046 -17906961.37745  24032854.1704   24032863.0824   24032854.034
        39.0004         34.0004
 14  5 15  0 49  0.0000000  0 11G26G02G13G07G09G04G10G08G28G17G20
   -803082.61747   -604868.69746  24093693.5134   24093704.1974   24093692.478
        43.0004         38.0004
  -9047671.67547  -6992300.52347  22640440.9854   22640446.0104   22640441.247
        47.0004         42.0004
  14525393.06746  11312464.33145  25207233.8864   25207243.2654   25207236.475
        38.0004         33.0004
 -16083954.77148 -12518645.66747  21620974.9114   21620980.0524   21620974.005
        50.0004         45.0004
 -20423590.42049 -15901367.21448  20153412.3954   20153418.5094   20153412.110
        54.0004         50.0004
 -28394533.55948 -21642056.40048  20429391.1704   20429398.2434   20429391.044
        53.0004         48.0004
 -14500339.59547 -11286591.30647  22951255.4034   22951263.4654   22951255.347
        46.0004         42.0004
 -25424711.17548 -19770313.93448  20078992.1714   20078998.5214   20078992.454
        53.0004         49.0004
  -9676972.90647  -7504380.43947  22684506.6954   22684514.9154   22684507.030
        47.0004         42.0004
  -9237767.74047  -7138448.34847  23311650.2454   23311658.8814   23311650.004
        47.0004         42.0004
 -23024875.68346 -17878156.00645  24039888.7104   24039896.4264   24039887.257
        39.0004         34.0004
 14  5 15  0 49 30.0000000  0 11G26G02G13G07G09G04G10G08G28G17G20
   -793009.42947   -597019.31046  24095610.8354   24095619.7074   24095609.174
        43.0004         38.0004
  -9118133.70347  -7047205.85447  22627033.3564   22627038.5754   22627033.212
        47.0004         43.0004
  14576959.22346  11352645.78045  25217050.9294   25217057.6804   25217048.728
        38.0004         33.0004
 -15997020.38548 -12450904.55347  21637517.7964   21637522.9644   21637517.292
        50.0004         46.0004
 -20390654.48649 -15875702.82348  20159679.8554   20159685.8484   20159679.775
        54.0004         50.0004
 -28422682.90648 -21663990.90148  20424034.7534   20424041.0464   20424034.409
        53.0004         48.0004
 -14570621.47747 -11341356.30347  22937880.7634   22937887.9894   22937881.591
        46.0004         42.0004
 -25387433.20448 -19741266.13448  20086086.2234   20086091.9504   20086086.524
        53.0004         49.0004
  -9736077.12247  -7550435.54947  22673260.4344   22673266.9984   22673259.636
        47.0004         42.0004
  -9199771.94247  -7108841.18647  23318880.7584   23318889.5984   23318880.193
        47.0004         42.0004
 -22987572.85246 -17849088.87945  24046987.5794   24046996.0524   24046987.362
        39.0004         35.0004
 14  5 15  0 50  0.0000000  0 11G26G02G13G07G09G04G10G08G28G17G20
   -782765.61847   -589036.95846  24097558.8034   24097570.8644   24097558.231
        43.0004         38.0004
  -9188241.75447  -7101835.36647  22613691.0214   22613696.6284   22613691.196
        47.0004         43.0004
  14628261.91146  11392621.98445  25226812.5724   25226821.1494   25226812.398
        38.0004         33.0004
 -15909749.92848 -12382901.57147  21654125.2774   21654129.4744   21654124.452
        50.0004         46.0004
 -20357161.74949 -15849604.56048  20166053.0514   20166058.9054   20166052.917
        54.0004         50.0004
 -28450282.69148 -21685497.17148  20418782.6864   20418789.0904   20418782.111
        53.0004         48.0004
 -14640979.27947 -11396180.44447  22924491.0434   22924499.3644   22924492.253
        46.0004         42.0004
 -25349529.20148 -19711730.50848  20093298.9614   20093305.1914   20093299.214
        53.0004         49.0004
  -9795193.00247  -7596499.74047  22662009.7084   22662019.4504   22662010.106
        47.0004         42.0004
  -9161906.23847  -7079335.38447  23326086.5364   23326094.6184   23326085.994
        47.0004         42.0004
 -22949930.52346 -17819757.20945  24054150.8774   24054161.8674   24054148.366
        39.0004         34.0004
 14  5 15  0 50 30.0000000  0 11G26G02G13G07G09G04G10G08G28G17G20
   -772355.01447   -580924.63446  24099540.1254   24099551.1464   24099539.072
        43.0004         38.0004
  -9257995.85847  -7156189.08247  22600418.1844   22600423.1684   22600418.171
        47.0004         43.0004
  14679299.39156  11432391.45455  25236525.6185   25236529.1875   25236524.167
        38.0004         33.0004
 -15822147.95248 -12314640.26647  21670795.6794   21670800.6164   21670794.009
        50.0004         45.0004
 -20323115.63249 -15823075.09348  20172531.8534   20172537.7754   20172531.844
        54.0004         50.0004
 -28477333.65848 -21706575.79048  20413635.2284   20413641.3654   20413635.039
        53.0004         49.0004
 -14711412.31547 -11451063.21747  22911089.4994   22911096.4894   22911089.509
        46.0004         42.0004
 -25311002.47748 -19681709.64248  20100630.0504   20100636.5474   20100630.496
        53.0004         49.0004
  -9854319.95647  -7642572.56447  22650759.1054   22650765.6884   22650758.834
        47.0004         42.0004
  -9124173.65447  -7049933.32847  23333266.5864   23333275.4584   23333266.220
        47.0004         42.0004
 -22911949.75246 -17790161.86045  24061374.3284   24061383.7134   24061377.340
        39.0004         34.0004
 14  5 15  0 51  0.0000000  0 11G26G02G13G07G09G04G10G08G28G17G20
   -761780.26247   -572684.40446  24101552.5414   24101563.9114   24101552.231
        43.0004         38.0004
  -9327394.73747  -7210266.00947  22587211.0884   22587215.9124   22587210.949
        47.0004         43.0004
                  11471953.65945                  25246192.6784   25246185.480
                        32.0004
 -15734217.66248 -12246123.14747  21687527.0554   21687533.3334   21687526.785
        50.0004         45.0004
 -20288518.60949 -15796116.34148  20179115.4504   20179121.2854   20179115.237
        54.0004         50.0004
 -28503835.81048 -21727226.76248  20408591.7924   20408597.9684   20408591.256
        53.0004         49.0004
 -14781918.98247 -11506003.38347  22897671.9484   22897678.8734   22897672.425
        46.0004         42.0004
 -25271855.05648 -19651205.11048  20108079.5894   20108085.9514   20108080.012
        53.0004         48.0004
  -9913455.50747  -7688652.10147  22639504.6194   22639512.4524   22639505.410
        47.0004         42.0004
  -9086576.87347  -7020637.10347  23340421.0024   23340430.5594   23340420.328
        47.0004         42.0004
 -22873630.41946 -17760302.67145  24068667.0064   24068678.3704   24068668.930
        39.0004         34.0004
 14  5 15  0 51 30.0000000  0 11G26G02G13G07G09G04G10G08G28G17G20
   -751044.57347   -564318.78546  24103593.6734   24103606.1014   24103593.704
        43.0004         38.0004
  -9396437.67947  -7264065.56647  22574072.8734   22574076.5074   22574073.168
        47.0004         43.0004
                  11511307.74745                  25255800.8874   25255796.392
                        32.0004
 -15645963.20348 -12177353.42147  21704322.1564   21704326.9934   21704321.614
        50.0004         45.0004
 -20253373.50249 -15768730.51048  20185803.4334   20185809.5314   20185803.217
        54.0004         50.0004
 -28529789.37748 -21747450.26048  20403653.1634   20403659.3114   20403652.771
        53.0004         49.0004
 -14852498.08247 -11560999.98447  22884239.8994   22884249.1404   22884241.404
        46.0004         42.0004
 -25232089.76948 -19620219.13948  20115646.7754   20115652.6004   20115646.904
        53.0004         48.0004
  -9972598.19447  -7734737.19047  22628250.6994   22628258.7244   22628250.764
        47.0004         42.0004
  -9049118.22947  -6991448.51747  23347549.4474   23347557.7804   23347548.789
        47.0004         42.0004
 -22834973.32346 -17730180.31245  24076027.3364   24076031.3624   24076026.653
        39.0004         34.0004
 14  5 15  0 52  0.0000000  0 11G26G02G13G07G09G04G10G08G28G17G20
   -740148.57447   -555828.24246  24105668.0904   24105678.9454   24105668.180
        43.0004         38.0004
  -9465121.16147  -7317585.03147  22561001.8294   22561008.2644   22561002.255
        47.0004         43.0004
  14830813.95746  11550454.88645  25265358.2054   25265367.3294   25265355.132
        37.0004         32.0004
 -15557386.04048 -12108332.23847  21721177.0434   21721182.9494   21721176.564
        50.0004         45.0004
 -20217680.18049 -15740917.49748  20192595.6294   20192601.5474   20192595.463
        54.0004         50.0004
 -28555192.29548 -21767244.68048  20398818.6134   20398824.8644   20398818.530
        53.0004         49.0004
 -14923145.95447 -11616050.18547  22870796.8064   22870805.2224   22870798.162
        46.0004         42.0004
 -25191706.70148 -19588751.79048  20123331.1934   20123337.4714   20123331.532
        53.0004         48.0004
 -10031743.80347  -7780824.55747  22616996.1494   22617003.6264   22616995.601
        47.0004         42.0004
  -9011797.55047  -6962367.41447  23354651.5084   23354659.7174   23354650.927
        47.0004         42.0004
 -22795976.71746 -17699793.34045  24083445.5294   24083457.2794   24083445.396
        38.0004         33.0004
 14  5 15  0 52 30.0000000  0 11G26G02G13G07G09G04G10G08G28G17G20
   -729094.37847   -547214.43746  24107771.9944   24107783.2264   24107771.273
        42.0004         38.0004
  -9533443.22048  -7370822.87547  22548001.5874   22548006.7444   22548001.472
        48.0004         43.0004
  14880786.92246  11589394.85245  25274865.9144   25274869.1944   25274866.293
        37.0004         33.0004
 -15468489.02548 -12039061.82847  21738093.5444   21738099.1424   21738093.223
        50.0004         45.0004
 -20181440.49749 -15712678.74948  20199491.3794   20199497.8524   20199491.302
        54.0004         49.0004
 -28580043.72448 -21786609.37148  20394089.6424   20394095.8874   20394089.403
        53.0004         49.0004
 -14993860.32247 -11671152.18747  22857340.6004   22857347.7164   22857341.072
        46.0004         42.0004
 -25150707.63048 -19556804.44448  20131133.0014   20131139.4664   20131133.547
        53.0004         48.0004
 -10090889.23947  -7826911.79147  22605740.5124   22605747.7264   22605740.771
        47.0004         42.0004
  -8974616.17047  -6933394.87247  23361725.4364   23361734.0944   23361725.937
        47.0004         42.0004
 -22756639.98746 -17669141.41945  24090930.6214   24090940.7954   24090932.501
        38.0004         34.0004
 14  5 15  0 53  0.0000000  0 11G26G02G13G07G09G04G10G08G28G17G20
   -717884.58247   -538479.37846  24109904.2184   24109916.2544   24109903.897
        42.0004         38.0004
  -9601402.73648  -7423778.21247  22535068.5834   22535074.1564   22535069.460
        48.0004         43.0004
  14930493.55346  11628127.32345  25284324.1614   25284332.1354   25284325.333
        37.0004         32.0004
 -15379275.68448 -11969544.91547  21755071.0594   21755075.1774   21755069.906
        50.0004         45.0004
 -20144656.97449 -15684016.22948  20206491.2824   20206497.1684   20206491.423
        54.0004         49.0004
 -28604343.63848 -21805544.31148  20389465.8444   20389471.9774   20389465.574
        53.0004         49.0004
 -15064639.51947 -11726304.71847  22843871.5234   22843879.0424   22843871.888
        46.0004         42.0004
 -25109094.77848 -19524378.82748  20139051.8764   20139058.0224   20139052.043
        53.0004         48.0004
 -10150032.86847  -7872997.62247  22594486.0284   22594493.8484   22594486.128
        47.0004         42.0004
  -8937576.33747  -6904532.61547  23368773.9644   23368782.3534   23368774.506
        47.0004         42.0004
 -22716963.51646 -17638224.68545  24098480.6284   24098491.2714   24098482.133
        39.0004         35.0004
 14  5 15  0 53 30.0000000  0 11G26G02G13G07G09G04G10G08G28G17G20
   -706522.95347   -529626.00346  24112066.1584   24112078.0574   24112065.897
        42.0004         38.0004
  -9668999.48548  -7476450.87847  22522205.7264   22522210.7674   22522205.760
        48.0004         43.0004
                  11666650.98845                  25293738.9154   25293732.576
                        32.0004
 -15289750.33448 -11899784.87647  21772106.7834   21772111.6864   21772105.889
        50.0004         45.0004
 -20107332.87749 -15654932.48748  20213593.6374   20213599.8434   20213593.540
        54.0004         49.0004
 -28628092.94248 -21824050.19948  20384945.9104   20384952.0984   20384945.555
        53.0004         49.0004
 -15135482.95447 -11781507.32347  22830389.6954   22830397.8494   22830390.868
        46.0004         42.0004
 -25066871.33848 -19491477.42748  20147086.3974   20147092.7134   20147086.995
        53.0004         48.0004
 -10209173.48047  -7919081.11547  22583230.8984   22583238.4864   22583231.805
        47.0004         42.0004
  -8900681.17247  -6875783.12247  23375795.8034   23375804.7494   23375795.405
        47.0004         42.0004
 -22676948.11246 -17607043.91245  24106097.2994   24106106.7964   24106097.476
        39.0004         34.0004
 14  5 15  0 54  0.0000000  0 10G26G02G07G09G04G10G08G28G17G20
   -695008.60547   -520653.63146  24114257.4144   24114269.1354   24114256.683
        42.0004         37.0004
  -9736228.90248  -7528837.32147  22509412.2944   22509417.5374   22509412.504
        48.0004         43.0004
 -15199912.89848 -11829781.66747  21789202.2264   21789207.6264   21789202.003
        50.0004         45.0004
 -20069467.10349 -15625426.66648  20220799.4314   20220805.3714   20220799.502
        54.0004         49.0004
 -28651288.14748 -21842124.32848  20380532.4144   20380538.5554   20380531.883
        53.0004         49.0004
 -15206385.43347 -11836755.93147  22816897.2764   22816905.7904   22816898.915
        46.0004         42.0004
 -25024036.17748 -19458099.35648  20155238.0214   20155243.9614   20155238.183
        53.0004         48.0004
 -10268305.13647  -7965157.60347  22571979.8544   22571987.0994   22571979.847
        47.0004         42.0004
  -8863928.92347  -6847144.98247  23382789.3304   23382799.3334   23382788.918
        47.0004         42.0004
 -22636590.82446 -17575596.71145  24113779.7324   24113783.7304   24113776.012
        39.0004         34.0004
 14  5 15  0 54 30.0000000  0 10G26G02G07G09G04G10G08G28G17G20
   -683347.53947   -511566.94846  24116475.7824   24116486.0944   24116475.972
        42.0004         38.0004
  -9803092.92948  -7580939.05247  22496688.4514   22496693.5324   22496688.568
        48.0004         43.0004
 -15109770.12148 -11759540.51947  21806355.2154   21806361.2564   21806354.750
        50.0004         45.0004
 -20031065.53449 -15595503.33748  20228107.0174   20228113.0344   20228106.915
        54.0004         49.0004
 -28673932.62448 -21859769.32148  20376223.3244   20376229.5074   20376222.757
        53.0004         49.0004
 -15277348.37447 -11892051.65547  22803393.9154   22803401.3774   22803394.575
        46.0004         42.0004
 -24980594.76248 -19424248.87448  20163504.4274   20163511.1574   20163504.771
        53.0004         48.0004
 -10327428.93447  -8011227.98747  22560728.5374   22560734.9524   22560728.757
        47.0004         43.0004
  -8827325.01847  -6818622.42747  23389754.5724   23389763.8014   23389754.614
        47.0004         42.0004
 -22595894.58746 -17543885.39145  24121519.7344   24121530.1634   24121521.060
        39.0004         34.0004
 14  5 15  0 55  0.0000000  0 10G26G02G07G09G04G10G08G28G17G20
   -671537.41747   -502364.09546  24118723.4444   24118735.2004   24118723.171
        42.0004         37.0004
  -9869585.11348  -7632751.03247  22484034.2844   22484040.1944   22484035.224
        48.0004         43.0004
 -15019320.72448 -11689060.45247  21823566.8674   21823573.0984   21823566.807
        50.0004         45.0004
 -19992125.29749 -15565160.28048  20235517.3444   20235522.7624   20235517.248
        54.0004         49.0004
 -28696020.93048 -21876980.93748  20372019.7814   20372025.9584   20372019.711
        53.0004         49.0004
 -15348364.73447 -11947389.01447  22789881.3224   22789887.5324   22789881.128
        46.0004         42.0004
 -24936544.21748 -19389923.74748  20171887.0774   20171892.9494   20171887.398
        53.0004         48.0004
 -10386537.66347  -8057286.62747  22549479.9564   22549487.7044   22549480.152
        47.0004         42.0004
  -8790866.24547  -6790212.96747  23396692.4374   23396701.0444   23396692.454
        47.0004         42.0004
 -22554854.64446 -17511906.25345  24129330.1884   24129339.6984   24129330.472
        39.0004         34.0004
 14  5 15  0 55 30.0000000  0 10G26G02G07G09G04G10G08G28G17G20
   -659585.87847   -493051.08446  24120996.7474   24121007.3014   24120997.101
        42.0004         37.0004
  -9935709.54848  -7684276.44647  22471451.7674   22471457.2164   22471452.349
        48.0004         43.0004
 -14928573.16848 -11618348.05547  21840835.4034   21840841.2074   21840835.708
        50.0004         45.0004
 -19952654.03049 -15534403.42548  20243028.2174   20243034.1494   20243028.065
        54.0004         49.0004
 -28717558.37248 -21893763.30948  20367921.5534   20367927.4374   20367921.124
        53.0004         49.0004
 -15419438.01947 -12002770.74447  22776355.4444   22776362.6584   22776355.792
        46.0004         42.0004
 -24891892.44548 -19355130.13548  20180383.6884   20180390.0624   20180384.283
        53.0004         48.0004
 -10445634.14147  -8103335.72647  22538235.0054   22538242.2794   22538234.991
        47.0004         43.0004
  -8754559.47947  -6761921.94447  23403600.9474   23403610.2644   23403601.363
        47.0004         42.0004
 -22513476.57846 -17479663.67145  24137203.0534   24137210.1884   24137204.447
        39.0004         34.0004
 14  5 15  0 56  0.0000000  0 10G26G02G07G09G04G10G08G28G17G20
   -647490.46847   -483625.93746  24123298.8494   24123309.8124   24123298.936
        42.0004         38.0004
 -10001459.96148  -7735510.41747  22458940.5674   22458945.8564   22458940.548
        48.0004         44.0004
 -14837525.71848 -11547401.97147  21858162.2874   21858168.0704   21858161.281
        50.0004         45.0004
 -19912649.16649 -15503230.78848  20250640.6294   20250646.9794   20250640.622
        54.0004         49.0004
 -28738539.90248 -21910112.50348  20363928.7394   20363934.6664   20363928.268
        53.0004         49.0004
 -15490561.14847 -12058191.29547  22762821.0884   22762828.2254   22762821.415
        46.0004         42.0004
 -24846636.59648 -19319865.81648  20188995.7094   20189001.7824   20188996.054
        53.0004         48.0004
 -10504711.06747  -8149369.58847  22526992.6104   22526999.9424   22526992.405
        47.0004         43.0004
  -8718401.91847  -6733747.19147  23410482.2324   23410491.1304   23410481.522
        47.0004         42.0004
 -22471755.50846 -17447153.76745  24145145.1124   24145152.7084   24145143.675
        39.0004         35.0004
 14  5 15  0 56 30.0000000  0 10G26G02G07G09G04G10G08G28G17G20
   -635256.31647   -474092.70246  24125627.1204   24125638.2224   24125627.539
        42.0004         38.0004
 -10066837.40348  -7786453.78047  22446499.1704   22446503.8624   22446499.849
        48.0004         44.0004
 -14746184.09848 -11476226.68647  21875543.6064   21875548.5254   21875543.527
        50.0004         45.0004
 -19872115.38549 -15471646.00048  20258354.0534   20258359.9014   20258354.145
        54.0004         49.0004
 -28758967.73248 -21926030.24648  20360041.4254   20360047.8154   20360041.146
        53.0004         49.0004
 -15561734.40947 -12113650.91747  22749277.0804   22749283.7114   22749277.696
        47.0004         42.0004
 -24800781.36848 -19284134.45048  20197721.7344   20197728.1564   20197721.752
        53.0004         48.0004
 -10563768.80247  -8195388.50547  22515753.1424   22515761.5694   22515753.922
        47.0004         43.0004
  -8682397.61347  -6705691.84847  23417333.5534   23417342.4514   23417333.349
        47.0004         42.0004
 -22429693.78346                  24153149.4114                   24153147.393
        39.0004
 14  5 15  0 57  0.0000000  0 10G26G02G07G09G04G10G08G28G17G20
   -622884.11147   -464451.87846  24127981.7574   24127993.9414   24127980.613
        42.0004         38.0004
 -10131838.86448  -7837104.16847  22434130.0774   22434134.7454   22434129.502
        48.0004         43.0004
 -14654549.91548 -11404823.41947  21892981.0734   21892987.0154   21892980.624
        50.0004         45.0004
 -19831053.32749 -15439649.55948  20266167.8674   20266173.8074   20266167.957
        54.0004         49.0004
 -28778840.44348 -21941515.42848  20356259.6954   20356265.6994   20356259.288
        53.0004         49.0004
 -15632954.46147 -12169146.99547  22735723.8804   22735731.2554   22735724.659
        47.0004         42.0004
 -24754327.24948 -19247936.42048  20206561.7394   20206568.0904   20206562.105
        53.0004         48.0004
 -10622802.52447  -8241388.71147  22504519.4624   22504527.3034   22504520.217
        47.0004         43.0004
  -8646546.39447  -6677755.80247  23424155.3584   23424165.2334   23424155.104
        47.0004         42.0004
 -22387289.79246 -17381336.41145  24161217.6384   24161226.6674   24161218.102
        39.0004         34.0004
 14  5 15  0 57 30.0000000  0 10G26G02G07G09G04G10G08G28G17G20
   -610376.98447   -454705.91946  24130362.4784   24130373.0524   24130361.504
        42.0004         38.0004
 -10196463.44148  -7887460.86747  22421830.9604   22421837.5534   22421832.015
        48.0004         43.0004
 -14562627.03148 -11333195.20547  21910473.5244   21910478.2914   21910473.044
        50.0004         45.0004
 -19789465.89749 -15407243.73448  20274081.5914   20274087.7194   20274081.647
        54.0004         49.0004
 -28798158.21148 -21956568.18048  20352583.6674   20352589.8564   20352583.093
        53.0004         49.0004
 -15704219.90247 -12224678.44147  22722162.3814   22722169.4324   22722163.711
        47.0004         42.0004
 -24707277.33248 -19211274.13048  20215514.6534   20215521.5494   20215514.991
        53.0004         48.0004
 -10681810.68448  -8287369.00247  22493290.7634   22493297.9024   22493291.396
        48.0004         43.0004
  -8610850.62147  -6649940.88347  23430948.0994   23430956.5604   23430947.697
        46.0004         42.0004
                 -17348028.40945                  24169360.5844   24169351.572
                        34.0004
 14  5 15  0 58  0.0000000  0 10G26G02G07G09G04G10G08G28G17G20
   -597737.11947   -444856.53946  24132765.3624   24132777.3044   24132765.612
        42.0004         38.0004
 -10260709.37448  -7937522.53247  22409606.4764   22409610.9124   22409606.747
        48.0004         43.0004
 -14470418.47248 -11261344.38847  21928021.1304   21928025.2204   21928020.187
        50.0004         45.0004
 -19747355.32849 -15374430.26548  20282095.2364   20282100.7254   20282095.114
        54.0004         49.0004
 -28816920.74748 -21971188.29248  20349013.2304   20349019.2454   20349012.922
        53.0004         49.0004
 -15775528.32947 -12280243.38247  22708593.2464   22708600.5654   22708593.741
        47.0004         42.0004
 -24659633.02748 -19174148.69048  20224581.4354   20224587.4654   20224581.695
        53.0004         48.0004
 -10740790.61748  -8333327.30547  22482067.7734   22482077.0054   22482067.938
        48.0004         43.0004
  -8575311.86747  -6622248.31247  23437711.0384   23437720.5534   23437710.634
        46.0004         42.0004
 -22301457.31646 -17314454.02145  24177548.1304   24177561.5774   24177550.106
        38.0004         33.0004
 14  5 15  0 58 30.0000000  0 10G26G02G07G09G04G10G08G28G17G20
   -584966.82247   -434905.51946  24135196.8814   24135207.8814   24135197.026
        42.0004         38.0004
 -10324575.65048  -7987288.35947  22397453.2284   22397457.9424   22397453.186
        48.0004         44.0004
 -14377927.26848 -11189273.32047  21945620.3484   21945626.3664   21945620.469
        49.0004         45.0004
 -19704723.76549 -15341210.82848  20290207.2164   20290213.4264   20290207.349
        54.0004         49.0004
 -28835127.96648 -21985375.68248  20345548.4844   20345554.3704   20345548.046
        53.0004         49.0004
 -15846877.33847 -12335839.93347  22695015.1964   22695023.6744   22695016.626
        47.0004         42.0004
 -24611396.87448 -19136562.06148  20233760.2454   20233766.4004   20233760.706
        53.0004         48.0004
 -10799739.48748  -8379261.39947  22470850.4294   22470856.8854   22470850.324
        48.0004         43.0004
  -8539931.43047  -6594679.09947  23444444.1644   23444453.3194   23444443.848
        46.0004         42.0004
 -22258028.29246 -17280613.28545  24185812.4814   24185824.0324   24185814.315
        38.0004         34.0004
 14  5 15  0 59  0.0000000  0 10G26G02G07G09G04G10G08G28G17G20
   -572068.05347   -424854.39046  24137651.2914   24137660.8834   24137649.903
        42.0004         38.0004
 -10388059.96248  -8036756.56247  22385372.0324   22385376.7174   22385371.776
        48.0004         44.0004
 -14285156.37548 -11116984.29547  21963274.7254   21963279.4674   21963273.947
        49.0004         45.0004
 -19661573.15149 -15307586.94548  20298418.9024   20298424.7064   20298418.838
        54.0004         49.0004
 -28852779.22448 -21999129.86248  20342189.3874   20342195.5364   20342188.899
        53.0004         49.0004
 -15918264.52847 -12391466.24347  22681431.2434   22681439.2714   22681431.979
        47.0004         42.0004
 -24562570.79448 -19098515.75748  20243051.4264   20243058.0624   20243051.889
        53.0004         48.0004
 -10858654.41948  -8425169.05047  22459638.8824   22459644.8364   22459638.893
        48.0004         43.0004
  -8504710.51947  -6567234.20247  23451145.6174   23451154.4284   23451145.940
        47.0004         42.0004
 -22214257.12446 -17246505.89045  24194145.8614   24194150.4064   24194146.016
        38.0004         34.0004
 14  5 15  0 59 30.0000000  0  9G26G02G07G09G04G10G08G28G17
   -559029.47847   -414694.30946  24140132.1184   24140143.9084   24140132.116
        42.0004         38.0004
 -10451147.26248  -8085915.40347  22373366.3894   22373370.6124   22373367.159
        48.0004         44.0004
 -14192095.01248 -11044468.95147  21980983.8024   21980989.1404   21980982.889
        49.0004         45.0004
 -19617891.76149 -15273549.47448  20306731.0634   20306736.8804   20306731.099
        54.0004         49.0004
 -28869860.80648 -22012440.13748  20338939.1084   20338944.9574   20338938.798
        53.0004         49.0004
 -15989674.07147 -12447109.96847  22667842.5944   22667848.9004   22667843.157
        47.0004         42.0004
 -24513143.40148 -19060000.89648  20252457.3314   20252463.3224   20252457.784
        53.0004         48.0004
 -10917519.09148  -8471037.53347  22448437.6254   22448443.0734   22448437.310
        48.0004         43.0004
  -8469636.93547  -6539904.09947  23457820.6424   23457829.0834   23457819.844
        46.0004         42.0004
 14  5 15  1  0  0.0000000  0  9G26G02G07G09G04G10G08G28G17
   -545881.33547   -404448.85646  24142632.4574   24142644.0374   24142633.350
        43.0004         38.0004
 -10513864.53948  -8134785.89447  22361432.1314   22361437.0544   22361432.192
        48.0004         43.0004
 -14098774.32548 -10971751.52047  21998742.2374   21998746.6924   21998741.379
        49.0004         44.0004
 -19573709.94149 -15239122.06148  20315138.6974   20315144.5424   20315138.710
        54.0004         49.0004
 -28886400.33348 -22025328.03848  20335791.6934   20335797.7894   20335791.008
        53.0004         49.0004
 -16061131.50847 -12502791.01747  22654244.2814   22654251.6774   22654245.792
        47.0004         43.0004
 -24463144.82448 -19021040.94848  20261971.6914   20261977.7234   20261972.076
        53.0004         48.0004
 -10976358.71148  -8516886.49547  22437239.5194   22437246.9664   22437240.292
        48.0004         43.0004
  -8434740.06747  -6512711.70647  23464461.4674   23464469.5584   23464460.644
        46.0004         42.0004
 14  5 15  1  0 30.0000000  0  9G26G02G07G09G04G10G08G28G17
   -532609.79147   -394107.25946  24145160.0194   24145170.0524   24145159.266
        43.0004         38.0004
 -10576193.96148  -8183354.17947  22349570.3264   22349575.8394   22349570.914
        48.0004         43.0004
 -14005181.31148 -10898821.89747  22016552.0204   22016557.0834   22016551.284
        49.0004         44.0004
 -19529013.78849 -15204293.87048  20323643.9484   20323650.0284   20323643.894
        54.0004         49.0004
 -28902381.74048 -22037781.03248  20332750.3884   20332756.4624   20332749.856
        53.0004         49.0004
 -16132618.47847 -12558495.08447  22640640.5444   22640647.2484   22640642.065
        47.0004         43.0004
 -24412561.04548 -18981625.01048  20271597.8594   20271603.7694   20271597.913
        53.0004         48.0004
 -11035154.50748  -8562701.31447  22426050.9644   22426058.5924   22426051.665
        48.0004         43.0004
  -8400005.14747  -6485645.48647  23471071.0234   23471080.1194   23471070.728
        46.0004         42.0004
 14  5 15  1  1  0.0000000  0  9G26G02G07G09G04G10G08G28G17
   -519221.09047   -383674.36746  24147706.7514   24147718.1144   24147706.714
        42.0004         38.0004
 -10638137.61448  -8231621.86547  22337783.7084   22337788.7024   22337783.943
        48.0004         44.0004
 -13911323.00748 -10825685.54647  22034412.2094   22034417.4854   22034412.011
        49.0004         44.0004
 -19483809.50049 -15169069.73248  20332246.2534   20332252.0544   20332246.048
        54.0004         49.0004
 -28917808.82248 -22049802.08648  20329814.5874   20329820.5534   20329814.479
        53.0004         49.0004
 -16204136.42847 -12614223.28647  22627031.7734   22627039.4954   22627032.338
        47.0004         43.0004
 -24361398.13048 -18941757.79148  20281333.5264   20281339.4514   20281333.789
        53.0004         48.0004
 -11093907.58248  -8608482.84447  22414871.2324   22414878.0554   22414871.416
        48.0004         43.0004
  -8365437.61247  -6458709.70047  23477648.8414   23477657.2164   23477648.086
        47.0004         42.0004
 14  5 15  1  1 30.0000000  0  9G26G02G07G09G04G10G08G28G17
   -505715.23247   -373150.17246  24150277.4254   24150287.9754   24150277.529
        43.0004         38.0004
 -10699691.92648  -8279586.16247  22326069.9924   22326074.3874   22326069.815
        48.0004         44.0004
 -13817200.19448 -10752343.09747  22052322.5984   22052328.4944   22052323.176
        49.0004         44.0004
 -19438097.39949 -15133449.89348  20340944.8724   20340950.7224   20340944.798
        54.0004         49.0004
 -28932679.19848 -22061389.33848  20326984.8364   20326991.2534   20326984.271
        53.0004         49.0004
 -16275680.90848 -12669972.16647  22613417.9064   22613424.5134   22613418.289
        48.0004         43.0004
 -24309656.10848 -18901439.31948  20291179.6774   20291185.6694   20291179.820
        53.0004         48.0004
 -11152612.89048  -8654227.14647  22403700.3074   22403705.8474   22403699.932
        48.0004         43.0004
  -8331036.65447  -6431903.71647  23484195.1694   23484203.5154   23484194.634
        47.0004         42.0004
 14  5 15  1  2  0.0000000  0  9G26G02G07G09G04G10G08G28G17
   -492093.97047   -362536.06546  24152869.1214   24152880.4004   24152869.602
        43.0004         38.0004
 -10760854.88448  -8327245.52247  22314431.1404   22314435.1684   22314431.275
        48.0004         44.0004
 -13722815.54948 -10678796.63847  22070285.0524   22070289.4004   22070283.760
        49.0004         44.0004
 -19391879.21749 -15097435.70448  20349739.8894   20349745.4544   20349739.602
        54.0004         49.0004
 -28946992.34548 -22072542.38348  20324261.0934   20324266.6024   20324260.958
        53.0004         49.0004
 -16347249.30148 -12725739.68847  22599797.0444   22599804.7474   22599798.987
        48.0004         43.0004
 -24257337.10548 -18860671.25248  20301135.4874   20301141.7894   20301135.962
        53.0004         48.0004
 -11211267.15148  -8699931.68047  22392537.3344   22392544.6204   22392538.457
        48.0004         43.0004
  -8296803.10747  -6405228.18947  23490709.3864   23490718.0154   23490708.972
        47.0004         42.0004
 14  5 15  1  2 30.0000000  0  9G26G02G07G09G04G10G08G28G17
   -478358.71247   -351833.11746  24155481.6224   24155493.8394   24155482.043
        43.0004         38.0004
 -10821624.50948  -8374598.37547  22302866.7484   22302870.9384   22302867.289
        48.0004         44.0004
 -13628171.21648 -10605047.81647  22088294.5624   22088299.5344   22088294.105
        49.0004         44.0004
 -19345156.07749 -15061028.04048  20358631.1854   20358636.5754   20358631.163
        54.0004         49.0004
 -28960747.17148 -22083260.38148  20321643.6394   20321649.8194   20321643.200
        53.0004         49.0004
 -16418838.13048 -12781523.14247  22586175.1594   22586182.2934   22586175.412
        48.0004         43.0004
 -24204442.16448 -18819454.40548  20311201.2764   20311207.5974   20311201.363
        53.0004         48.0004
 -11269867.13348  -8745593.92247  22381387.6184   22381393.6224   22381387.497
        48.0004         43.0004
  -8262737.19147  -6378683.28647  23497192.1494   23497200.6844   23497191.134
        47.0004         42.0004
 14  5 15  1  3  0.0000000  0  9G26G02G07G09G04G10G08G28G17
   -464514.22447   -341045.06546  24158117.3044   24158127.0224   24158116.704
        43.0004         38.0004
 -10882001.82248  -8421645.54247  22291377.1454   22291381.3674   22291377.430
        49.0004         44.0004
 -13533272.42748 -10531100.72147  22106353.0204   22106359.1164   22106352.488
        49.0004         44.0004
 -19297932.98949 -15024230.79648  20367617.1894   20367622.6564   20367617.213
        54.0004         49.0004
 -28973946.29248 -22093545.35948  20319131.7044   20319137.3734   20319131.516
        53.0004         49.0004
 -16490447.29348 -12837322.43547  22572547.4574   22572554.4504   22572549.055
        48.0004         43.0004
 -24150976.19148 -18777792.60248  20321375.2584   20321381.4434   20321375.493
        53.0004         48.0004
 -11328412.03248  -8791213.26047  22370246.8194   22370252.1994   22370246.797
        48.0004         43.0004
  -8228842.74647  -6352271.99647  23503642.2724   23503651.4074   23503641.822
        47.0004         42.0004
 14  5 15  1  3 30.0000000  0  9G26G02G07G09G04G10G08G28G17
   -450562.78347   -330173.68646  24160772.8104   24160781.8124   24160771.435
        43.0004         38.0004
 -10941985.63048  -8468386.07347  22279963.0994   22279967.3834   22279962.945
        49.0004         44.0004
 -13438122.54848 -10456957.97047  22124460.3974   22124465.1474   22124459.373
        49.0004         44.0004
 -19250212.31749 -14987045.83648  20376698.0784   20376703.9984   20376698.071
        54.0004         49.0004
 -28986589.81848 -22103397.41248  20316725.9144   20316731.7764   20316725.491
        53.0004         49.0004
 -16562074.38348 -12893135.69347  22558918.7824   22558925.3444   22558919.437
        48.0004         43.0004
 -24096941.71448 -18735687.81648  20331658.0854   20331663.9014   20331658.270
        53.0004         48.0004
 -11386899.24148  -8836787.63647  22359115.9854   22359124.0324   22359116.741
        48.0004         43.0004
  -8195121.27347  -6325995.47847  23510059.7854   23510066.8194   23510058.635
        47.0004         42.0004
 14  5 15  1  4  0.0000000  0  9G26G02G07G09G04G10G08G28G17
   -436509.45147   -319222.88846  24163445.8874   24163456.8274   24163445.865
        43.0004         38.0004
 -11001576.84848  -8514820.69547  22268622.2114   22268627.3034   22268622.928
        49.0004         44.0004
 -13342727.41748 -10382624.11147  22142612.6234   22142617.1304   22142612.579
        49.0004         44.0004
 -19201999.13749 -14949477.09448  20385872.6604   20385878.7594   20385872.806
        54.0004         49.0004
 -28998680.18448 -22112818.43048  20314425.1354   20314431.0314   20314424.649
        53.0004         49.0004
 -16633719.99948 -12948963.37347  22545284.3354   22545291.6234   22545285.072
        48.0004         43.0004
 -24042343.89148 -18693144.05848  20342047.7634   20342053.4194   20342047.504
        53.0004         48.0004
 -11445328.77848  -8882317.06247  22347998.0754   22348005.1174   22347998.019
        48.0004         43.0004
  -8161576.93847  -6299857.00547  23516442.3424   23516450.0464   23516441.781
        46.0004         42.0004
 14  5 15  1  4 30.0000000  0  9G26G02G07G09G04G10G08G28G17
   -422349.15947   -308188.75246  24166140.5864   24166151.2494   24166140.524
        43.0004         38.0004
 -11060766.85948  -8560942.68747  22257359.0634   22257364.0254   22257359.868
        49.0004         44.0004
 -13247082.73748 -10308095.79547  22160813.9404   22160817.8994   22160812.931
        49.0004         44.0004
 -19153288.54749 -14911520.76348  20395141.8584   20395147.6284   20395141.777
        54.0004         49.0004
 -29010210.64048 -22121803.15748  20312231.0964   20312236.7914   20312230.624
        53.0004         49.0004
 -16705374.42048 -13004797.91647  22531648.2234   22531656.4594   22531649.242
        48.0004         43.0004
 -23987177.59948 -18650157.33448  20352545.2514   20352551.5614   20352545.452
        52.0004         48.0004
 -11503690.56248  -8927793.69747  22336891.9924   22336898.4304   22336891.923
        48.0004         43.0004
  -8128203.41247  -6273851.62546  23522793.2804   23522802.1224   23522792.414
        46.0004         41.0004
 14  5 15  1  5  0.0000000  0  9G26G02G07G09G04G10G08G28G17
   -408087.27847   -297075.47146  24168854.7434   24168864.9004   24168854.092
        43.0004         38.0004
 -11119557.47648  -8606753.46247  22246172.4224   22246175.6434   22246172.169
        49.0004         44.0004
 -13151194.70348 -10233377.84847  22179059.8794   22179065.3274   22179059.443
        48.0004         44.0004
 -19104085.85649 -14873180.97648  20404504.9734   20404510.5874   20404504.876
        54.0004         49.0004
 -29021183.92648 -22130353.73248  20310142.5774   20310148.5024   20310142.390
        53.0004         49.0004
 -16777038.23647 -13060639.77947  22518010.6334   22518019.6594   22518012.367
        47.0004         43.0004
 -23931448.55348 -18606732.09348  20363150.2634   20363156.4334   20363150.499
        52.0004         48.0004
 -11561984.84448  -8973217.73547  22325798.8354   22325805.3444   22325799.077
        48.0004         43.0004
  -8095005.23347  -6247982.87446  23529109.7294   23529118.8254   23529110.104
        46.0004         41.0004
 14  5 15  1  5 30.0000000  0  9G26G02G07G09G04G10G08G28G17
   -393726.99447   -285885.50546  24171586.8974   24171597.2274   24171586.809
        43.0004         38.0004
 -11177948.55348  -8652252.90747  22235060.4844   22235064.1264   22235060.603
        49.0004         44.0004
 -13055067.37648 -10158473.44147  22197351.8864   22197357.7574   22197352.408
        48.0004         44.0004
 -19054394.57549 -14834460.47048  20413960.8384   20413966.7324   20413960.688
        54.0004         49.0004
 -29031601.38748 -22138471.19648  20308160.6424   20308166.1654   20308160.049
        53.0004         49.0004
 -16848710.28747 -13116488.07447  22504372.6394   22504380.4934   22504373.634
        47.0004         43.0004
 -23875160.08648 -18562870.94748  20373861.4564   20373867.8454   20373861.652
        52.0004         48.0004
 -11620209.45048  -9018587.48947  22314719.5094   22314725.4774   22314719.185
        48.0004         44.0004
  -8061984.62647  -6222252.49546  23535393.5794   23535401.0764   23535393.796
        46.0004         41.0004
 14  5 15  1  6  0.0000000  0  9G26G02G07G09G04G10G08G28G17
   -379269.68847   -274619.94946  24174338.4784   24174349.0154   24174338.111
        43.0004         38.0004
 -11235937.53148  -8697439.04247  22224024.9394   22224029.3984   22224025.111
        49.0004         44.0004
 -12958702.86248 -10083384.21847  22215690.9064   22215696.0134   22215690.039
        48.0004         44.0004
 -19004216.29349 -14795360.49348  20423509.3994   20423515.1464   20423509.589
        54.0004         49.0004
 -29041462.04848 -22146154.79748  20306283.7994   20306289.6984   20306283.243
        53.0004         49.0004
 -16920386.72247 -13172339.78047  22490733.1124   22490740.4934   22490733.510
        47.0004         43.0004
 -23818313.63548 -18518575.00748  20384679.3354   20384685.6174   20384679.450
        52.0004         48.0004
 -11678360.85648  -9063900.19447  22303653.1864   22303659.1264   22303653.102
        48.0004         44.0004
  -8029141.90547  -6196660.72146  23541641.5894   23541652.8774   23541642.706
        46.0004         41.0004
 14  5 15  1  6 30.0000000  0  9G26G02G07G09G04G10G08G28G17
   -364717.38347   -263280.36446  24177106.5164   24177118.3294   24177106.638
        43.0004         38.0004
 -11293523.01748  -8742310.75347  22213066.9794   22213071.7664   22213067.208
        49.0004         44.0004
 -12862104.06548 -10008112.43847  22234072.1274   22234077.9004   22234071.955
        48.0004         44.0004
 -18953553.26649 -14755882.77748  20433150.5234   20433155.9184   20433150.284
        54.0004         49.0004
 -29050765.97948 -22153404.58648  20304513.3254   20304519.1654   20304512.905
        53.0004         49.0004
 -16992065.21647 -13228193.08147  22477092.5194   22477100.6494   22477093.478
        47.0004         43.0004
 -23760911.44548 -18473846.01748  20395602.3604   20395608.4774   20395602.685
        52.0004         48.0004
 -11736436.08448  -9109153.54447  22292601.4434   22292608.2074   22292602.118
        48.0004         44.0004
  -7996478.13047  -6171208.38446  23547859.3644   23547867.7584   23547858.755
        46.0004         41.0004
 14  5 15  1  7  0.0000000  0  9G26G02G07G09G04G10G08G28G17
   -350074.56947   -251870.25546  24179893.0764   24179905.0154   24179893.441
        43.0004         38.0004
 -11350705.77348  -8786868.65247  22202185.5744   22202190.0514   22202185.062
        49.0004         44.0004
 -12765276.34348  -9932662.27947  22252497.8634   22252503.1054   22252497.510
        48.0004         44.0004
 -18902409.95049 -14716030.82148  20442882.7714   20442888.6704   20442882.436
        54.0004         49.0004
 -29059515.50448 -22160222.37148  20302848.3104   20302854.5744   20302848.033
        53.0004         49.0004
 -17063745.28648 -13284047.62247  22463452.7024   22463460.2784   22463453.685
        48.0004         43.0004
 -23702958.13048 -18428687.58748  20406630.5494   20406636.7814   20406630.640
        52.0004         48.0004
 -11794434.49348  -9154347.03247  22281565.3564   22281571.0844   22281564.935
        48.0004         44.0004
  -7963996.99747  -6145898.36846  23554038.9634   23554048.2044   23554039.404
        46.0004         41.0004
 14  5 15  1  7 30.0000000  0  9G26G02G07G09G04G10G08G28G17
   -335342.11547   -240390.28746  24182696.7734   24182706.6414   24182696.235
        43.0004         38.0004
 -11407483.20948  -8831110.72147  22191380.7414   22191385.8974   22191381.236
        49.0004         44.0004
 -12668220.89548  -9857034.66047  22270966.5864   22270972.6044   22270966.527
        48.0004         44.0004
 -18850787.53049 -14675805.53748  20452705.9404   20452711.5404   20452705.837
        54.0004         49.0004
 -29067709.42749 -22166607.22548  20301288.7954   20301294.9274   20301288.635
        54.0004         49.0004
 -17135423.04648 -13339900.36247  22449812.4864   22449820.0244   22449813.411
        48.0004         43.0004
 -23644455.03948 -18383100.76748  20417763.1914   20417769.3214   20417763.642
        52.0004         48.0004
 -11852351.87548  -9199477.38247  22270543.1514   22270551.1204   22270543.477
        48.0004         44.0004
  -7931697.53847  -6120729.91646  23560186.6604   23560194.1084   23560186.039
        46.0004         41.0004
 14  5 15  1  8  0.0000000  0  9G26G02G07G09G04G10G08G28G17
   -320521.50647   -228841.62546  24185517.3584   24185527.7374   24185517.227
        43.0004         38.0004
 -11463853.37848  -8875035.44147  22180654.7234   22180658.4824   22180654.047
        49.0004         45.0004
 -12570940.50448  -9781231.77547  22289478.0484   22289483.5484   22289478.222
        48.0004         44.0004
 -18798687.75949 -14635208.29648  20462619.9074   20462625.9804   20462620.083
        54.0004         49.0004
 -29075347.27049 -22172558.76548  20299835.7354   20299841.6604   20299835.433
        54.0004         49.0004
 -17207095.53248 -13395748.98547  22436173.7294   22436180.8304   22436174.293
        48.0004         43.0004
 -23585404.12248 -18337087.06548  20429000.3034   20429006.2584   20429000.384
        52.0004         48.0004
 -11910184.53148  -9244541.72447  22259538.0824   22259545.2804   22259538.393
        48.0004         44.0004
  -7899580.72847  -6095703.78246  23566297.9704   23566306.4674   23566297.694
        46.0004         41.0004
 14  5 15  1  8 30.0000000  0  9G26G02G07G09G04G10G08G28G17
   -305615.91247   -217226.75646  24188353.4424   24188363.8194   24188352.947
        43.0004         38.0004
 -11519815.84848  -8918642.47147  22170004.2924   22170009.5044   22170004.971
        49.0004         44.0004
 -12473438.88548  -9705256.50247  22308032.3374   22308037.7334   22308032.262
        48.0004         43.0004
 -18746114.01249 -14594241.72348  20472624.6494   20472630.5714   20472624.445
        54.0004         49.0004
 -29082430.16349 -22178077.88348  20298487.9244   20298493.4124   20298487.404
        54.0004         49.0004
 -17278760.88048 -13451592.04147  22422536.1994   22422543.4564   22422537.314
        48.0004         43.0004
 -23525808.47248 -18290648.88948  20440341.3494   20440347.3754   20440341.259
        52.0004         48.0004
 -11967930.40348  -9289538.44247  22248549.2434   22248555.4684   22248549.737
        48.0004         44.0004
  -7867648.85947  -6070821.76246  23572374.5194   23572383.3824   23572374.390
        46.0004         41.0004
 14  5 15  1  9  0.0000000  0  9G26G02G07G09G04G10G08G28G17
   -290627.78847   -205547.56246  24191204.9974   24191215.5174   24191205.395
        43.0004         38.0004
 -11575369.68848  -8961931.08447  22159433.0424   22159437.4484   22159433.033
        49.0004         45.0004
 -12375719.23348  -9629111.35747  22326627.7554   22326633.6214   22326627.327
        48.0004         43.0004
 -18693069.13849 -14552908.03848  20482718.5934   20482724.1264   20482718.640
        54.0004         49.0004
 -29088958.45249 -22183164.84448  20297245.6314   20297251.2494   20297245.341
        54.0004         49.0004
 -17350416.94148 -13507427.85947  22408901.1274   22408908.8154   22408901.569
        48.0004         43.0004
 -23465670.88548 -18243788.41548  20451785.0174   20451790.8934   20451784.719
        52.0004         48.0004
 -12025587.10748  -9334465.67947  22237577.7534   22237583.4774   22237577.664
        48.0004         44.0004
  -7835903.01847  -6046084.69846  23578415.6384   23578423.9414   23578415.218
        46.0004         41.0004
 14  5 15  1  9 30.0000000  0  9G26G02G07G09G04G10G08G28G17
   -275559.18747   -193805.67546  24194072.6084   24194082.3114   24194072.262
        43.0004         38.0004
 -11630513.23948  -9004899.99647  22148938.9344   22148944.0674   22148939.472
        49.0004         44.0004
 -12277784.71248  -9552798.75847  22345264.4514   22345270.5844   22345264.011
        48.0004         43.0004
 -18639555.32749 -14511208.95248  20492901.7574   20492907.6624   20492901.862
        54.0004         49.0004
 -29094932.52249 -22187819.94248  20296108.6684   20296114.3694   20296107.905
        54.0004         49.0004
 -17422060.74648 -13563254.11147  22395268.5224   22395274.7584   22395268.208
        48.0004         43.0004
 -23404993.60748 -18196507.39748  20463331.3004   20463337.7454   20463331.597
        52.0004         48.0004
 -12083151.24448  -9379320.77947  22226623.9754   22226629.3044   22226623.853
        48.0004         44.0004
  -7804343.96347  -6021493.16946  23584420.3294   23584428.2914   23584420.569
        46.0004         41.0004
 14  5 15  1 10  0.0000000  0  9G26G02G07G09G04G10G08G28G17
   -260413.09147   -182003.38646  24196955.1564   24196964.8394   24196954.344
        43.0004         38.0004
 -11685246.27248  -9047549.02447  22138524.3954   22138528.3104   22138524.097
        49.0004         45.0004
 -12179638.86648  -9476321.49647  22363940.7724   22363946.6034   22363940.209
        48.0004         43.0004
 -18585576.00949 -14469147.12248  20503173.9654   20503180.0044   20503173.865
        54.0004         49.0004
 -29100353.15349 -22192043.79348  20295077.1174   20295083.0064   20295076.780
        54.0004         49.0004
 -17493690.51548 -13619069.42947  22381636.7284   22381643.5404   22381637.055
        48.0004         43.0004
 -23343780.39948 -18148808.76248  20474979.8014   20474985.5564   20474979.970
        52.0004         48.0004
 -12140620.70748  -9424102.11547  22215688.6464   22215693.9574   22215687.385
        48.0004         44.0004
  -7772973.63247  -5997048.71046  23590390.6604   23590399.2274   23590389.857
        46.0004         41.0004
 14  5 15  1 10 30.0000000  0  9G26G02G07G09G04G10G08G28G17
   -245190.21247   -170141.27346  24199851.3344   24199861.9464   24199850.979
        43.0004         38.0004
 -11739566.00848  -9089876.00847  22128186.6554   22128192.0354   22128187.577
        49.0004         45.0004
 -12081283.26548  -9399680.78647  22382657.7644   22382662.5304   22382656.894
        48.0004         43.0004
 -18531132.24149 -14426723.38448  20513534.0604   20513540.1014   20513534.082
        54.0004         49.0004
 -29105219.27949 -22195835.56548  20294150.9774   20294157.0714   20294150.672
        54.0004         49.0004
 -17565302.42448 -13674870.83847  22368009.1084   22368015.6714   22368009.971
        48.0004         43.0004
 -23282032.51348 -18100693.50948  20486729.4604   20486736.1454   20486730.152
        52.0004         48.0004
 -12197991.28348  -9468806.38647  22204771.1834   22204776.9174   22204770.329
        48.0004         44.0004
  -7741791.75447  -5972751.08146  23596324.3894   23596332.7764   23596323.622
        46.0004         41.0004
 14  5 15  1 11  0.0000000  0  9G26G02G07G09G04G10G08G28G17
   -229893.30647   -158221.47246  24202762.5934   24202772.1884   24202762.224
        43.0004         38.0004
 -11793471.67748  -9131880.33747  22117929.2594   22117934.4844   22117929.622
        49.0004         45.0004
 -11982721.39148  -9322879.33047  22401412.6724   22401417.8794   22401412.819
        48.0004         43.0004
 -18476226.79949 -14383939.89948  20523982.2584   20523988.2914   20523982.187
        54.0004         49.0004
 -29109531.88649 -22199196.02448  20293330.2364   20293336.4714   20293329.789
        54.0004         49.0004
 -17636894.43048 -13730656.75447  22354386.1874   22354392.2474   22354386.339
        48.0004         43.0004
 -23219752.91548 -18052163.94948  20498581.2354   20498587.4154   20498581.580
        52.0004         48.0004
 -12255260.59948  -9513431.76747  22193872.0094   22193879.1274   22193872.373
        49.0004         44.0004
  -7710800.40647  -5948601.92546  23602221.1894   23602230.4974   23602220.930
        46.0004         41.0004
 14  5 15  1 11 30.0000000  0  9G26G02G07G09G04G10G08G28G17
   -214524.81747   -146245.88846  24205686.2204   24205696.3124   24205686.167
        43.0004         38.0004
 -11846962.31048  -9173561.26247  22107749.8894   22107755.1024   22107750.560
        49.0004         45.0004
 -11883956.49148  -9245919.65347  22420207.6184   22420213.2744   22420207.082
        48.0004         43.0004
 -18420862.43549 -14340798.81148  20534517.6364   20534523.4904   20534517.939
        54.0004         49.0004
 -29113291.43449 -22202125.52948  20292615.0974   20292620.8904   20292614.824
        54.0004         49.0004
 -17708464.02348 -13786425.21247  22340766.0104   22340772.9744   22340767.407
        48.0004         43.0004
 -23156944.16148 -18003222.06548  20510533.7084   20510539.6004   20510533.520
        52.0004         48.0004
 -12312425.55848  -9557975.82347  22182993.8754   22183000.4194   22182993.788
        49.0004         44.0004
  -7680000.14747  -5924601.67946  23608082.1164   23608091.4514   23608081.950
        46.0004         41.0004
 14  5 15  1 12  0.0000000  0  9G26G02G07G09G04G10G08G28G17
   -199087.80247   -134216.89746  24208624.0014   24208635.4534   24208623.751
        43.0004         38.0004
 -11900037.79448  -9214918.68747  22097650.4804   22097655.6124   22097650.291
        49.0004         45.0004
 -11784992.65048  -9168804.99447  22439040.4184   22439045.6714   22439039.481
        48.0004         43.0004
 -18365042.73349 -14297302.91048  20545139.8804   20545145.5094   20545139.720
        54.0004         49.0004
 -29116499.26549 -22204625.12248  20292004.3194   20292010.3104   20292004.114
        54.0004         49.0004
 -17780009.59948 -13842174.96447  22327152.9514   22327158.3454   22327152.177
        48.0004         43.0004
 -23093609.89848 -17953870.69248  20522585.1584   20522591.4104   20522585.790
        52.0004         48.0004
 -12369484.39648  -9602437.20047  22172135.1924   22172142.3414   22172136.245
        49.0004         44.0004
  -7649393.23147  -5900752.09146  23613906.3054   23613915.5584   23613906.018
        46.0004         41.0004
 14  5 15  1 12 30.0000000  0  9G26G02G07G09G04G10G08G28G17
   -183584.06547   -122135.93546  24211573.1444   24211583.5024   24211573.778
        43.0004         38.0004
 -11952696.36848  -9255951.24347  22087629.5464   22087633.7684   22087629.788
        49.0004         44.0004
 -11685832.10948  -9091537.05547  22457909.5394   22457915.3614   22457909.033
        48.0004         43.0004
 -18308769.85949 -14253453.89048  20555848.0834   20555854.2874   20555848.132
        54.0004         49.0004
 -29119155.30349 -22206694.74948  20291499.0154   20291504.7984   20291498.901
        54.0004         49.0004
 -17851527.85248 -13897903.44047  22313542.3744   22313549.3934   22313543.214
        48.0004         43.0004
 -23029752.51548 -17904111.68948  20534736.7634   20534742.8764   20534737.380
        52.0004         48.0004
 -12426433.47548  -9646813.05247  22161299.7654   22161304.8384   22161299.254
        48.0004         44.0004
  -7618980.24447  -5877053.62846  23619694.1804   23619702.6434   23619693.762
        46.0004         41.0004
 14  5 15  1 13  0.0000000  0  9G26G02G07G09G04G10G08G28G17
   -168014.47247   -110003.65446  24214538.3674   24214547.1224   24214536.686
        42.0004         38.0004
 -12004935.68748  -9296657.11647  22077688.9154   22077692.9344   22077689.087
        49.0004         44.0004
 -11586476.70748  -9014117.27447  22476815.2664   22476821.9464   22476815.362
        48.0004         43.0004
 -18252045.04949 -14209252.71048  20566642.6694   20566648.4534   20566642.694
        54.0004         49.0004
 -29121258.66248 -22208333.71848  20291099.0474   20291104.5854   20291098.452
        53.0004         49.0004
 -17923014.73948 -13953607.45847  22299939.4734   22299945.0244   22299939.772
        48.0004         44.0004
 -22965373.51048 -17853946.22948  20546987.8524   20546993.6904   20546988.545
        52.0004         48.0004
 -12483268.63248  -9691100.12047  22150483.5814   22150490.5414   22150483.482
        48.0004         44.0004
  -7588760.87647  -5853506.02246  23625445.6344   23625453.6374   23625444.214
        46.0004         41.0004
 14  5 15  1 13 30.0000000  0  9G26G02G07G09G04G10G08G28G17
   -152383.97447    -97823.91046  24217511.1664   24217521.3524   24217511.724
        42.0004         38.0004
 -12056757.37548  -9337037.56247  22067827.3724   22067831.4014   22067827.316
        49.0004         45.0004
 -11486932.27248  -8936550.21947  22495758.6584   22495764.1764   22495758.524
        48.0004         43.0004
 -18194873.67649 -14164703.55148  20577521.8094   20577527.4034   20577521.914
        54.0004         49.0004
 -29122812.36548 -22209544.37648  20290803.3024   20290809.7034   20290802.711
        53.0004         49.0004
 -17994470.44948 -14009287.18747  22286341.4914   22286347.2944   22286341.707
        48.0004         44.0004
 -22900478.05448 -17803378.32348  20559337.0854   20559343.5334   20559337.246
        52.0004         48.0004
 -12539989.74048  -9735298.32747  22139689.2364   22139695.3384   22139689.705
        48.0004         44.0004
  -7558738.55547  -5830111.96646  23631157.1314   23631165.7834   23631157.752
        46.0004         41.0004
 14  5 15  1 14  0.0000000  0  9G26G02G07G09G04G10G08G28G17
   -136693.21847    -85597.22146  24220496.2474   24220506.6314   24220496.756
        42.0004         38.0004
 -12108158.57048  -9377090.35147  22058045.4574   22058050.4764   22058046.307
        49.0004         45.0004
 -11387200.32847  -8858837.02947  22514737.2934   22514743.1974   22514736.731
        47.0004         43.0004
 -18137256.83349 -14119807.27348  20588485.9724   20588491.7204   20588485.972
        54.0004         49.0004
 -29123815.76648 -22210326.23048  20290612.2114   20290618.2174   20290612.064
        53.0004         49.0004
 -18065890.63348 -14064939.21447  22272750.1404   22272757.7204   22272750.821
        48.0004         44.0004
 -22835067.40448 -17752408.96347  20571784.4514   20571790.7044   20571784.874
        52.0004         47.0004
 -12596592.23548  -9779404.12047  22128918.8064   22128924.7924   22128918.610
        48.0004         44.0004
  -7528913.04447  -5806871.26546  23636832.9584   23636841.8664   23636832.954
        46.0004         41.0004
 14  5 15  1 14 30.0000000  0  9G26G02G07G09G04G10G08G28G17
   -120943.60947    -73324.67046  24223494.1194   24223503.8594   24223494.234
        43.0004         38.0004
 -12159137.29748  -9416813.93747  22048344.5444   22048349.3254   22048344.479
        49.0004         45.0004
 -11287282.81847  -8780979.24247  22533750.6894   22533756.6064   22533750.202
        47.0004         43.0004
 -18079196.60949 -14074565.50248  20599534.7714   20599540.1584   20599534.607
        54.0004         49.0004
 -29124268.49848 -22210678.98748  20290525.7134   20290531.5014   20290525.449
        53.0004         49.0004
 -18137271.90948 -14120560.91047  22259167.0654   22259174.2354   22259167.387
        48.0004         44.0004
 -22769143.41548 -17701039.59547  20584329.4664   20584335.4424   20584329.383
        52.0004         47.0004
 -12653072.08948  -9823414.35547  22118171.1574   22118177.8894   22118170.942
        49.0004         44.0004
  -7499284.81347  -5783784.30746  23642471.8144   23642479.4574   23642471.176
        46.0004         41.0004
 14  5 15  1 15  0.0000000  0  9G26G02G07G09G04G10G08G28G17
   -105140.66647    -61010.55946  24226501.2494   24226511.5564   24226501.014
        43.0004         38.0004
 -12209696.07348  -9456210.29847  22038724.0694   22038728.1644   22038724.517
        49.0004         45.0004
 -11187185.84647  -8702981.60847  22552799.3484   22552804.5104   22552798.641
        47.0004         43.0004
 -18020698.75449 -14028982.71848  20610666.6354   20610672.0534   20610666.561
        54.0004         49.0004
 -29124174.28148 -22210605.54848  20290544.0514   20290549.7594   20290543.708
        53.0004         49.0004
 -18208615.18248 -14176152.98347  22245590.6364   22245597.5844   22245591.276
        48.0004         44.0004
 -22702712.33948 -17649275.10147  20596970.8334   20596976.6684   20596971.266
        52.0004         47.0004
 -12709429.98148  -9867329.54147  22107446.0724   22107452.4334   22107446.489
        49.0004         44.0004
  -7469857.68447  -5760854.04746  23648071.4764   23648079.5704   23648070.771
        46.0004         41.0004
 14  5 15  1 15 30.0000000  0  9G26G02G07G09G04G10G08G28G17
    -89283.13247    -48653.89046  24229519.0674   24229528.9904   24229518.574
        43.0004         38.0004
 -12259830.12948  -9495275.71047  22029183.7124   22029187.8814   22029183.312
        49.0004         45.0004
 -11086909.17947  -8624843.95747  22571880.4804   22571886.5864   22571880.364
        47.0004         43.0004
 -17961762.54349 -13983058.35748  20621881.4124   20621887.0304   20621881.334
        54.0004         49.0004
 -29123530.45448 -22210103.84248  20290666.3284   20290672.2304   20290665.689
        53.0004         49.0004
 -18279914.19348 -14231710.57547  22232023.4374   22232029.5944   22232023.642
        49.0004         44.0004
 -22635773.60548 -17597115.03347  20609708.8564   20609714.9834   20609708.985
        52.0004         47.0004
 -12765659.49148  -9911144.69847  22096746.1574   22096753.4474   22096746.316
        49.0004         44.0004
  -7440629.35747  -5738078.68946  23653633.0314   23653642.3614   23653632.616
        46.0004         41.0004
 14  5 15  1 16  0.0000000  0  9G26G02G07G09G04G10G08G28G17
    -73374.40747    -36257.34346  24232545.3574   24232556.1704   24232545.818
        43.0004         38.0004
 -12309540.07548  -9534010.64147  22019723.7754   22019728.3374   22019724.452
        50.0004         45.0004
 -10986457.16247  -8546569.67147  22590996.0184   22591002.8914   22590995.427
        47.0004         43.0004
 -17902391.94749 -13936795.52048  20633179.2324   20633185.2274   20633179.246
        54.0004         49.0004
 -29122338.53848 -22209175.04848  20290893.3124   20290899.0014   20290892.906
        53.0004         49.0004
 -18351167.31848 -14287232.42247  22218463.9494   22218470.4574   22218464.664
        49.0004         44.0004
 -22568330.86848 -17544562.24847  20622542.8714   20622548.9894   20622543.209
        52.0004         47.0004
 -12821758.81848  -9954858.41747  22086070.9404   22086077.3444   22086071.131
        49.0004         44.0004
  -7411601.89947  -5715459.85546  23659157.1554   23659165.4574   23659156.642
        46.0004         41.0004
 14  5 15  1 16 30.0000000  0  9G26G02G07G09G04G10G08G28G17
    -57418.14747    -23823.75346  24235581.4064   24235591.8954   24235582.268
        43.0004         38.0004
 -12358826.26048  -9572415.37347  22010345.1014   22010349.8324   22010344.742
        50.0004         45.0004
 -10885834.08447  -8468162.09747  22610143.7444   22610149.5144   22610143.416
        47.0004         42.0004
 -17842591.01349 -13890197.35048  20644558.9644   20644564.7404   20644559.143
        54.0004         49.0004
 -29120600.66548 -22207820.83648  20291223.8644   20291229.5834   20291223.437
        53.0004         49.0004
 -18422373.48948 -14342717.69247  22204913.6414   22204920.5754   22204914.586
        49.0004         44.0004
 -22500388.63248 -17491620.24247  20635471.3044   20635477.7294   20635471.716
        52.0004         47.0004
 -12877726.25148  -9998469.34947  22075419.6084   22075427.5044   22075420.244
        49.0004         44.0004
  -7382777.86347  -5692999.53846  23664640.5564   23664650.1334   23664641.755
        45.0004         41.0004
 14  5 15  1 17  0.0000000  0  9G26G02G07G09G04G10G08G28G17
    -41413.87847    -11352.77046  24238627.4364   24238637.3424   24238627.429
        43.0004         38.0004
 -12407684.82248  -9610486.88947  22001047.5554   22001051.3204   22001048.365
        50.0004         45.0004
 -10785040.23647  -8389621.46047  22629325.2734   22629330.2204   22629323.690
        47.0004         42.0004
 -17782359.55449 -13843263.71148  20656020.7324   20656026.2394   20656020.299
        54.0004         49.0004
 -29118315.08448 -22206039.83148  20291658.6544   20291664.4574   20291658.296
        53.0004         49.0004
 -18493527.18548 -14398162.07047  22191373.8704   22191380.5844   22191374.131
        49.0004         44.0004
 -22431946.80148 -17438288.94247  20648495.9544   20648502.1094   20648496.321
        52.0004         47.0004
 -12933556.10048 -10041973.07747  22064796.7924   22064803.1614   22064796.552
        49.0004         44.0004
  -7354155.36147  -5670696.25446  23670088.4094   23670097.5844   23670087.838
        45.0004         41.0004
 14  5 15  1 17 30.0000000  0  9G26G02G07G09G04G10G08G28G17
    -25367.06147      1151.37546  24241680.1134   24241690.8894   24241680.938
        43.0004         38.0004
 -12456117.97548  -9648226.92347  21991830.6904   21991834.7564   21991830.515
        50.0004         45.0004
 -10684081.89447  -8310952.64047  22648536.3344   22648541.9254   22648536.049
        47.0004         42.0004
 -17721703.72648 -13795999.39948  20667562.7444   20667568.6814   20667562.716
        53.0004         49.0004
 -29115485.53948 -22203834.96548  20292197.4234   20292203.1594   20292197.200
        53.0004         49.0004
 -18564629.27448 -14453566.25147  22177842.9824   22177849.5814   22177843.949
        49.0004         44.0004
 -22363011.88248 -17384573.41447  20661613.4564   20661619.9194   20661613.433
        52.0004         47.0004
 -12989248.74448 -10085369.90947  22054198.5934   22054203.9184   22054198.754
        49.0004         44.0004
  -7325738.30247  -5648553.05546  23675496.4044   23675503.6614   23675495.496
        45.0004         41.0004
 14  5 15  1 18  0.0000000  0  9G26G02G07G09G04G10G08G28G17
     -9277.73647     13688.63546  24244742.5594   24244752.0074   24244742.901
        43.0004         38.0004
 -12504122.62848  -9685633.06847  21982695.5764   21982700.1944   21982696.249
        50.0004         45.0004
 -10582959.85747  -8232156.26947  22667780.1664   22667784.4544   22667778.776
        47.0004         42.0004
 -17660624.13448 -13748404.89048  20679186.2484   20679191.7944   20679186.092
        53.0004         49.0004
 -29112110.50148 -22201205.03848  20292839.1634   20292844.8524   20292838.893
        53.0004         49.0004
 -18635674.62948 -14508926.23347  22164324.1584   22164329.6444   22164324.643
        49.0004         44.0004
 -22293584.75648 -17330474.35147  20674825.4264   20674831.4614   20674825.428
        52.0004         47.0004
 -13044799.00648 -10128655.77847  22043628.6224   22043634.7044   22043627.804
        49.0004         44.0004
  -7297526.21247  -5626569.57246  23680864.9644   23680873.5944   23680864.450
        45.0004         41.0004
 14  5 15  1 18 30.0000000  0  9G26G02G07G09G04G10G08G28G17
      6851.72947     26257.17346  24247811.5934   24247821.9504   24247811.191
        43.0004         38.0004
 -12551698.29548  -9722704.93147  21973642.4574   21973647.3954   21973642.657
        50.0004         45.0004
 -10481677.29647  -8153234.81347  22687053.2064   22687057.4944   22687052.805
        47.0004         42.0004
 -17599123.54648 -13700482.33348  20690888.9954   20690895.1284   20690889.156
        53.0004         49.0004
 -29108191.12348 -22198150.94748  20293585.3934   20293591.1204   20293584.827
        53.0004         49.0004
 -18706660.58648 -14564239.92747  22150814.8814   22150821.4854   22150816.187
        49.0004         44.0004
 -22223668.04648 -17275993.79147  20688130.0154   20688135.9404   20688129.837
        52.0004         47.0004
 -13100204.00048 -10171828.45347  22033084.1074   22033091.1874   22033084.187
        49.0004         44.0004
  -7269519.69447  -5604746.26646  23686193.5904   23686203.1784   23686193.785
        45.0004         40.0004
 14  5 15  1 19  0.0000000  0  9G26G02G07G09G04G10G08G28G17
     23019.28547     38855.40046  24250888.1524   24250898.4204   24250888.762
        43.0004         38.0004
 -12598843.68948  -9759441.51347  21964671.4334   21964675.2654   21964671.444
        50.0004         45.0004
 -10380237.20647  -8074190.60347  22706357.1144   22706361.8864   22706356.328
        47.0004         42.0004
 -17537204.94248 -13652234.06048  20702671.8864   20702677.5414   20702672.009
        53.0004         49.0004
 -29103728.03048 -22194673.18548  20294434.6444   20294440.1234   20294434.283
        53.0004         49.0004
 -18777584.25648 -14619505.08047  22137318.3634   22137325.7964   22137319.702
        49.0004         44.0004
 -22153264.78948 -17221134.10647  20701527.6414   20701533.3074   20701527.559
        52.0004         47.0004
 -13155460.79048 -10214885.64647  22022568.7754   22022575.4844   22022569.671
        49.0004         44.0004
  -7241719.56747  -5583083.80546  23691483.9744   23691491.6474   23691483.556
        45.0004         40.0004
 14  5 15  1 19 30.0000000  0  9G26G02G07G09G04G10G08G28G17
     39220.28247     51479.67846  24253970.0654   24253981.2464   24253969.793
        43.0004         38.0004
 -12645560.54248  -9795844.17747  21955781.2654   21955785.4754   21955781.174
        50.0004         45.0004
 -10278644.80047  -7995027.71247  22725688.3404   22725693.0454   22725687.778
        47.0004         42.0004
 -17474873.36848 -13603663.99148  20714533.3354   20714538.8154   20714533.244
        53.0004         49.0004
 -29098724.49348 -22190774.29948  20295386.7604   20295392.5494   20295386.159
        53.0004         49.0004
 -18848445.71348 -14674721.76847  22123834.5584   22123840.7954   22123835.426
        49.0004         44.0004
 -22082380.23148 -17165899.37747  20715015.9774   20715022.1654   20715016.122
        52.0004         47.0004
 -13210568.75148 -10257826.86147  22012081.4484   22012088.0734   22012082.400
        49.0004         44.0004
  -7214128.94647  -5561584.58446  23696733.6004   23696742.0164   23696733.323
        45.0004         40.0004
 14  5 15  1 20  0.0000000  0  9G26G02G07G09G04G10G08G28G17
     55454.09747     64129.55246  24257060.3064   24257070.9904   24257060.492
        43.0004         38.0004
 -12691846.31148  -9831910.92447  21946972.9494   21946977.7844   21946973.605
        50.0004         45.0004
 -10176901.53947  -7915747.26947  22745050.2974   22745054.1114   22745049.066
        47.0004         42.0004
 -17412130.08248 -13554773.10548  20726472.7574   20726478.4824   20726472.884
        53.0004         49.0004
 -29093179.51048 -22186453.51148  20296441.7614   20296447.9094   20296441.348
        53.0004         49.0004
 -18919240.47248 -14729886.46647  22110362.7374   22110368.8274   22110363.291
        49.0004         44.0004
 -22011015.82548 -17110290.74047  20728595.8264   20728602.3934   20728596.445
        52.0004         47.0004
 -13265523.12748 -10300648.40347  22001624.0484   22001630.0154   22001624.871
        49.0004         44.0004
  -7186747.25347  -5540248.17246  23701945.2094   23701953.3644   23701944.282
        45.0004         40.0004
 14  5 15  1 20 30.0000000  0  9G26G02G07G09G04G10G08G28G17
     71720.80647     76805.03346  24260154.0224   24260164.3904   24260154.734
        43.0004         38.0004
 -12737697.84848  -9867639.32147  21938247.9964   21938252.6194   21938247.835
        50.0004         45.0004
 -10075007.98747  -7836349.71347  22764439.3544   22764444.0414   22764439.522
        47.0004         42.0004
 -17348975.65548 -13505561.86148  20738490.6884   20738496.2424   20738490.667
        53.0004         49.0004
 -29087091.81148 -22181709.83048  20297600.0414   20297605.8714   20297599.910
        53.0004         49.0004
 -18989963.48148 -14784995.25147  22096904.5834   22096911.2554   22096904.975
        49.0004         44.0004
 -21939172.16548 -17054308.66747  20742267.7944   20742273.9234   20742267.497
        52.0004         47.0004
 -13320318.92848 -10343346.38447  21991197.6724   21991203.8104   21991197.766
        49.0004         44.0004
  -7159573.18047  -5519073.53046  23707115.9814   23707124.8324   23707115.423
        45.0004         40.0004
 14  5 15  1 21  0.0000000  0  9G26G02G07G09G04G10G08G28G17
     88015.48047     89502.31346  24263256.0694   24263265.2154   24263256.277
        43.0004         38.0004
 -12783117.16748  -9903030.91547  21929604.4424   21929609.4664   21929604.742
        50.0004         45.0004
  -9972970.19647  -7756839.75847  22783856.9314   22783861.4454   22783856.556
        46.0004         42.0004
 -17285415.52448 -13456034.47848  20750585.8534   20750591.4434   20750585.840
        53.0004         49.0004
 -29080464.91748 -22176545.99648  20298861.6194   20298867.0764   20298861.050
        53.0004         49.0004
 -19060614.66548 -14840048.07047  22083459.9374   22083466.5724   22083460.273
        49.0004         44.0004
 -21866855.01448 -16997957.64547  20756028.8954   20756034.8574   20756029.132
        52.0004         47.0004
 -13374955.78648 -10385920.51047  21980800.2164   21980807.1594   21980800.693
        49.0004         45.0004
  -7132610.10647  -5498063.30746  23712246.9554   23712255.6464   23712246.547
        45.0004         41.0004
 14  5 15  1 21 30.0000000  0  9G26G02G07G09G04G10G08G28G17
    104335.66047    102219.45746  24266362.8914   24266371.8494   24266361.877
        43.0004         39.0004
 -12828103.60548  -9938085.20947  21921043.8204   21921047.6164   21921044.561
        50.0004         45.0004
  -9870790.98647  -7677219.61147  22803301.2744   22803305.4674   22803299.874
        46.0004         42.0004
 -17221452.88748 -13406193.45848  20762757.4254   20762762.9534   20762757.257
        53.0004         49.0004
 -29073300.02748 -22170962.94948  20300224.6934   20300230.2024   20300224.138
        53.0004         49.0004
 -19131191.46248 -14895042.93847  22070029.3594   22070037.1894   22070030.325
        49.0004         44.0004
 -21794067.62948 -16941240.21047  20769879.6224   20769886.0214   20769880.618
        52.0004         47.0004
 -13429430.93848 -10428368.62247  21970434.1784   21970440.4054   21970434.439
        49.0004         45.0004
  -7105859.50347  -5477218.63146  23717337.2054   23717346.1384   23717336.849
        45.0004         41.0004
 14  5 15  1 22  0.0000000  0  9G26G02G07G09G04G10G08G28G17
    120679.11847    114954.73946  24269471.3884   24269482.0374   24269471.744
        43.0004         38.0004
 -12872656.55948  -9972801.72347  21912566.4474   21912570.3354   21912566.211
        50.0004         45.0004
  -9768473.69947  -7597491.86847  22822770.7194   22822776.5344   22822770.352
        46.0004         42.0004
 -17157090.57448 -13356041.00548  20775005.2314   20775010.8334   20775004.983
        53.0004         48.0004
 -29065598.01948 -22164961.36548  20301690.2204   20301695.9794   20301690.000
        53.0004         49.0004
 -19201691.49648 -14949977.99247  22056613.6114   22056620.5334   22056614.601
        49.0004         44.0004
 -21720813.42948 -16884159.02147  20783820.4404   20783826.2904   20783819.993
        51.0004         47.0004
 -13483741.45348 -10470688.44647  21960098.7874   21960106.0454   21960099.401
        49.0004         45.0004
  -7079321.97147  -5456539.99346  23722386.9654   23722394.9794   23722386.711
        46.0004         41.0004
 14  5 15  1 22 30.0000000  0  9G26G02G07G09G04G10G08G28G17
    137045.57847    127707.95846  24272586.5514   24272596.6904   24272585.784
        43.0004         38.0004
 -12916773.04348 -10007178.13547  21904170.5804   21904174.3414   21904170.818
        50.0004         45.0004
  -9666019.10247  -7517657.14747  22842267.7804   22842273.3634   22842267.186
        46.0004         42.0004
 -17092329.40248 -13305577.75448  20787328.5454   20787334.3234   20787328.681
        53.0004         48.0004
 -29057358.31248 -22158540.79748  20303258.3784   20303263.9404   20303257.848
        53.0004         49.0004
 -19272109.83948 -15004849.39447  22043214.3184   22043220.1944   22043214.523
        49.0004         44.0004
 -21647093.22648 -16826714.71047  20797848.2924   20797854.2424   20797848.687
        51.0004         47.0004
 -13537882.03448 -10512875.86047  21949796.4194   21949802.5534   21949796.762
        49.0004         45.0004
  -7052996.12247  -5436026.31546  23727396.7234   23727405.2814   23727396.479
        46.0004         41.0004
 14  5 15  1 23  0.0000000  0  9G26G02G07G09G04G10G08G28G17
    153431.25647    140476.14446  24275705.2904   24275713.7424   24275704.421
        43.0004         38.0004
 -12960454.35948 -10041215.45547  21895857.3484   21895862.1934   21895858.348
        50.0004         45.0004
  -9563431.85147  -7437719.05447  22861789.5994   22861794.4664   22861789.044
        46.0004         42.0004
 -17027173.91348 -13254807.24748  20799726.9854   20799733.0644   20799727.315
        53.0004         48.0004
 -29048583.15848 -22151703.00048  20304928.2554   20304934.1634   20304927.687
        53.0004         49.0004
 -19342445.28148 -15059656.20547  22029829.2304   22029835.6254   22029829.973
        49.0004         44.0004
 -21572911.80748 -16768911.00547  20811964.7684   20811970.9704   20811964.533
        51.0004         47.0004
 -13591851.70248 -10554930.08947  21939526.4974   21939532.8564   21939526.303
        49.0004         45.0004
  -7026884.87047  -5415679.84846  23732366.0364   23732373.6674   23732365.069
        46.0004         41.0004
 14  5 15  1 23 30.0000000  0  9G26G02G07G09G04G10G08G28G17
    169833.97947    153257.60746  24278825.1864   24278835.9504   24278824.285
        43.0004         38.0004
 -13003699.50948 -10074912.90847  21887629.5534   21887632.5834   21887628.828
        50.0004         45.0004
  -9460715.10647  -7357680.05447  22881335.6214   22881341.3704   22881335.024
        46.0004         42.0004
 -16961627.05048 -13203731.78448  20812200.8724   20812206.1584   20812200.880
        53.0004         48.0004
 -29039273.76949 -22144448.91548  20306699.7644   20306705.3414   20306699.443
        54.0004         49.0004
 -19412695.03448 -15114396.23347  22016461.2414   22016467.6524   22016462.057
        49.0004         44.0004
 -21498272.05048 -16710750.15347  20826167.7554   20826174.0714   20826168.378
        51.0004         47.0004
 -13645647.60348 -10596848.92047  21929289.7264   21929295.4134   21929289.600
        49.0004         45.0004
  -7000988.84147  -5395501.08046  23737293.5064   23737301.3904   23737293.493
        46.0004         41.0004
 14  5 15  1 24  0.0000000  0  9G26G02G07G09G04G10G08G28G17
    186252.86747    166051.67446  24281948.6904   24281959.4164   24281950.036
        43.0004         38.0004
 -13046506.43248 -10108268.88547  21879482.8814   21879486.8204   21879483.475
        50.0004         45.0004
  -9357870.28447  -7277541.26047  22900905.2014   22900911.6124   22900905.911
        46.0004         42.0004
 -16895690.54948 -13152352.70448  20824747.8814   20824753.5004   20824747.705
        53.0004         48.0004
 -29029429.64349 -22136778.15448  20308572.9364   20308578.6674   20308572.467
        54.0004         49.0004
 -19482855.04148 -15169066.33147  22003110.5254   22003117.1124   22003110.649
        49.0004         44.0004
 -21423175.92348 -16652233.69247  20840458.5894   20840464.8444   20840458.485
        51.0004         47.0004
 -13699265.05948 -10638628.70447  21919086.0394   21919092.8484   21919086.429
        50.0004         45.0004
  -6975307.51947  -5375489.61046  23742180.8064   23742187.3094   23742180.297
        46.0004         41.0004
 14  5 15  1 24 30.0000000  0  9G26G02G07G09G04G10G08G28G17
    202683.91947    178855.22646  24285076.9034   24285085.1194   24285075.910
        43.0004         38.0004
 -13088876.42948 -10141284.40247  21871420.8414   21871424.3074   21871420.370
        50.0004         45.0004
  -9254902.30147  -7197306.50247  22920498.8384   22920505.4924   22920500.180
        46.0004         42.0004
 -16829368.91748 -13100673.53148  20837368.9304   20837374.2784   20837368.667
        53.0004         48.0004
 -29019053.80749 -22128693.07048  20310547.4284   20310552.9024   20310547.002
        54.0004         49.0004
 -19552924.30448 -15223665.70947  21989776.3274   21989783.4694   21989777.196
        49.0004         44.0004
 -21347628.10648 -16593365.26047  20854834.7324   20854840.7604   20854835.030
        51.0004         47.0004
 -13752703.11748 -10680268.68947  21908916.6444   21908923.6124   21908917.350
        50.0004         45.0004
  -6949843.45747  -5355647.46046  23747024.8854   23747034.6294   23747025.805
        46.0004         41.0004
 14  5 15  1 25  0.0000000  0  9G26G02G07G09G04G10G08G28G17
    219125.45147    191666.95046  24288205.5834   24288214.5654   24288203.973
        42.0004         38.0004
 -13130808.25648 -10173958.49447  21863440.9994   21863444.9484   21863441.209
        50.0004         45.0004
  -9151813.28647  -7116977.44946  22940116.7444   22940123.2434   22940117.011
        46.0004         41.0004
 -16762664.45948 -13048696.04448  20850061.9684   20850067.5474   20850061.853
        53.0004         48.0004
 -29008146.82249 -22120194.10648  20312622.7164   20312628.7374   20312622.601
        54.0004         49.0004
 -19622899.64448 -15278191.90447  21976459.9974   21976467.1354   21976460.774
        49.0004         44.0004
 -21271631.13748 -16534146.84347  20869296.6484   20869302.6384   20869296.637
        51.0004         46.0004
 -13805958.12048 -10721766.03947  21898782.6674   21898789.3084   21898783.599
        50.0004         45.0004
  -6924596.61447  -5335974.56046  23751830.3234   23751838.4724   23751830.024
        46.0004         41.0004
 14  5 15  1 25 30.0000000  0  9G26G02G07G09G04G10G08G28G17
    235575.96347    204485.67146  24291335.6814   24291347.3184   24291335.352
        42.0004         38.0004
 -13172300.58648 -10206290.11147  21855545.0444   21855548.6674   21855545.308
        50.0004         45.0004
  -9048605.73047  -7036556.00746  22959756.6804   22959763.0054   22959756.563
        46.0004         41.0004
 -16695579.50248 -12996422.06248  20862827.5984   20862833.4564   20862827.862
        53.0004         48.0004
 -28996709.21349 -22111281.66848  20314799.2354   20314804.7124   20314798.840
        54.0004         49.0004
 -19692777.49448 -15332642.12547  21963163.3104   21963169.5654   21963163.865
        49.0004         45.0004
 -21195187.86048 -16474580.65347  20883843.0204   20883849.3054   20883843.254
        51.0004         46.0004
 -13859026.46948 -10763117.93447  21888684.1994   21888690.3984   21888684.802
        50.0004         45.0004
  -6899567.48747  -5316471.31246  23756592.6004   23756600.8734   23756592.968
        46.0004         41.0004
 14  5 15  1 26  0.0000000  0  9G26G02G07G09G04G10G08G28G17
    252031.87947    217308.59746  24294466.9994   24294477.3654   24294465.349
        42.0004         38.0004
 -13213354.19648 -10238279.88447  21847732.8704   21847736.9014   21847732.556
        50.0004         45.0004
  -8945283.89347  -6956045.51147  22979418.0234   22979425.4394   22979418.101
        46.0004         42.0004
 -16628118.61648 -12943855.15048  20875665.3904   20875670.7854   20875665.091
        53.0004         48.0004
 -28984743.52649 -22101957.74548  20317076.4934   20317082.0884   20317076.078
        54.0004         49.0004
 -19762556.52248 -15387015.34047  21949884.8374   21949891.6704   21949885.209
        49.0004         45.0004
 -21118302.42648 -16414669.91847  20898473.8504   20898479.7264   20898474.277
        51.0004         46.0004
 -13911906.71748 -10804323.27247  21878621.8864   21878627.2344   21878622.096
        50.0004         45.0004
  -6874758.15847  -5297139.33346  23761313.8664   23761321.6364   23761313.668
        46.0004         41.0004
 14  5 15  1 26 30.0000000  0  9G26G02G07G09G04G10G08G28G17
    268492.37947    230135.11046  24297599.3844   24297607.2644   24297599.905
        42.0004         38.0004
 -13253967.25548 -10269926.36547  21840004.2204   21840008.1744   21840004.823
        50.0004         45.0004
  -8841849.36147  -6875447.18146  22999101.9614   22999107.3194   22999101.128
        46.0004         41.0004
 -16560283.17548 -12890996.37048  20888573.7194   20888579.4414   20888573.838
        53.0004         48.0004
 -28972249.23149 -22092221.91948  20319454.0084   20319459.6934   20319453.743
        54.0004         49.0004
 -19832232.56048 -15441308.30247  21936625.8724   21936631.4444   21936626.135
        49.0004         45.0004
 -21040976.87148 -16354416.23047  20913188.6354   20913194.2204   20913188.752
        51.0004         46.0004
 -13964594.49148 -10845378.61647  21868595.5184   21868600.8294   21868595.359
        50.0004         45.0004
  -6850168.00047  -5277978.13846  23765993.3974   23766001.3284   23765993.270
        46.0004         41.0004
 14  5 15  1 27  0.0000000  0 10G26G02G07G09G04G05G10G08G28G17
    284954.58147    242962.93646  24300730.8854   24300739.7994   24300730.228
        42.0004         38.0004
 -13294139.77248 -10301229.57447  21832359.3884   21832363.6764   21832359.596
        50.0004         45.0004
  -8738305.85347  -6794763.96246  23018806.1194   23018810.9604   23018805.244
        46.0004         41.0004
 -16492076.84248 -12837848.58048  20901553.2594   20901558.7184   20901552.909
        53.0004         48.0004
 -28959228.56749 -22082075.93448  20321931.7064   20321937.4884   20321931.238
        54.0004         49.0004
  -1503366.18048  -1113379.36746  25104962.7404   25104969.3134   25104962.126
        50.0004         36.0004
 -19901803.40448 -15495519.28847  21923386.5084   21923393.6894   21923387.467
        49.0004         45.0004
 -20963214.92148 -16293822.49347  20927985.6724   20927992.3394   20927986.016
        51.0004         46.0004
 -14017087.29348 -10886282.04247  21858606.2954   21858612.3054   21858606.866
        50.0004         45.0004
  -6825798.43647  -5258988.82146  23770631.5984   23770639.1364   23770631.069
        46.0004         41.0004
 14  5 15  1 27 30.0000000  0 10G26G02G07G09G04G05G10G08G28G17
    301416.79047    255790.77646  24303863.8234   24303871.1194   24303863.534
        42.0004         37.0004
 -13333870.75248 -10332188.72547  21824799.3254   21824803.4464   21824799.230
        50.0004         46.0004
  -8634655.71047  -6713997.63946  23038529.0654   23038535.1074   23038529.237
        46.0004         41.0004
 -16423502.10448 -12784413.72448  20914602.2304   20914608.3054   20914602.485
        53.0004         48.0004
 -28945682.43049 -22071520.49548  20324509.9264   20324515.0594   20324509.358
        54.0004         49.0004
  -1588636.00947  -1179822.99346  25088735.0504   25088744.0284   25088735.085
        45.0004         37.0004
 -19971265.82148 -15549645.78747  21910168.4104   21910175.1254   21910169.370
        49.0004         45.0004
 -20885019.21248 -16232890.75747  20942866.3674   20942872.4804   20942866.401
        51.0004         46.0004
 -14069381.54848 -10927030.75547  21848654.8464   21848661.4214   21848655.146
        49.0004         45.0004
  -6801649.06947  -5240171.10146  23775226.8364   23775234.6364   23775225.613
        45.0004         41.0004
 14  5 15  1 28  0.0000000  0 10G26G02G07G09G04G05G10G08G28G17
    317875.81947    268616.12346  24306994.3284   24307004.0664   24306995.250
        42.0004         37.0004
 -13373160.28448 -10362803.88947  21817321.6934   21817326.2654   21817322.554
        50.0004         46.0004
  -8530902.96647  -6633151.36346  23058273.2954   23058279.1794   23058271.733
        46.0004         41.0004
 -16354562.80148 -12730694.78848  20927721.3864   20927727.1274   20927721.184
        53.0004         48.0004
 -28931612.70549 -22060557.06548  20327186.7674   20327192.3384   20327186.307
        54.0004         49.0004
  -1674093.43747  -1246412.84446  25072472.7704   25072482.7584   25072472.926
        42.0004         37.0004
 -20040617.96648 -15603686.35647  21896970.7514   21896977.8934   21896971.520
        49.0004         45.0004
 -20806394.12148 -16171624.44447  20957827.4854   20957834.1314   20957828.203
        51.0004         46.0004
 -14121475.34448 -10967623.26647  21838741.6304   21838747.5204   21838741.836
        49.0004         45.0004
  -6777722.28247  -5221526.82646  23779779.6024   23779787.5954   23779779.382
        45.0004         41.0004
 14  5 15  1 28 30.0000000  0 10G26G02G07G09G04G05G10G08G28G17
    334331.46247    281438.83246  24310126.3464   24310136.2294   24310127.024
        42.0004         38.0004
 -13412006.49248 -10393073.61147  21809930.2754   21809933.8314   21809930.293
        50.0004         46.0004
  -8427048.57547  -6552225.89746  23078035.6844   23078041.6584   23078034.860
        46.0004         41.0004
 -16285260.04248 -12676692.64448  20940908.8464   20940914.5374   20940908.981
        53.0004         48.0004
 -28917018.80449 -22049185.18648  20329963.9664   20329969.5814   20329963.674
        54.0004         49.0004
  -1759734.66447  -1313145.86146  25056177.8284   25056185.4514   25056176.308
        42.0004         37.0004
 -20109855.07448 -15657637.29947  21883796.0924   21883803.0404   21883796.641
        49.0004         45.0004
 -20727340.76148 -16110024.40947  20972870.9454   20972877.5924   20972871.390
        51.0004         46.0004
 -14173363.71648 -11008055.69947  21828867.4564   21828873.7574   21828867.936
        49.0004         45.0004
  -6754016.58647  -5203054.83046  23784291.3744   23784298.6424   23784290.114
        45.0004         41.0004
 14  5 15  1 29  0.0000000  0 10G26G02G07G09G04G05G10G08G28G17
    350779.82647    294255.87246  24313256.9284   24313266.3094   24313256.948
        42.0004         38.0004
 -13450410.73348 -10422998.95647  21802621.9504   21802626.6344   21802622.450
        50.0004         46.0004
  -8323096.91847  -6471224.63046  23097818.1584   23097822.8354   23097816.947
        46.0004         41.0004
 -16215598.62448 -12622411.02048  20954165.2284   20954170.9324   20954165.230
        53.0004         48.0004
 -28901903.80349 -22037407.26048  20332840.3854   20332846.2184   20332839.929
        54.0004         49.0004
  -1845560.75846  -1380022.99246  25039842.5634   25039850.0084   25039843.310
        41.0004         36.0004
 -20178976.11748 -15711497.79647  21870642.2514   21870649.3004   21870643.246
        50.0004         45.0004
 -20647864.02548 -16048094.48047  20987995.3074   20988001.6704   20987995.544
        51.0004         46.0004
 -14225045.58248 -11048327.22447  21819032.7224   21819039.1374   21819033.210
        49.0004         45.0004
  -6730534.46247  -5184757.03146  23788758.8184   23788767.7054   23788758.499
        46.0004         41.0004
 14  5 15  1 29 30.0000000  0 10G26G02G07G09G04G05G10G08G28G17
    367219.33847    307066.00646  24316386.1134   24316393.4414   24316385.259
        42.0004         38.0004
 -13488371.74448 -10452578.92347  21795397.8064   21795402.7894   21795398.510
        50.0004         46.0004
  -8219050.79447  -6390149.76346  23117616.4444   23117621.4864   23117616.329
        46.0004         41.0004
 -16145581.02848 -12567851.84148  20967489.1704   20967495.3454   20967489.066
        53.0004         48.0004
 -28886268.30949 -22025223.75548  20335815.7454   20335821.6914   20335815.388
        54.0004         49.0004
  -1931569.38146  -1447042.42346  25023477.4044   25023485.4574   25023476.899
        41.0004         37.0004
 -20247977.62048 -15765265.15147  21857511.8434   21857518.3814   21857512.066
        50.0004         45.0004
 -20567966.69848 -15985836.81747  21003199.2724   21003205.3494   21003199.228
        51.0004         46.0004
 -14276517.21848 -11088434.93147  21809238.1314   21809244.1914   21809238.373
        49.0004         45.0004
  -6707276.10247  -5166633.60346  23793185.0774   23793192.4224   23793184.647
        46.0004         41.0004
 14  5 15  1 30  0.0000000  0 10G26G02G07G09G04G05G10G08G28G17
    383647.39647    319867.21046  24319512.2884   24319519.1554   24319511.845
        43.0004         38.0004
 -13525889.13648 -10481813.21247  21788259.1544   21788262.8924   21788259.255
        50.0004         46.0004
  -8114913.29747  -6309003.68746  23137433.4274   23137438.9504   23137432.999
        46.0004         41.0004
 -16075210.66648 -12513017.77748  20980880.1524   20980886.1234   20980880.081
        53.0004         48.0004
 -28870114.38849 -22012636.28148  20338889.5084   20338895.5844   20338889.094
        54.0004         49.0004
  -2017759.27547  -1514203.12946  25007074.9924   25007083.3474   25007075.012
        42.0004         37.0004
 -20316857.02348 -15818937.36747  21844405.0484   21844410.8924   21844405.501
        50.0004         45.0004
 -20487652.58348 -15923254.38847  21018482.3774   21018488.7204   21018482.772
        51.0004         46.0004
 -14327776.08648 -11128376.85047  21799484.2324   21799489.7084   21799484.129
        50.0004         45.0004
  -6684242.39047  -5148685.22046  23797568.3314   23797576.1374   23797567.636
        46.0004         41.0004
 14  5 15  1 30 30.0000000  0 10G26G02G07G09G04G05G10G08G28G17
    400062.15647    332658.05146  24322634.6134   24322644.8414   24322634.517
        43.0004         38.0004
 -13562962.48948 -10510701.50047  21781204.0944   21781207.5554   21781204.568
        51.0004         46.0004
  -8010686.91947  -6227788.35246  23157267.1034   23157271.8994   23157267.317
        45.0004         41.0004
 -16004490.22148 -12457910.92148  20994337.8224   20994343.4484   20994337.859
        53.0004         48.0004
 -28853442.81849 -21999645.44448  20342062.0124   20342067.6744   20342061.548
        54.0004         49.0004
  -2104128.70847  -1581503.71846  24990638.6854   24990646.7244   24990638.085
        42.0004         37.0004
 -20385611.33948 -15872512.12347  21831321.7334   21831327.4344   21831321.732
        50.0004         45.0004
 -20406924.29048 -15860349.22547  21033844.3264   21033851.0484   21033844.556
        51.0004         46.0004
 -14378819.11948 -11168150.57847  21789770.4134   21789776.9654   21789770.581
        50.0004         45.0004
  -6661433.60547  -5130912.10846  23801908.9214   23801917.0334   23801907.944
        45.0004         41.0004
 14  5 15  1 31  0.0000000  0 10G26G02G07G09G04G05G10G08G28G17
    416460.18847    345435.86846  24325755.2704   24325765.0634   24325755.829
        43.0004         38.0004
 -13599592.79448 -10539244.55247  21774233.8064   21774237.6884   21774234.148
        51.0004         46.0004
  -7906375.96247  -6146507.11246  23177116.7514   23177122.6204   23177116.264
        45.0004         40.0004
 -15933424.13448 -12402534.72848  21007861.1424   21007866.7484   21007861.128
        53.0004         48.0004
 -28836256.41449 -21986253.44448  20345332.5994   20345337.9854   20345332.106
        54.0004         49.0004
  -2190677.34647  -1648943.97346  24974168.3854   24974177.8024   24974167.506
        42.0004         37.0004
 -20454238.93748 -15925988.14947  21818261.9974   21818267.0704   21818262.303
        50.0004         45.0004
 -20325786.74848 -15797125.18447  21049284.7854   21049291.1834   21049284.830
        51.0004         46.0004
 -14429644.45848 -11207754.68747  21780099.4814   21780104.3124   21780099.585
        50.0004         45.0004
  -6638851.81447  -5113315.87346  23806206.1724   23806213.5064   23806204.702
        45.0004         40.0004
 14  5 15  1 31 30.0000000  0 10G26G02G07G09G04G05G10G08G28G17
    432842.34447    358201.30146  24328873.2814   24328881.7324   24328872.220
        43.0004         38.0004
 -13635776.36648 -10567439.50447  21767348.3934   21767351.9464   21767348.413
        51.0004         46.0004
  -7801980.33747  -6065159.89946  23196983.2734   23196988.5304   23196982.808
        45.0004         41.0004
 -15862012.37748 -12346889.18148  21021450.3944   21021456.1114   21021450.672
        53.0004         48.0004
 -28818553.69149 -21972459.11348  20348701.3474   20348706.5374   20348700.840
        54.0004         49.0004
  -2277400.74446  -1716520.37746  24957666.9334   24957675.0044   24957665.165
        41.0004         37.0004
 -20522734.22948 -15979361.08147  21805227.8654   21805233.5414   21805227.716
        50.0004         45.0004
 -20244240.03048 -15733582.29347  21064802.2264   21064808.9784   21064802.331
        51.0004         46.0004
 -14480245.99548 -11247184.39647  21770469.8914   21770475.6854   21770470.003
        50.0004         45.0004
  -6616494.44547  -5095894.50646  23810459.7104   23810467.6944   23810459.686
        45.0004         40.0004
 14  5 15  1 32  0.0000000  0 10G26G02G07G09G04G05G10G08G28G17
    449203.66247    370950.53746  24331986.1594   24331994.3484   24331985.120
        42.0004         38.0004
 -13671515.96348 -10595288.50747  21760546.4984   21760550.8894   21760547.357
        51.0004         46.0004
  -7697505.60647  -5983751.05146  23216864.5594   23216869.3784   23216862.956
        45.0004         40.0004
 -15790260.84148 -12290978.86448  21035104.0684   21035110.0674   21035104.163
        53.0004         48.0004
 -28800338.75449 -21958265.65648  20352167.6664   20352173.1734   20352167.113
        54.0004         49.0004
  -2364300.34546  -1784234.07646  24941129.5494   24941138.0204   24941128.161
        41.0004         36.0004
 -20591096.72248 -16032630.53847  21792217.8354   21792224.7584   21792219.019
        50.0004         45.0004
 -20162290.24448 -15669725.32947  21080396.6744   21080403.0144   21080397.456
        51.0004         46.0004
 -14530623.75848 -11286439.73547  21760883.5814   21760889.3354   21760883.476
        50.0004         45.0004
  -6594365.12847  -5078650.85046  23814671.1954   23814679.1384   23814670.431
        45.0004         41.0004
 14  5 15  1 32 30.0000000  0 10G26G02G07G09G04G05G10G08G28G17
    465542.12147    383681.92346  24335094.3364   24335102.8864   24335095.402
        42.0004         37.0004
 -13706810.87948 -10622791.00147  21753830.9544   21753834.1234   21753830.638
        51.0004         46.0004
  -7592954.51047  -5902282.71146  23236758.8124   23236765.5874   23236757.853
        45.0004         40.0004
 -15718172.17448 -12234805.85648  21048822.1494   21048827.5524   21048822.446
        53.0004         48.0004
 -28781612.85949 -21943674.05248  20355730.9514   20355736.6044   20355730.553
        54.0004         49.0004
  -2451374.22646  -1852083.59846  24924560.8334   24924567.2704   24924559.064
        41.0004         37.0004
 -20659323.45048 -16085794.20447  21779235.4754   21779242.0574   21779235.791
        50.0004         45.0004
 -20079940.37048 -15605556.61047  21096067.6294   21096073.5924   21096067.834
        51.0004         46.0004
 -14580774.62248 -11325518.26947  21751339.5384   21751345.0874   21751339.825
        50.0004         45.0004
  -6572464.20347  -5061585.15946  23818838.8054   23818845.7494   23818837.924
        45.0004         41.0004
 14  5 15  1 33  0.0000000  0 10G26G02G07G09G04G05G10G08G28G17
    481857.64547    396395.44746  24338198.7464   24338207.2094   24338198.942
        42.0004         37.0004
 -13741658.78248 -10649945.18047  21747199.8134   21747203.4394   21747200.085
        51.0004         46.0004
  -7488328.05547  -5820755.63246  23256669.4744   23256673.3764   23256668.374
        45.0004         41.0004
 -15645747.49048 -12178371.00848  21062604.1984   21062609.4314   21062604.247
        52.0004         48.0004
 -28762375.68348 -21928684.04448  20359391.2864   20359396.9704   20359391.187
        53.0004         49.0004
  -2538618.88446  -1920066.21546  24907957.1094   24907965.9194   24907956.824
        41.0004         37.0004
 -20727409.58548 -16138848.31747  21766279.1784   21766285.2544   21766279.330
        50.0004         45.0004
 -19997192.04048 -15541077.40947  21111813.9254   21111820.7034   21111814.351
        51.0004         46.0004
 -14630693.48548 -11364416.02547  21741840.2714   21741846.3754   21741840.403
        50.0004         45.0004
  -6550790.19147  -5044696.28346  23822962.2684   23822970.6014   23822962.467
        45.0004         41.0004
 14  5 15  1 33 30.0000000  0 10G26G02G07G09G04G05G10G08G28G17
    498147.62747    409089.05846  24341299.6594   24341307.6744   24341298.981
        42.0004         38.0004
 -13776060.15148 -10676751.41447  21740652.8154   21740656.3114   21740653.181
        51.0004         46.0004
  -7383629.41447  -5739172.29646  23276591.6324   23276597.6824   23276591.664
        45.0004         41.0004
 -15572990.45148 -12121677.18548  21076448.7944   21076455.0984   21076449.207
        52.0004         48.0004
 -28742628.95348 -21913296.98848  20363149.4504   20363155.1904   20363148.818
        53.0004         49.0004
  -2626033.46146  -1988181.20146  24891322.8174   24891331.2624   24891321.419
        41.0004         37.0004
 -20795352.73548 -16191791.02347  21753350.1294   21753356.0034   21753350.293
        50.0004         45.0004
 -19914048.69648 -15476290.41047  21127635.7864   21127641.5794   21127635.934
        51.0004         46.0004
 -14680377.80348 -11403131.02247  21732384.7594   21732391.8194   21732385.554
        50.0004         45.0004
  -6529343.82547  -5027984.79446  23827044.1474   23827052.2954   23827043.416
        45.0004         41.0004
 14  5 15  1 34  0.0000000  0 10G26G02G07G09G04G05G10G08G28G17
    514408.01347    421759.61346  24344393.5484   24344401.2664   24344393.726
        42.0004         38.0004
 -13810016.23648 -10703210.67347  21734191.2104   21734195.0924   21734191.890
        51.0004         46.0004
  -7278863.39247  -5657536.46746  23296527.6764   23296533.8594   23296527.698
        45.0004         40.0004
 -15499905.98648 -12064728.22248  21090356.5584   21090362.3684   21090356.557
        52.0004         48.0004
 -28722376.33748 -21897515.73148  20367003.1584   20367008.4594   20367002.895
        53.0004         49.0004
  -2713618.07247  -2056428.69346  24874655.9424   24874662.9924   24874656.119
        42.0004         37.0004
 -20863152.08748 -16244621.68047  21740447.7964   21740453.7424   21740448.573
        50.0004         45.0004
 -19830515.70848 -15411199.78947  21143531.6164   21143537.2664   21143531.908
        51.0004         46.0004
 -14729826.71648 -11441662.59747  21722975.5544   21722981.8464   21722976.221
        50.0004         45.0004
  -6508128.32347  -5011453.20046  23831081.0554   23831089.8434   23831080.679
        45.0004         41.0004
 14  5 15  1 34 30.0000000  0 10G26G02G07G09G04G05G10G08G28G17
    530638.17647    434406.63546  24347483.0324   24347491.2594   24347481.146
        42.0004         38.0004
 -13843525.50848 -10729321.75947  21727815.0324   21727818.2294   21727814.881
        51.0004         46.0004
  -7174031.46747  -5575849.26446  23316476.5044   23316483.0864   23316476.532
        45.0004         40.0004
 -15426495.73548 -12007525.40548  21104326.1464   21104331.9564   21104326.133
        52.0004         48.0004
 -28701617.90048 -21881340.33248  20370953.4834   20370959.0904   20370952.931
        53.0004         49.0004
  -2801369.63446  -2124806.25246  24857957.5694   24857963.8464   24857958.114
        41.0004         37.0004
 -20930803.38548 -16297336.97847  21727574.7434   21727580.6264   21727574.702
        50.0004         45.0004
 -19746594.96748 -15345807.03147  21159500.9584   21159507.1624   21159501.293
        51.0004         46.0004
 -14779035.54948 -11480007.08747  21713610.5724   21713617.6124   21713611.721
        50.0004         45.0004
  -6487142.26447  -4995100.38146  23835075.2654   23835082.3324   23835074.406
        45.0004         41.0004
 14  5 15  1 35  0.0000000  0 10G26G02G07G09G04G05G10G08G28G17
    546835.65747    447028.17146  24350564.6794   24350573.3244   24350564.408
        42.0004         38.0004
 -13876588.20448 -10755084.87247  21721522.9284   21721526.2104   21721523.510
        51.0004         46.0004
  -7069136.78747  -5494113.18746  23336438.3124   23336443.4644   23336437.199
        45.0004         40.0004
 -15352762.97848 -11950071.28448  21118356.9564   21118362.6644   21118356.966
        52.0004         48.0004
 -28680355.37048 -21864772.13448  20374999.4044   20375005.0354   20374998.901
        53.0004         49.0004
  -2889286.90946  -2193312.97846  24841229.0844   24841234.7534   24841227.776
        41.0004         37.0004
 -20998304.02448 -16349934.88147  21714729.6114   21714735.7014   21714729.678
        50.0004         45.0004
 -19662290.18548 -15280115.02547  21175543.7574   21175550.0264   21175544.154
        50.0004         46.0004
 -14828001.87748 -11518162.61347  21704293.9694   21704299.4134   21704294.323
        50.0004         45.0004
  -6466386.55247  -4978927.05446  23839024.1534   23839032.5094   23839023.675
        45.0004         41.0004
 14  5 15  1 35 30.0000000  0 10G26G02G07G09G04G05G10G08G28G17
    562992.11947    459617.76346  24353637.6924   24353646.2964   24353637.908
        42.0004         38.0004
 -13909210.05148 -10780504.47647  21715315.6374   21715319.2514   21715315.332
        51.0004         46.0004
  -6964188.25447  -5412335.14546  23356407.7664   23356414.3694   23356409.340
        45.0004         40.0004
 -15278717.10548 -11892373.18448  21132447.2924   21132453.5714   21132447.382
        52.0004         48.0004
 -28658596.67048 -21847817.30248  20379140.0134   20379145.7004   20379139.683
        53.0004         49.0004
  -2977374.51847  -2261952.43046  24824464.7904   24824470.1044   24824464.918
        42.0004         37.0004
 -21065657.21648 -16402417.89247  21701912.7264   21701918.8334   21701912.835
        50.0004         45.0004
 -19577610.71048 -15214131.05247  21191657.8274   21191663.9044   21191658.111
        50.0004         46.0004
 -14876728.69648 -11556131.51347  21695020.8864   21695027.5144   21695021.151
        50.0004         45.0004
  -6445867.81647  -4962938.38746  23842928.5754   23842936.2704   23842928.618
        45.0004         41.0004
 14  5 15  1 36  0.0000000  0 10G26G02G07G09G04G05G10G08G28G17
    579119.72747    472184.87346  24356707.0234   24356716.2504   24356707.233
        42.0004         38.0004
 -13941376.77748 -10805569.43147  21709193.7254   21709198.3974   21709194.313
        51.0004         46.0004
  -6859174.47747  -5330506.24946  23376392.1054   23376399.0274   23376392.235
        45.0004         40.0004
 -15204346.91348 -11834422.37748  21146600.0594   21146605.5104   21146599.734
        52.0004         48.0004
 -28636329.18348 -21830466.02448  20383377.4154   20383382.6044   20383377.032
        53.0004         49.0004
  -3065616.58346  -2330712.24946  24807672.4174   24807679.1224   24807672.912
        41.0004         37.0004
 -21132845.89948 -16454772.71947  21689126.3484   21689133.4294   21689127.604
        50.0004         45.0004
 -19492545.76648 -15147846.71147  21207845.3714   21207851.4014   21207845.510
        50.0004         46.0004
 -14925198.83648 -11593900.41147  21685797.8004   21685804.4824   21685798.209
        50.0004         46.0004
  -6425572.52947  -4947123.82946  23846790.6594   23846799.0234   23846790.186
        45.0004         41.0004
 14  5 15  1 36 30.0000000  0 10G26G02G07G09G04G05G10G08G28G17
    595205.98247    484719.76446  24359767.6284   24359776.8874   24359767.555
        42.0004         38.0004
 -13973098.34548 -10830287.51747  21703157.4584   21703161.3404   21703157.960
        51.0004         46.0004
  -6754108.83347  -5248636.95146  23396384.9884   23396392.2494   23396385.290
        45.0004         40.0004
 -15129665.89048 -11776229.36848  21160811.4174   21160816.7464   21160810.760
        52.0004         48.0004
 -28613564.89348 -21812727.62048  20387709.1744   20387715.1614   20387708.797
        53.0004         49.0004
  -3154021.97547  -2399599.31746  24790849.3394   24790855.0904   24790849.651
        42.0004         37.0004
 -21199877.51248 -16507005.16247  21676370.5894   21676377.6204   21676371.603
        50.0004         45.0004
 -19407108.98048 -15081272.63047  21224103.1254   21224109.8414   21224103.705
        50.0004         46.0004
 -14973419.83148 -11631475.17447  21676621.1084   21676627.3504   21676621.427
        50.0004         46.0004
  -6405511.44547  -4931491.76746  23850608.9264   23850616.2014   23850608.142
        46.0004         41.0004
 14  5 15  1 37  0.0000000  0 10G26G02G07G09G04G05G10G08G28G17
    611253.44447    497224.38746  24362822.0594   24362830.3014   24362821.842
        42.0004         38.0004
 -14004370.33248 -10854655.27847  21697207.2304   21697210.2254   21697206.968
        51.0004         46.0004
  -6648989.31147  -5166725.65146  23416389.7464   23416396.3244   23416389.107
        45.0004         40.0004
 -15054672.44548 -11717792.91748  21175081.8874   21175087.4634   21175082.005
        52.0004         48.0004
 -28590300.68848 -21794599.67048  20392136.4274   20392141.7874   20392136.031
        53.0004         49.0004
  -3242584.07446  -2468608.53246  24773995.9854   24774002.5444   24773995.628
        41.0004         37.0004
 -21266744.19348 -16559109.08947  21663646.1074   21663653.3734   21663647.383
        50.0004         45.0004
 -19321298.93348 -15014407.69947  21240432.6034   21240439.1444   21240432.679
        50.0004         46.0004
 -15021384.12948 -11668849.90147  21667494.1384   21667500.0624   21667494.228
        50.0004         45.0004
  -6385680.44247  -4916038.99046  23854381.5694   23854389.8344   23854382.033
        46.0004         41.0004
 14  5 15  1 37 30.0000000  0 10G26G02G07G09G04G05G10G08G28G17
    627256.63647    509694.49546  24365866.9864   24365876.1164   24365866.074
        42.0004         38.0004
 -14035195.59548 -10878674.94247  21691341.1494   21691344.0294   21691341.537
        51.0004         46.0004
  -6543822.20547  -5084777.27246  23436402.9764   23436408.0044   23436401.763
        45.0004         40.0004
 -14979373.08248 -11659118.08347  21189410.9814   21189416.1284   21189410.741
        52.0004         47.0004
 -28566541.59148 -21776086.08948  20396657.7794   20396663.1444   20396657.263
        53.0004         49.0004
  -3331304.85246  -2537741.37146  24757112.5674   24757119.9004   24757112.118
        41.0004         37.0004
 -21333446.75848 -16611085.12647  21650953.7124   21650960.2004   21650954.163
        50.0004         45.0004
 -19235122.51048 -14947257.28147  21256831.3844   21256837.9174   21256831.321
        50.0004         46.0004
 -15069091.94848 -11706024.79147  21658415.6094   21658421.4424   21658415.849
        50.0004         45.0004
  -6366083.26547  -4900768.40246  23858110.7804   23858118.9794   23858111.165
        46.0004         41.0004
 14  5 15  1 38  0.0000000  0 10G26G02G07G09G04G05G10G08G28G17
    643214.36847    522129.24246  24368903.9354   24368912.8254   24368904.256
        43.0004         38.0004
 -14065573.43548 -10902345.96747  21685560.2904   21685563.4284   21685560.065
        51.0004         46.0004
  -6438609.20247  -5002793.13346  23456423.3774   23456428.3074   23456423.269
        44.0004         40.0004
 -14903769.95848 -11600206.56647  21203797.6004   21203803.3714   21203798.002
        52.0004         47.0004
 -28542288.94748 -21757187.93348  20401272.7064   20401278.1094   20401272.334
        53.0004         49.0004
  -3420181.83646  -2606995.94746  24740199.4604   24740206.0964   24740199.886
        41.0004         36.0004
 -21399981.39848 -16662930.30947  21638292.7154   21638299.1624   21638293.487
        50.0004         45.0004
 -19148582.11148 -14879823.25547  21273299.7644   21273305.4274   21273299.576
        50.0004         46.0004
 -15116539.75648 -11742997.06547  21649387.1464   21649391.7904   21649387.024
        50.0004         45.0004
  -6346719.47647  -4885679.67946  23861795.9884   23861803.9174   23861795.688
        45.0004         41.0004
 14  5 15  1 38 30.0000000  0 10G26G02G07G09G04G05G10G08G28G17
    659124.98247    534527.23346  24371932.2224   24371939.7644   24371931.083
        43.0004         38.0004
 -14095503.27848 -10925667.90447  21679864.3004   21679868.4194   21679865.172
        51.0004         46.0004
  -6333352.94047  -4920775.29446  23476453.7774   23476458.8584   23476453.280
        44.0004         40.0004
 -14827865.96848 -11541060.60447  21218241.8804   21218247.5044   21218241.517
        52.0004         47.0004
 -28517543.66748 -21737905.89848  20405981.4244   20405987.0724   20405981.258
        53.0004         49.0004
  -3509213.03246  -2676370.68646  24723257.9384   24723264.3824   24723256.920
        41.0004         37.0004
 -21466344.71248 -16714641.99247  21625664.2634   21625670.7214   21625664.796
        50.0004         46.0004
 -19061680.90348 -14812108.06847  21289836.5264   21289843.1514   21289836.678
        50.0004         45.0004
 -15163723.66948 -11779763.71947  21640407.9454   21640413.4754   21640407.665
        50.0004         45.0004
  -6327588.69047  -4870772.51346  23865436.1774   23865444.1164   23865435.355
        45.0004         41.0004
 14  5 15  1 39  0.0000000  0 10G26G02G07G09G04G05G10G08G28G17
    674986.35647    546886.86446  24374950.9604   24374957.6334   24374950.067
        43.0004         38.0004
 -14124985.14748 -10948640.76447  21674254.7844   21674258.4424   21674254.504
        51.0004         46.0004
  -6228056.48447  -4838726.11346  23496491.2114   23496496.9304   23496489.929
        44.0004         40.0004
 -14751664.03948 -11481682.48147  21232742.8684   21232748.0844   21232742.429
        52.0004         47.0004
 -28492307.71948 -21718241.52548  20410784.1454   20410789.9234   20410783.615
        53.0004         49.0004
  -3598396.69146  -2745864.19546  24706286.5784   24706293.4844   24706285.194
        41.0004         37.0004
 -21532533.97948 -16766218.04547  21613068.5514   21613075.8274   21613069.167
        50.0004         46.0004
 -18974422.45448 -14744114.51147  21306441.1874   21306447.6414   21306441.056
        50.0004         45.0004
 -15210641.34448 -11816322.90147  21631479.6844   21631484.8924   21631479.806
        50.0004         46.0004
  -6308692.25847  -4856047.94946  23869032.3814   23869040.0614   23869032.027
        45.0004         41.0004
 14  5 15  1 39 30.0000000  0 10G26G02G07G09G04G05G10G08G28G17
    690796.86047    559206.85746  24377958.5554   24377965.5684   24377957.836
        43.0004         38.0004
 -14154018.41848 -10971264.08047  21668729.7854   21668733.2344   21668729.843
        51.0004         46.0004
  -6122722.28847  -4756647.53546  23516535.1564   23516540.8524   23516534.419
        44.0004         40.0004
 -14675166.76748 -11422074.22747  21247299.2884   21247304.6184   21247299.365
        52.0004         47.0004
 -28466582.20748 -21698195.67748  20415679.0334   20415684.4834   20415678.745
        53.0004         49.0004
  -3687730.45746  -2815474.72646  24689286.5204   24689294.2094   24689286.632
        41.0004         37.0004
 -21598545.61148 -16817655.68447  21600507.7414   21600513.5054   21600507.834
        50.0004         46.0004
 -18886809.35948 -14675844.60947  21323112.7274   21323119.8534   21323113.650
        50.0004         45.0004
 -15257289.24348 -11852671.87847  21622602.3504   21622608.9954   21622602.968
        50.0004         46.0004
  -6290029.82947  -4841505.73746  23872583.6404   23872590.8404   23872583.526
        45.0004         40.0004
 14  5 15  1 40  0.0000000  0 10G26G02G07G09G04G05G10G08G28G17
    706552.55747    571484.17446  24380957.1074   24380964.4894   24380957.079
        43.0004         38.0004
 -14182604.80048 -10993539.16247  21663289.6174   21663293.2924   21663289.995
        51.0004         46.0004
  -6017353.93247  -4674542.34246  23536586.4224   23536591.4614   23536585.058
        44.0004         40.0004
 -14598379.36248 -11362239.89647  21261911.3704   21261917.5744   21261911.552
        52.0004         47.0004
 -28440370.91148 -21677771.29248  20420667.3044   20420672.8584   20420666.934
        53.0004         49.0004
  -3777214.83347  -2885202.56646  24672258.3894   24672265.2024   24672257.353
        42.0004         37.0004
 -21664378.51348 -16868954.06347  21587979.7694   21587986.4384   21587980.339
        50.0004         46.0004
 -18798847.10848 -14607302.63147  21339851.9774   21339857.9994   21339852.104
        50.0004         45.0004
 -15303666.02548 -11888809.58747  21613777.6574   21613782.8804   21613777.442
        50.0004         45.0004
  -6271603.42347  -4827147.42746  23876089.5524   23876097.0484   23876089.478
        45.0004         40.0004
 14  5 15  1 40 30.0000000  0 10G26G02G07G09G04G05G10G08G28G17
    722254.12647    583719.27446  24383944.8304   24383952.9844   24383943.674
        43.0004         38.0004
 -14210741.77448 -11015464.06447  21657935.4954   21657939.0194   21657935.796
        51.0004         46.0004
  -5911951.97247  -4592410.96446  23556643.4444   23556648.7874   23556642.868
        44.0004         40.0004
 -14521302.22648 -11302179.80047  21276578.4914   21276584.5754   21276578.971
        52.0004         47.0004
 -28413672.74248 -21656967.52648  20425747.3864   20425752.9994   20425747.087
        53.0004         49.0004
  -3866845.07847  -2955044.04846  24655201.5884   24655208.3364   24655200.613
        42.0004         37.0004
 -21730027.10748 -16920108.81747  21575487.0844   21575493.4854   21575487.503
        50.0004         46.0004
 -18710536.27348 -14538489.03147  21356657.3334   21356662.7664   21356657.493
        50.0004         45.0004
 -15349766.03848 -11924731.63647  21605004.8684   21605010.9564   21605005.335
        50.0004         46.0004
  -6253410.92947  -4812971.38746  23879552.4864   23879559.3384   23879550.925
        45.0004         40.0004
 14  5 15  1 41  0.0000000  0 10G26G02G07G09G04G05G10G08G28G17
    737898.35647    595909.71646  24386921.8024   24386929.9394   24386921.498
        43.0004         38.0004
 -14238430.55448 -11037039.72547  21652666.5034   21652670.7264   21652666.878
        51.0004         46.0004
  -5806520.46647  -4510256.55746  23576706.3154   23576711.9574   23576706.113
        44.0004         40.0004
 -14443939.50348 -11241897.16147  21291300.3174   21291306.0444   21291300.353
        52.0004         47.0004
 -28386491.04548 -21635786.98748  20430920.0724   20430925.7424   20430919.718
        53.0004         49.0004
  -3956620.82147  -3024998.94146  24638119.2534   24638124.9394   24638117.276
        42.0004         37.0004
 -21795489.81048 -16971118.71147  21563029.7424   21563036.6134   21563030.424
        50.0004         46.0004
 -18621881.26748 -14469407.24347  21373527.9724   21373533.6644   21373528.176
        50.0004         45.0004
 -15395587.70348 -11960436.78447  21596284.9734   21596290.9514   21596285.472
        50.0004         46.0004
  -6235453.74247  -4798978.71446  23882969.4774   23882974.7874   23882968.731
        45.0004         40.0004
 14  5 15  1 41 30.0000000  0 10G26G02G07G09G04G05G10G08G28G17
    753481.53547    608052.56446  24389886.2714   24389894.6294   24389885.953
        43.0004         38.0004
 -14265672.80548 -11058267.44247  21647482.5354   21647485.7344   21647482.696
        51.0004         46.0004
  -5701063.86747  -4428082.61046  23596773.0484   23596779.3224   23596773.886
        44.0004         40.0004
 -14366295.97148 -11181395.71947  21306075.3954   21306081.3644   21306075.588
        52.0004         47.0004
 -28358828.94648 -21614232.10748  20436184.1084   20436189.5434   20436183.629
        53.0004         49.0004
  -4046541.54847  -3095066.83046  24621006.5854   24621013.6244   24621006.155
        42.0004         38.0004
 -21860765.00848 -17021982.50147  21550608.2464   21550615.0844   21550608.974
        50.0004         46.0004
 -18532887.20348 -14400061.25347  21390461.8804   21390468.8164   21390462.464
        50.0004         45.0004
 -15441129.87648 -11995924.15147  21587619.3864   21587625.5294   21587619.353
        50.0004         46.0004
  -6217733.78347  -4785170.90146  23886339.6284   23886347.0414   23886340.514
        45.0004         40.0004
 14  5 15  1 42  0.0000000  0 10G26G02G07G09G04G05G10G08G28G17
    769003.34147    620147.59946  24392840.1844   24392848.5104   24392840.284
        43.0004         39.0004
 -14292466.98548 -11079146.00247  21642383.9794   21642386.8264   21642384.093
        51.0004         46.0004
  -5595583.22047  -4345889.91946  23616847.2474   23616851.6974   23616846.147
        44.0004         39.0004
 -14288373.09648 -11120676.60547  21320903.7944   21320909.9584   21320904.117
        52.0004         47.0004
 -28330686.84648 -21592303.19548  20441539.1614   20441545.1934   20441538.612
        53.0004         49.0004
  -4136604.32447  -3165245.38846  24603868.3994   24603874.6434   24603867.113
        42.0004         37.0004
 -21925848.35748 -17072696.78447  21538223.6554   21538229.9414   21538224.087
        50.0004         46.0004
 -18443556.07448 -14330452.61747  21407461.4014   21407468.2174   21407461.817
        49.0004         45.0004
 -15486387.68048 -12031189.92747  21579006.5914   21579012.3784   21579006.805
        50.0004         46.0004
  -6200249.78147  -4771546.93746  23889668.0784   23889676.8864   23889667.610
        44.0004         40.0004
 14  5 15  1 42 30.0000000  0 10G26G02G07G09G04G05G10G08G28G17
    784461.91447    632193.38746  24395782.2374   24395790.1024   24395781.768
        43.0004         39.0004
 -14318812.72348 -11099675.14047  21637369.7874   21637374.4624   21637370.421
        51.0004         46.0004
  -5490080.93047  -4263680.36346  23636923.5764   23636928.6664   23636922.585
        44.0004         40.0004
 -14210173.93648 -11059742.20347  21335784.7294   21335790.0764   21335784.347
        52.0004         47.0004
 -28302066.55448 -21570001.67148  20446985.1994   20446991.1574   20446985.212
        53.0004         49.0004
  -4226807.39947  -3235533.30146  24586701.7224   24586711.1554   24586702.236
        42.0004         38.0004
 -21990736.70348 -17123259.12147  21525875.3784   21525882.0524   21525876.300
        50.0004         46.0004
 -18353891.10048 -14260583.83447  21424523.2184   21424530.6324   21424524.256
        49.0004         45.0004
 -15531358.20248 -12066231.85847  21570449.4824   21570454.9944   21570449.473
        50.0004         46.0004
  -6183002.23447  -4758107.22546  23892950.5774   23892957.7614   23892950.201
        45.0004         40.0004
 14  5 15  1 43  0.0000000  0 10G26G02G07G09G04G05G10G08G28G17
    799854.01447    644187.34946  24398710.1294   24398718.4014   24398710.916
        43.0004         38.0004
 -14344711.38248 -11119855.89747  21632442.1244   21632445.6004   21632442.258
        51.0004         46.0004
  -5384560.76047  -4181456.86346  23657003.7114   23657008.7224   23657002.851
        44.0004         40.0004
 -14131702.39348 -10998595.55547  21350717.6304   21350723.1914   21350717.415
        52.0004         47.0004
 -28272970.91648 -21547329.74148  20452522.0714   20452527.3734   20452521.759
        53.0004         49.0004
  -4317149.43347  -3305929.53646  24569510.8414   24569517.8244   24569510.318
        42.0004         38.0004
 -22055428.07148 -17173667.95247  21513565.4774   21513571.9824   21513565.729
        50.0004         46.0004
 -18263896.92448 -14190458.53447  21441649.3304   21441655.9614   21441649.364
        49.0004         45.0004
 -15576039.53948 -12101048.45147  21561946.9014   21561952.7174   21561946.802
        50.0004         46.0004
  -6165992.33947  -4744852.68846  23896186.1104   23896195.0304   23896186.307
        44.0004         40.0004
 14  5 15  1 43 30.0000000  0 11G26G02G30G07G09G04G05G10G08G28G17
    815179.72147    656129.59546  24401626.2194   24401633.9444   24401626.667
        43.0004         38.0004
 -14370161.19248 -11139686.90847  21627598.9164   21627602.9514   21627599.257
        51.0004         46.0004
   -473697.74748   -377468.41547  21626210.7954   21626218.5064   21626210.802
        52.0004         46.0004
  -5279023.75847  -4099220.26146  23677085.7344   23677092.1894   23677085.964
        44.0004         40.0004
 -14052959.71848 -10937237.63747  21365701.5524   21365707.4254   21365701.593
        52.0004         47.0004
 -28243399.78348 -21524287.30248  20458149.3844   20458154.9554   20458148.909
        53.0004         49.0004
  -4407627.26347  -3376431.59646  24552293.5834   24552300.8934   24552293.206
        42.0004         38.0004
 -22119917.61948 -17223919.51947  21501293.3074   21501299.8224   21501293.866
        51.0004         46.0004
 -18173574.71748 -14120077.62547  21458836.9404   21458843.6574   21458837.937
        49.0004         45.0004
 -15620426.96348 -12135636.00747  21553499.0334   21553505.0294   21553499.719
        50.0004         46.0004
  -6149218.55847  -4731782.14646  23899378.2124   23899385.7644   23899377.944
        44.0004         40.0004
 14  5 15  1 44  0.0000000  0 11G26G02G30G07G09G04G05G10G08G28G17
    830434.94047    668016.87346  24404529.8844   24404538.0254   24404529.595
        43.0004         38.0004
 -14395164.12248 -11159169.70047  21622841.2924   21622844.8914   21622841.256
        51.0004         46.0004
   -393961.15448   -315336.00347  21641384.2144   21641391.9244   21641383.837
        51.0004         46.0004
  -5173474.49847  -4016974.11246  23697170.9804   23697176.9674   23697170.799
        44.0004         39.0004
 -13973950.92048 -10875672.34947  21380736.5344   21380742.0354   21380736.428
        52.0004         47.0004
 -28213357.19048 -21500877.48448  20463866.1654   20463872.0634   20463865.960
        53.0004         49.0004
  -4498240.83347  -3447039.41246  24535051.2314   24535057.2484   24535049.059
        42.0004         38.0004
 -22184204.56348 -17274013.21147  21489060.0684   21489066.5424   21489060.565
        51.0004         46.0004
 -18082929.94248 -14049445.35947  21476086.0204   21476092.5954   21476086.256
        49.0004         45.0004
 -15664519.48148 -12169993.77747  21545109.1824   21545114.9304   21545109.355
        50.0004         46.0004
  -6132682.89347  -4718897.14746  23902525.2824   23902533.4334   23902524.579
        44.0004         40.0004
 14  5 15  1 44 30.0000000  0 11G26G02G30G07G09G04G05G10G08G28G17
    845618.93347    679848.68846  24407418.1974   24407427.9644   24407418.271
        43.0004         38.0004
 -14419719.33248 -11178303.61847  21618168.0704   21618172.2254   21618167.992
        51.0004         46.0004
   -313955.81348   -252994.17047  21656608.5694   21656616.3704   21656608.616
        51.0004         46.0004
  -5067914.33747  -3934719.44946  23717259.3364   23717263.3444   23717258.060
        44.0004         39.0004
 -13894678.05648 -10813901.29947  21395822.0004   21395827.1604   21395821.672
        52.0004         47.0004
 -28182843.99448 -21477100.97048  20469672.3894   20469678.4584   20469672.219
        53.0004         49.0004
  -4588987.09247  -3517750.61146  24517782.4324   24517789.6074   24517780.925
        42.0004         38.0004
 -22248284.75948 -17323945.79847  21476866.2234   21476872.8504   21476866.553
        51.0004         46.0004
 -17991964.98648 -13978563.59247  21493396.0964   21493402.9624   21493396.660
        49.0004         45.0004
 -15708312.94948 -12204118.51347  21536775.8844   21536781.3914   21536775.562
        50.0004         46.0004
  -6116384.60947  -4706197.11746  23905627.3004   23905633.2204   23905626.192
        44.0004         39.0004
 14  5 15  1 45  0.0000000  0 11G26G02G30G07G09G04G05G10G08G28G17
    860728.79347    691622.73646  24410294.0404   24410302.5834   24410293.604
        42.0004         38.0004
 -14443827.63248 -11197089.29447  21613580.1614   21613583.5564   21613580.954
        51.0004         46.0004
   -233685.43548   -190445.81247  21671884.0774   21671891.7204   21671883.597
        51.0004         46.0004
  -4962346.68947  -3852458.96346  23737348.1894   23737352.9784   23737346.942
        44.0004         39.0004
 -13815145.14748 -10751927.61447  21410955.8734   21410962.3794   21410955.949
        52.0004         47.0004
 -28151862.95348 -21452959.89848  20475568.0994   20475573.9144   20475568.033
        53.0004         49.0004
  -4679864.85147  -3588564.27946  24500487.9684   24500494.8084   24500487.352
        42.0004         38.0004
 -22312155.79448 -17373715.39747  21464711.2654   21464718.1794   21464712.216
        51.0004         46.0004
 -17900683.75348 -13907435.37847  21510766.5484   21510772.7014   21510767.441
        49.0004         44.0004
 -15751805.27948 -12238008.59247  21528499.4324   21528505.2444   21528499.525
        50.0004         46.0004
  -6100324.67047  -4693682.81346  23908682.9214   23908689.8514   23908681.534
        44.0004         39.0004
 14  5 15  1 45 30.0000000  0 11G26G02G30G07G09G04G05G10G08G28G17
    875762.72947    703337.58146  24413154.6324   24413163.2734   24413154.252
        42.0004         37.0004
 -14467489.17248 -11215526.85047  21609078.2634   21609081.5434   21609077.895
        51.0004         46.0004
   -153152.80448   -127693.10447  21687208.6534   21687216.1624   21687208.299
        51.0004         46.0004
  -4856774.44047  -3770194.88746  23757436.7094   23757443.4424   23757436.764
        44.0004         39.0004
 -13735355.41648 -10689753.82147  21426140.0844   21426145.8624   21426139.832
        52.0004         47.0004
 -28120415.89548 -21428455.69848  20481552.4204   20481558.1114   20481552.082
        53.0004         49.0004
  -4770872.21847  -3659478.93446  24483170.9614   24483177.4394   24483169.457
        42.0004         38.0004
 -22375814.76948 -17423319.75147  21452597.8584   21452604.1944   21452598.193
        51.0004         46.0004
 -17809089.64648 -13836063.36347  21528197.2694   21528202.9854   21528196.989
        49.0004         44.0004
 -15794993.70448 -12271661.87147  21520280.2914   21520286.4794   21520280.406
        50.0004         46.0004
  -6084503.30747  -4681354.41246  23911693.2304   23911701.6164   23911692.971
        44.0004         39.0004
 14  5 15  1 46  0.0000000  0 11G26G02G30G07G09G04G05G10G08G28G17
    890720.25447    714992.91346  24416000.1784   24416008.7114   24416001.384
        42.0004         38.0004
 -14490702.63048 -11233615.24647  21604660.6204   21604663.8174   21604660.412
        51.0004         46.0004
    -72359.28948    -64737.10747  21702582.4674   21702590.6314   21702582.876
        51.0004         46.0004
  -4751198.79347  -3687928.16446  23777527.8054   23777532.2554   23777527.109
        43.0004         39.0004
 -13655310.24048 -10627380.97847  21441371.7684   21441377.4904   21441371.863
        52.0004         47.0004
 -28088503.36348 -21403588.79148  20487624.8924   20487630.8444   20487624.711
        53.0004         48.0004
  -4862006.32547  -3730492.32246  24465827.7104   24465833.8954   24465826.439
        42.0004         38.0004
 -22439257.10448 -17472755.28947  21440525.3184   21440531.7244   21440525.418
        51.0004         46.0004
 -17717184.67548 -13764449.10147  21545685.2104   21545691.5694   21545685.746
        49.0004         44.0004
 -15837873.55048 -12305074.70447  21512121.1374   21512126.1164   21512120.965
        50.0004         46.0004
  -6068919.17647  -4669210.86446  23914658.7824   23914666.9564   23914658.030
        44.0004         39.0004
 14  5 15  1 46 30.0000000  0 11G26G02G30G07G09G04G05G10G08G28G17
    905596.26947    726584.71346  24418830.1074   24418839.5864   24418830.860
        42.0004         38.0004
 -14513471.30548 -11251357.05447  21600327.4294   21600331.3764   21600327.618
        51.0004         46.0004
      8689.21448     -1582.41647  21718005.8004   21718013.7614   21718005.797
        51.0004         46.0004
  -4645625.20247  -3605663.04446  23797616.5394   23797622.4544   23797617.085
        43.0004         38.0004
 -13575015.79948 -10564813.90447  21456651.3394   21456656.8954   21456651.494
        52.0004         47.0004
 -28056130.32648 -21378363.04948  20493785.6074   20493791.1664   20493785.110
        53.0004         48.0004
  -4953268.29947  -3801605.41346  24448460.6384   24448467.1444   24448461.076
        42.0004         38.0004
 -22502483.05448 -17522022.21647  21428493.6284   21428500.0854   21428494.147
        51.0004         46.0004
 -17624975.29848 -13692597.63847  21563232.2774   21563238.6104   21563232.731
        49.0004         44.0004
 -15880445.12948 -12338247.31647  21504019.3024   21504025.7374   21504019.852
        51.0004         46.0004
  -6053575.85447  -4657254.96746  23917579.3094   23917586.3704   23917578.361
        44.0004         39.0004
 14  5 15  1 47  0.0000000  0 11G26G02G30G07G09G04G05G10G08G28G17
    920391.77047    738113.77746  24421647.5964   24421654.3624   24421647.430
        42.0004         38.0004
 -14535792.50748 -11268750.19647  21596080.3384   21596084.2874   21596081.045
        51.0004         46.0004
     89992.61448     61770.88847  21733477.2224   21733484.3004   21733477.412
        51.0004         46.0004
  -4540053.48247  -3523399.38146  23817706.7024   23817712.6784   23817706.962
        43.0004         38.0004
 -13494472.52148 -10502052.93847  21471978.5094   21471983.3424   21471978.270
        52.0004         47.0004
 -28023296.20948 -21352778.01948  20500033.4324   20500039.2484   20500033.336
        53.0004         48.0004
  -5044653.02347  -3872814.15546  24431070.8744   24431077.1604   24431071.537
        43.0004         38.0004
 -22565486.86348 -17571116.04747  21416504.2164   21416510.5354   21416504.643
        51.0004         46.0004
 -17532462.16948 -13620509.49247  21580836.4594   21580844.2974   21580837.236
        49.0004         44.0004
 -15922702.41848 -12371175.03747  21495978.2024   21495984.1674   21495978.678
        51.0004         46.0004
  -6038470.33847  -4645484.37946  23920453.3024   23920459.8564   23920452.690
        44.0004         40.0004
 14  5 15  1 47 30.0000000  0 11G26G02G30G07G09G04G05G10G08G28G17
    935103.19247    749577.28446  24424447.0054   24424453.9414   24424446.435
        42.0004         38.0004
 -14557668.31548 -11285796.26747  21591917.0764   21591920.6254   21591916.801
        51.0004         46.0004
    171546.53348    125319.39947  21748996.7484   21749003.8684   21748997.014
        51.0004         46.0004
  -4434487.79147  -3441140.42446  23837795.3354   23837800.1514   23837795.461
        43.0004         39.0004
 -13413685.06548 -10439101.70147  21487351.6594   21487357.0594   21487351.802
        52.0004         47.0004
 -27990004.27948 -21326836.25648  20506368.9554   20506374.4994   20506368.520
        53.0004         48.0004
  -5136160.32747  -3944118.33846  24413658.2074   24413664.5824   24413657.348
        43.0004         39.0004
 -22628267.01348 -17620035.59847  21404557.3344   21404564.5884   21404558.296
        51.0004         46.0004
 -17439650.32948 -13548188.57847  21598497.6104   21598504.6324   21598498.736
        49.0004         44.0004
 -15964644.45048 -12403857.09847  21487996.5164   21488002.7174   21487997.139
        51.0004         46.0004
  -6023604.55047  -4633900.58746  23923282.1134   23923288.8304   23923281.722
        44.0004         40.0004
 14  5 15  1 48  0.0000000  0 11G26G02G30G07G09G04G05G10G08G28G17
    949729.38147    760974.39646  24427228.8374   24427237.3894   24427228.259
        42.0004         38.0004
 -14579098.15948 -11302494.83147  21587839.1094   21587843.4274   21587839.849
        51.0004         46.0004
    253348.82848    189061.44947  21764563.1474   21764570.7484   21764563.122
        51.0004         46.0004
  -4328929.96847  -3358887.59546  23857882.6264   23857888.7664   23857882.490
        43.0004         39.0004
 -13332655.74548 -10375962.00147  21502770.7834   21502776.6574   21502771.107
        52.0004         47.0004
 -27956256.15148 -21300539.02048  20512791.1554   20512796.8214   20512790.331
        53.0004         48.0004
  -5227787.26047  -4015515.79146  24396221.1714   24396228.0234   24396220.586
        43.0004         39.0004
 -22690819.91148 -17668778.07947  21392653.7484   21392660.4174   21392654.167
        51.0004         46.0004
 -17346542.45348 -13475636.98347  21616216.4784   21616222.9224   21616216.823
        49.0004         44.0004
 -16006267.57048 -12436290.66047  21480076.5804   21480081.8834   21480076.920
        51.0004         46.0004
  -6008977.98147  -4622503.19446  23926064.9294   23926072.5714   23926064.869
        44.0004         40.0004
 14  5 15  1 48 30.0000000  0 11G26G02G30G07G09G04G05G10G08G28G17
    964268.41847    772303.64846  24429996.6124   24430004.5704   24429995.892
        42.0004         38.0004
 -14600082.14948 -11318845.98647  21583846.0344   21583849.6924   21583846.038
        51.0004         46.0004
    335396.51548    252994.71447  21780176.5124   21780183.9024   21780176.032
        51.0004         46.0004
  -4223382.75547  -3276643.02146  23877967.5154   23877974.0784   23877967.432
        43.0004         39.0004
 -13251387.70648 -10312636.28147  21518235.8174   21518241.8394   21518236.048
        52.0004         47.0004
 -27922053.86948 -21273887.89048  20519299.2654   20519304.9664   20519298.977
        53.0004         48.0004
  -5319532.25647  -4087005.24546  24378762.3504   24378769.1374   24378761.957
        43.0004         39.0004
 -22753142.56548 -17717341.14847  21380794.5544   21380800.5314   21380795.209
        51.0004         46.0004
 -17253141.85148 -13402857.29547  21633990.5104   21633996.7204   21633990.372
        49.0004         44.0004
 -16047568.93248 -12468473.49747  21472217.1784   21472222.5974   21472217.467
        51.0004         46.0004
  -5994590.67047  -4611292.25746  23928802.0264   23928810.4314   23928802.513
        44.0004         39.0004
 14  5 15  1 49  0.0000000  0 11G26G02G30G07G09G04G05G10G08G28G17
    978717.95447    783563.14946  24432745.4554   24432752.4934   24432745.622
        42.0004         38.0004
 -14620621.14448 -11334850.38447  21579937.3314   21579941.3604   21579937.672
        51.0004         46.0004
    417686.43848    317116.73147  21795835.8824   21795843.1454   21795835.638
        51.0004         46.0004
  -4117849.14447  -3194409.06446  23898050.2044   23898055.7544   23898049.343
        43.0004         38.0004
 -13169884.26748 -10249127.13847  21533745.9574   21533751.5304   21533745.561
        51.0004         47.0004
 -27887399.86848 -21246884.77648  20525893.9304   20525899.0994   20525893.476
        53.0004         48.0004
  -5411393.11247  -4158585.00246  24361281.3324   24361288.2764   24361281.589
        43.0004         39.0004
 -22815232.35348 -17765722.75447  21368979.0264   21368985.6364   21368979.615
        51.0004         46.0004
 -17159452.35548 -13329852.48347  21651818.7524   21651824.3784   21651818.854
        49.0004         44.0004
 -16088546.01648 -12500403.64947  21464419.9494   21464424.9344   21464419.907
        51.0004         46.0004
  -5980442.88847  -4600267.94946  23931494.8474   23931502.6344   23931494.986
        44.0004         39.0004
 14  5 15  1 49 30.0000000  0 11G26G02G30G07G09G04G05G10G08G28G17
    993075.16647    794750.70046  24435476.2274   24435485.9944   24435477.899
        42.0004         38.0004
 -14640716.60048 -11350509.16747  21576114.1524   21576116.9214   21576113.927
        51.0004         46.0004
    500214.78048    381424.53547  21811540.5564   21811548.2824   21811540.190
        51.0004         46.0004
  -4012332.43947  -3112188.27246  23918129.3014   23918134.4804   23918128.569
        43.0004         39.0004
 -13088149.58148 -10185437.79947  21549299.0184   21549304.9194   21549298.964
        51.0004         47.0004
 -27852297.22848 -21219532.07148  20532573.4014   20532579.4134   20532573.219
        53.0004         48.0004
  -5503369.96447  -4230255.13246  24343778.9384   24343786.1724   24343778.593
        43.0004         39.0004
 -22877087.31748 -17813921.39447  21357208.4144   21357214.7164   21357208.924
        51.0004         46.0004
 -17065478.23648 -13256625.87847  21669701.6554   21669707.5234   21669701.491
        49.0004         44.0004
 -16129196.81148 -12532079.55147  21456683.9134   21456689.8994   21456684.023
        51.0004         46.0004
  -5966536.29147  -4589431.57746  23934141.1504   23934149.0264   23934140.779
        44.0004         39.0004
 14  5 15  1 50  0.0000000  0 11G26G02G30G07G09G04G05G10G08G28G17
   1007339.93247    805866.23846  24438193.4554   24438201.3234   24438191.247
        42.0004         38.0004
 -14660366.89448 -11365821.07047  21572374.0864   21572377.8304   21572374.491
        51.0004         46.0004
    582980.42248    445917.23647  21827290.1234   21827297.7994   21827289.878
        51.0004         46.0004
  -3906833.72947  -3029981.49646  23938204.6144   23938209.9974   23938204.125
        43.0004         39.0004
 -13006184.93048 -10121569.27447  21564897.1124   21564901.8534   21564896.763
        51.0004         47.0004
 -27816746.16948 -21191829.95748  20539338.9814   20539344.7114   20539338.287
        53.0004         48.0004
  -5595458.58047  -4302012.36246  24326254.7514   24326261.3594   24326254.747
        43.0004         38.0004
 -22938702.47948 -17861933.17747  21345483.2154   21345489.6964   21345484.021
        51.0004         46.0004
 -16971221.41448 -13183179.00047  21687637.8844   21687644.6834   21687638.167
        49.0004         44.0004
 -16169516.82348 -12563497.70347  21449011.2944   21449016.8804   21449011.323
        51.0004         46.0004
  -5952868.86747  -4578781.58946  23936742.6184   23936749.9434   23936741.539
        44.0004         39.0004
 14  5 15  1 50 30.0000000  0 11G26G02G30G07G09G04G05G10G08G28G17
   1021509.56847    816907.62246  24440888.7064   24440895.2754   24440889.267
        42.0004         38.0004
 -14679573.29748 -11380787.08847  21568719.6594   21568723.5314   21568719.943
        51.0004         47.0004
    665979.76048    510592.04147  21843084.0924   21843092.6764   21843084.059
        50.0004         46.0004
  -3801356.05547  -2947791.13046  23958277.2214   23958283.3794   23958276.049
        43.0004         38.0004
 -12923994.35548 -10057524.70647  21580536.6604   21580542.9454   21580536.819
        51.0004         47.0004
 -27780749.84548 -21163780.87648  20546188.8564   20546194.6894   20546188.410
        53.0004         48.0004
  -5687657.65947  -4373855.70646  24308710.3804   24308717.2464   24308709.552
        43.0004         38.0004
 -23000075.67648 -17909756.41647  21333804.7294   21333809.9274   21333804.918
        51.0004         46.0004
 -16876685.98348 -13109515.01847  21705626.7904   21705632.7404   21705627.189
        49.0004         44.0004
 -16209503.87048 -12594656.40047  21441401.9784   21441407.5714   21441402.144
        51.0004         46.0004
  -5939441.21547  -4568318.42546  23939296.8324   23939304.6804   23939296.562
        44.0004         39.0004
 14  5 15  1 51  0.0000000  0 11G26G02G30G07G09G04G05G10G08G28G17
   1035582.09647    827873.30246  24443566.3474   24443574.7274   24443566.492
        42.0004         38.0004
 -14698335.99248 -11395407.35547  21565149.1144   21565153.0094   21565149.433
        51.0004         47.0004
    749209.78548    575446.60447  21858922.3664   21858929.6294   21858921.978
        50.0004         46.0004
  -3695902.10947  -2865619.21346  23978343.7104   23978349.9464   23978343.457
        43.0004         38.0004
 -12841580.87848  -9993306.44647  21596219.7724   21596224.9574   21596219.562
        51.0004         47.0004
 -27744310.28648 -21135386.42148  20553122.7534   20553128.7754   20553122.499
        53.0004         48.0004
  -5779965.06547  -4445783.42246  24291144.5284   24291150.6284   24291144.199
        43.0004         38.0004
 -23061203.95548 -17957388.81647  21322171.9744   21322178.6684   21322172.629
        51.0004         46.0004
 -16781875.58748 -13035636.79247  21723668.1134   21723675.1904   21723669.187
        49.0004         44.0004
 -16249155.38048 -12625553.64447  21433856.1004   21433862.1174   21433856.367
        51.0004         46.0004
  -5926253.80747  -4558042.45846  23941807.0224   23941814.1934   23941806.454
        44.0004         39.0004
 14  5 15  1 51 30.0000000  0 11G26G02G30G07G09G04G05G10G08G28G17
   1049556.15647    838762.29046  24446225.8414   24446232.3734   24446224.492
        42.0004         38.0004
 -14716654.88648 -11409681.81347  21561663.6334   21561667.0414   21561663.851
        51.0004         47.0004
    832668.23948    640479.15947  21874803.4614   21874812.0054   21874803.448
        50.0004         46.0004
  -3590473.93747  -2783467.40346  23998406.2054   23998412.0454   23998405.882
        43.0004         38.0004
 -12758947.17148  -9928916.57247  21611944.0864   21611949.7684   21611944.381
        51.0004         47.0004
 -27707429.28448 -21106647.98348  20560141.1254   20560146.8274   20560140.786
        53.0004         48.0004
  -5872378.44347  -4517793.72046  24273558.9124   24273564.7984   24273558.430
        43.0004         39.0004
 -23122084.09348 -18004827.85547  21310586.8344   21310593.0604   21310587.547
        51.0004         47.0004
 -16686792.96448 -12961546.43147  21741762.2954   21741769.0214   21741763.166
        49.0004         44.0004
 -16288467.70548 -12656186.58547  21426374.9124   21426381.0914   21426375.338
        51.0004         46.0004
  -5913306.10347  -4547953.28246  23944271.2794   23944278.1494   23944270.177
        44.0004         39.0004
 14  5 15  1 52  0.0000000  0 11G26G02G30G07G09G04G05G10G08G28G17
   1063428.04947    849571.64846  24448864.8474   24448872.8924   24448865.426
        42.0004         38.0004
 -14734532.72048 -11423612.57947  21558261.4194   21558264.7974   21558261.405
        51.0004         47.0004
    916350.23748    705685.89947  21890728.0154   21890735.9564   21890727.703
        50.0004         45.0004
  -3485075.97247  -2701339.13346  24018462.2134   24018467.9434   24018462.223
        43.0004         38.0004
 -12676098.03948  -9864358.83347  21627710.0724   21627715.6474   21627709.989
        51.0004         47.0004
 -27670110.72648 -21077568.58748  20567242.9794   20567248.6374   20567242.418
        53.0004         48.0004
  -5964898.00347  -4589886.80346  24255952.8214   24255958.4224   24255952.584
        43.0004         39.0004
 -23182714.96048 -18052072.66547  21299049.0194   21299055.5484   21299050.043
        51.0004         47.0004
 -16591443.38548 -12887248.05147  21759907.5964   21759913.4974   21759907.243
        49.0004         44.0004
 -16327440.12948 -12686554.67547  21418958.8104   21418964.9904   21418959.217
        51.0004         46.0004
  -5900600.25947  -4538052.56246  23946687.4844   23946695.4204   23946687.337
        44.0004         39.0004
 14  5 15  1 52 30.0000000  0 11G26G02G30G07G09G04G05G10G08G28G17
   1077198.78747    860302.21146  24451486.0924   24451494.3824   24451486.574
        42.0004         38.0004
 -14751966.81848 -11437197.58447  21554943.7234   21554946.8664   21554944.153
        51.0004         47.0004
   1000255.80748    771066.84747  21906694.8334   21906701.7434   21906694.828
        50.0004         46.0004
  -3379707.84947  -2619234.11046  24038513.9004   24038519.2934   24038513.332
        42.0004         38.0004
 -12593033.83248  -9799633.50547  21643516.3994   21643522.4114   21643516.333
        51.0004         46.0004
 -27632354.19648 -21048147.92348  20574427.2464   20574433.3404   20574427.114
        53.0004         48.0004
  -6057518.38547  -4662058.42946  24238328.3614   24238334.5354   24238327.610
        44.0004         39.0004
 -23243090.33348 -18099118.39047  21287560.3464   21287566.7584   21287560.795
        51.0004         47.0004
 -16495827.33948 -12812742.03147  21778102.2224   21778108.1344   21778102.801
        48.0004         44.0004
 -16366066.84648 -12716653.37847  21411608.5634   21411614.1264   21411608.849
        51.0004         46.0004
  -5888133.29647  -4528337.98246  23949059.8664   23949068.1094   23949060.237
        44.0004         39.0004
 14  5 15  1 53  0.0000000  0 11G26G02G30G07G09G04G05G10G08G28G17
   1090862.38047    870949.27446  24454086.0064   24454093.2954   24454085.110
        43.0004         38.0004
 -14768961.73948 -11450440.36647  21551709.1404   21551713.5224   21551709.814
        51.0004         47.0004
   1084378.07548    836616.65947  21922702.4694   21922710.6174   21922702.888
        50.0004         46.0004
  -3274376.17747  -2537157.50346  24058558.1694   24058562.6254   24058558.017
        42.0004         38.0004
 -12509761.60948  -9734746.07947  21659363.2734   21659368.8044   21659362.859
        51.0004         46.0004
 -27594165.68948 -21018390.65348  20581694.2464   20581700.2904   20581694.031
        53.0004         48.0004
  -6150241.87447  -4734310.41846  24220683.9904   24220689.0444   24220682.955
        44.0004         39.0004
 -23303211.57748 -18145966.08847  21276119.4444   21276125.9134   21276120.197
        51.0004         47.0004
 -16399952.47648 -12738034.35347  21796346.0894   21796352.5814   21796346.510
        48.0004         44.0004
 -16404349.04648 -12746483.62347  21404323.4724   21404328.9864   21404324.048
        51.0004         46.0004
  -5875909.10647  -4518812.58446  23951386.2984   23951394.1154   23951386.899
        44.0004         40.0004
 14  5 15  1 53 30.0000000  0 11G26G02G30G07G09G04G05G10G08G28G17
   1104421.28747    881514.71646  24456666.0984   24456673.9784   24456666.559
        43.0004         38.0004
 -14785513.41848 -11463337.76647  21548559.4744   21548563.2824   21548560.089
        51.0004         47.0004
   1168718.55148    902336.49847  21938752.5164   21938759.1054   21938752.009
        50.0004         46.0004
  -3169079.11447  -2455107.88046  24078595.3154   24078600.1954   24078595.382
        42.0004         38.0004
 -12426280.12848  -9669695.58947  21675248.6494   21675254.2034   21675248.638
        51.0004         46.0004
 -27555543.19748 -20988295.20848  20589044.0304   20589050.2134   20589043.923
        53.0004         48.0004
  -6243062.19847  -4806637.85246  24203020.4354   24203025.7514   24203019.801
        44.0004         39.0004
 -23363071.44548 -18192610.11147  21264728.2464   21264735.2884   21264729.379
        51.0004         47.0004
 -16303817.59148 -12663124.04647  21814640.0524   21814646.1004   21814640.278
        48.0004         44.0004
 -16442279.75748 -12776039.98447  21397105.8324   21397111.3554   21397105.874
        51.0004         46.0004
  -5863923.77847  -4509473.31446  23953667.5434   23953674.0264   23953666.531
        44.0004         39.0004
 14  5 15  1 54  0.0000000  0 11G26G02G30G07G09G04G05G10G08G28G17
   1117871.96947    891995.83946  24459224.9194   24459232.2184   24459225.232
        42.0004         38.0004
 -14801624.57748 -11475891.90947  21545493.7724   21545497.6604   21545494.203
        51.0004         47.0004
   1253272.45948    968222.64247  21954842.7604   21954850.1734   21954842.196
        50.0004         46.0004
  -3063820.95747  -2373088.54246  24098626.0184   24098629.3074   24098624.764
        43.0004         38.0004
 -12342594.46048  -9604485.99547  21691173.6664   21691179.3174   21691173.754
        51.0004         46.0004
 -27516490.99948 -20957864.93448  20596475.4774   20596481.3524   20596474.916
        53.0004         48.0004
  -6335979.10047  -4879040.53546  24185338.5454   24185344.1364   24185338.278
        44.0004         39.0004
 -23422668.50548 -18239049.35047  21253387.4314   21253393.7494   21253387.794
        51.0004         47.0004
 -16207428.19948 -12588015.43647  21832982.7834   21832987.9904   21832983.123
        48.0004         43.0004
 -16479858.08348 -12805321.76147  21389954.1774   21389960.0624   21389955.021
        51.0004         46.0004
  -5852178.95447  -4500321.44446  23955902.1444   23955909.0154   23955901.634
        44.0004         39.0004
 14  5 15  1 54 30.0000000  0 11G26G02G30G07G09G04G05G10G08G28G17
   1131211.43047    902390.33146  24461764.8804   24461772.0794   24461763.790
        43.0004         38.0004
 -14817296.80248 -11488104.01847  21542511.8424   21542514.9504   21542511.959
        51.0004         47.0004
   1338035.76648   1034271.95147  21970972.5644   21970980.6894   21970972.822
        50.0004         45.0004
  -2958605.36347  -2291102.36946  24118646.8534   24118652.8164   24118645.610
        43.0004         38.0004
 -12258708.73848  -9539120.51247  21707136.9384   21707141.9954   21707136.754
        51.0004         46.0004
 -27477012.40648 -20927102.39948  20603988.2304   20603994.0314   20603987.654
        53.0004         48.0004
  -6428991.60847  -4951517.73146  24167638.5644   24167643.6074   24167638.467
        44.0004         39.0004
 -23482001.14048 -18285282.54047  21242097.0534   21242102.9154   21242097.685
        51.0004         47.0004
 -16110788.66148 -12512711.88547  21851372.2414   21851379.6904   21851372.676
        48.0004         43.0004
 -16517082.33648 -12834327.63147  21382870.7674   21382876.3614   21382871.279
        51.0004         46.0004
  -5840675.71547  -4491357.82546  23958091.4444   23958098.4854   23958091.066
        44.0004         40.0004
 14  5 15  1 55  0.0000000  0 11G26G02G30G07G09G04G05G10G08G28G17
   1144440.52247    912698.79546  24464281.0174   24464288.2294   24464281.108
        43.0004         38.0004
 -14832527.59048 -11499972.16047  21539613.0344   21539617.3164   21539613.683
        51.0004         47.0004
   1423008.36148   1100484.34947  21987142.1894   21987149.5774   21987141.938
        50.0004         45.0004
  -2853431.90847  -2209149.04946  24138660.8744   24138666.5484   24138659.951
        42.0004         38.0004
 -12174623.22948  -9473599.35247  21723137.6564   21723143.0224   21723137.382
        51.0004         46.0004
 -27437106.89748 -20896007.20348  20611581.7474   20611587.6544   20611581.300
        53.0004         48.0004
  -6522094.64747  -5024065.44846  24149921.4304   24149927.2314   24149921.158
        44.0004         39.0004
 -23541063.66448 -18331305.26547  21230857.6544   21230864.4734   21230858.002
        51.0004         47.0004
 -16013899.74748 -12437214.03447  21869809.0004   21869815.1794   21869809.819
        48.0004         43.0004
 -16553946.99148 -12863053.30847  21375855.9834   21375861.0994   21375856.332
        51.0004         46.0004
  -5829411.26447  -4482580.28446  23960234.8734   23960242.9264   23960234.640
        44.0004         40.0004
 14  5 15  1 55 30.0000000  0 11G26G02G30G07G09G04G05G10G08G28G17
   1157555.33647    922918.22046  24466776.9224   24466784.8474   24466776.141
        43.0004         38.0004
 -14847320.12048 -11511498.78947  21536798.5644   21536801.9834   21536798.636
        51.0004         47.0004
   1508185.29648   1166855.98147  22003350.5864   22003357.8724   22003350.460
        50.0004         45.0004
  -2748305.16147  -2127232.11446  24158665.6654   24158671.5154   24158665.059
        42.0004         38.0004
 -12090343.41448  -9407926.77547  21739175.6494   21739181.6094   21739175.349
        51.0004         46.0004
 -27396778.72548 -20864582.66448  20619256.2224   20619261.5784   20619255.763
        53.0004         48.0004
  -6615288.35047  -5096683.82946  24132188.0344   24132192.4024   24132187.026
        44.0004         39.0004
 -23599855.06048 -18377116.71347  21219669.6734   21219676.2154   21219670.931
        51.0004         47.0004
 -15916767.03848 -12361526.21847  21888293.2984   21888299.9194   21888293.672
        48.0004         43.0004
 -16590451.33048 -12891498.21447  21368909.5834   21368914.8914   21368909.850
        51.0004         46.0004
  -5818387.77047  -4473990.48646  23962332.3074   23962339.7274   23962331.956
        44.0004         40.0004
 14  5 15  1 56  0.0000000  0 11G26G02G30G07G09G04G05G10G08G28G17
   1170552.17547    933045.68446  24469250.6374   24469257.5924   24469250.610
        43.0004         38.0004
 -14861676.68048 -11522685.70847  21534065.9294   21534069.7464   21534066.571
        51.0004         47.0004
   1593561.74948   1233383.08147  22019597.3614   22019605.3444   22019596.985
        50.0004         45.0004
  -2643229.64547  -2045355.11246  24178660.7784   24178666.7794   24178660.794
        42.0004         38.0004
 -12005874.18848  -9342106.60847  21755249.8974   21755255.7064   21755249.766
        51.0004         46.0004
 -27356032.43348 -20832832.31148  20627009.5264   20627015.5964   20627009.360
        53.0004         48.0004
  -6708572.71847  -5169372.86146  24114435.6984   24114442.1604   24114435.159
        44.0004         39.0004
 -23658374.43148 -18422716.19847  21208534.4454   21208540.2304   21208534.743
        51.0004         47.0004
 -15819395.91448 -12285652.62247  21906823.3294   21906829.4594   21906822.804
        48.0004         43.0004
 -16626594.62348 -12919661.78647  21362031.5134   21362037.7154   21362031.823
        51.0004         46.0004
  -5807607.27647  -4465590.04146  23964384.1414   23964390.7554   23964383.928
        45.0004         40.0004
 14  5 15  1 56 30.0000000  0 11G26G02G30G07G09G04G05G10G08G28G17
   1183434.42547    943083.89046  24471701.3614   24471707.5054   24471700.871
        43.0004         38.0004
 -14875592.59748 -11533529.27747  21531417.9294   21531421.6464   21531418.527
        51.0004         47.0004
   1679140.06848   1300067.46947  22035882.1244   22035889.4964   22035882.176
        50.0004         45.0004
  -2538202.64547  -1963515.91446  24198648.0474   24198651.3044   24198645.071
        42.0004         37.0004
 -11921213.25848  -9276137.05847  21771359.7364   21771366.1974   21771359.770
        51.0004         46.0004
 -27314864.83248 -20800753.66648  20634844.3354   20634849.3144   20634843.639
        53.0004         48.0004
  -6801940.41647  -5242126.81046  24096668.1204   24096674.3614   24096667.595
        44.0004         39.0004
 -23716613.34148 -18468097.14847  21197451.1104   21197457.9114   21197452.371
        51.0004         47.0004
 -15721784.41948 -12209591.72647  21925397.0774   21925405.1694   21925398.109
        48.0004         43.0004
 -16662368.93248 -12947537.84447  21355224.5174   21355229.6534   21355224.439
        51.0004         46.0004
  -5797064.47747  -4457374.82246  23966390.4604   23966397.4444   23966389.862
        45.0004         40.0004
 14  5 15  1 57  0.0000000  0 11G26G02G30G07G09G04G05G10G08G28G17
   1196196.05147    953028.10546  24474129.5294   24474137.6374   24474128.434
        42.0004         38.0004
 -14889072.66048 -11544033.21247  21528852.8704   21528856.9134   21528853.283
        51.0004         47.0004
   1764913.11448   1366903.60147  22052204.3414   22052212.0994   22052204.364
        50.0004         45.0004
  -2433230.68347  -1881719.58546  24218621.5134   24218628.8784   24218621.559
        42.0004         37.0004
 -11836368.11248  -9210023.95647  21787505.0184   21787511.3264   21787505.321
        51.0004         46.0004
 -27273282.80448 -20768352.09248  20642756.7234   20642762.1154   20642755.989
        53.0004         48.0004
  -6895393.40047  -5314947.24246  24078884.5824   24078889.7564   24078884.002
        44.0004         39.0004
 -23774573.38748 -18513260.79847  21186422.3024   21186428.2554   21186422.851
        51.0004         47.0004
 -15623940.19048 -12133349.48047  21944016.9934   21944023.2944   21944017.265
        48.0004         43.0004
 -16697775.87948 -12975127.64247  21348486.3924   21348491.7864   21348486.122
        51.0004         46.0004
  -5786763.32747  -4449347.88046  23968349.7824   23968357.4784   23968349.763
        45.0004         40.0004
 14  5 15  1 57 30.0000000  0 11G26G02G30G07G09G04G05G10G08G28G17
   1208836.26047    962877.69446  24476535.5844   24476541.0614   24476534.987
        43.0004         38.0004
 -14902116.77048 -11554197.44447  21526371.0244   21526374.4694   21526371.129
        51.0004         47.0004
   1850878.97848   1433889.97247  22068563.3314   22068571.6314   22068562.904
        50.0004         45.0004
  -2328315.10547  -1799967.18246  24238586.8124   24238593.2764   24238586.870
        42.0004         37.0004
 -11751340.81948  -9143768.92947  21803686.2054   21803691.2084   21803685.624
        51.0004         46.0004
 -27231287.72248 -20735628.65748  20650748.1724   20650753.6274   20650747.844
        53.0004         48.0004
  -6988928.89147  -5387831.97446  24061086.4544   24061090.8284   24061084.679
        44.0004         39.0004
 -23832250.66548 -18558204.11547  21175446.4914   21175453.1214   21175447.127
        51.0004         47.0004
 -15525865.84848 -12056927.91647  21962679.7484   21962685.8524   21962679.967
        48.0004         43.0004
 -16732811.64648 -13002428.21247  21341819.7224   21341825.0064   21341819.531
        51.0004         46.0004
  -5776702.92247  -4441508.55046  23970264.0254   23970272.0484   23970264.530
        45.0004         40.0004
 14  5 15  1 58  0.0000000  0 11G26G02G30G07G09G04G05G10G08G28G17
   1221353.90147    972631.76446  24478916.3924   24478923.8764   24478916.951
        43.0004         38.0004
 -14914725.12248 -11564022.12847  21523971.1974   21523975.6674   21523971.739
        51.0004         47.0004
   1937035.48648   1501024.90647  22084957.9794   22084965.9264   22084958.461
        50.0004         45.0004
  -2223457.91847  -1718260.29246  24258541.6414   24258547.2724   24258540.675
        42.0004         38.0004
 -11666133.72048  -9077373.78847  21819899.8704   21819905.9334   21819899.905
        50.0004         46.0004
 -27188880.92648 -20702584.40848  20658817.7214   20658823.6284   20658817.422
        53.0004         48.0004
  -7082543.81547  -5460778.58746  24043270.8564   24043276.3194   24043270.153
        44.0004         40.0004
 -23889641.51848 -18602924.24847  21164525.8764   21164531.3584   21164526.070
        51.0004         47.0004
 -15427564.09848 -11980329.16047  21981386.2354   21981392.5034   21981386.327
        48.0004         43.0004
 -16767473.09848 -13029437.10747  21335222.5794   21335228.6764   21335223.144
        51.0004         46.0004
  -5766882.44547  -4433856.17246  23972133.5264   23972140.6594   23972133.064
        45.0004         40.0004
 14  5 15  1 58 30.0000000  0 11G26G02G30G07G09G04G05G10G08G28G17
   1233747.01347    982288.83246  24481274.3424   24481283.2444   24481274.693
        43.0004         38.0004
 -14926898.48348 -11573507.85447  21521654.9754   21521658.7034   21521655.262
        51.0004         47.0004
   2023379.54248   1568305.97247  22101388.3644   22101397.2744   22101388.699
        50.0004         45.0004
  -2118661.78447  -1636600.98446  24278482.6224   24278488.7294   24278482.842
        42.0004         38.0004
 -11580750.14248  -9010841.12647  21836147.5574   21836154.0264   21836147.987
        50.0004         46.0004
 -27146065.33048 -20669221.60948  20666965.1574   20666970.7824   20666965.116
        53.0004         48.0004
  -7176236.18947  -5533785.55246  24025441.8124   24025447.3264   24025441.122
        44.0004         39.0004
 -23946743.15548 -18647419.01047  21153659.2264   21153665.2404   21153659.519
        51.0004         47.0004
 -15329038.51748 -11903555.98947  22000135.0244   22000141.4944   22000135.160
        48.0004         43.0004
 -16801757.42048 -13056152.13347  21328699.5874   21328703.9144   21328699.163
        51.0004         46.0004
  -5757302.03747  -4426390.84846  23973956.3474   23973963.4274   23973956.177
        45.0004         40.0004
 14  5 15  1 59  0.0000000  0 11G26G02G30G07G09G04G05G10G08G28G17
   1246013.33347    991847.06346  24483608.1784   24483616.1564   24483609.210
        43.0004         38.0004
 -14938637.82348 -11582655.38247  21519420.9714   21519425.3624   21519421.173
        51.0004         47.0004
   2109907.83248   1635730.59247  22117854.5614   22117862.2704   22117854.379
        49.0004         45.0004
  -2013929.45647  -1554991.38446  24298413.0584   24298418.6164   24298412.892
        42.0004         37.0004
 -11495193.33748  -8944173.49147  21852428.6454   21852434.4554   21852428.556
        50.0004         46.0004
 -27102843.95648 -20635542.62948  20675190.0974   20675195.6564   20675189.650
        53.0004         48.0004
  -7270004.35547  -5606851.58146  24007598.8734   24007604.4254   24007598.035
        44.0004         40.0004
 -24003553.12948 -18691686.51147  21142848.8824   21142854.7004   21142849.555
        51.0004         47.0004
 -15230292.88848 -11826611.35747  22018924.7984   22018930.4644   22018925.644
        48.0004         43.0004
 -16835662.48748 -13082571.64447  21322246.9494   21322252.9364   21322247.263
        51.0004         46.0004
  -5747962.00847  -4419112.84846  23975734.2654   23975740.8024   23975733.295
        44.0004         40.0004
 14  5 15  1 59 30.0000000  0 11G26G02G30G07G09G04G05G10G08G28G17
   1258152.91647   1001306.52946  24485919.7234   24485927.5614   24485919.264
        43.0004         38.0004
 -14949942.15148 -11591463.94047  21517269.9354   21517273.4384   21517270.495
        51.0004         47.0004
   2196619.29748   1703297.95147  22134355.9004   22134362.1274   22134355.240
        49.0004         45.0004
  -1909261.24447  -1473431.73746  24318331.5414   24318334.9564   24318330.494
        42.0004         37.0004
 -11409464.91848  -8877372.12247  21868742.7054   21868748.0084   21868742.402
        50.0004         46.0004
 -27059216.96948 -20601547.57248  20683491.8884   20683497.5934   20683491.867
        53.0004         48.0004
  -7363844.70947  -5679973.83246  23989741.6964   23989747.0134   23989740.562
        44.0004         39.0004
 -24060066.69248 -18735723.03747  21132094.5294   21132100.6344   21132095.096
        52.0004         47.0004
 -15131328.69848 -11749496.41947  22037757.8774   22037763.8124   22037758.322
        48.0004         43.0004
 -16869184.03948 -13108692.30647  21315868.5224   21315873.9844   21315868.442
        51.0004         46.0004
  -5738860.44347  -4412020.66446  23977466.3614   23977472.5504   23977464.881
        44.0004         40.0004
