     2.11           OBSERVATION DATA    G (GPS)             RINEX VERSION / TYPE
teqc  2013Mar15     gpsops              20140510 00:23:21UTCPGM / RUN BY / DATE
Linux 2.4.21-27.ELsmp|Opteron|gcc -static|Linux x86_64|=+   COMMENT
BIT 2 OF LLI FLAGS DATA COLLECTED UNDER A/S CONDITION       COMMENT
GLPS                                                        MARKER NAME
42005M002                                                   MARKER NUMBER
GGN                 JPL                                     OBSERVER / AGENCY
ZR220013847         ASHTECH UZ-12       CQ00                REC # / TYPE / VERS
CR519992104         ASH701945B_M    SCIT                    ANT # / TYPE
   -33801.4662 -6377516.5323   -82154.3508                  APPROX POSITION XYZ
        0.0083        0.0000        0.0000                  ANTENNA: DELTA H/E/N
     1     1                                                WAVELENGTH FACT L1/2
     7    L1    L2    P1    P2    C1    S1    S2            # / TYPES OF OBSERV
    30.0000                                                 INTERVAL
                                                            COMMENT
This data is provided as a public service by NASA/JPL.      COMMENT
No warranty is expressed or implied regarding suitability   COMMENT
for use.  For further information, contact:                 COMMENT
Dave Stowers, NASA/JPL m/s 238-600                          COMMENT
4800 Oak Grove Drive, Pasadena CA 91109 USA                 COMMENT
                                                            COMMENT
Forced Modulo Decimation to 30 seconds                      COMMENT
 SNR is mapped to RINEX snr flag value [0-9]                COMMENT
  L1 & L2: min(max(int(snr_dBHz/6), 0), 9)                  COMMENT
pseudorange smoothing corrections not applied               COMMENT
  2014     5     9     0     0    0.0000000     GPS         TIME OF FIRST OBS
                                                            END OF HEADER
 14  5  9  0  0  0.0000000  0 11G20G07G10G08G11G01G28G13G09G17G04
  -5547680.26447  -4275599.60146  23618319.2244   23618329.2014   23618320.533
        43.0004         38.0004
 -23906506.21249 -18597686.41748  20141509.5924   20141515.9224   20141509.141
        54.0004         49.0004
  -5760467.77346  -4477941.32446  24581705.9174   24581717.5984   24581706.143
        41.0004         36.0004
 -17608916.73148 -13708832.92248  20391136.3014   20391144.3074   20391136.363
        53.0004         49.0004
  -3292893.21346  -2529569.23145  24498027.8974   24498038.7674   24498026.470
        39.0004         34.0004
 -10632481.79647  -8256446.19747  22808818.4264   22808831.7484   22808817.823
        46.0004         42.0004
    201746.32447    156979.35546  24088214.7034   24088223.9204   24088214.664
        43.0004         39.0004
  -5947104.27747  -4580303.12946  23274772.7314   23274781.9294   23274772.415
        44.0004         39.0004
 -11590567.89448  -9023296.71848  20459908.8944   20459916.3874   20459908.722
        53.0004         48.0004
 -16744813.00148 -12985149.27247  22180073.0354   22180081.7254   22180072.628
        51.0004         46.0004
 -19446318.70648 -15097670.15347  22189321.0204   22189330.1814   22189320.369
        48.0004         43.0004
 14  5  9  0  0 30.0000000  0 11G20G07G10G08G11G01G28G13G09G17G04
  -5548232.22047  -4276029.64846  23618213.3544   23618223.6874   23618214.276
        43.0004         38.0004
 -23894339.92249 -18588206.16148  20143824.7094   20143831.0714   20143824.058
        54.0004         49.0004
  -5803384.83346  -4511383.01846  24573539.1994   24573550.9214   24573539.880
        41.0004         36.0004
 -17664852.62548 -13752419.27348  20380492.2334   20380500.3594   20380492.145
        53.0004         49.0004
  -3188135.82246  -2447940.10645  24517960.3704   24517973.9444   24517961.042
        39.0004         34.0004
 -10547362.27147  -8190119.33747  22825016.2144   22825029.1564   22825016.200
        46.0004         42.0004
    166463.48747    129486.37646  24081499.8084   24081510.1674   24081500.235
        43.0004         39.0004
  -5866296.85347  -4517336.26746  23290151.0814   23290159.1294   23290150.095
        44.0004         39.0004
 -11643564.20448  -9064592.48848  20449823.8414   20449831.5804   20449823.824
        53.0004         48.0004
 -16710423.85848 -12958352.53047  22186617.2724   22186625.5204   22186616.614
        51.0004         46.0004
 -19536547.41348 -15167978.12147  22172150.6824   22172159.2214   22172149.494
        48.0004         44.0004
 14  5  9  0  1  0.0000000  0 11G20G07G10G08G11G01G28G13G09G17G04
  -5548638.34747  -4276346.06946  23618136.8874   23618146.8674   23618137.805
        43.0004         38.0004
 -23881569.33649 -18578255.02148  20146254.7684   20146261.1754   20146254.409
        54.0004         49.0004
  -5846547.53946  -4545016.12846  24565325.4874   24565338.2974   24565326.583
        41.0004         37.0004
 -17720275.83348 -13795606.13248  20369945.3524   20369953.4764   20369945.555
        53.0004         49.0004
  -3083308.72946  -2366256.66545  24537906.1294   24537922.8524   24537909.357
        38.0004         33.0004
 -10461906.61847  -8123530.55347  22841278.6304   22841290.1254   22841277.940
        46.0004         42.0004
    130918.03447    101788.74646  24074736.1284   24074746.1174   24074736.112
        43.0004         39.0004
  -5785574.06147  -4454435.34346  23305510.8434   23305519.1994   23305510.759
        44.0004         39.0004
 -11696047.69148  -9105488.65848  20439836.4854   20439844.3344   20439836.417
        53.0004         48.0004
 -16675834.47348 -12931399.76847  22193198.5944   22193208.1734   22193198.766
        50.0004         46.0004
 -19626525.80848 -15238091.03647  22155028.3774   22155037.0854   22155027.794
        48.0004         44.0004
 14  5  9  0  1 30.0000000  0 11G20G07G10G08G11G01G28G13G09G17G04
  -5548898.24247  -4276548.55246  23618087.2914   23618096.7904   23618087.761
        43.0004         38.0004
 -23868196.15449 -18567834.32548  20148799.5804   20148805.8744   20148798.839
        54.0004         49.0004
  -5889957.46847  -4578841.88146  24557064.9464   24557077.5554   24557066.089
        42.0004         37.0004
 -17775185.08349 -13838392.49148  20359496.0954   20359504.6624   20359496.496
        54.0004         49.0004
  -2978415.63946  -2284521.78045  24557871.0664   24557878.3954   24557869.674
        38.0004         33.0004
 -10376118.70347  -8056682.87347  22857602.7774   22857615.3124   22857602.502
        46.0004         42.0004
     95109.47747     73886.09746  24067922.2874   24067931.9484   24067921.850
        44.0004         39.0004
  -5704939.53947  -4391603.19346  23320854.9834   23320864.6104   23320855.098
        43.0004         39.0004
 -11748017.72448  -9145984.73148  20429947.0524   20429954.7114   20429946.824
        53.0004         49.0004
 -16641048.75648 -12904294.02747  22199818.4794   22199826.9544   22199818.049
        50.0004         46.0004
 -19716252.72348 -15308008.00647  22137952.9114   22137961.7134   22137953.247
        48.0004         44.0004
 14  5  9  0  2  0.0000000  0 11G20G07G10G08G11G01G28G13G09G17G04
  -5549012.18947  -4276637.28546  23618064.8394   23618075.9634   23618066.116
        42.0004         38.0004
 -23854222.57749 -18556945.79048  20151458.3224   20151465.0684   20151457.826
        54.0004         49.0004
  -5933616.08047  -4612861.43646  24548755.8084   24548768.2634   24548757.459
        42.0004         37.0004
 -17829579.44049 -13880777.64948  20349145.3714   20349153.1784   20349145.796
        54.0004         49.0004
                  -2202739.11545                  24577848.9574   24577841.728
                        32.0004
 -10290002.84947  -7989579.64846  22873990.6824   22874003.3154   22873989.650
        46.0004         41.0004
     59036.52847     45777.43646  24061058.2044   24061067.1614   24061057.540
        44.0004         39.0004
  -5624397.30547  -4328842.96946  23336181.7644   23336190.8024   23336180.760
        43.0004         39.0004
 -11799474.04948  -9186080.50948  20420155.0404   20420162.9664   20420154.883
        53.0004         49.0004
 -16606071.38648 -12877038.93347  22206475.1524   22206483.5744   22206474.106
        50.0004         46.0004
 -19805727.51848 -15377728.50847  22120926.5644   22120935.8454   22120926.123
        48.0004         44.0004
 14  5  9  0  2 30.0000000  0 11G20G07G10G08G11G01G28G13G09G17G04
  -5548974.61047  -4276607.96746  23618072.3784   23618082.4134   23618072.980
        42.0004         38.0004
 -23839645.19349 -18545586.75548  20154232.2474   20154238.9824   20154231.935
        54.0004         49.0004
  -5977519.79446  -4647071.93746  24540400.4644   24540415.9254   24540402.519
        41.0004         37.0004
 -17883452.74649 -13922756.78448  20338893.6104   20338901.4964   20338893.800
        54.0004         49.0004
                  -2120907.49445                  24597838.1364   24597825.823
                        32.0004
 -10203557.96247  -7922220.03547  22890440.1804   22890452.2844   22890439.689
        46.0004         42.0004
     22703.34947     17466.00046  24054142.3084   24054153.1744   24054143.043
        44.0004         39.0004
  -5543946.36047  -4266153.86946  23351491.5124   23351499.3594   23351490.501
        43.0004         39.0004
 -11850410.78948  -9225771.41248  20410462.1154   20410469.9534   20410461.915
        53.0004         48.0004
 -16570901.02848 -12849633.45147  22213167.6254   22213175.6974   22213167.149
        50.0004         46.0004
 -19894943.68348 -15447247.47547  22103949.1654   22103957.9314   22103949.443
        49.0004         44.0004
 14  5  9  0  3  0.0000000  0 11G20G07G10G08G11G01G28G13G09G17G04
  -5548785.39147  -4276460.49046  23618108.6524   23618118.2434   23618108.758
        42.0004         37.0004
 -23824465.60949 -18533758.47748  20157120.9334   20157127.5384   20157120.498
        54.0004         49.0004
  -6021670.01346  -4681474.54046  24532001.0394   24532012.6544   24532001.310
        41.0004         37.0004
 -17936803.92549 -13964329.07448  20328741.0404   20328749.3314   20328741.307
        54.0004         49.0004
                                                                  24617821.678

 -10116788.10047  -7854607.19847  22906951.8154   22906964.8564   22906951.871
        46.0004         42.0004
    -13891.40447    -11049.26546  24047179.3474   24047190.6494   24047179.740
        43.0004         39.0004
  -5463590.49447  -4203538.85546  23366781.0444   23366790.8184   23366782.067
        43.0004         39.0004
 -11900827.56348  -9265057.15248  20400868.1804   20400875.8344   20400867.845
        53.0004         48.0004
 -16535541.99648 -12822080.96347  22219895.7874   22219904.5094   22219895.238
        50.0004         46.0004
 -19983900.30648 -15516564.20447  22087021.5124   22087030.3674   22087021.045
        49.0004         44.0004
 14  5  9  0  3 30.0000000  0 11G20G07G10G08G11G01G28G13G09G17G04
  -5548442.46747  -4276193.24646  23618173.5774   23618183.9894   23618174.692
        42.0004         38.0004
 -23808684.02549 -18521461.10048  20160124.0284   20160130.5464   20160123.822
        54.0004         49.0004
  -6066066.27847  -4716068.86746  24523551.4604   24523564.2704   24523552.863
        42.0004         37.0004
 -17989630.07149 -14005492.24248  20318688.2854   20318696.4914   20318688.950
        54.0004         49.0004
                                                                  24637827.457

 -10029695.48447  -7786742.86747  22923526.4884   22923539.0354   22923524.698
        46.0004         42.0004
    -50746.04147    -39767.02946  24040165.0164   24040177.1494   24040165.881
        43.0004         39.0004
  -5383331.55547  -4140999.34946  23382056.0574   23382063.0674   23382055.262
        43.0004         39.0004
 -11950721.97048  -9303935.84648  20391373.6404   20391381.5114   20391373.489
        53.0004         49.0004
 -16499996.69248 -12794383.30647  22226659.9424   22226668.2334   22226659.322
        50.0004         46.0004
 -20072594.41548 -15585676.37347  22070143.4614   22070153.0914   22070143.334
        49.0004         44.0004
 14  5  9  0  4  0.0000000  0 11G20G07G10G08G11G01G28G13G09G17G04
  -5547944.23147  -4275804.98846  23618268.2824   23618279.0894   23618268.587
        42.0004         38.0004
 -23792300.95849 -18508695.04448  20163241.7934   20163248.2194   20163241.441
        54.0004         49.0004
  -6110708.64647  -4750854.94446  24515057.2374   24515069.7384   24515057.344
        42.0004         37.0004
 -18041928.76949 -14046244.41348  20308736.1904   20308744.4024   20308736.798
        54.0004         49.0004
                                                                  24657842.984

  -9942282.82447  -7718629.15947  22940159.4384   22940171.9334   22940159.182
        46.0004         42.0004
    -87860.39247    -68687.17046  24033101.3764   24033112.4064   24033103.700
        43.0004         39.0004
  -5303171.92847  -4078537.26046  23397308.8614   23397317.0894   23397309.339
        43.0004         39.0004
 -12000092.20548  -9342406.09648  20381978.4424   20381986.1184   20381978.532
        53.0004         48.0004
 -16464268.24648 -12766542.95447  22233458.7754   22233467.3764   22233458.209
        50.0004         46.0004
 -20161023.68948 -15654582.18547  22053315.6174   22053324.7804   22053315.634
        49.0004         44.0004
 14  5  9  0  4 30.0000000  0 11G20G07G10G08G11G01G28G13G09G17G04
  -5547288.28847  -4275293.85646  23618393.8634   23618400.9464   23618394.111
        42.0004         37.0004
 -23775315.50749 -18495459.59248  20166473.8534   20166480.3704   20166473.501
        54.0004         49.0004
  -6155595.80847  -4785831.78046  24506516.6464   24506528.4624   24506515.909
        42.0004         37.0004
 -18093696.33749 -14086582.71048  20298885.0544   20298893.4954   20298885.531
        54.0004         49.0004
                                                                  24677868.253

  -9854551.80747  -7650267.37747  22956854.8334   22956867.4494   22956853.571
        46.0004         42.0004
   -125232.69747    -97808.31146  24025990.9094   24026001.8324   24025991.596
        43.0004         39.0004
  -5223113.07247  -4016153.67946  23412543.4064   23412553.0684   23412543.841
        44.0004         39.0004
 -12048935.57348  -9380465.79348  20372683.5004   20372691.6534   20372683.866
        53.0004         48.0004
 -16428358.41448 -12738561.26047  22240292.2134   22240301.5124   22240291.912
        50.0004         46.0004
 -20249184.70848 -15723278.96347  22036539.6464   22036547.8174   22036538.908
        49.0004         44.0004
 14  5  9  0  5  0.0000000  0 10G20G07G10G08G01G28G13G09G17G04
  -5546472.49047  -4274658.13546  23618547.5964   23618559.0114   23618549.184
        42.0004         37.0004
 -23757728.42149 -18481755.33348  20169820.5574   20169826.8924   20169820.214
        54.0004         49.0004
  -6200727.71847  -4820999.31746  24497926.7774   24497939.7734   24497927.481
        42.0004         37.0004
 -18144930.30149 -14126505.21648  20289135.8304   20289143.3754   20289136.176
        54.0004         49.0004
  -9766504.66847  -7581659.26246  22973608.7084   22973621.9754   22973608.873
        46.0004         41.0004
   -162862.21047   -127129.88246  24018830.9694   24018840.2194   24018831.057
        43.0004         39.0004
  -5143156.92647  -3953850.12946  23427758.8274   23427768.1384   23427758.582
        44.0004         39.0004
 -12097249.85248  -9418113.21648  20363490.1184   20363497.7344   20363489.798
        53.0004         48.0004
 -16392269.76748 -12710440.23647  22247159.3634   22247168.3254   22247159.173
        50.0004         46.0004
 -20337074.41748 -15791764.32647  22019813.9564   22019822.5844   22019814.035
        49.0004         44.0004
 14  5  9  0  5 30.0000000  0 10G20G07G10G08G01G28G13G09G17G04
  -5545496.94547  -4273897.94346  23618734.0664   23618744.2314   23618734.582
        42.0004         37.0004
 -23739541.51149 -18467583.68048  20173281.4664   20173287.8064   20173281.242
        54.0004         49.0004
  -6246105.97447  -4856358.82546  24489292.6524   24489304.0964   24489292.400
        42.0004         37.0004
 -18195629.80249 -14166011.25248  20279488.3214   20279496.1224   20279488.441
        54.0004         49.0004
  -9678145.69147  -7512808.16746  22990423.3344   22990436.0454   22990422.648
        46.0004         41.0004
   -200749.81547   -156652.57446  24011621.0294   24011631.6474   24011620.920
        44.0004         39.0004
  -5063307.51147  -3891629.74646  23442953.5634   23442961.6864   23442953.844
        44.0004         39.0004
 -12145034.80848  -9455348.17648  20354396.6674   20354404.4644   20354396.572
        53.0004         48.0004
 -16356006.27948 -12682182.96547  22254060.7004   22254069.1254   22254059.969
        50.0004         46.0004
 -20424691.83548 -15860037.51047  22003140.8054   22003150.4194   22003140.881
        49.0004         44.0004
 14  5  9  0  6  0.0000000  0 10G20G07G10G08G01G28G13G09G17G04
  -5544356.70747  -4273009.41846  23618950.9604   23618960.1144   23618951.638
        42.0004         37.0004
 -23720752.24949 -18452942.65848  20176856.8544   20176863.2154   20176856.423
        54.0004         49.0004
  -6291727.12047  -4891907.58946  24480609.1424   24480622.4434   24480610.334
        42.0004         37.0004
 -18245789.31349 -14205096.52448  20269943.0364   20269950.7374   20269943.404
        54.0004         49.0004
  -9589474.42847  -7443713.74646  23007296.7044   23007309.7154   23007296.096
        46.0004         41.0004
   -238891.87847   -186373.54746  24004362.5504   24004372.9124   24004362.563
        43.0004         39.0004
  -4983563.87747  -3829491.78746  23458128.4294   23458136.3064   23458128.254
        43.0004         39.0004
 -12192285.34248  -9492166.69848  20345404.6964   20345412.6194   20345404.921
        53.0004         49.0004
 -16319567.89148 -12653789.42047  22260994.3674   22261003.3194   22260994.017
        50.0004         46.0004
 -20512031.44448 -15928094.23247  21986521.0584   21986529.9654   21986520.421
        49.0004         44.0004
 14  5  9  0  6 30.0000000  0 10G20G07G10G08G01G28G13G09G17G04
  -5543050.71447  -4271991.75746  23619199.3634   23619208.8684   23619200.154
        42.0004         37.0004
 -23701361.59549 -18437833.01448  20180546.9444   20180553.1864   20180546.545
        54.0004         49.0004
  -6337591.78547  -4927646.10946  24471880.6984   24471894.3984   24471882.214
        42.0004         38.0004
 -18295406.87649 -14243759.49048  20260500.8984   20260508.9144   20260501.051
        54.0004         49.0004
  -9500494.02247  -7374378.41846  23024228.5194   23024241.9974   23024228.522
        46.0004         41.0004
   -277288.16847   -216292.60246  23997055.6184   23997065.8614   23997055.985
        43.0004         39.0004
  -4903928.68247  -3767438.31046  23473282.7004   23473290.0194   23473282.490
        43.0004         39.0004
 -12239000.31848  -9528567.90248  20336515.7124   20336523.3504   20336515.281
        53.0004         49.0004
 -16282958.08248 -12625262.30447  22267961.4054   22267969.9804   22267960.795
        50.0004         46.0004
 -20599091.32748 -15995932.97647  21969954.2194   21969961.9814   21969953.840
        49.0004         44.0004
 14  5  9  0  7  0.0000000  0 10G20G07G10G08G01G28G13G09G17G04
  -5541579.90147  -4270845.64546  23619478.8784   23619490.0074   23619480.084
        42.0004         37.0004
 -23681372.90149 -18422257.36848  20184350.3874   20184356.5034   20184350.129
        54.0004         49.0004
  -6383702.31647  -4963576.21146  24463107.4114   24463119.8844   24463107.652
        42.0004         38.0004
 -18344482.80349 -14282000.40548  20251161.8434   20251170.1454   20251162.359
        54.0004         49.0004
  -9411209.74447  -7304806.31846  23041219.7634   23041232.3144   23041218.685
        46.0004         41.0004
   -315940.66647   -246411.31646  23989700.6644   23989709.8704   23989700.448
        43.0004         39.0004
  -4824406.87447  -3705473.19546  23488414.6474   23488422.5204   23488414.246
        43.0004         39.0004
 -12285180.58648  -9564552.45048  20327727.5054   20327735.2244   20327727.547
        53.0004         49.0004
 -16246181.82248 -12596605.45747  22274959.2384   22274968.1074   22274958.726
        50.0004         46.0004
 -20685871.43648 -16063553.72247  21953440.3434   21953448.6084   21953439.534
        49.0004         45.0004
 14  5  9  0  7 30.0000000  0 10G20G07G10G08G01G28G13G09G17G04
  -5539939.06946  -4269567.07046  23619792.8324   23619802.9474   23619792.956
        41.0004         37.0004
 -23660783.24449 -18406213.43948  20188268.7004   20188274.7564   20188268.212
        54.0004         49.0004
  -6430055.33047  -4999695.26646  24454285.8574   24454298.7924   24454286.939
        42.0004         38.0004
 -18393011.36949 -14319814.80448  20241927.2814   20241935.2154   20241927.501
        54.0004         49.0004
  -9321620.80247  -7234996.81746  23058267.5094   23058280.8274   23058267.074
        46.0004         41.0004
   -354845.14447   -276726.36946  23982297.8254   23982308.6554   23982297.093
        44.0004         39.0004
  -4744997.40047  -3643595.61246  23503526.6814   23503534.5934   23503525.786
        43.0004         39.0004
 -12330820.74548  -9600116.13448  20319042.4434   20319050.3614   20319042.537
        53.0004         49.0004
 -16209238.44748 -12567818.40947  22281989.3674   22281998.2644   22281988.938
        50.0004         46.0004
 -20772365.92448 -16130951.90447  21936980.6024   21936989.1714   21936980.219
        49.0004         45.0004
 14  5  9  0  8  0.0000000  0 10G20G07G10G08G01G28G13G09G17G04
  -5538127.87646  -4268155.74246  23620136.0424   23620144.6754   23620136.864
        41.0004         37.0004
 -23639594.02849 -18389702.32248  20192300.7064   20192306.8444   20192300.165
        54.0004         49.0004
  -6476651.71847  -5036003.96746  24445419.3124   24445430.5384   24445419.806
        42.0004         38.0004
 -18440991.38049 -14357201.76248  20232797.0414   20232805.0944   20232797.258
        54.0004         49.0004
  -9231730.96947  -7164952.84846  23075372.8654   23075385.6014   23075372.756
        46.0004         41.0004
   -394001.97647   -307238.06746  23974845.3324   23974855.7384   23974845.573
        43.0004         39.0004
  -4665703.30047  -3581807.92646  23518616.9014   23518622.6754   23518615.034
        43.0004         39.0004
 -12375920.21448  -9635258.50748  20310460.1064   20310467.6454   20310460.299
        53.0004         49.0004
 -16172131.88648 -12538904.23647  22289050.4294   22289059.5064   22289050.191
        50.0004         46.0004
 -20858573.27148 -16198126.34147  21920575.2734   21920584.3044   21920575.596
        49.0004         45.0004
 14  5  9  0  8 30.0000000  0 10G20G07G10G08G01G28G13G09G17G04
  -5536143.68946  -4266609.61546  23620515.3674   23620523.1204   23620514.639
        41.0004         36.0004
 -23617805.35949 -18372724.09148  20196447.1354   20196453.1954   20196446.666
        54.0004         49.0004
  -6523489.94447  -5072501.10946  24436506.5084   24436519.1744   24436506.874
        42.0004         38.0004
 -18488419.14949 -14394158.39848  20223771.7984   20223779.4804   20223771.806
        54.0004         49.0004
  -9141541.93547  -7094675.74346  23092535.5444   23092548.1494   23092534.670
        46.0004         41.0004
   -433409.53847   -337945.14646  23967346.4664   23967356.3184   23967346.891
        43.0004         39.0004
  -4586526.01847  -3520111.25046  23533682.8754   23533689.9664   23533682.041
        43.0004         38.0004
 -12420476.43448  -9669977.56248  20301981.5364   20301989.2994   20301981.706
        53.0004         49.0004
 -16134864.09648 -12509864.39147  22296142.4254   22296151.1064   22296141.928
        50.0004         45.0004
 -20944489.95548 -16265074.28847  21904225.9244   21904234.6434   21904225.657
        49.0004         45.0004
 14  5  9  0  9  0.0000000  0 10G20G07G10G08G01G28G13G09G17G04
  -5533985.14446  -4264927.61546  23620925.3384   23620936.3264   23620924.662
        41.0004         37.0004
 -23595418.48449 -18355279.72948  20200707.1204   20200712.8694   20200706.499
        54.0004         49.0004
  -6570570.45647  -5109187.04446  24427546.4074   24427557.2654   24427547.264
        42.0004         38.0004
 -18535292.94449 -14430683.37548  20214851.7554   20214860.0194   20214852.146
        54.0004         49.0004
  -9051056.69947  -7024167.83546  23109754.2504   23109767.5254   23109753.645
        45.0004         41.0004
   -473067.59947   -368847.41746  23959800.6364   23959810.0284   23959800.620
        43.0004         39.0004
  -4507468.35447  -3458507.79046  23548725.6194   23548734.4554   23548725.660
        43.0004         38.0004
 -12464487.89548  -9704272.13248  20293606.3224   20293613.5674   20293606.255
        53.0004         49.0004
 -16097438.04548 -12480701.22747  22303264.1544   22303272.9744   22303264.137
        50.0004         46.0004
 -21030113.94248 -16331794.15747  21887932.9954   21887940.4164   21887932.598
        49.0004         45.0004
 14  5  9  0  9 30.0000000  0 10G20G07G10G08G01G28G13G09G17G04
  -5531649.59247  -4263107.69946  23621369.3214   23621380.1234   23621369.786
        42.0004         37.0004
 -23572432.65949 -18337368.65648  20205081.0614   20205087.1234   20205080.436
        54.0004         49.0004
  -6617892.11047  -5146060.88946  24418541.0664   24418551.7334   24418542.799
        42.0004         38.0004
 -18581609.21949 -14466773.90348  20206037.7844   20206045.7934   20206038.117
        54.0004         49.0004
  -8960276.99247  -6953430.45846  23127029.7374   23127042.3784   23127028.834
        45.0004         41.0004
   -512974.56647   -399943.63946  23952205.4124   23952214.4904   23952206.304
        43.0004         39.0004
  -4428531.07647  -3396998.14346  23563745.9654   23563756.0394   23563746.574
        43.0004         38.0004
 -12507952.11148  -9738140.27348  20285335.5134   20285343.1384   20285335.500
        53.0004         49.0004
 -16059855.75648 -12451416.33747  22310416.0784   22310424.7354   22310415.814
        50.0004         45.0004
 -21115441.81548 -16398283.29247  21871695.0564   21871703.3094   21871694.741
        49.0004         45.0004
 14  5  9  0 10  0.0000000  0 10G20G07G10G08G01G28G13G09G17G04
  -5529135.80247  -4261148.91446  23621847.1514   23621857.4774   23621847.465
        42.0004         37.0004
 -23548848.92349 -18318991.67648  20209568.9054   20209574.8214   20209568.326
        54.0004         49.0004
  -6665454.84047  -5183122.58746  24409489.9274   24409503.3624   24409490.785
        42.0004         37.0004
 -18627366.11849 -14502428.56648  20197330.9614   20197338.6584   20197331.021
        54.0004         49.0004
  -8869205.68847  -6882465.87746  23144359.4934   23144373.5124   23144359.318
        45.0004         41.0004
   -553129.25347   -431232.87246  23944564.4034   23944574.3934   23944564.785
        43.0004         39.0004
  -4349716.71447  -3335584.27046  23578744.5994   23578752.8624   23578744.451
        43.0004         38.0004
 -12550867.50648  -9771580.76148  20277168.5594   20277176.5704   20277168.725
        53.0004         49.0004
 -16022119.79948 -12422011.69447  22317596.8974   22317604.9104   22317596.404
        50.0004         45.0004
 -21200470.96348 -16464539.65747  21855514.7524   21855522.4444   21855514.351
        49.0004         45.0004
 14  5  9  0 10 30.0000000  0 10G20G07G10G08G01G28G13G09G17G04
  -5526444.27047  -4259051.62746  23622361.4374   23622369.0654   23622360.755
        42.0004         37.0004
 -23524670.50649 -18300151.30748  20214169.9334   20214175.9344   20214169.515
        54.0004         49.0004
  -6713260.81547  -5220373.81346  24400393.6484   24400405.2034   24400393.215
        42.0004         37.0004
 -18672563.47949 -14537647.22048  20188730.0544   20188738.0534   20188730.193
        54.0004         49.0004
  -8777847.75447  -6811277.94746  23161744.5314   23161757.2124   23161744.317
        45.0004         40.0004
   -593533.33547   -462716.45546  23936875.7064   23936885.6404   23936875.980
        43.0004         38.0004
  -4271029.72647  -3274269.65246  23593719.4414   23593727.3134   23593718.028
        43.0004         38.0004
 -12593234.75048  -9804594.12048  20269106.7094   20269113.8294   20269106.522
        53.0004         49.0004
 -15984235.51548 -12392491.46447  22324806.2934   22324814.4094   22324805.508
        50.0004         45.0004
 -21285201.31648 -16530563.19447  21839391.0414   21839399.1604   21839390.445
        49.0004         45.0004
 14  5  9  0 11  0.0000000  0 10G20G07G10G08G01G28G13G09G17G04
  -5523569.37247  -4256811.44346  23622906.0824   23622916.1104   23622907.100
        42.0004         37.0004
 -23499894.14349 -18280844.99948  20218884.5654   20218890.8724   20218883.995
        54.0004         49.0004
  -6761305.61247  -5257811.13146  24391250.6164   24391262.0434   24391250.940
        42.0004         37.0004
 -18717195.34949 -14572425.24148  20180236.9574   20180244.7654   20180237.259
        54.0004         49.0004
  -8686201.90847  -6739865.66846  23179184.7834   23179196.9784   23179183.383
        45.0004         40.0004
   -634182.10047   -494390.71446  23929141.1724   23929150.1964   23929140.289
        43.0004         39.0004
  -4192468.17147  -3213052.76046  23608668.7414   23608677.8204   23608668.457
        43.0004         38.0004
 -12635048.18648  -9837175.93948  20261149.5704   20261157.1544   20261149.497
        53.0004         49.0004
 -15946201.46548 -12362854.54047  22332043.2754   22332052.3304   22332042.989
        50.0004         45.0004
 -21369626.31948 -16596348.80847  21823324.5314   21823333.5214   21823324.681
        49.0004         45.0004
 14  5  9  0 11 30.0000000  0 10G20G07G10G08G01G28G13G09G17G04
  -5520510.39347  -4254427.84746  23623490.4074   23623498.8484   23623490.138
        42.0004         37.0004
 -23474521.47349 -18261074.04648  20223712.9064   20223719.1694   20223712.289
        54.0004         49.0004
  -6809589.80847  -5295435.01246  24382062.5534   24382073.0434   24382062.845
        42.0004         37.0004
 -18761260.42649 -14606761.59848  20171851.5084   20171859.1674   20171851.519
        54.0004         49.0004
  -8594271.62147  -6668231.74446  23196678.3244   23196690.1514   23196677.845
        45.0004         40.0004
   -675075.55347   -526255.64246  23921358.1294   23921369.6744   23921358.549
        43.0004         38.0004
  -4114034.90447  -3151935.83746  23623593.6224   23623599.4924   23623593.433
        43.0004         37.0004
 -12676307.00348  -9869325.59148  20253298.4974   20253305.6024   20253298.305
        53.0004         49.0004
 -15908021.15648 -12333103.64547  22339308.7854   22339318.0724   22339308.825
        50.0004         45.0004
 -21453744.41648 -16661895.26147  21807318.0434   21807325.6694   21807317.816
        50.0004         45.0004
 14  5  9  0 12  0.0000000  0 10G20G07G10G08G01G28G13G09G17G04
  -5517266.19147  -4251899.91246  23624107.5434   23624115.3684   23624106.353
        42.0004         37.0004
 -23448553.28049 -18240839.04048  20228654.2214   20228660.5644   20228653.868
        54.0004         49.0004
  -6858113.62547  -5333245.60246  24372827.2284   24372838.9924   24372828.964
        42.0004         37.0004
 -18804756.80149 -14640654.82048  20163574.4264   20163581.9434   20163574.821
        54.0004         49.0004
  -8502059.99047  -6596378.58546  23214225.5254   23214238.7144   23214225.109
        45.0004         41.0004
   -716213.34847   -558310.94346  23913530.4694   23913539.8444   23913530.118
        43.0004         39.0004
  -4035732.60447  -3090920.97846  23638493.5864   23638501.9304   23638493.105
        42.0004         38.0004
 -12717009.99148  -9901042.12848  20245552.8234   20245560.0614   20245552.480
        53.0004         49.0004
 -15869698.14448 -12303241.55147  22346601.4494   22346610.7964   22346601.313
        50.0004         45.0004
 -21537553.26248 -16727200.74647  21791369.5734   21791377.6044   21791369.202
        50.0004         45.0004
 14  5  9  0 12 30.0000000  0 10G20G07G10G08G01G28G13G09G17G04
  -5513833.03947  -4249224.75146  23624759.6254   23624769.4084   23624760.659
        42.0004         37.0004
 -23421989.22049 -18220139.73048  20233709.3474   20233715.5534   20233708.870
        54.0004         49.0004
  -6906874.98147  -5371241.28546  24363550.0914   24363562.3594   24363549.720
        42.0004         37.0004
 -18847680.30449 -14674101.64648  20155405.9254   20155413.9354   20155406.266
        54.0004         49.0004
  -8409567.80347  -6524306.81346  23231826.0174   23231837.7844   23231825.526
        45.0004         40.0004
   -757592.74247   -590554.50546  23905655.7814   23905665.5664   23905655.772
        43.0004         39.0004
  -3957561.23547  -3030008.15046  23653368.6604   23653377.1894   23653368.803
        42.0004         38.0004
 -12757153.73249  -9932322.89448  20237913.6134   20237921.0134   20237913.494
        54.0004         49.0004
 -15831232.89948 -12273268.62247  22353921.6544   22353930.0964   22353920.934
        50.0004         45.0004
 -21621048.62548 -16792261.96847  21775480.5144   21775489.3584   21775480.709
        50.0004         45.0004
 14  5  9  0 13  0.0000000  0 10G20G07G10G08G01G28G13G09G17G04
  -5510214.03247  -4246404.75246  23625448.4744   23625457.6484   23625448.330
        42.0004         37.0004
 -23394835.00449 -18198980.55348  20238876.4474   20238882.7834   20238876.297
        54.0004         49.0004
  -6955877.81247  -5409425.13946  24354223.7104   24354235.0934   24354225.235
        42.0004         37.0004
 -18890033.46649 -14707104.05148  20147347.1134   20147354.3464   20147347.158
        54.0004         49.0004
  -8316802.52247  -6452022.26346  23249479.7514   23249490.9474   23249478.333
        45.0004         40.0004
   -799217.38947   -622989.18646  23897734.7064   23897744.9674   23897734.591
        43.0004         39.0004
  -3879527.83747  -2969202.80246  23668218.4154   23668226.3614   23668218.263
        42.0004         38.0004
 -12796741.48349  -9963170.41648  20230380.1644   20230387.4084   20230380.024
        54.0004         49.0004
 -15792632.89648 -12243190.69347  22361267.0134   22361275.0914   22361266.548
        50.0004         45.0004
 -21704232.78348 -16857080.67547  21759650.7414   21759660.1424   21759650.696
        50.0004         45.0004
 14  5  9  0 13 30.0000000  0 10G20G07G10G08G01G28G13G09G17G04
  -5506402.71447  -4243434.92446  23626173.3504   23626183.8284   23626174.384
        42.0004         37.0004
 -23367086.21949 -18177358.08048  20244157.1484   20244162.8794   20244156.520
        54.0004         49.0004
  -7005117.07947  -5447793.23646  24344854.5644   24344864.1714   24344854.928
        42.0004         37.0004
 -18931809.35249 -14739656.63348  20139396.7444   20139404.3784   20139397.101
        54.0004         49.0004
  -8223761.94647  -6379523.18446  23267184.6404   23267196.8694   23267183.639
        45.0004         40.0004
   -841081.68747   -655610.61746  23889768.9184   23889776.9714   23889767.915
        43.0004         39.0004
  -3801629.45547  -2908502.67946  23683042.9254   23683048.9764   23683041.599
        42.0004         38.0004
 -12835767.08549  -9993579.90648  20222953.5394   20222961.1604   20222953.581
        54.0004         49.0004
 -15753896.06048 -12213006.13147  22368638.3414   22368646.4444   22368637.715
        50.0004         45.0004
 -21787098.20048 -16921651.02347  21743882.2714   21743891.1224   21743881.767
        50.0004         45.0004
 14  5  9  0 14  0.0000000  0 11G20G07G10G26G08G01G28G13G09G17G04
  -5502401.35847  -4240316.99346  23626934.1194   23626943.8374   23626934.967
        42.0004         37.0004
 -23338747.59349 -18155275.98648  20249549.5024   20249555.5344   20249549.003
        54.0004         49.0004
  -7054596.64647  -5486348.56346  24335437.6324   24335451.4174   24335439.192
        42.0004         37.0004
   -808812.35448   -613193.95446  24199872.1894   24199885.4924   24199870.732
        51.0004         36.0004
 -18973009.84349 -14771760.85948  20131556.8834   20131563.8554   20131557.180
        54.0004         49.0004
  -8130452.78547  -6306814.81046  23284940.8614   23284952.7274   23284939.917
        45.0004         40.0004
   -883188.66747   -688421.15046  23881756.6504   23881764.6954   23881755.340
        43.0004         38.0004
  -3723871.99347  -2847912.35246  23697838.7074   23697847.1844   23697838.286
        42.0004         37.0004
 -12874232.66849 -10023553.01648  20215634.0474   20215641.5274   20215633.959
        54.0004         49.0004
 -15715028.91948 -12182720.03647  22376034.5424   22376042.9674   22376033.790
        50.0004         45.0004
 -21869646.35648 -16985974.14847  21728173.8114   21728182.0304   21728173.792
        50.0004         45.0004
 14  5  9  0 14 30.0000000  0 11G20G07G10G26G08G01G28G13G09G17G04
  -5498205.49547  -4237047.50846  23627734.0224   23627743.7204   23627734.046
        42.0004         37.0004
 -23309817.04749 -18132732.65648  20255054.6714   20255061.1904   20255053.983
        54.0004         49.0004
  -7104312.40447  -5525087.91446  24325977.2364   24325987.8604   24325978.235
        42.0004         37.0004
   -832386.30547   -631563.13246  24195383.8314   24195398.3814   24195383.606
        46.0004         36.0004
 -19013629.58449 -14803412.54448  20123827.1434   20123834.4464   20123827.319
        54.0004         49.0004
  -8036874.33147  -6233896.58646  23302747.2274   23302760.4524   23302746.899
        45.0004         40.0004
   -925534.00547   -721417.42346  23873697.2694   23873707.0764   23873697.088
        43.0004         38.0004
  -3646254.26347  -2787430.90946  23712610.2674   23712615.9804   23712608.682
        42.0004         38.0004
 -12912133.43049 -10053086.01148  20208421.0454   20208429.2384   20208421.603
        54.0004         49.0004
 -15676030.53348 -12152331.66447  22383455.8974   22383464.7414   22383454.845
        50.0004         45.0004
 -21951871.44648 -17050045.54247  21712527.4584   21712535.3784   21712526.456
        50.0004         45.0004
 14  5  9  0 15  0.0000000  0 11G20G07G10G26G08G01G28G13G09G17G04
  -5493812.22547  -4233624.19046  23628569.7624   23628578.7624   23628569.545
        42.0004         37.0004
 -23280294.54449 -18109728.06048  20260672.3354   20260678.6384   20260672.035
        54.0004         49.0004
  -7154262.99747  -5564010.26546  24316472.4914   24316482.3354   24316473.044
        42.0004         37.0004
   -855590.91347   -649644.47746  24190968.8164   24190984.2584   24190968.733
        42.0004         36.0004
 -19053665.33149 -14834609.17448  20116208.4184   20116215.8974   20116208.853
        54.0004         49.0004
  -7943028.28447  -6160769.86146  23320606.2494   23320618.8294   23320605.724
        45.0004         40.0004
   -968115.77247   -754597.91846  23865593.0474   23865604.1504   23865594.063
        43.0004         39.0004
  -3568777.41947  -2727059.24146  23727351.8914   23727360.8634   23727351.588
        42.0004         38.0004
 -12949467.02949 -10082177.05648  20201317.1824   20201324.5994   20201317.252
        54.0004         49.0004
 -15636903.33848 -12121842.93247  22390901.0764   22390909.2264   22390900.639
        50.0004         45.0004
 -22033770.03148 -17113862.50447  21696941.5994   21696950.2424   21696941.660
        50.0004         45.0004
 14  5  9  0 15 30.0000000  0 11G20G07G10G26G08G01G28G13G09G17G04
  -5489220.49947  -4230046.25046  23629444.4524   23629451.9354   23629444.912
        42.0004         37.0004
 -23250182.12449 -18086263.78648  20266402.7674   20266408.7744   20266402.275
        54.0004         49.0004
  -7204449.46747  -5603116.43046  24306921.5144   24306932.8374   24306922.175
        42.0004         37.0004
   -878428.41946   -667439.81346  24186623.7644   24186636.8124   24186622.424
        41.0004         36.0004
 -19093116.20949 -14865350.06448  20108701.0174   20108708.6694   20108701.315
        54.0004         49.0004
  -7848918.52047  -6087437.64446  23338514.3984   23338527.2024   23338514.252
        44.0004         40.0004
  -1010934.11647   -787962.77146  23857446.0864   23857455.5284   23857446.252
        43.0004         38.0004
  -3491444.28147  -2666799.55446  23742068.2924   23742076.5714   23742067.423
        42.0004         38.0004
 -12986232.98349 -10110825.78448  20194320.8054   20194328.2944   20194320.728
        54.0004         49.0004
 -15597650.82748 -12091256.53847  22398370.7754   22398379.2064   22398369.976
        50.0004         45.0004
 -22115340.64048 -17177423.90747  21681419.8414   21681427.6724   21681419.027
        50.0004         45.0004
 14  5  9  0 16  0.0000000  0 11G20G07G10G26G08G01G28G13G09G17G04
  -5484425.84747  -4226310.19446  23630355.1714   23630366.9104   23630356.229
        42.0004         37.0004
 -23219477.48049 -18062338.04448  20272245.6954   20272251.9964   20272245.142
        54.0004         49.0004
  -7254868.15147  -5642403.52846  24297326.2934   24297339.3144   24297327.203
        42.0004         37.0004
   -900896.65346   -684947.40046  24182346.2184   24182362.1314   24182346.866
        41.0004         36.0004
 -19131977.00849 -14895631.15948  20101306.2454   20101313.7404   20101306.179
        54.0004         49.0004
  -7754544.58747  -6013899.58146  23356473.9374   23356487.1484   23356472.822
        44.0004         40.0004
  -1053984.92847   -821508.77246  23849253.9544   23849262.8634   23849253.822
        43.0004         39.0004
  -3414253.38847  -2606650.71046  23756757.8224   23756764.0594   23756756.742
        42.0004         38.0004
 -13022426.75249 -10139028.65148  20187433.5424   20187440.7994   20187433.454
        54.0004         49.0004
 -15558272.49848 -12060572.11247  22405864.4694   22405872.2614   22405863.836
        50.0004         45.0004
 -22196577.42348 -17240725.20147  21665960.9104   21665968.6164   21665960.411
        50.0004         45.0004
 14  5  9  0 16 30.0000000  0 11G20G07G10G26G08G01G28G13G09G17G04
  -5479430.80447  -4222417.98946  23631306.5104   23631316.2574   23631307.411
        42.0004         38.0004
 -23188185.86548 -18037954.92348  20278199.8104   20278206.4924   20278199.573
        53.0004         49.0004
  -7305522.46647  -5681874.25346  24287686.4254   24287699.3734   24287687.847
        42.0004         37.0004
   -923000.40346   -702170.96146  24178140.2654   24178155.9884   24178139.826
        41.0004         36.0004
 -19170249.44449 -14925453.78548  20094022.9624   20094030.8714   20094023.438
        54.0004         49.0004
  -7659912.87147  -5940160.64546  23374480.6974   23374494.1914   23374480.652
        44.0004         39.0004
  -1097270.96647   -855238.07646  23841016.2214   23841025.7504   23841016.241
        43.0004         38.0004
  -3337211.01347  -2546617.57946  23771417.9334   23771425.8904   23771417.247
        42.0004         38.0004
 -13058050.74349 -10166787.53848  20180654.1884   20180661.5904   20180654.149
        54.0004         49.0004
 -15518774.79548 -12029794.67047  22413379.9334   22413387.3234   22413379.578
        49.0004         45.0004
 -22277481.82748 -17303767.48047  21650565.4864   21650572.9774   21650564.963
        50.0004         45.0004
 14  5  9  0 17  0.0000000  0 11G20G07G10G26G08G01G28G13G09G17G04
  -5474232.09247  -4218367.06946  23632296.5174   23632305.7064   23632296.289
        42.0004         38.0004
 -23156307.18848 -18013114.35148  20284266.4994   20284272.5324   20284265.990
        53.0004         49.0004
  -7356410.49847  -5721527.07546  24278004.5184   24278015.2744   24278004.896
        42.0004         37.0004
   -944739.55646   -719110.40446  24174003.5994   24174020.7444   24174003.816
        41.0004         36.0004
 -19207930.35949 -14954815.48548  20086852.4524   20086860.1074   20086852.797
        54.0004         49.0004
  -7565024.89947  -5866222.03146  23392537.6994   23392550.3734   23392536.981
        44.0004         40.0004
  -1140789.82147   -889148.79346  23832735.1564   23832744.0074   23832735.126
        43.0004         39.0004
  -3260317.69647  -2486700.61546  23786049.7954   23786058.5784   23786049.663
        42.0004         38.0004
 -13093102.18449 -10194100.28448  20173983.9154   20173991.4384   20173984.017
        54.0004         49.0004
 -15479159.03148 -11998925.23647  22420918.7294   22420927.4494   22420918.006
        49.0004         45.0004
 -22358050.26748 -17366547.98147  21635233.7004   21635241.5604   21635233.298
        50.0004         45.0004
 14  5  9  0 17 30.0000000  0 11G20G07G10G26G08G01G28G13G09G17G04
  -5468828.36247  -4214156.40646  23633324.8914   23633333.7074   23633325.753
        42.0004         37.0004
 -23123842.48848 -17987817.13548  20290444.0534   20290450.2114   20290443.454
        53.0004         49.0004
  -7407531.90247  -5761361.75246  24268275.6884   24268286.8654   24268276.366
        42.0004         38.0004
   -966115.30946   -735766.70646  24169936.2544   24169950.0944   24169935.720
        41.0004         36.0004
 -19245017.82049 -14983714.75748  20079795.2714   20079802.4714   20079795.362
        54.0004         49.0004
  -7469883.48147  -5792085.92346  23410642.8914   23410655.6434   23410642.078
        44.0004         40.0004
  -1184540.72547   -923240.31746  23824409.4174   23824419.1204   23824409.858
        43.0004         39.0004
  -3183575.30547  -2426901.24646  23800653.1774   23800660.8044   23800652.877
        42.0004         37.0004
 -13127580.01849 -10220966.06848  20167423.0754   20167430.5064   20167423.023
        54.0004         49.0004
 -15439428.19948 -11967966.13847  22428479.3134   22428488.9784   22428478.697
        49.0004         45.0004
 -22438280.11548 -17429064.64147  21619966.2604   21619974.3104   21619965.739
        50.0004         46.0004
 14  5  9  0 18  0.0000000  0 11G20G07G10G26G08G01G28G13G09G17G04
  -5463215.95347  -4209783.13546  23634390.5534   23634401.1934   23634392.020
        42.0004         37.0004
 -23090790.76848 -17962062.50648  20296734.0614   20296739.8324   20296733.361
        53.0004         49.0004
  -7458883.73247  -5801375.98646  24258503.5224   24258515.2554   24258504.688
        42.0004         38.0004
   -987126.55646   -752138.97146  24165937.8784   24165952.7844   24165937.584
        41.0004         37.0004
 -19281507.78149 -15012148.44348  20072850.8644   20072858.5614   20072851.280
        54.0004         49.0004
  -7374489.17047  -5717752.76546  23428794.7774   23428808.6364   23428795.121
        44.0004         40.0004
  -1228520.50547   -957510.18446  23816041.0294   23816049.5834   23816040.769
        43.0004         38.0004
  -3106983.37047  -2367219.11646  23815229.2284   23815236.0264   23815227.733
        42.0004         37.0004
 -13161480.61349 -10247382.05348  20160972.2104   20160979.5024   20160972.212
        54.0004         49.0004
 -15399582.63248 -11936917.63547  22436062.5174   22436070.7134   22436060.954
        49.0004         45.0004
 -22518166.77348 -17491313.89347  21604764.3684   21604771.8694   21604764.032
        50.0004         46.0004
 14  5  9  0 18 30.0000000  0 11G20G07G10G26G08G01G28G13G09G17G04
  -5457395.12947  -4205247.47446  23635500.7034   23635509.3154   23635501.086
        42.0004         37.0004
 -23057155.08448 -17935852.83748  20303134.2624   20303140.5224   20303133.954
        53.0004         49.0004
  -7510467.84147  -5841571.20146  24248687.5994   24248698.9384   24248688.127
        43.0004         38.0004
  -1007776.38046   -768229.61046  24162007.9514   24162023.2284   24162007.608
        41.0004         37.0004
 -19317400.47249 -15040116.72848  20066021.1954   20066028.4664   20066021.466
        54.0004         49.0004
  -7278846.57747  -5643226.12946  23446996.0134   23447009.0234   23446995.076
        44.0004         39.0004
  -1272729.86447   -991958.95446  23807628.0484   23807637.0254   23807627.735
        43.0004         38.0004
  -3030546.03047  -2307657.44446  23829774.2894   23829781.6394   23829773.693
        42.0004         37.0004
 -13194804.67649 -10273348.79848  20154630.5274   20154637.6864   20154630.542
        54.0004         49.0004
 -15359626.98048 -11905783.35347  22443665.0094   22443674.1624   22443664.533
        49.0004         45.0004
 -22597709.68348 -17553295.28447  21589627.1884   21589635.7954   21589627.084
        50.0004         46.0004
 14  5  9  0 19  0.0000000  0 11G20G07G10G26G08G01G28G13G09G17G04
  -5451366.31847  -4200549.74946  23636647.5864   23636655.6574   23636646.935
        42.0004         37.0004
 -23022938.80948 -17909190.75748  20309645.4154   20309651.3474   20309645.147
        53.0004         49.0004
  -7562285.82547  -5881948.67146  24238827.2334   24238837.4004   24238827.982
        43.0004         38.0004
  -1028068.17246   -784041.27746  24158148.2684   24158160.7074   24158146.202
        41.0004         37.0004
 -19352695.96149 -15067619.65348  20059304.3604   20059311.7014   20059304.284
        54.0004         49.0004
  -7182960.63447  -5568509.89246  23465241.6674   23465255.6454   23465241.230
        44.0004         39.0004
  -1317169.89447  -1026587.47046  23799170.8054   23799179.9004   23799170.478
        43.0004         38.0004
  -2954267.39147  -2248219.43346  23844288.9674   23844297.6284   23844289.031
        42.0004         37.0004
 -13227552.98449 -10298866.89948  20148398.7294   20148405.8534   20148398.596
        54.0004         49.0004
 -15319566.13548 -11874567.10547  22451288.1634   22451296.6484   22451287.808
        50.0004         45.0004
 -22676908.73948 -17615008.73947  21574556.4044   21574564.4074   21574556.057
        50.0004         46.0004
 14  5  9  0 19 30.0000000  0 11G20G07G10G26G08G01G28G13G09G17G04
  -5445123.25247  -4195685.06646  23637834.3284   23637846.0994   23637835.813
        42.0004         37.0004
 -22988137.92548 -17882073.13748  20316267.7134   20316273.8844   20316267.263
        53.0004         49.0004
  -7614332.40447  -5922504.25446  24228922.4004   24228933.2204   24228923.557
        43.0004         38.0004
  -1047998.25546   -799571.09246  24154355.5334   24154368.9064   24154353.310
        41.0004         37.0004
 -19387387.60149 -15094652.05148  20052702.8444   20052710.5284   20052703.012
        54.0004         49.0004
  -7086829.23347  -5493602.38846  23483535.0084   23483548.3194   23483534.237
        44.0004         39.0004
  -1361834.88247  -1061391.30746  23790670.3514   23790680.6824   23790671.702
        43.0004         38.0004
  -2878144.39047  -2188902.69446  23858774.2144   23858782.7264   23858773.984
        42.0004         37.0004
 -13259719.59949 -10323931.73248  20142277.3964   20142284.7064   20142277.425
        54.0004         49.0004
 -15279397.65948 -11843266.98647  22458931.4864   22458940.7704   22458931.448
        50.0004         45.0004
 -22755756.61248 -17676448.54747  21559552.2544   21559559.7204   21559551.583
        50.0004         46.0004
 14  5  9  0 20  0.0000000  0 11G20G07G10G26G08G01G28G13G09G17G04
  -5438665.80847  -4190653.34446  23639063.8594   23639073.2784   23639063.892
        42.0004         37.0004
 -22952755.55848 -17854502.42048  20323001.0884   20323007.0644   20323000.410
        53.0004         49.0004
  -7666608.28947  -5963238.52146  24218974.1944   24218985.8674   24218974.658
        43.0004         38.0004
  -1067569.16946   -814821.02746  24150630.7094   24150643.5654   24150629.310
        41.0004         37.0004
 -19421474.91049 -15121213.54448  20046215.9224   20046223.9414   20046216.216
        54.0004         49.0004
  -6990456.48447  -5418506.80046  23501874.6734   23501887.4724   23501873.989
        44.0004         39.0004
  -1406725.09847  -1096370.64546  23782129.0704   23782137.2394   23782129.403
        43.0004         39.0004
  -2802180.18747  -2129709.69646  23873229.9074   23873237.2444   23873230.363
        42.0004         37.0004
 -13291305.02949 -10348543.69948  20136266.8284   20136274.0494   20136266.918
        54.0004         49.0004
 -15239125.75248 -11811886.27347  22466594.9464   22466604.7804   22466595.056
        50.0004         45.0004
 -22834252.29448 -17737613.93047  21544614.5844   21544622.3884   21544614.502
        50.0004         46.0004
 14  5  9  0 20 30.0000000  0 11G20G07G10G26G08G01G28G13G09G17G04
  -5431992.84947  -4185453.68446  23640334.2634   23640341.9884   23640334.568
        42.0004         37.0004
 -22916793.38348 -17826479.90148  20329844.0904   20329850.3534   20329843.754
        53.0004         49.0004
  -7719113.57147  -6004151.53946  24208982.5394   24208993.6934   24208984.018
        43.0004         38.0004
  -1086782.59746   -829792.41746  24146973.8864   24146986.1194   24146972.537
        41.0004         36.0004
 -19454956.47449 -15147303.02448  20039844.7344   20039852.1884   20039845.231
        54.0004         49.0004
  -6893845.62947  -5343225.67946  23520258.3824   23520272.6284   23520258.192
        44.0004         39.0004
  -1451839.81147  -1131524.91346  23773544.0934   23773552.9154   23773544.593
        43.0004         39.0004
  -2726377.24647  -2070642.37246  23887655.2504   23887662.2154   23887654.646
        42.0004         37.0004
 -13322308.25149 -10372701.99748  20130367.2754   20130374.3154   20130367.447
        54.0004         49.0004
 -15198753.90248 -11780427.67847  22474278.4454   22474286.1194   22474277.871
        50.0004         45.0004
 -22912393.63948 -17798503.20447  21529744.9554   21529752.6074   21529744.704
        50.0004         46.0004
 14  5  9  0 21  0.0000000  0 11G20G07G10G26G08G01G28G13G09G17G04
  -5425103.08247  -4180085.09646  23641645.0054   23641655.1794   23641644.769
        42.0004         37.0004
 -22880252.75548 -17798006.64148  20336797.4754   20336803.3994   20336797.009
        53.0004         49.0004
  -7771847.81047  -6045242.96646  24198949.0014   24198958.5624   24198949.274
        43.0004         39.0004
  -1105640.02646   -844486.39446  24143385.3884   24143398.2924   24143383.570
        41.0004         36.0004
 -19487830.87449 -15172919.39048  20033588.8444   20033596.4534   20033589.004
        54.0004         49.0004
  -6796999.67947  -5267761.37846  23538688.4734   23538701.0634   23538687.846
        44.0004         39.0004
  -1497177.98847  -1166853.30446  23764916.3694   23764925.3964   23764916.471
        43.0004         39.0004
  -2650737.45647  -2011702.17846  23902049.0424   23902054.7184   23902048.206
        42.0004         37.0004
 -13352728.43249 -10396405.98248  20124578.5634   20124586.0084   20124578.448
        54.0004         49.0004
 -15158284.80348 -11748893.30947  22481978.7404   22481987.7794   22481978.842
        50.0004         45.0004
 -22990178.47848 -17859114.68547  21514942.8294   21514950.9294   21514942.385
        51.0004         46.0004
 14  5  9  0 21 30.0000000  0 11G20G07G10G26G08G01G28G13G09G17G04
  -5417993.58547  -4174545.27446  23642998.7414   23643007.3394   23642998.137
        42.0004         37.0004
 -22843133.92848 -17769082.83648  20343861.3684   20343867.1114   20343860.787
        53.0004         49.0004
  -7824808.96247  -6086511.20346  24188868.5644   24188880.5484   24188870.167
        43.0004         38.0004
  -1124141.12546   -858902.72446  24139864.1134   24139878.3854   24139863.237
        41.0004         37.0004
 -19520095.03049 -15198060.24548  20027449.2194   20027457.1804   20027449.472
        54.0004         49.0004
  -6699919.88247  -5192114.86346  23557162.3664   23557175.1404   23557161.649
        44.0004         40.0004
  -1542737.21047  -1202353.93146  23756246.1264   23756256.1034   23756247.447
        43.0004         39.0004
  -2575261.21547  -1952889.41346  23916409.9004   23916417.5044   23916410.537
        42.0004         37.0004
 -13382562.78949 -10419653.48048  20118901.3554   20118908.4684   20118901.235
        54.0004         49.0004
 -15117719.46148 -11717283.94647  22489698.7834   22489707.4374   22489697.726
        50.0004         45.0004
 -23067602.94648 -17919445.35447  21500208.9964   21500216.6774   21500209.060
        51.0004         46.0004
 14  5  9  0 22  0.0000000  0 11G20G07G10G26G08G01G28G13G09G17G04
  -5410662.39247  -4168832.71646  23644393.0764   23644402.8584   23644394.030
        42.0004         37.0004
 -22805437.99148 -17739709.33548  20351034.7154   20351040.2564   20351033.745
        53.0004         49.0004
  -7877996.13447  -6127955.55646  24178748.6124   24178758.5024   24178749.625
        43.0004         38.0004
  -1142287.06046   -873042.28246  24136409.0034   24136425.6734   24136410.014
        41.0004         37.0004
 -19551746.87749 -15222723.96648  20021426.0134   20021433.5694   20021426.283
        54.0004         49.0004
  -6602608.85047  -5116288.16046  23575679.6844   23575693.9364   23575679.360
        44.0004         39.0004
  -1588516.34747  -1238025.92646  23747534.3304   23747545.0364   23747535.194
        43.0004         39.0004
  -2499950.35047  -1894205.51346  23930741.2074   23930749.8414   23930742.040
        42.0004         37.0004
 -13411810.10749 -10442443.54648  20113335.6564   20113343.1574   20113335.540
        54.0004         49.0004
 -15077060.45048 -11685601.59047  22497435.2204   22497443.9304   22497434.933
        50.0004         45.0004
 -23144664.60748 -17979493.31747  21485545.1664   21485552.7294   21485544.261
        51.0004         46.0004
 14  5  9  0 22 30.0000000  0 11G20G07G10G26G08G01G28G13G09G17G04
  -5403109.62647  -4162947.53746  23645830.0584   23645841.2064   23645831.300
        42.0004         37.0004
 -22767167.89648 -17709888.43648  20358316.8604   20358322.7064   20358316.501
        53.0004         49.0004
  -7931410.67547  -6169577.07546  24168582.7014   24168595.8094   24168584.643
        43.0004         38.0004
  -1160080.72346   -886907.36146  24133024.8114   24133040.7524   24133025.015
        41.0004         36.0004
 -19582786.34949 -15246910.52248  20015519.3054   20015526.9364   20015519.744
        54.0004         49.0004
  -6505070.87847  -5040284.64246  23594240.5444   23594254.2104   23594240.281
        44.0004         40.0004
  -1634515.62847  -1273869.46446  23738781.8494   23738791.2304   23738781.854
        43.0004         39.0004
  -2424808.09447  -1835653.01246  23945041.0814   23945050.8064   23945040.942
        42.0004         37.0004
 -13440470.95849 -10464776.62248  20107881.4174   20107888.6174   20107881.543
        54.0004         49.0004
 -15036312.08748 -11653849.61647  22505190.1134   22505198.1784   22505188.941
        50.0004         45.0004
 -23221362.30648 -18039257.67647  21470949.6204   21470957.1764   21470949.862
        51.0004         46.0004
 14  5  9  0 23  0.0000000  0 11G20G07G10G26G08G01G28G13G09G17G04
  -5395333.15747  -4156888.01046  23647310.5364   23647319.1234   23647310.297
        42.0004         37.0004
 -22728324.23548 -17679620.60348  20365708.6094   20365714.6114   20365708.059
        53.0004         49.0004
  -7985050.88247  -6211374.44546  24158375.7744   24158387.1254   24158376.439
        43.0004         38.0004
  -1177522.69946   -900498.39746  24129704.1254   24129721.0164   24129703.964
        41.0004         37.0004
 -19613210.91549 -15270617.92648  20009729.8344   20009737.1684   20009730.205
        54.0004         49.0004
  -6407308.02547  -4964105.88246  23612844.7734   23612857.8084   23612844.357
        44.0004         40.0004
  -1680733.26147  -1309883.17546  23729987.2174   23729996.3334   23729986.651
        43.0004         39.0004
  -2349835.40647  -1777232.64946  23959306.7064   23959315.5554   23959307.467
        42.0004         37.0004
 -13468543.51349 -10486651.29248  20102539.3454   20102546.6834   20102539.436
        54.0004         49.0004
 -14995476.33248 -11622029.53247  22512960.4684   22512968.5704   22512960.265
        50.0004         45.0004
 -23297693.09848 -18098736.13747  21456424.6784   21456432.3484   21456423.356
        51.0004         46.0004
 14  5  9  0 23 30.0000000  0 11G20G07G10G26G08G01G28G13G09G17G04
  -5387327.90447  -4150650.20746  23648832.5154   23648842.0384   23648834.154
        42.0004         37.0004
 -22688904.79448 -17648904.11948  20373209.6474   20373215.6574   20373209.211
        53.0004         49.0004
  -8038912.58247  -6253344.42046  24148127.1124   24148136.8174   24148127.549
        43.0004         38.0004
  -1194610.41446   -913813.37646  24126453.5164   24126467.4794   24126454.037
        41.0004         37.0004
 -19643015.43649 -15293842.17748  20004058.2194   20004065.6734   20004058.291
        54.0004         49.0004
  -6309319.33847  -4887751.14946  23631491.0614   23631504.4474   23631490.636
        44.0004         40.0004
  -1727164.15647  -1346063.05846  23721150.8294   23721160.0644   23721151.432
        43.0004         39.0004
  -2275030.24946  -1718942.81446  23973542.1394   23973551.2114   23973542.072
        41.0004         36.0004
 -13496022.94349 -10508063.78448  20097310.5334   20097317.1524   20097310.112
        54.0004         49.0004
 -14954551.92548 -11590140.37747  22520748.2734   22520757.1154   22520747.801
        50.0004         45.0004
 -23373651.01148 -18157924.04047  21441970.2644   21441978.0734   21441969.783
        51.0004         46.0004
 14  5  9  0 24  0.0000000  0 11G20G07G10G26G08G01G28G13G09G17G04
  -5379096.89246  -4144236.51446  23650400.4554   23650409.6594   23650400.549
        41.0004         37.0004
 -22648916.00248 -17617743.99548  20380819.4714   20380825.2984   20380818.896
        53.0004         49.0004
  -8093000.10347  -6295490.35046  24137833.8534   24137844.6484   24137835.244
        43.0004         38.0004
  -1211350.32646   -926857.34146  24123267.5934   24123282.2814   24123267.576
        41.0004         37.0004
 -19672203.39249 -15316585.98748  19998503.5904   19998511.4924   19998504.165
        54.0004         49.0004
  -6211112.59347  -4811226.49246  23650179.3974   23650192.3264   23650178.857
        44.0004         40.0004
  -1773811.50147  -1382411.60346  23712274.4914   23712284.9884   23712274.719
        44.0004         39.0004
  -2200399.67546  -1660789.02646  23987742.7464   23987752.6114   23987742.907
        41.0004         36.0004
 -13522913.59549 -10529017.48748  20092192.9714   20092200.3554   20092193.017
        54.0004         49.0004
 -14913546.34048 -11558187.96047  22528550.8324   22528560.6074   22528550.747
        49.0004         45.0004
 -23449238.57848 -18216823.36547  21427585.7714   21427593.9064   21427585.880
        51.0004         46.0004
 14  5  9  0 24 30.0000000  0 11G20G07G10G26G08G01G28G13G09G17G04
  -5370636.80046  -4137644.31846  23652010.2294   23652020.3334   23652010.581
        41.0004         36.0004
 -22608357.33448 -17586139.80248  20388537.4184   20388543.2104   20388536.701
        53.0004         49.0004
  -8147310.77047  -6337810.16046  24127498.8384   24127509.7304   24127499.869
        43.0004         38.0004
  -1227741.58547   -939629.64046  24120148.7474   24120162.2284   24120148.675
        42.0004         37.0004
 -19700770.76449 -15338846.22348  19993067.3064   19993074.9474   19993067.695
        54.0004         49.0004
  -6112688.40547  -4734532.41146  23668909.3024   23668922.5384   23668908.490
        44.0004         40.0004
  -1820672.74647  -1418926.82446  23703357.1114   23703366.7304   23703356.987
        44.0004         39.0004
  -2125943.33346  -1602770.99146  24001912.0594   24001921.2984   24001912.134
        41.0004         36.0004
 -13549212.34049 -10549509.96648  20087188.6614   20087195.7614   20087188.514
        54.0004         49.0004
 -14872460.50448 -11526173.00647  22536369.2204   22536378.2444   22536369.197
        49.0004         45.0004
 -23524451.16048 -18275430.49447  21413273.9824   21413281.5314   21413273.472
        51.0004         46.0004
 14  5  9  0 25  0.0000000  0 11G20G07G10G26G08G01G28G13G09G17G04
  -5361946.92946  -4130873.05846  23653663.0644   23653673.7454   23653663.564
        41.0004         36.0004
 -22567230.87548 -17554093.17648  20396363.4714   20396369.2994   20396362.967
        53.0004         49.0004
  -8201844.63247  -6380303.88846  24117120.3994   24117133.1724   24117122.041
        43.0004         38.0004
  -1243786.39647   -952131.94646  24117096.3934   24117108.7834   24117095.485
        42.0004         37.0004
 -19728717.07349 -15360622.51648  19987749.6994   19987757.2044   19987750.021
        54.0004         49.0004
  -6014050.35947  -4657671.68146  23687679.1214   23687692.6994   23687678.972
        44.0004         40.0004
  -1867747.64247  -1455608.53946  23694399.4654   23694408.2204   23694399.475
        44.0004         39.0004
  -2051663.33546  -1544890.36846  24016047.9774   24016054.7154   24016046.786
        41.0004         36.0004
 -13574918.66049 -10569540.81448  20082296.9454   20082304.2834   20082296.792
        54.0004         49.0004
 -14831297.66648 -11494098.06447  22544202.9994   22544210.8564   22544202.218
        49.0004         45.0004
 -23599287.22948 -18333744.22647  21399032.8004   21399040.5324   21399032.648
        51.0004         46.0004
 14  5  9  0 25 30.0000000  0 11G20G07G10G26G08G01G28G13G09G17G04
  -5353022.75746  -4123919.23746  23655361.4974   23655372.5904   23655362.777
        41.0004         37.0004
 -22525535.34048 -17521603.11148  20404297.5904   20404303.9974   20404297.443
        53.0004         49.0004
  -8256597.86447  -6422968.54846  24106702.6814   24106712.0934   24106702.349
        43.0004         38.0004
  -1259483.07647   -964363.01746  24114107.0764   24114122.2634   24114108.141
        42.0004         38.0004
 -19756037.96949 -15381911.47048  19982550.7234   19982558.0114   19982550.707
        54.0004         49.0004
  -5915198.25747  -4580644.16946  23706491.4174   23706503.5334   23706490.125
        44.0004         40.0004
  -1915031.85747  -1492453.33746  23685401.5624   23685409.2814   23685401.465
        43.0004         39.0004
  -1977558.69246  -1487146.38946  24030148.6654   24030156.0404   24030148.631
        41.0004         36.0004
 -13600028.90949 -10589107.19148  20077518.5134   20077525.8724   20077518.292
        54.0004         49.0004
 -14790057.33648 -11461962.73347  22552050.9724   22552058.5224   22552049.843
        49.0004         45.0004
 -23673741.65548 -18391760.58247  21384864.0574   21384871.9274   21384864.342
        51.0004         46.0004
 14  5  9  0 26  0.0000000  0 11G20G07G10G26G08G01G28G13G09G17G04
  -5343865.61346  -4116783.88746  23657104.2174   23657113.8354   23657104.107
        41.0004         37.0004
 -22483275.11548 -17488673.02148  20412339.8084   20412345.7254   20412339.277
        53.0004         49.0004
  -8311572.74947  -6465805.93446  24096240.3404   24096250.6734   24096240.665
        43.0004         38.0004
  -1274835.86147   -976326.09946  24111186.5064   24111201.4874   24111186.202
        42.0004         38.0004
 -19782734.44349 -15402713.86248  19977470.3034   19977477.5594   19977470.531
        54.0004         49.0004
  -5816137.64247  -4503454.17346  23725340.8724   23725354.1894   23725341.022
        44.0004         39.0004
  -1962526.78747  -1529462.36646  23676363.0634   23676371.7554   23676363.653
        43.0004         38.0004
  -1903633.62846  -1429542.33346  24044215.9644   24044225.0764   24044215.770
        41.0004         36.0004
 -13624544.95149 -10608210.56048  20072853.5364   20072860.4594   20072853.331
        54.0004         49.0004
 -14748745.12848 -11429771.38447  22559911.4874   22559920.4794   22559911.424
        49.0004         44.0004
 -23747814.90648 -18449479.91047  21370769.0944   21370776.0714   21370768.604
        51.0004         46.0004
 14  5  9  0 26 30.0000000  0 11G20G07G10G26G08G01G28G13G09G17G04
  -5334471.30946  -4109463.73946  23658894.1764   23658901.3684   23658892.826
        41.0004         37.0004
 -22440449.19348 -17455302.13448  20420489.1334   20420495.4324   20420488.776
        53.0004         49.0004
  -8366765.85447  -6508813.35546  24085736.1214   24085747.9064   24085737.422
        43.0004         38.0004
  -1289843.33147   -988020.09646  24108330.9324   24108345.1284   24108331.544
        42.0004         38.0004
 -19808802.28749 -15423026.41448  19972509.9144   19972517.0134   19972509.948
        54.0004         49.0004
  -5716868.48747  -4426101.67346  23744231.7154   23744245.0064   23744231.008
        44.0004         40.0004
  -2010228.34847  -1566632.39346  23667286.8494   23667294.5514   23667285.852
        43.0004         38.0004
  -1829887.15446  -1372077.45646  24058250.7364   24058255.6944   24058249.832
        41.0004         36.0004
 -13648463.18449 -10626848.09648  20068301.8944   20068308.9944   20068301.673
        54.0004         49.0004
 -14707360.63048 -11397523.71547  22567786.3374   22567795.6764   22567786.347
        49.0004         44.0004
 -23821501.60448 -18506898.03647  21356746.8794   21356753.8424   21356746.323
        51.0004         46.0004
 14  5  9  0 27  0.0000000  0 11G20G07G10G26G08G01G28G13G09G17G04
  -5324839.26746  -4101958.32346  23660723.9544   23660734.8754   23660725.861
        41.0004         37.0004
 -22397059.86448 -17421492.22748  20428745.4474   20428751.5804   20428745.330
        53.0004         49.0004
  -8422177.51147  -6551991.07546  24075192.7164   24075203.0844   24075193.048
        43.0004         38.0004
  -1304507.81747   -999446.82146  24105540.5044   24105554.3424   24105540.125
        42.0004         38.0004
 -19834241.35249 -15442849.00448  19967668.8574   19967675.9324   19967669.116
        54.0004         49.0004
  -5617394.57947  -4348589.62646  23763160.9564   23763173.8094   23763159.984
        44.0004         40.0004
  -2058136.31647  -1603963.25646  23658169.1134   23658179.0494   23658168.918
        43.0004         38.0004
  -1756322.07846  -1314753.92646  24072248.9574   24072255.6064   24072249.257
        41.0004         36.0004
 -13671783.73949 -10645019.91248  20063864.0794   20063871.0784   20063864.090
        54.0004         49.0004
 -14665907.65148 -11365222.67147  22575674.9744   22575683.7044   22575674.645
        49.0004         44.0004
 -23894800.61048 -18564014.05647  21342798.5844   21342805.4444   21342797.862
        51.0004         46.0004
 14  5  9  0 27 30.0000000  0 11G20G07G10G26G08G01G28G13G09G17G04
  -5314969.51946  -4094267.70546  23662603.2014   23662613.1124   23662604.183
        41.0004         37.0004
 -22353110.44348 -17387245.88448  20437109.1344   20437115.0864   20437108.495
        53.0004         49.0004
  -8477808.53847  -6595339.73346  24064607.2794   24064616.6544   24064607.558
        43.0004         38.0004
  -1318832.23647  -1010608.57446  24102814.0114   24102827.7364   24102813.766
        42.0004         38.0004
 -19859051.48549 -15462181.52248  19962947.4154   19962955.0574   19962947.735
        54.0004         49.0004
  -5517720.11147  -4270921.31346  23782128.3364   23782142.0904   23782127.444
        44.0004         40.0004
  -2106250.64947  -1641454.93646  23649013.3534   23649023.0284   23649013.300
        43.0004         38.0004
  -1682941.63846  -1257574.26846  24086211.3744   24086220.3364   24086212.549
        41.0004         36.0004
 -13694507.35949 -10662726.57948  20059539.6834   20059546.7834   20059539.684
        54.0004         49.0004
 -14624390.24448 -11332871.43347  22583575.6274   22583583.8014   22583574.963
        49.0004         44.0004
 -23967710.94948 -18620827.23147  21328923.9714   21328931.4314   21328923.301
        51.0004         46.0004
 14  5  9  0 28  0.0000000  0 11G20G07G10G26G08G01G28G13G09G17G04
  -5304857.95146  -4086388.65546  23664528.7924   23664536.5344   23664527.842
        41.0004         37.0004
 -22308599.50748 -17352561.99748  20445579.2264   20445585.2244   20445578.586
        53.0004         49.0004
  -8533655.19147  -6638856.40546  24053977.7604   24053988.6194   24053980.243
        43.0004         38.0004
  -1332815.23147  -1021504.29246  24100152.7444   24100167.3834   24100152.427
        42.0004         38.0004
 -19883228.42149 -15481020.63948  19958346.6704   19958354.1834   19958347.080
        54.0004         49.0004
  -5417845.08747  -4193096.71946  23801134.1984   23801147.1464   23801133.529
        44.0004         40.0004
  -2154567.43247  -1679104.35946  23639818.7844   23639827.8604   23639819.091
        43.0004         39.0004
  -1609744.36046  -1200537.32446  24100141.1764   24100148.8944   24100141.631
        41.0004         37.0004
 -13716630.50749 -10679965.35048  20055329.4544   20055336.5814   20055329.545
        54.0004         49.0004
 -14582807.99648 -11300469.66547  22591487.8874   22591496.1714   22591488.017
        49.0004         44.0004
 -24040227.63848 -18677333.65347  21315123.7984   21315131.8684   21315123.758
        51.0004         46.0004
 14  5  9  0 28 30.0000000  0 11G20G07G10G26G08G01G28G13G09G17G04
  -5294505.38746  -4078321.82246  23666497.2404   23666507.9744   23666498.196
        41.0004         37.0004
 -22263531.29048 -17317443.87248  20454155.3504   20454161.1644   20454154.847
        53.0004         49.0004
  -8589718.93047  -6682542.25246  24043309.4964   24043318.9984   24043311.191
        43.0004         38.0004
  -1346460.51647  -1032136.84046  24097556.0584   24097571.5824   24097556.079
        42.0004         38.0004
 -19906773.16549 -15499367.14148  19953866.2874   19953873.6644   19953866.489
        54.0004         49.0004
  -5317774.45547  -4115119.70946  23820176.5834   23820189.9604   23820176.500
        44.0004         40.0004
  -2203087.45947  -1716912.16246  23630585.3034   23630593.5984   23630585.945
        44.0004         39.0004
  -1536734.12646  -1143646.13946  24114035.2314   24114039.3484   24114035.222
        41.0004         37.0004
 -13738154.43249 -10696737.19548  20051234.0114   20051241.2844   20051233.839
        54.0004         49.0004
 -14541165.75048 -11268021.15447  22599411.8974   22599422.0614   22599412.132
        49.0004         44.0004
 -24112350.41448 -18733533.13647  21301399.9904   21301407.3364   21301399.244
        51.0004         46.0004
 14  5  9  0 29  0.0000000  0 11G20G07G10G26G08G01G28G13G09G17G04
  -5283908.30946  -4070064.44646  23668513.9644   23668525.7724   23668514.831
        41.0004         37.0004
 -22217905.65648 -17281891.39348  20462837.5744   20462843.3304   20462837.317
        53.0004         48.0004
  -8645997.30347  -6726395.32746  24032600.8214   24032611.4834   24032601.830
        43.0004         38.0004
  -1359767.79747  -1042506.00146  24095024.6384   24095037.9024   24095024.213
        42.0004         37.0004
 -19929682.64149 -15517218.62348  19949506.7684   19949514.0934   19949507.026
        54.0004         49.0004
  -5217509.29047  -4036991.11346  23839256.8134   23839269.1514   23839256.648
        44.0004         40.0004
  -2251807.61447  -1754875.89946  23621314.8374   23621324.4644   23621314.715
        44.0004         39.0004
  -1463910.83146  -1086900.61746  24127893.1144   24127899.0444   24127893.092
        41.0004         37.0004
 -13759076.68349 -10713040.19948  20047252.5804   20047259.4854   20047252.444
        54.0004         49.0004
 -14499464.37248 -11235526.56647  22607348.0484   22607356.1524   22607347.615
        49.0004         44.0004
 -24184075.53248 -18789422.75247  21287750.2544   21287757.7914   21287750.386
        51.0004         46.0004
 14  5  9  0 29 30.0000000  0 12G20G07G10G26G08G02G01G28G13G09G17G04
  -5273067.34246  -4061617.04446  23670576.4974   23670587.4154   23670577.703
        41.0004         37.0004
 -22171726.01248 -17245907.21048  20471625.1084   20471630.8484   20471624.721
        53.0004         49.0004
  -8702491.25247  -6770416.40346  24021850.0794   24021858.8694   24021850.139
        43.0004         38.0004
  -1372740.34447  -1052614.34946  24092554.6294   24092570.2574   24092554.122
        42.0004         37.0004
 -19951957.50349 -15534575.60348  19945267.7374   19945275.0164   19945267.923
        54.0004         49.0004
   -441658.95048   -285361.42546  24062382.0014   24062390.7444   24062380.918
        50.0004         38.0004
  -5117054.17747  -3958714.48946  23858373.1954   23858386.9144   23858372.946
        44.0004         40.0004
  -2300728.38947  -1792995.96246  23612005.6374   23612014.8804   23612005.624
        44.0004         40.0004
  -1391277.97946  -1030303.50546  24141714.6404   24141723.3114   24141713.841
        41.0004         37.0004
 -13779398.71149 -10728875.49348  20043385.6044   20043392.2434   20043385.013
        54.0004         49.0004
 -14457708.32848 -11202989.37747  22615294.2564   22615302.3794   22615293.743
        49.0004         44.0004
 -24255402.28848 -18845001.96647  21274177.6834   21274184.6494   21274177.054
        51.0004         46.0004
 14  5  9  0 30  0.0000000  0 12G20G07G10G26G08G02G01G28G13G09G17G04
  -5261977.67646  -4052975.83246  23672688.1944   23672699.0894   23672688.186
        41.0004         36.0004
 -22124991.04748 -17209490.31848  20480518.5994   20480524.4944   20480518.111
        53.0004         48.0004
  -8759196.26147  -6814601.93446  24011058.7614   24011069.7114   24011059.638
        43.0004         38.0004
  -1385376.22747  -1062460.35946  24090151.4004   24090164.7644   24090151.586
        42.0004         37.0004
 -19973593.14749 -15551434.49348  19941150.6414   19941158.1144   19941151.008
        54.0004         49.0004
   -535213.60647   -358260.88646  24044577.8944   24044586.7024   24044577.551
        46.0004         38.0004
  -5016408.52147  -3880289.39446  23877525.0044   23877538.8164   23877524.421
        44.0004         40.0004
  -2349844.99047  -1831268.61546  23602659.3554   23602668.2084   23602659.081
        44.0004         40.0004
  -1318833.83346   -973853.41646  24155500.4664   24155506.5414   24155500.047
        41.0004         36.0004
 -13799116.11749 -10744239.65948  20039633.1664   20039640.4104   20039633.159
        54.0004         49.0004
 -14415896.84048 -11170408.97747  22623250.5864   22623259.1874   22623249.961
        49.0004         44.0004
 -24326325.14248 -18900266.44147  21260681.6124   21260689.2124   21260681.228
        51.0004         47.0004
 14  5  9  0 30 30.0000000  0 12G20G07G10G26G08G02G01G28G13G09G17G04
  -5250641.31646  -4044142.41046  23674844.8344   23674855.5234   23674844.783
        41.0004         36.0004
 -22077705.79348 -17172644.62248  20489516.7794   20489522.2584   20489516.153
        53.0004         48.0004
  -8816115.24647  -6858954.19846  24000227.4294   24000237.2184   24000228.087
        43.0004         38.0004
  -1397680.38546  -1072047.87346  24087808.1154   24087823.4164   24087808.401
        41.0004         37.0004
 -19994591.52949 -15567796.81348  19937154.7664   19937162.4234   19937155.006
        54.0004         49.0004
   -628609.20447   -431036.39746  24026806.2744   24026813.7274   24026805.609
        44.0004         38.0004
  -4915578.54047  -3801720.67746  23896712.4514   23896725.2944   23896712.065
        44.0004         40.0004
  -2399159.57547  -1869695.55246  23593274.9024   23593283.9864   23593274.901
        44.0004         39.0004
  -1246583.11646   -917554.07246  24169249.0804   24169255.2774   24169248.794
        41.0004         36.0004
 -13818232.03949 -10759135.13248  20035995.4984   20036002.4314   20035995.347
        54.0004         49.0004
 -14374035.84848 -11137790.01647  22631216.2554   22631224.3954   22631215.890
        49.0004         44.0004
 -24396845.33948 -18955217.16647  21247261.9544   21247268.9874   21247261.605
        51.0004         47.0004
 14  5  9  0 31  0.0000000  0 12G20G07G10G26G08G02G01G28G13G09G17G04
  -5239052.94746  -4035112.60846  23677048.6714   23677060.5964   23677050.627
        40.0004         36.0004
 -22029868.32448 -17135368.63548  20498619.8034   20498625.5834   20498619.268
        53.0004         48.0004
  -8873243.52747  -6903469.54846  23989355.5654   23989367.3364   23989357.306
        43.0004         38.0004
  -1409650.58547  -1081375.16446  24085532.7384   24085544.6454   24085532.071
        42.0004         37.0004
 -20014947.59149 -15583658.63048  19933281.5114   19933288.3284   19933281.491
        54.0004         49.0004
   -721839.46047   -503683.05946  24009064.4074   24009071.3934   24009064.968
        43.0004         38.0004
  -4814563.15047  -3723007.48946  23915935.1764   23915948.2924   23915934.432
        44.0004         40.0004
  -2448666.89247  -1908272.66646  23583854.2764   23583863.3544   23583854.064
        44.0004         39.0004
  -1174523.70346   -861403.78946  24182962.7894   24182966.9654   24182960.746
        41.0004         36.0004
 -13836741.94649 -10773558.38448  20032473.1674   20032480.0164   20032472.831
        54.0004         49.0004
 -14332124.02648 -11105131.44447  22639192.1304   22639200.6544   22639191.427
        49.0004         44.0004
 -24466956.67248 -19009849.28747  21233919.7514   21233927.3604   21233919.473
        51.0004         47.0004
 14  5  9  0 31 30.0000000  0 12G20G07G10G26G08G02G01G28G13G09G17G04
  -5227213.67046  -4025887.28246  23679302.4664   23679313.0334   23679304.105
        40.0004         36.0004
 -21981482.82248 -17097665.60548  20507827.1124   20507833.0524   20507826.781
        53.0004         48.0004
  -8930582.89047  -6948149.37646  23978444.4374   23978455.1334   23978445.645
        43.0004         38.0004
  -1421290.95847  -1090445.45446  24083315.7544   24083330.7464   24083315.962
        42.0004         37.0004
 -20034662.86149 -15599021.12448  19929529.2684   19929536.7434   19929529.831
        54.0004         50.0004
   -814904.72547   -576201.19146  23991352.4204   23991363.2444   23991354.908
        43.0004         38.0004
  -4713367.62447  -3644153.92346  23935191.4634   23935205.6454   23935190.859
        44.0004         40.0004
  -2498367.95647  -1947000.73946  23574395.9674   23574404.8244   23574395.919
        44.0004         39.0004
  -1102659.48946   -805405.62846  24196638.4634   24196643.4374   24196635.678
        41.0004         36.0004
 -13854647.65649 -10787510.83748  20029065.4754   20029072.4424   20029065.708
        54.0004         49.0004
 -14290166.30448 -11072437.10947  22647176.4194   22647184.8614   22647175.598
        49.0004         44.0004
 -24536659.49948 -19064163.09647  21220655.6394   21220663.0674   21220655.632
        51.0004         47.0004
 14  5  9  0 32  0.0000000  0 12G20G07G10G26G08G02G01G28G13G09G17G04
  -5215121.66546  -4016465.03046  23681602.9874   23681615.3704   23681604.514
        40.0004         36.0004
 -21932550.83548 -17059536.74648  20517138.5224   20517144.6544   20517137.827
        53.0004         48.0004
  -8988131.90347  -6992992.55946  23967492.9954   23967503.0064   23967494.541
        43.0004         39.0004
  -1432602.38547  -1099259.40746  24081164.2984   24081177.8914   24081163.701
        42.0004         37.0004
 -20053735.62549 -15613882.96648  19925899.7954   19925907.4014   19925900.388
        54.0004         49.0004
   -907802.41747   -648588.72946  23973675.8464   23973683.7864   23973676.236
        43.0004         38.0004
  -4611994.17847  -3565161.72146  23954482.3084   23954496.6564   23954482.199
        44.0004         39.0004
  -2548260.75647  -1985878.22546  23564901.0204   23564909.7484   23564901.763
        44.0004         39.0004
  -1030991.45446   -749560.30746  24210274.4514   24210281.4484   24210273.543
        41.0004         36.0004
 -13871947.98949 -10800991.56448  20025773.6854   20025780.7114   20025773.446
        54.0004         49.0004
 -14248164.98148 -11039708.79547  22655168.9044   22655177.1704   22655168.262
        49.0004         44.0004
 -24605950.98148 -19118156.37847  21207470.5084   21207477.5204   21207469.958
        51.0004         47.0004
 14  5  9  0 32 30.0000000  0 12G20G07G10G26G08G02G01G28G13G09G17G04
  -5202772.44246  -4006842.35546  23683956.6714   23683965.0364   23683954.896
        40.0004         36.0004
 -21883070.62948 -17020980.70148  20526554.0844   20526560.1554   20526554.160
        53.0004         48.0004
  -9045886.49047  -7037995.93646  23956501.8644   23956513.0404   23956503.332
        43.0004         38.0004
  -1443583.17247  -1107815.73146  24079074.7724   24079085.7144   24079073.948
        42.0004         37.0004
 -20072161.40749 -15628240.66948  19922393.8754   19922400.9694   19922394.164
        54.0004         50.0004
  -1000526.99047   -720841.38246  23956031.0934   23956038.9874   23956031.154
        43.0004         38.0004
  -4510442.38447  -3486030.54546  23973806.7654   23973821.3274   23973807.074
        44.0004         39.0004
  -2598340.80247  -2024901.61946  23555371.5004   23555380.6974   23555371.578
        44.0004         39.0004
   -959517.86646   -693866.50946  24223874.2584   24223882.4854   24223874.471
        41.0004         36.0004
 -13888639.41549 -10813997.82148  20022597.2304   20022604.0684   20022597.150
        54.0004         49.0004
 -14206119.39448 -11006946.00147  22663170.0894   22663177.7984   22663169.587
        49.0004         44.0004
 -24674825.75848 -19171824.95647  21194363.6484   21194370.8764   21194363.342
        51.0004         47.0004
 14  5  9  0 33  0.0000000  0 12G20G07G10G26G08G02G01G28G13G09G17G04
  -5190168.37846  -3997021.12146  23686352.0274   23686362.5394   23686353.835
        40.0004         36.0004
 -21833048.17848 -16982002.12848  20536073.4884   20536078.9334   20536072.842
        53.0004         48.0004
  -9103849.30347  -7083161.57146  23945471.7024   23945482.2924   23945472.472
        43.0004         38.0004
  -1454238.73247  -1116118.64246  24077045.9454   24077059.3014   24077045.432
        42.0004         38.0004
 -20089943.02849 -15642096.43148  19919009.8114   19919017.2094   19919010.214
        54.0004         49.0004
  -1093080.25947   -792960.53946  23938418.7684   23938427.1884   23938419.213
        43.0004         38.0004
  -4408718.85647  -3406765.53546  23993165.1184   23993178.5834   23993164.776
        44.0004         39.0004
  -2648610.56147  -2064072.82646  23545806.0894   23545814.4504   23545805.591
        44.0004         39.0004
   -888244.27046   -638328.54946  24237438.2894   24237446.6934   24237437.596
        40.0004         36.0004
 -13904725.32349 -10826532.24448  20019536.0034   20019542.9704   20019536.021
        54.0004         49.0004
 -14164035.54148 -10974153.39147  22671178.0064   22671186.6674   22671177.961
        49.0004         44.0004
 -24743285.43248 -19225170.07347  21181336.2264   21181343.4254   21181335.653
        51.0004         47.0004
 14  5  9  0 33 30.0000000  0 12G20G07G10G26G08G02G01G28G13G09G17G04
  -5177306.27346  -3986998.81446  23688802.2634   23688809.7094   23688800.794
        40.0004         36.0004
 -21782483.96948 -16942601.41048  20545695.6374   20545701.1524   20545694.783
        53.0004         48.0004
  -9162017.97147  -7128487.62746  23934403.6104   23934413.8324   23934403.622
        43.0004         38.0004
  -1464569.26347  -1124168.24346  24075081.3264   24075093.4764   24075080.300
        42.0004         37.0004
 -20107078.12949 -15655448.41348  19915749.3264   19915756.2804   19915749.579
        54.0004         49.0004
  -1185458.21447   -864943.09746  23920839.4554   23920848.2564   23920840.342
        43.0004         38.0004
  -4306824.88347  -3327367.72546  24012554.7354   24012568.2304   24012554.387
        44.0004         39.0004
  -2699066.76847  -2103389.33346  23536204.2214   23536213.4124   23536204.284
        44.0004         40.0004
   -817170.76746   -582946.52346  24250963.0984   24250969.8434   24250962.515
        40.0004         36.0004
 -13920203.48549 -10838593.09848  20016590.6854   20016597.7534   20016590.455
        54.0004         49.0004
 -14121914.54948 -10941331.82847  22679193.7714   22679202.3684   22679192.636
        48.0004         44.0004
 -24811326.29648 -19278188.84247  21168388.4844   21168395.6314   21168388.307
        51.0004         47.0004
 14  5  9  0 34  0.0000000  0 12G20G07G10G26G08G02G01G28G13G09G17G04
  -5164185.62946  -3976775.00746  23691297.0874   23691308.3874   23691298.409
        41.0004         36.0004
 -21731380.12448 -16902780.17948  20555420.0674   20555425.8084   20555419.658
        53.0004         48.0004
  -9220392.04547  -7173973.72746  23923295.1194   23923304.9214   23923295.473
        43.0004         39.0004
  -1474576.47847  -1131965.96346  24073175.6924   24073189.7524   24073175.491
        42.0004         37.0004
 -20123565.83349 -15668295.92848  19912611.8214   19912618.6254   19912612.158
        54.0004         49.0004
  -1277659.13947   -936787.70146  23903293.1784   23903300.9584   23903294.468
        43.0004         38.0004
  -4204763.46447  -3247839.43546  24031977.1154   24031989.6224   24031975.963
        44.0004         39.0004
  -2749708.28447  -2142850.23546  23526567.9224   23526576.5024   23526567.573
        44.0004         40.0004
   -746298.74746   -527721.47546  24264449.7604   24264455.2634   24264448.754
        40.0004         36.0004
 -13935073.77049 -10850180.28548  20013761.0064   20013767.8584   20013761.236
        54.0004         49.0004
 -14079759.24048 -10908483.52347  22687214.4954   22687225.0694   22687214.705
        48.0004         44.0004
 -24878946.31548 -19330879.68547  21155521.1094   21155527.8174   21155520.218
        51.0004         47.0004
 14  5  9  0 34 30.0000000  0 12G20G07G10G26G08G02G01G28G13G09G17G04
  -5150805.21946  -3966348.85046  23693844.4804   23693855.9174   23693844.163
        41.0004         36.0004
 -21679739.18548 -16862540.45048  20565247.0164   20565252.2954   20565246.613
        53.0004         48.0004
  -9278971.32547  -7219619.72546  23912148.2304   23912157.6464   23912148.641
        43.0004         39.0004
  -1484262.64547  -1139513.46246  24071332.3534   24071347.3754   24071331.773
        42.0004         37.0004
 -20139405.77249 -15680638.69648  19909597.7294   19909604.3524   19909597.705
        54.0004         49.0004
  -1369681.09147  -1008492.85246  23885782.5444   23885790.0664   23885782.472
        43.0004         38.0004
  -4102537.91847  -3168183.26046  24051429.3094   24051442.8634   24051429.009
        44.0004         39.0004
  -2800533.94247  -2182454.61646  23516895.5214   23516903.4974   23516896.053
        44.0004         40.0004
   -675630.34446   -472655.12546  24277895.6104   24277902.7884   24277896.435
        40.0004         36.0004
 -13949336.41649 -10861293.97748  20011046.7284   20011053.9774   20011046.853
        54.0004         49.0004
 -14037572.66548 -10875610.86247  22695244.0424   22695251.9754   22695243.415
        48.0004         44.0004
 -24946144.00248 -19383241.43747  21142733.2994   21142740.1444   21142733.182
        51.0004         47.0004
 14  5  9  0 35  0.0000000  0 12G20G07G10G26G08G02G01G28G13G09G17G04
  -5137160.88746  -3955717.02046  23696440.3454   23696449.5784   23696441.267
        41.0004         36.0004
 -21627560.14448 -16821881.41048  20575175.9314   20575181.9444   20575175.865
        53.0004         48.0004
  -9337751.70847  -7265422.42546  23900962.6434   23900972.5174   23900962.936
        44.0004         39.0004
  -1493626.29147  -1146809.69446  24069550.7304   24069564.5914   24069549.757
        42.0004         37.0004
 -20154593.92649 -15692473.57248  19906707.0244   19906714.1844   19906707.327
        54.0004         49.0004
  -1461519.22247  -1080054.76446  23868306.0564   23868313.8984   23868306.049
        43.0004         38.0004
  -4000148.11147  -3088399.08646  24070913.9834   24070926.8304   24070913.048
        44.0004         39.0004
  -2851540.00447  -2222199.56346  23507189.9684   23507198.7414   23507189.544
        44.0004         40.0004
   -605164.06746   -417746.25046  24291305.2994   24291311.9604   24291305.721
        40.0004         36.0004
 -13962988.33349 -10871931.78648  20008449.0674   20008455.9344   20008448.934
        54.0004         49.0004
 -13995354.32348 -10842713.44047  22703276.4864   22703284.7234   22703276.868
        48.0004         44.0004
 -25012914.33048 -19435270.18947  21130028.1664   21130034.2014   21130027.047
        51.0004         47.0004
 14  5  9  0 35 30.0000000  0 12G20G07G10G26G08G02G01G28G13G09G17G04
  -5123253.08746  -3944879.84646  23699086.9064   23699097.6814   23699086.661
        41.0004         36.0004
 -21574846.85548 -16780806.07248  20585207.3744   20585213.1174   20585206.668
        53.0004         48.0004
  -9396734.04747  -7311382.50046  23889738.8214   23889746.5134   23889738.392
        44.0004         39.0004
  -1502671.15547  -1153857.48346  24067828.1554   24067842.2474   24067828.078
        42.0004         37.0004
 -20169131.43549 -15703801.45348  19903940.6974   19903947.3724   19903940.879
        54.0004         49.0004
  -1553172.88647  -1151472.93246  23850864.7404   23850871.9684   23850865.129
        43.0004         38.0004
  -3897598.59047  -3008490.46846  24090428.7254   24090442.4684   24090427.798
        44.0004         39.0004
  -2902726.01447  -2262084.75846  23497448.9574   23497458.7114   23497449.316
        44.0004         40.0004
   -534903.06046   -362997.33546  24304677.7614   24304683.3624   24304676.085
        40.0004         36.0004
 -13976030.73149 -10882094.63848  20005967.1294   20005973.9604   20005966.946
        54.0004         49.0004
 -13953108.51448 -10809794.62447  22711316.0574   22711324.4504   22711315.946
        48.0004         44.0004
 -25079256.90948 -19486965.63147  21117402.9274   21117409.7624   21117402.694
        52.0004         47.0004
 14  5  9  0 36  0.0000000  0 12G20G07G10G26G08G02G01G28G13G09G17G04
  -5109080.81246  -3933836.64646  23701784.8604   23701793.8964   23701785.116
        41.0004         36.0004
 -21521601.44648 -16739316.11348  20595339.4334   20595344.8674   20595338.919
        53.0004         48.0004
  -9455917.42747  -7357499.23646  23878476.2764   23878485.5174   23878475.917
        44.0004         39.0004
  -1511398.70547  -1160658.04146  24066168.8554   24066182.8934   24066168.598
        42.0004         37.0004
 -20183017.85849 -15714621.99248  19901297.9654   19901305.0664   19901298.302
        54.0004         49.0004
  -1644639.98047  -1222745.72646  23833459.8764   23833466.8554   23833460.693
        43.0004         38.0004
  -3794892.13047  -2928459.54546  24109972.4574   24109986.5904   24109972.435
        44.0004         39.0004
  -2954090.65947  -2302109.12346  23487673.7204   23487683.8794   23487674.650
        44.0004         40.0004
   -464848.73946   -308409.46746  24318005.6484   24318015.0014   24318006.084
        40.0004         36.0004
 -13988463.43949 -10891782.41548  20003600.8924   20003607.4094   20003601.043
        54.0004         49.0004
 -13910837.90648 -10776856.48047  22719360.5634   22719368.7214   22719359.743
        48.0004         44.0004
 -25145169.67548 -19538326.14847  21104859.7074   21104866.9854   21104859.415
        52.0004         47.0004
 14  5  9  0 36 30.0000000  0 12G20G07G10G26G08G02G01G28G13G09G17G04
  -5094642.67746  -3922586.25645  23704532.0234   23704540.8284   23704531.503
        40.0004         35.0004
 -21467825.99148 -16697413.11948  20605572.9364   20605578.2874   20605572.171
        53.0004         48.0004
  -9515300.98647  -7403771.96146  23867176.0484   23867185.1254   23867176.496
        44.0004         39.0004
  -1519810.70047  -1167212.70446  24064567.5344   24064581.7264   24064566.827
        42.0004         37.0004
 -20196251.71649 -15724934.04548  19898780.0324   19898786.9764   19898779.931
        54.0004         49.0004
  -1735918.64447  -1293871.68746  23816090.3954   23816097.6064   23816090.481
        43.0004         38.0004
  -3692031.58647  -2848308.55346  24129547.0874   24129561.4724   24129546.192
        44.0004         39.0004
  -3005632.50647  -2342271.58546  23477866.7424   23477874.8884   23477866.222
        44.0004         40.0004
   -395002.52046   -253983.76846  24331297.5714   24331306.1304   24331297.498
        40.0004         36.0004
 -14000286.17049 -10900994.88048  20001351.1544   20001357.7224   20001351.105
        54.0004         49.0004
 -13868544.98748 -10743900.95047  22727407.7354   22727416.6724   22727407.911
        48.0004         44.0004
 -25210650.49448 -19589350.08447  21092399.1094   21092406.5134   21092399.136
        52.0004         47.0004
 14  5  9  0 37  0.0000000  0 12G20G07G10G26G08G02G01G28G13G09G17G04
  -5079935.97946  -3911126.59645  23707332.1854   23707340.6004   23707330.313
        40.0004         35.0004
 -21413521.23748 -16655097.68648  20615906.6084   20615911.4664   20615905.904
        53.0004         48.0004
  -9574881.99347  -7450198.54246  23855838.5404   23855846.0024   23855838.505
        44.0004         39.0004
  -1527907.33547  -1173521.62746  24063026.3624   24063039.5014   24063027.110
        42.0004         38.0004
 -20208830.84849 -15734735.92248  19896386.0304   19896393.2574   19896386.553
        54.0004         49.0004
  -1827004.69447  -1364847.57946  23798756.4914   23798762.6524   23798756.218
        43.0004         38.0004
  -3589018.28647  -2768038.54246  24149149.2634   24149163.6074   24149148.452
        44.0004         39.0004
  -3057348.46947  -2382569.71846  23468025.7184   23468033.8454   23468025.604
        44.0004         40.0004
   -325364.54146   -199720.34045  24344548.2774   24344555.1454   24344548.960
        40.0004         35.0004
 -14011497.21449 -10909730.71148  19999218.0184   19999224.4594   19999217.846
        54.0004         49.0004
 -13826230.64348 -10710928.73447  22735460.1534   22735468.2694   22735459.670
        48.0004         44.0004
 -25275695.88248 -19640034.73147  21080021.3184   21080028.4184   21080020.925
        52.0004         47.0004
 14  5  9  0 37 30.0000000  0 12G20G07G10G26G08G02G01G28G13G09G17G04
  -5064959.00646  -3899456.33445  23710179.9724   23710190.9664   23710180.567
        40.0004         35.0004
 -21358689.00448 -16612371.22848  20626340.7554   20626346.1084   20626339.950
        53.0004         48.0004
  -9634659.37447  -7496778.13646  23844461.3014   23844470.6394   23844462.702
        44.0004         39.0004
  -1535690.40147  -1179586.20746  24061545.2614   24061558.3954   24061544.966
        42.0004         37.0004
 -20220754.54149 -15744027.06748  19894116.9634   19894124.5234   19894117.284
        54.0004         49.0004
  -1917896.29847  -1435671.94346  23781458.7044   23781468.2894   23781459.873
        43.0004         38.0004
  -3485854.93347  -2687651.60746  24168780.7424   24168795.0564   24168779.852
        44.0004         39.0004
  -3109237.14447  -2423002.42746  23458151.0584   23458160.6744   23458150.838
        44.0004         40.0004
   -255935.98846   -145620.09346  24357762.2534   24357767.0144   24357761.376
        40.0004         36.0004
 -14022096.40749 -10917989.77248  19997200.8244   19997207.9864   19997200.523
        54.0004         49.0004
 -13783897.20948 -10677941.63247  22743515.9454   22743524.9534   22743515.627
        48.0004         44.0004
 -25340303.71548 -19690378.43047  21067726.9454   21067733.5314   21067726.563
        52.0004         47.0004
 14  5  9  0 38  0.0000000  0 12G20G07G10G26G08G02G01G28G13G09G17G04
  -5049713.51146  -3887576.85445  23713081.6034   23713090.5934   23713081.651
        40.0004         35.0004
 -21303334.03048 -16569237.44148  20636874.6154   20636880.1634   20636873.838
        53.0004         48.0004
  -9694635.07647  -7543512.27646  23833048.3774   23833057.4874   23833049.032
        44.0004         39.0004
  -1543164.08347  -1185409.70746  24060123.0934   24060135.8384   24060123.255
        42.0004         37.0004
 -20232024.81249 -15752809.05748  19891972.2194   19891979.3594   19891972.501
        54.0004         49.0004
  -2008593.70947  -1506344.99446  23764200.6064   23764208.0234   23764201.283
        43.0004         38.0004
  -3382546.93747  -2607151.96946  24188439.6574   24188454.4744   24188438.589
        44.0004         39.0004
  -3161299.48547  -2463570.46546  23448244.0924   23448253.2164   23448244.233
        44.0004         40.0004
   -186720.94646    -91686.23446  24370935.1934   24370940.5694   24370932.829
        40.0004         36.0004
 -14032086.03749 -10925773.85048  19995299.5344   19995306.5144   19995299.632
        54.0004         50.0004
 -13741550.35648 -10644944.06647  22751573.8954   22751582.4264   22751573.591
        48.0004         43.0004
 -25404474.53748 -19740381.60147  21055516.0434   21055522.3544   21055515.393
        52.0004         47.0004
 14  5  9  0 38 30.0000000  0 12G20G07G10G26G08G02G01G28G13G09G17G04
  -5034195.62846  -3875485.11245  23716035.5524   23716047.5984   23716035.322
        40.0004         35.0004
 -21247456.38648 -16525696.38048  20647507.2394   20647512.8734   20647506.733
        53.0004         48.0004
  -9754805.67947  -7590398.28446  23821599.1184   23821607.2354   23821599.553
        44.0004         39.0004
  -1550328.00147  -1190991.85146  24058759.6064   24058773.6644   24058759.330
        42.0004         37.0004
 -20242638.61649 -15761079.50648  19889952.4594   19889959.6074   19889952.674
        54.0004         49.0004
  -2099092.49447  -1576863.27946  23746979.6534   23746985.3424   23746979.253
        43.0004         38.0004
  -3279094.84147  -2526540.04946  24208125.6454   24208141.1224   24208125.109
        43.0004         38.0004
  -3213531.45747  -2504270.68046  23438304.0244   23438314.2834   23438304.744
        45.0004         40.0004
   -117718.37946    -37917.93345  24384064.3734   24384071.0974   24384063.248
        40.0004         35.0004
 -14041463.81549 -10933081.16048  19993515.3464   19993522.1084   19993515.233
        54.0004         49.0004
 -13699189.87848 -10611935.90947  22759634.3084   22759643.1994   22759634.879
        48.0004         44.0004
 -25468204.21148 -19790041.01447  21043388.2954   21043395.0884   21043387.684
        52.0004         47.0004
 14  5  9  0 39  0.0000000  0 12G20G07G10G26G08G02G01G28G13G09G17G04
  -5018403.02846  -3863179.30045  23719039.9574   23719049.6524   23719040.236
        40.0004         35.0004
 -21191056.32248 -16481748.24348  20658239.8504   20658245.2684   20658239.290
        53.0004         48.0004
  -9815168.40247  -7637434.00446  23810112.0474   23810120.5504   23810112.503
        44.0004         39.0004
  -1557182.05947  -1196332.52846  24057455.2834   24057469.7314   24057455.676
        42.0004         38.0004
 -20252593.60749 -15768836.59848  19888057.9784   19888065.1434   19888058.212
        54.0004         49.0004
  -2189388.90947  -1647223.88546  23729797.1634   23729802.4674   23729796.014
        43.0004         38.0004
  -3175499.66747  -2445816.62546  24227839.5994   24227853.6764   24227839.110
        43.0004         38.0004
  -3265929.96847  -2545100.66946  23428332.9874   23428341.9664   23428333.652
        45.0004         40.0004
    -48927.89046     15685.08645  24397155.3034   24397162.3194   24397154.475
        40.0004         35.0004
 -14050227.85949 -10939910.23948  19991847.3214   19991854.2044   19991847.351
        54.0004         50.0004
 -13656816.26648 -10578917.49847  22767699.0824   22767708.2864   22767698.216
        48.0004         44.0004
 -25531488.80548 -19839353.61947  21031345.2924   21031352.2224   21031344.928
        52.0004         47.0004
 14  5  9  0 39 30.0000000  0 12G20G07G10G26G08G02G01G28G13G09G17G04
  -5002335.25746  -3850659.07945  23722097.5774   23722108.3764   23722097.792
        40.0004         35.0004
 -21134137.40948 -16437395.80148  20669071.1204   20669077.0364   20669070.564
        53.0004         48.0004
  -9875723.45947  -7684619.58646  23798588.8284   23798597.2664   23798588.996
        44.0004         39.0004
  -1563729.23547  -1201434.07846  24056209.6724   24056223.1054   24056208.860
        42.0004         38.0004
 -20261890.23049 -15776080.67748  19886288.8334   19886296.1154   19886289.037
        54.0004         49.0004
  -2279481.96147  -1717426.03246  23712651.2834   23712657.8634   23712651.482
        43.0004         38.0004
  -3071765.36847  -2364984.78046  24247578.8994   24247593.4984   24247579.153
        43.0004         38.0004
  -3318494.50847  -2586060.03846  23418331.0404   23418339.6114   23418330.911
        45.0004         40.0004
     19647.84646     69120.77045  24410204.4524   24410210.0944   24410203.561
        40.0004         35.0004
 -14058379.22449 -10946261.90348  19990296.1574   19990303.3174   19990296.171
        54.0004         50.0004
 -13614433.57548 -10545892.00947  22775763.5354   22775772.1864   22775763.385
        48.0004         44.0004
 -25594327.52248 -19888318.78847  21019387.8734   21019394.8014   21019387.417
        52.0004         47.0004
 14  5  9  0 40  0.0000000  0 12G20G07G10G26G08G02G01G28G13G09G17G04
  -4985993.09946  -3837925.04345  23725207.3314   23725219.9594   23725207.963
        40.0004         35.0004
 -21076703.68748 -16392642.22248  20680000.4124   20680005.9874   20679999.765
        52.0004         48.0004
  -9936471.53847  -7731955.57646  23787028.5294   23787037.3114   23787029.120
        44.0004         39.0004
  -1569973.22947  -1206299.38946  24055022.5794   24055034.4254   24055020.997
        42.0004         37.0004
 -20270529.74649 -15782812.72648  19884644.6944   19884651.6524   19884645.245
        54.0004         49.0004
  -2369371.39147  -1787469.50046  23695545.4734   23695552.1534   23695546.099
        43.0004         38.0004
  -2967896.64547  -2284048.20146  24267344.3964   24267359.0574   24267344.417
        42.0004         38.0004
  -3371225.36847  -2627149.00546  23408296.8794   23408304.4274   23408296.442
        45.0004         40.0004
     88005.70946    122386.68045  24423210.2034   24423218.1434   24423211.391
        40.0004         35.0004
 -14065919.94849 -10952137.74948  19988861.2224   19988867.9524   19988861.356
        54.0004         49.0004
 -13572046.00448 -10512862.72747  22783830.2984   22783837.8474   22783829.621
        48.0004         44.0004
 -25656720.38748 -19936936.54047  21007514.7564   21007521.5474   21007514.113
        52.0004         47.0004
 14  5  9  0 40 30.0000000  0 12G20G07G10G26G08G02G01G28G13G09G17G04
  -4969371.96146  -3824973.62745  23728370.8064   23728381.9764   23728370.979
        40.0004         35.0004
 -21018753.87748 -16347486.48148  20691028.1644   20691033.8894   20691027.582
        52.0004         48.0004
  -9997407.93447  -7779438.31046  23775432.7564   23775441.4734   23775432.949
        44.0004         39.0004
  -1575912.28647  -1210927.08846  24053891.6564   24053903.4374   24053890.937
        42.0004         38.0004
 -20278508.02549 -15789029.52548  19883126.6354   19883133.5264   19883126.812
        54.0004         49.0004
  -2459051.27447  -1857349.69946  23678479.2364   23678486.3514   23678480.747
        43.0004         38.0004
  -2863892.79047  -2203006.30746  24287136.0944   24287151.6924   24287136.112
        42.0004         38.0004
  -3424117.47047  -2668363.63346  23398232.1084   23398240.8434   23398231.526
        45.0004         40.0004
    156147.96646    175484.60045  24436179.3124   24436184.8694   24436178.630
        40.0004         35.0004
 -14072846.39049 -10957534.93148  19987543.3374   19987549.7984   19987543.182
        54.0004         50.0004
 -13529652.31548 -10479828.68847  22791896.6164   22791904.4434   22791896.685
        48.0004         44.0004
 -25718661.76448 -19985202.48447  20995727.7454   20995734.2724   20995727.116
        52.0004         47.0004
 14  5  9  0 41  0.0000000  0 12G20G07G10G26G08G02G01G28G13G09G17G04
  -4952472.34546  -3811805.22445  23731585.7834   23731597.7264   23731586.751
        40.0004         35.0004
 -20960292.36348 -16301932.01848  20702152.6024   20702157.9994   20702152.103
        52.0004         48.0004
 -10058533.87547  -7827068.74246  23763800.2614   23763808.5454   23763800.852
        44.0004         39.0004
  -1581550.22547  -1215320.12846  24052819.3494   24052832.2154   24052818.017
        43.0004         38.0004
 -20285826.61849 -15794732.29148  19881734.0994   19881740.8354   19881734.350
        54.0004         49.0004
  -2548521.58847  -1927066.60246  23661455.0664   23661460.5714   23661454.330
        43.0004         38.0004
  -2759758.50247  -2121862.78646  24306952.9734   24306968.1404   24306952.367
        42.0004         37.0004
  -3477171.11447  -2709704.13346  23388135.7954   23388144.4774   23388135.778
        45.0004         40.0004
    224071.23646    228411.85345  24449103.7104   24449109.9304   24449103.026
        40.0004         35.0004
 -14079160.35249 -10962454.86348  19986341.6764   19986348.0604   19986341.589
        54.0004         49.0004
 -13487256.96448 -10446793.34747  22799964.6724   22799973.5114   22799964.297
        48.0004         44.0004
 -25780151.76748 -20033116.70947  20984025.8654   20984032.5484   20984025.689
        52.0004         47.0004
 14  5  9  0 41 30.0000000  0 12G20G07G10G26G08G02G01G28G13G09G17G04
  -4935293.68646  -3798419.39946  23734856.8684   23734866.0194   23734856.210
        40.0004         36.0004
 -20901321.48448 -16255980.64348  20713374.5354   20713379.9314   20713374.188
        52.0004         48.0004
 -10119848.46247  -7874846.16846  23752132.0794   23752141.1984   23752132.896
        44.0004         39.0004
  -1586889.13847  -1219480.18746  24051801.4634   24051815.4204   24051801.347
        43.0004         38.0004
 -20292485.45749 -15799920.96048  19880466.5754   19880473.8514   19880466.994
        54.0004         49.0004
  -2637780.51947  -1996618.79046  23644467.8144   23644475.7474   23644469.470
        43.0004         38.0004
  -2655496.91447  -2040620.07046  24326792.7614   24326808.5244   24326792.958
        42.0004         37.0004
  -3530384.83147  -2751169.36646  23378009.2974   23378018.4534   23378009.482
        45.0004         40.0004
    291773.88346    281167.21445  24461986.5924   24461995.4864   24461986.797
        40.0004         35.0004
 -14084862.46349 -10966898.02148  19985256.6684   19985263.2204   19985256.630
        54.0004         50.0004
 -13444862.83448 -10413758.95047  22808031.7194   22808041.1914   22808031.885
        49.0004         44.0004
 -25841188.68848 -20080677.88847  20972411.7024   20972418.2424   20972410.691
        52.0004         47.0004
 14  5  9  0 42  0.0000000  0 12G20G07G10G26G08G02G01G28G13G09G17G04
  -4917831.50546  -3784812.60346  23738178.6454   23738187.8964   23738178.897
        40.0004         36.0004
 -20841840.53648 -16209631.81648  20724693.2854   20724698.9334   20724692.638
        52.0004         48.0004
 -10181347.43647  -7922767.27746  23740428.4424   23740438.3094   23740429.495
        44.0004         39.0004
  -1591927.76447  -1223406.21546  24050841.0614   24050855.3524   24050842.557
        43.0004         38.0004
 -20298480.89549 -15804592.69548  19879325.6694   19879332.8394   19879325.914
        54.0004         49.0004
  -2726822.61447  -2066002.02246  23627524.2104   23627531.8294   23627524.938
        43.0004         39.0004
  -2551107.66847  -1959277.87846  24346657.1374   24346672.0064   24346657.325
        42.0004         37.0004
  -3583753.88447  -2792755.63446  23367852.8764   23367862.3134   23367853.501
        45.0004         40.0004
    359257.95646    333752.22745  24474827.3794   24474833.7534   24474827.889
        40.0004         35.0004
 -14089949.53649 -10970861.92948  19984287.9864   19984295.0764   19984288.219
        54.0004         49.0004
 -13402469.33748 -10380725.04847  22816098.4984   22816107.5464   22816098.606
        48.0004         44.0004
 -25901767.57848 -20127882.15047  20960883.4764   20960890.2574   20960882.793
        52.0004         47.0004
 14  5  9  0 42 30.0000000  0 12G20G07G10G26G08G02G01G28G13G09G17G04
  -4900087.53646  -3770986.25745  23741555.1044   23741566.1164   23741556.259
        40.0004         35.0004
 -20781855.00048 -16162889.80248  20736107.6044   20736113.8264   20736107.638
        52.0004         48.0004
 -10243032.52347  -7970833.40646  23728690.8684   23728699.2924   23728691.360
        44.0004         39.0004
  -1596670.77547  -1227101.92146  24049940.2774   24049954.1224   24049939.885
        43.0004         38.0004
 -20303815.42649 -15808749.44148  19878310.5764   19878317.7834   19878310.907
        54.0004         49.0004
  -2815648.71747  -2135216.95046  23610621.2044   23610628.2484   23610621.392
        43.0004         39.0004
  -2446596.40246  -1877840.61546  24366546.6124   24366559.5694   24366545.359
        41.0004         37.0004
  -3637279.81447  -2834464.13946  23357668.4994   23357676.2904   23357668.249
        45.0004         40.0004
    426519.16446    386163.59345  24487630.1104   24487635.3344   24487628.234
        40.0004         35.0004
 -14094424.63349 -10974348.97948  19983436.9154   19983443.7144   19983436.682
        54.0004         50.0004
 -13360081.46748 -10347695.53547  22824166.3124   22824174.3084   22824164.957
        48.0004         44.0004
 -25961889.42648 -20174730.28847  20949442.5114   20949449.3324   20949442.289
        52.0004         47.0004
 14  5  9  0 43  0.0000000  0 12G20G07G10G26G08G02G01G28G13G09G17G04
  -4882060.06446  -3756939.00646  23744985.2404   23744999.2734   23744986.705
        40.0004         36.0004
 -20721366.20048 -16115755.62848  20747618.7584   20747624.1584   20747618.053
        52.0004         48.0004
 -10304901.76247  -8019043.04146  23716918.3244   23716927.0034   23716918.448
        44.0004         39.0004
  -1601119.33447  -1230568.17246  24049093.5914   24049106.5114   24049093.078
        42.0004         38.0004
 -20308487.72049 -15812390.15348  19877421.4694   19877428.3434   19877421.796
        54.0004         49.0004
  -2904256.01747  -2204261.39746  23593759.7464   23593766.6464   23593759.642
        43.0004         39.0004
  -2341965.12946  -1796309.82046  24386456.4424   24386471.0214   24386455.845
        41.0004         36.0004
  -3690959.57847  -2876292.51146  23347453.2764   23347461.4484   23347453.190
        45.0004         40.0004
    493557.51646    438401.30445  24500384.4384   24500392.4364   24500385.461
        40.0004         35.0004
 -14098287.16849 -10977358.70648  19982701.9754   19982708.6264   19982701.914
        54.0004         50.0004
 -13317700.70548 -10314671.55347  22832230.2044   22832239.8004   22832229.968
        48.0004         44.0004
 -26021551.48848 -20221220.14647  20938089.0394   20938095.8384   20938088.511
        52.0004         47.0004
 14  5  9  0 43 30.0000000  0 12G20G07G10G26G08G02G01G28G13G09G17G04
  -4863746.17446  -3742668.58645  23748471.3054   23748482.1294   23748471.412
        40.0004         35.0004
 -20660374.90848 -16068229.90848  20759225.1514   20759230.7714   20759224.732
        52.0004         48.0004
 -10366952.66947  -8067394.22746  23705110.0014   23705117.9964   23705110.094
        44.0004         39.0004
  -1605273.54947  -1233805.08646  24048302.1194   24048315.0244   24048302.844
        42.0004         37.0004
 -20312495.95849 -15815513.42548  19876658.8994   19876665.5574   19876659.020
        54.0004         49.0004
  -2992640.86247  -2273132.48646  23576940.6974   23576947.4244   23576941.281
        44.0004         39.0004
  -2237214.95446  -1714686.39746  24406389.5134   24406403.7454   24406389.193
        41.0004         36.0004
  -3744789.81447  -2918238.13746  23337209.5054   23337217.7594   23337209.893
        45.0004         40.0004
    560372.69146    490465.10545  24513098.0164   24513105.5304   24513099.482
        40.0004         35.0004
 -14101535.49149 -10979889.82948  19982083.5914   19982090.4394   19982083.601
        54.0004         50.0004
 -13275328.38248 -10281654.15447  22840294.2774   22840302.5044   22840293.186
        48.0004         44.0004
 -26080750.17648 -20267348.93647  20926823.7584   20926830.9584   20926823.480
        52.0004         47.0004
 14  5  9  0 44  0.0000000  0 12G20G07G10G26G08G02G01G28G13G09G17G04
  -4845145.83746  -3728174.92345  23752011.5414   23752023.2914   23752011.489
        40.0004         35.0004
 -20598884.24148 -16020315.06248  20770926.2464   20770931.7994   20770925.595
        52.0004         48.0004
 -10429184.89547  -8115886.71546  23693265.3854   23693275.4484   23693267.084
        44.0004         39.0004
  -1609136.47447  -1236815.00646  24047567.5614   24047581.3834   24047566.759
        42.0004         38.0004
 -20315840.91549 -15818119.85648  19876022.3684   19876029.3874   19876022.489
        54.0004         49.0004
  -3080801.87247  -2341829.17246  23560164.1864   23560169.7494   23560164.467
        44.0004         39.0004
  -2132349.73646  -1632973.33346  24426343.4194   24426358.6874   24426343.996
        41.0004         36.0004
  -3798770.10847  -2960300.68446  23326937.0334   23326944.9704   23326937.426
        45.0004         40.0004
    626962.67946    542353.43245  24525771.9324   24525778.7604   24525771.992
        40.0004         35.0004
 -14104170.85249 -10981943.31948  19981582.0174   19981588.8144   19981582.004
        54.0004         49.0004
 -13232967.67848 -10248645.80847  22848354.8404   22848362.9144   22848354.192
        48.0004         44.0004
 -26139484.83448 -20313116.14747  20915646.6294   20915653.7524   20915646.628
        52.0004         47.0004
 14  5  9  0 44 30.0000000  0 12G20G07G10G26G08G02G01G28G13G09G17G04
  -4826258.65446  -3713457.78045  23755604.5874   23755617.5764   23755603.842
        40.0004         35.0004
 -20536897.52348 -15972013.68448  20782721.7614   20782727.4324   20782721.433
        52.0004         48.0004
 -10491597.79647  -8164519.98346  23681389.9534   23681399.2924   23681390.633
        44.0004         39.0004
  -1612710.48047  -1239599.81046  24046888.1054   24046899.1594   24046887.067
        42.0004         38.0004
 -20318522.81649 -15820209.61948  19875511.9554   19875518.9424   19875512.243
        54.0004         49.0004
  -3168737.40447  -2410350.15646  23543430.5194   23543437.5104   23543430.892
        44.0004         39.0004
  -2027372.81646  -1551173.22846  24446321.0654   24446335.9654   24446320.505
        41.0004         37.0004
  -3852899.39447  -3002479.33346  23316636.6314   23316645.9084   23316637.287
        45.0004         40.0004
    693325.83546    594065.02045  24538402.0544   24538408.5674   24538399.320
        40.0004         35.0004
 -14106194.17349 -10983519.89748  19981197.0684   19981204.2134   19981196.866
        54.0004         50.0004
 -13190621.46648 -10215648.76247  22856412.7204   22856420.7194   22856412.657
        48.0004         44.0004
 -26197754.08848 -20358520.70847  20904559.0264   20904565.9194   20904558.595
        52.0004         47.0004
 14  5  9  0 45  0.0000000  0 12G20G07G10G26G08G02G01G28G13G09G17G04
  -4807080.80346  -3698514.14645  23759254.8744   23759264.9024   23759254.988
        40.0004         35.0004
 -20474414.15748 -15923325.30248  20794611.7524   20794617.4074   20794611.617
        52.0004         48.0004
 -10554187.35147  -8213290.90446  23669479.8544   23669489.0014   23669480.491
        44.0004         39.0004
  -1615994.58947  -1242158.69646  24046262.5704   24046274.8264   24046261.573
        42.0004         38.0004
 -20320538.61049 -15821780.34148  19875128.4214   19875135.0874   19875128.471
        54.0004         49.0004
  -3256442.59347  -2478691.66446  23526740.3974   23526746.5364   23526740.419
        44.0004         39.0004
  -1922283.97846  -1469285.91446  24466318.9884   24466334.7634   24466318.634
        41.0004         37.0004
  -3907173.03847  -3044770.45946  23306308.6104   23306318.9794   23306309.017
        45.0004         40.0004
    759463.87546    645601.18145  24550986.1244   24550993.7604   24550985.249
        40.0004         35.0004
 -14107602.80549 -10984617.49748  19980928.9944   19980935.3794   19980928.955
        54.0004         49.0004
 -13148289.18848 -10182662.56747  22864467.5244   22864476.6504   22864468.164
        48.0004         44.0004
 -26255553.29648 -20403558.99147  20893559.7644   20893566.6684   20893559.427
        52.0004         47.0004
 14  5  9  0 45 30.0000000  0 12G20G07G10G26G08G02G01G28G13G09G17G04
  -4787613.86746  -3683345.23745  23762959.4354   23762969.8484   23762959.074
        40.0004         35.0004
 -20411439.71948 -15874254.27148  20806595.8034   20806600.9984   20806595.250
        52.0004         48.0004
 -10616955.52947  -8262201.01346  23657535.8444   23657543.6134   23657536.395
        44.0004         39.0004
  -1618993.85847  -1244495.65446  24045691.6114   24045705.5344   24045691.500
        42.0004         37.0004
 -20321891.15349 -15822834.24148  19874870.9964   19874877.8184   19874871.330
        54.0004         49.0004
  -3343918.67847  -2546854.64846  23510093.8794   23510101.1594   23510094.809
        44.0004         39.0004
  -1817089.17846  -1387316.02046  24486336.7004   24486352.0334   24486336.441
        41.0004         37.0004
  -3961592.06147  -3087174.88946  23295953.2704   23295960.9314   23295953.674
        45.0004         40.0004
    825372.43246    696958.52145  24563527.2594   24563536.4674   24563527.326
        40.0004         35.0004
 -14108400.18849 -10985238.80148  19980777.2674   19980783.6664   19980777.236
        54.0004         49.0004
 -13105976.62348 -10149691.73847  22872520.5814   22872528.4324   22872519.897
        48.0004         44.0004
 -26312883.67748 -20448231.96447  20882650.3604   20882656.7074   20882649.846
        52.0004         47.0004
 14  5  9  0 46  0.0000000  0 12G20G07G10G26G08G02G01G28G13G09G17G04
  -4767856.36346  -3667949.92145  23766717.8654   23766729.7534   23766718.760
        40.0004         35.0004
 -20347975.96648 -15824801.95548  20818672.4344   20818677.9024   20818671.877
        52.0004         48.0004
 -10679900.51347  -8311248.90946  23645557.0404   23645566.4214   23645557.306
        44.0004         39.0004
  -1621709.56247  -1246611.64646  24045175.3304   24045187.5984   24045173.982
        42.0004         37.0004
 -20322579.68249 -15823370.73248  19874739.7574   19874746.8944   19874740.127
        54.0004         49.0004
  -3431162.62947  -2614836.75146  23493492.0394   23493498.7274   23493491.989
        44.0004         39.0004
  -1711790.63547  -1305265.30346  24506374.5794   24506388.4414   24506374.017
        42.0004         37.0004
  -4016154.45647  -3129691.03646  23285568.8934   23285578.7424   23285570.194
        45.0004         40.0004
    891050.95846    748136.59745  24576025.0484   24576032.5494   24576025.717
        40.0004         35.0004
 -14108586.01249 -10985383.56548  19980741.8954   19980748.3194   19980741.637
        54.0004         49.0004
 -13063685.13248 -10116737.33447  22880568.7484   22880575.6984   22880567.693
        48.0004         44.0004
 -26369742.99248 -20492537.86247  20871830.6674   20871837.5624   20871829.843
        52.0004         47.0004
 14  5  9  0 46 30.0000000  0 12G20G07G10G26G08G02G01G28G13G09G17G04
  -4747804.51446  -3652325.21245  23770534.7344   23770544.7824   23770534.812
        40.0004         35.0004
 -20284022.57848 -15774968.10348  20830842.4414   20830847.8584   20830841.823
        52.0004         48.0004
 -10743017.84647  -8360431.10546  23633546.1524   23633553.7754   23633545.942
        44.0004         39.0004
  -1624140.64347  -1248505.85846  24044712.2254   24044725.7294   24044711.803
        42.0004         37.0004
 -20322601.06549 -15823387.35948  19874735.9094   19874742.3884   19874736.039
        54.0004         49.0004
  -3518169.24247  -2682633.91546  23476935.3584   23476941.0234   23476934.526
        44.0004         39.0004
  -1606387.96047  -1223133.43946  24526432.8634   24526447.2074   24526431.444
        42.0004         37.0004
  -4070855.30547  -3172315.05146  23275161.9774   23275170.8994   23275161.641
        45.0004         40.0004
    956501.42846    799137.00745  24588479.0034   24588486.0224   24588480.718
        40.0004         35.0004
 -14108157.41849 -10985049.57348  19980823.1484   19980829.8804   19980823.322
        54.0004         50.0004
 -13021413.96248 -10083798.75447  22888611.3634   22888620.1114   22888611.335
        48.0004         44.0004
 -26426126.42748 -20536472.95247  20861100.9334   20861107.8434   20861100.392
        52.0004         47.0004
 14  5  9  0 47  0.0000000  0 12G20G07G10G26G08G02G01G28G13G09G17G04
  -4727459.09046  -3636471.77645  23774406.2534   23774417.5434   23774406.360
        40.0004         35.0004
 -20219584.34248 -15724756.45648  20843104.3854   20843110.4104   20843103.976
        52.0004         48.0004
 -10806308.82947  -8409748.59546  23621503.0164   23621510.6624   23621503.037
        44.0004         39.0004
  -1626291.36047  -1250181.60146  24044301.6564   24044315.5754   24044302.187
        42.0004         37.0004
 -20321957.37249 -15822885.74948  19874858.3054   19874864.8774   19874858.549
        54.0004         49.0004
  -3604939.06347  -2750246.57146  23460423.8394   23460428.2954   23460423.419
        44.0004         39.0004
  -1500886.21247  -1140924.37646  24546509.6364   24546523.5264   24546508.387
        42.0004         38.0004
  -4125694.75847  -3215047.08946  23264725.7384   23264733.7874   23264725.458
        45.0004         40.0004
   1021720.33346    849956.93445  24600891.8624   24600897.0074   24600890.656
        40.0004         35.0004
 -14107117.05449 -10984238.87048  19981021.4224   19981028.3204   19981021.176
        54.0004         50.0004
 -12979168.15748 -10050879.94747  22896651.9414   22896659.8194   22896650.671
        48.0004         44.0004
 -26482034.23248 -20580037.42247  20850462.0734   20850468.3574   20850461.693
        52.0004         47.0004
 14  5  9  0 47 30.0000000  0 12G20G07G10G26G08G02G01G28G13G09G17G04
  -4706818.56146  -3620388.41745  23778334.5844   23778346.0654   23778334.346
        40.0004         35.0004
 -20154662.83048 -15674168.21847  20855458.7124   20855463.5854   20855457.970
        52.0004         47.0004
 -10869771.48047  -8459199.86446  23609425.0824   23609433.3664   23609425.709
        44.0004         39.0004
  -1628163.06447  -1251639.93146  24043946.5064   24043960.3524   24043945.547
        42.0004         37.0004
 -20320647.83049 -15821865.30148  19875107.4304   19875114.1754   19875107.760
        54.0004         49.0004
  -3691469.11847  -2817672.40546  23443955.9704   23443962.8164   23443957.899
        44.0004         40.0004
  -1395287.62847  -1058639.84946  24566604.3144   24566618.5114   24566603.034
        42.0004         38.0004
  -4180671.00247  -3257885.70446  23254263.9704   23254273.0254   23254264.216
        45.0004         40.0004
   1086707.08546    900595.94445  24613258.9134   24613264.0334   24613256.979
        40.0004         35.0004
 -14105464.79049 -10982951.36248  19981335.6144   19981342.3214   19981335.764
        54.0004         50.0004
 -12936949.27148 -10017982.11547  22904684.1254   22904693.5904   22904684.557
        48.0004         44.0004
 -26537464.35648 -20623229.68147  20839913.3734   20839920.3784   20839913.005
        52.0004         47.0004
 14  5  9  0 48  0.0000000  0 12G20G07G10G26G08G02G01G28G13G09G17G04
  -4685882.11346  -3604074.42445  23782317.2214   23782329.4914   23782318.162
        40.0004         35.0004
 -20089261.00148 -15623205.71347  20867904.0294   20867909.4624   20867903.761
        52.0004         47.0004
 -10933404.63547  -8508783.99646  23597315.7834   23597325.3344   23597316.830
        44.0004         39.0004
  -1629757.86347  -1252882.49246  24043643.1884   24043656.5284   24043642.409
        42.0004         38.0004
 -20318672.60649 -15820326.14048  19875483.4664   19875490.3374   19875483.714
        54.0004         49.0004
  -3777757.48547  -2884909.91446  23427536.0154   23427542.3784   23427536.220
        44.0004         40.0004
  -1289595.04947   -976282.07046  24586715.9984   24586730.2834   24586716.015
        42.0004         37.0004
  -4235781.88847  -3300829.23146  23243775.8944   23243786.0374   23243776.184
        45.0004         40.0004
   1151460.61346    951053.27345  24625580.4514   24625587.0994   24625578.914
        40.0004         35.0004
 -14103201.46249 -10981187.69748  19981766.1234   19981773.0344   19981766.289
        54.0004         50.0004
 -12894759.75148  -9985107.17647  22912713.6414   22912722.9304   22912712.904
        48.0004         44.0004
 -26592415.24248 -20666048.49947  20829456.8494   20829463.4414   20829457.357
        52.0004         47.0004
 14  5  9  0 48 30.0000000  0 12G20G07G10G26G08G02G01G28G13G09G17G04
  -4664647.72146  -3587528.28045  23786359.0874   23786369.7864   23786360.015
        40.0004         35.0004
 -20023380.11648 -15571869.92047  20880440.6944   20880445.9914   20880440.203
        52.0004         47.0004
 -10997205.71647  -8558498.98746  23585175.0464   23585184.1794   23585176.163
        44.0004         39.0004
  -1631076.53447  -1253909.89046  24043392.5954   24043404.5684   24043391.020
        42.0004         38.0004
 -20316030.37049 -15818267.22448  19875986.1684   19875992.5534   19875986.127
        54.0004         49.0004
  -3863800.83647  -2951956.50846  23411162.4294   23411168.3044   23411162.508
        44.0004         39.0004
  -1183810.00147   -893852.25246  24606847.4144   24606860.7984   24606846.307
        42.0004         37.0004
  -4291024.61647  -3343875.49746  23233264.8674   23233273.9784   23233264.063
        45.0004         40.0004
   1215980.79246   1001328.77645  24637858.1794   24637864.1424   24637856.737
        40.0004         35.0004
 -14100326.19049 -10978947.19648  19982313.2544   19982319.9804   19982313.432
        54.0004         50.0004
 -12852600.76748  -9952256.02147  22920735.8534   22920745.1074   22920735.380
        48.0004         44.0004
 -26646883.72548 -20708491.42647  20819092.3164   20819098.8394   20819091.133
        52.0004         47.0004
 14  5  9  0 49  0.0000000  0 12G20G07G10G26G08G02G01G28G13G09G17G04
  -4643114.37246  -3570749.19545  23790456.1304   23790468.2464   23790457.349
        40.0004         35.0004
 -19957022.84548 -15520162.91947  20893068.2794   20893073.9714   20893067.758
        52.0004         47.0004
 -11061173.69947  -8608344.03246  23573002.4584   23573010.3994   23573003.268
        44.0004         39.0004
  -1632120.97047  -1254723.59846  24043192.9434   24043206.3054   24043192.808
        42.0004         38.0004
 -20312721.30349 -15815688.70748  19876615.6064   19876622.8754   19876616.157
        54.0004         49.0004
  -3949597.07947  -3018810.55046  23394835.9774   23394842.1474   23394836.493
        44.0004         39.0004
  -1077935.16047   -811352.46546  24626992.9054   24627009.1604   24626993.573
        42.0004         37.0004
  -4346397.29747  -3387023.02846  23222727.0254   23222737.1164   23222726.911
        45.0004         40.0004
   1280266.70546   1051421.69245  24650090.9084   24650096.6014   24650090.443
        40.0004         35.0004
 -14096839.31449 -10976230.12148  19982977.3844   19982983.6744   19982977.195
        54.0004         50.0004
 -12810474.80648  -9919430.60947  22928752.4424   22928760.0594   22928752.011
        48.0004         44.0004
 -26700868.37648 -20750557.33647  20808818.6544   20808825.3554   20808818.625
        52.0004         47.0004
 14  5  9  0 49 30.0000000  0 12G20G07G10G26G08G02G01G28G13G09G17G04
  -4621276.72146  -3553732.95245  23794611.6054   23794621.2484   23794612.778
        40.0004         35.0004
 -19890187.19048 -15468083.15147  20905786.0964   20905792.0944   20905786.208
        52.0004         47.0004
 -11125302.92947  -8658314.70946  23560799.3784   23560808.1354   23560799.657
        44.0004         39.0004
  -1632888.91247  -1255321.84346  24043046.3904   24043059.1594   24043045.665
        42.0004         38.0004
 -20308741.02749 -15812587.16948  19877373.3034   19877379.8004   19877373.477
        54.0004         49.0004
  -4035139.84347  -3085467.07146  23378558.1934   23378564.6054   23378558.636
        44.0004         40.0004
   -971969.06247   -728781.57646  24647159.6494   24647172.8654   24647158.555
        42.0004         37.0004
  -4401893.54747  -3430266.83446  23212167.3404   23212175.1474   23212166.524
        45.0004         40.0004
   1344321.78946   1101334.75745  24662277.5404   24662288.1324   24662278.611
        40.0004         35.0004
 -14092737.27149 -10973033.69448  19983757.5574   19983763.8524   19983757.535
        54.0004         50.0004
 -12768379.51448  -9886629.08447  22936762.7034   22936772.0234   22936762.483
        48.0004         44.0004
 -26754363.26248 -20792241.61947  20798639.3344   20798646.2104   20798639.239
        52.0004         47.0004
 14  5  9  0 50  0.0000000  0 12G20G07G10G26G08G02G01G28G13G09G17G04
  -4599143.44746  -3536486.40545  23798821.7444   23798834.2934   23798825.042
        40.0004         35.0004
 -19822885.74148 -15415640.43047  20918593.3224   20918598.9304   20918592.949
        52.0004         47.0004
 -11189601.73747  -8708417.54546  23548562.9844   23548570.9294   23548563.685
        44.0004         39.0004
  -1633392.28347  -1255713.95846  24042949.6874   24042962.8324   24042950.704
        42.0004         38.0004
 -20304099.75349 -15808970.56748  19878256.3904   19878263.2774   19878256.286
        54.0004         49.0004
  -4120436.95047  -3151932.19046  23362325.7914   23362331.4884   23362326.332
        44.0004         40.0004
   -865924.26146   -646149.35846  24667337.4064   24667350.8654   24667337.805
        41.0004         36.0004
  -4457521.57347  -3473613.32946  23201580.1864   23201588.6364   23201581.246
        45.0004         40.0004
   1408134.92346   1151059.28945  24674424.6834   24674428.2144   24674422.543
        40.0004         35.0004
 -14088030.39749 -10969365.97948  19984653.4954   19984659.8664   19984653.640
        54.0004         50.0004
 -12726327.18848  -9853861.04347  22944765.0474   22944772.1774   22944764.495
        48.0004         44.0004
 -26807376.37148 -20833550.48948  20788550.9614   20788557.7894   20788550.374
        52.0004         48.0004
 14  5  9  0 50 30.0000000  0 12G20G07G10G26G08G02G01G28G13G09G17G04
  -4576709.17946  -3519005.28545  23803093.8824   23803104.6494   23803094.130
        39.0004         35.0004
 -19755116.36148 -15362833.07947  20931490.0144   20931495.5404   20931489.108
        52.0004         47.0004
 -11254063.74647  -8758647.53946  23536296.6804   23536303.7964   23536296.870
        44.0004         40.0004
  -1633628.27647  -1255897.70946  24042905.3334   24042918.8954   24042905.213
        43.0004         38.0004
 -20298792.80249 -15804835.25248  19879266.2404   19879272.9734   19879266.712
        54.0004         49.0004
  -4205481.69647  -3218200.65246  23346142.3064   23346148.8454   23346142.559
        44.0004         40.0004
   -759798.70746   -563454.19246  24687533.0044   24687547.5974   24687533.014
        41.0004         36.0004
  -4513274.80147  -3517057.38546  23190971.3504   23190979.3974   23190971.195
        45.0004         40.0004
   1471709.60746   1200598.02345  24686518.9624   24686530.8224   24686520.540
        39.0004         35.0004
 -14082714.41749 -10965223.63148  19985664.7574   19985671.1584   19985665.015
        54.0004         50.0004
 -12684314.91948  -9821124.21247  22952760.5484   22952768.2444   22952759.235
        48.0004         44.0004
 -26859901.43448 -20874479.06448  20778555.9274   20778562.6064   20778555.631
        52.0004         48.0004
 14  5  9  0 51  0.0000000  0 12G20G07G10G26G08G02G01G28G13G09G17G04
  -4553972.03046  -3501288.14745  23807417.5154   23807430.6684   23807419.927
        39.0004         35.0004
 -19686880.73348 -15309662.42347  20944474.1854   20944479.9304   20944474.095
        52.0004         47.0004
 -11318686.84647  -8809003.05846  23523998.2044   23524007.2534   23523999.247
        44.0004         40.0004
  -1633597.95047  -1255873.94546  24042910.4434   24042923.4104   24042910.748
        43.0004         38.0004
 -20292819.46249 -15800180.68348  19880402.7704   19880409.6694   19880403.080
        54.0004         49.0004
  -4290270.82147  -3284269.94346  23330007.3614   23330013.6614   23330007.757
        45.0004         40.0004
   -653594.13046   -480697.46946  24707744.3384   24707758.8554   24707743.214
        40.0004         36.0004
  -4569150.21147  -3560596.65646  23180339.3144   23180348.2474   23180338.780
        45.0004         40.0004
   1535046.11646   1249951.14345  24698572.9144   24698578.9354   24698573.349
        39.0004         34.0004
 -14076789.08049 -10960606.45448  19986792.1104   19986798.7984   19986792.114
        54.0004         50.0004
 -12642344.56448  -9788420.04547  22960746.6994   22960755.0064   22960746.174
        48.0004         43.0004
 -26911935.71748 -20915025.21848  20768654.1564   20768660.3514   20768653.739
        52.0004         48.0004
 14  5  9  0 51 30.0000000  0 12G20G07G10G26G08G02G01G28G13G09G17G04
  -4530929.25946  -3483332.90945  23811807.4384   23811818.9554   23811806.151
        39.0004         35.0004
 -19618180.05948 -15256129.39947  20957547.5304   20957553.3034   20957547.261
        52.0004         47.0004
 -11383468.42547  -8859482.07946  23511671.8794   23511679.5984   23511671.221
        45.0004         40.0004
  -1633301.92147  -1255643.15346  24042968.1544   24042979.7774   24042967.585
        43.0004         38.0004
 -20286178.40449 -15795005.80648  19881666.4354   19881673.3344   19881666.838
        54.0004         49.0004
  -4374800.69347  -3350137.22546  23313921.9534   23313928.8114   23313921.953
        45.0004         40.0004
   -547311.81146   -397880.16945  24727967.4454   24727983.8524   24727968.086
        40.0004         35.0004
  -4625144.53847  -3604228.58146  23169683.5764   23169691.4144   23169683.100
        45.0004         41.0004
   1598144.77946   1299118.94545  24710581.4444   24710587.2884   24710580.929
        39.0004         34.0004
 -14070253.43549 -10955513.71948  19988036.2624   19988042.7284   19988036.302
        54.0004         50.0004
 -12600416.80748  -9755749.06747  22968725.0484   22968733.2364   22968724.514
        48.0004         43.0004
 -26963476.21148 -20955186.60148  20758845.9234   20758852.8084   20758845.670
        52.0004         48.0004
 14  5  9  0 52  0.0000000  0 12G20G07G10G26G08G02G01G28G13G09G17G04
  -4507584.05646  -3465141.97345  23816248.0684   23816259.7754   23816248.761
        40.0004         35.0004
 -19549020.61448 -15202238.88547  20970708.4844   20970713.8804   20970707.661
        52.0004         47.0004
 -11448411.04147  -8910086.58146  23499312.6564   23499320.9404   23499313.478
        45.0004         40.0004
  -1632746.13547  -1255209.95546  24043072.5804   24043086.5264   24043072.998
        43.0004         38.0004
 -20278873.64449 -15789313.76148  19883056.5474   19883063.5834   19883056.815
        54.0004         49.0004
  -4459073.34447  -3415804.07246  23297884.7224   23297892.4944   23297885.694
        45.0004         41.0004
   -440958.37346   -315007.45546  24748206.6054   24748219.8844   24748206.413
        40.0004         36.0004
  -4681259.63547  -3647954.61746  23159005.5154   23159014.2844   23159005.190
        46.0004         41.0004
   1661000.95546   1348097.77845  24722542.1804   24722549.5054   24722541.926
        39.0004         34.0004
 -14063112.07049 -10949948.98648  19989394.7184   19989401.6064   19989394.791
        54.0004         49.0004
 -12558537.85348  -9723116.12347  22976693.5994   22976702.7614   22976693.617
        48.0004         43.0004
 -27014525.51348 -20994965.23248  20749132.1904   20749138.2864   20749131.615
        52.0004         48.0004
 14  5  9  0 52 30.0000000  0 12G20G07G10G26G08G02G01G28G13G09G17G04
  -4483929.76646  -3446710.20745  23820747.6844   23820760.6084   23820749.461
        40.0004         35.0004
 -19479399.32948 -15147988.49947  20983956.3724   20983962.5174   20983956.017
        52.0004         47.0004
 -11513507.66247  -8960811.08446  23486925.2364   23486933.3674   23486926.454
        45.0004         40.0004
  -1631926.69547  -1254571.27846  24043229.4524   24043242.2024   24043228.445
        43.0004         38.0004
 -20270899.47549 -15783100.09748  19884574.1194   19884580.7304   19884574.223
        54.0004         49.0004
  -4543080.83647  -3481264.31546  23281898.8704   23281905.8804   23281899.782
        45.0004         41.0004
   -334530.60146   -232076.82445  24768460.3854   24768476.9134   24768459.353
        40.0004         35.0004
  -4737487.85947  -3691768.80546  23148305.1364   23148314.9694   23148305.108
        46.0004         41.0004
   1723619.07846   1396891.14845  24734458.4144   24734461.9724   24734457.149
        39.0004         34.0004
 -14055359.76049 -10943908.19948  19990870.2194   19990876.6684   19990870.122
        54.0004         50.0004
 -12516703.90748  -9690518.24747  22984654.5804   22984662.4554   22984654.591
        48.0004         43.0004
 -27065075.95248 -21034355.15448  20739512.2554   20739519.2934   20739512.067
        52.0004         48.0004
 14  5  9  0 53  0.0000000  0 12G20G07G10G26G08G02G01G28G13G09G17G04
  -4459969.39146  -3428039.94045  23825309.1104   23825322.1364   23825310.172
        40.0004         35.0004
 -19409322.88348 -15093383.44447  20997291.4824   20997297.0994   20997291.536
        52.0004         47.0004
 -11578760.42347  -9011657.26446  23474507.5454   23474516.0624   23474509.014
        45.0004         40.0004
  -1630849.73947  -1253731.96046  24043433.4514   24043447.0364   24043433.652
        43.0004         38.0004
 -20262260.18249 -15776368.15348  19886218.0234   19886224.8414   19886218.275
        54.0004         49.0004
  -4626825.08247  -3546519.42346  23265963.6504   23265969.8114   23265963.421
        45.0004         41.0004
   -228035.30046   -149093.57945  24788726.7364   24788741.2354   24788724.016
        40.0004         35.0004
  -4793831.01947  -3735672.55046  23137583.0074   23137592.5914   23137583.475
        46.0004         41.0004
   1785994.37046   1445495.27945  24746325.4484   24746332.6034   24746326.966
        39.0004         35.0004
 -14047001.43349 -10937395.18448  19992460.8344   19992467.0224   19992460.650
        54.0004         50.0004
 -12474921.26948  -9657960.35147  22992606.8574   22992613.8684   22992605.238
        48.0004         43.0004
 -27115130.05148 -21073358.31248  20729987.1804   20729994.2994   20729986.562
        52.0004         48.0004
 14  5  9  0 53 30.0000000  0 12G20G07G10G26G08G02G01G28G13G09G17G04
  -4435700.69246  -3409129.42745  23829928.1194   23829936.8034   23829926.901
        40.0004         35.0004
 -19338792.90848 -15038424.98947  21010712.9194   21010718.7314   21010712.544
        52.0004         47.0004
 -11644166.75647  -9062623.10946  23462061.5674   23462069.3634   23462062.809
        45.0004         40.0004
  -1629516.07647  -1252692.60746  24043688.4624   24043699.9304   24043687.778
        43.0004         38.0004
 -20252955.29349 -15769117.56248  19887988.5864   19887995.5004   19887988.838
        54.0004         49.0004
  -4710303.15847  -3611567.14646  23250077.2104   23250084.4424   23250078.732
        45.0004         41.0004
   -121473.91146    -66058.82545  24809001.5944   24809019.0044   24809002.570
        39.0004         35.0004
  -4850286.00747  -3779663.42247  23126840.0364   23126848.6994   23126840.457
        46.0004         42.0004
   1848127.27746   1493910.52145  24758151.0264   24758158.9424   24758150.791
        39.0004         35.0004
 -14038036.65349 -10930409.61048  19994166.3794   19994172.9724   19994166.456
        54.0004         50.0004
 -12433190.80048  -9625443.11247  23000547.2474   23000555.4774   23000546.723
        48.0004         43.0004
 -27164685.08048 -21111972.58748  20720557.5564   20720563.9824   20720557.549
        52.0004         48.0004
 14  5  9  0 54  0.0000000  0 12G20G07G10G26G08G02G01G28G13G09G17G04
  -4411123.67846  -3389978.66345  23834605.7404   23834615.3554   23834605.197
        40.0004         35.0004
 -19267812.71248 -14983115.72247  21024220.0144   21024225.7664   21024219.608
        52.0004         47.0004
 -11709725.87247  -9113708.00546  23449585.8334   23449594.0344   23449586.977
        45.0004         40.0004
  -1627928.42847  -1251455.35146  24043988.9234   24044002.1404   24043989.553
        43.0004         38.0004
 -20242985.50849 -15761348.87248  19889885.6334   19889892.8184   19889885.997
        54.0004         49.0004
  -4793513.51947  -3676406.24846  23234244.2164   23234248.8154   23234243.625
        45.0004         41.0004
    -14849.70146     17024.87245  24829295.7924   24829310.0414   24829292.808
        39.0004         34.0004
  -4906851.61147  -3823740.50347  23116077.0644   23116084.0454   23116076.366
        46.0004         42.0004
   1910016.23846   1542135.69845  24769926.0124   24769935.7844   24769927.984
        40.0004         35.0004
 -14028466.82549 -10922952.57448  19995987.8234   19995994.1164   19995987.841
        54.0004         50.0004
 -12391515.28348  -9592968.69147  23008477.9434   23008486.1844   23008477.030
        48.0004         43.0004
 -27213740.22448 -21150197.34648  20711222.3004   20711228.9244   20711221.512
        52.0004         48.0004
 14  5  9  0 54 30.0000000  0 12G20G07G10G26G08G02G01G28G13G09G17G04
  -4386236.39346  -3370586.10245  23839338.0684   23839352.7154   23839340.484
        40.0004         35.0004
 -19196383.92048 -14927456.89147  21037812.2114   21037817.6634   21037811.905
        52.0004         47.0004
 -11775435.41447  -9164910.12746  23437082.2804   23437089.6484   23437082.565
        45.0004         40.0004
  -1626087.77847  -1250020.95146  24044338.6214   24044352.0734   24044339.146
        43.0004         38.0004
 -20232349.85349 -15753061.32648  19891909.7024   19891916.7234   19891909.959
        54.0004         49.0004
  -4876452.49447  -3741033.88146  23218461.0224   23218465.8804   23218459.943
        45.0004         41.0004
 -18813204.32146 -14631043.76345  24849596.7534   24849608.7424   24849594.741
        39.0004         34.0004
  -4963524.51047  -3867901.18447  23105291.3414   23105300.9764   23105291.665
        46.0004         42.0004
   1971661.04546   1590170.58545  24781659.3464   24781663.8204   24781658.102
        40.0004         35.0004
 -14018291.60549 -10915023.80748  19997923.4754   19997930.3144   19997923.828
        54.0004         50.0004
 -12349896.05448  -9560538.12747  23016397.4234   23016405.8934   23016396.920
        48.0004         43.0004
 -27262292.83748 -21188030.52148  20701983.1804   20701989.3824   20701983.195
        52.0004         48.0004
 14  5  9  0 55  0.0000000  0 12G20G07G10G26G08G02G01G28G13G09G17G04
  -4361037.81846  -3350951.02445  23844136.8364   23844148.2174   23844135.978
        40.0004         35.0004
 -19124508.69248 -14871450.18947  21051490.3584   21051494.8964   21051489.823
        52.0004         47.0004
 -11841293.43447  -9216227.94746  23424548.5784   23424557.4214   23424550.159
        45.0004         40.0004
  -1623995.88547  -1248390.76846  24044739.0854   24044750.2074   24044738.148
        43.0004         38.0004
 -20221048.71949 -15744255.21748  19894060.2574   19894067.3724   19894060.384
        54.0004         49.0004
  -4959118.12647  -3805448.52146  23202730.3404   23202735.6324   23202730.037
        46.0004         41.0004
 -18706460.08846 -14547866.52545  24869905.2614   24869923.6474   24869907.394
        39.0004         34.0004
  -5020302.52947  -3912143.76746  23094486.5494   23094496.4344   23094486.976
        46.0004         41.0004
   2033061.08246   1638014.77145  24793339.7734   24793350.0314   24793342.114
        39.0004         35.0004
 -14007511.61149 -10906623.78848  19999975.3174   19999982.1444   19999975.370
        54.0004         50.0004
 -12308334.84348  -9528152.77747  23024305.3234   23024313.8334   23024305.932
        48.0004         43.0004
 -27310341.26948 -21225470.83148  20692839.8384   20692846.3174   20692839.412
        52.0004         48.0004
 14  5  9  0 55 30.0000000  0 12G20G07G10G26G08G02G01G28G13G09G17G04
  -4335526.36846  -3331072.10545  23848991.7524   23849003.4284   23848990.804
        40.0004         35.0004
 -19052189.54448 -14815097.58247  21065252.1244   21065257.0734   21065251.646
        52.0004         47.0004
 -11907298.08947  -9267660.03046  23411988.7294   23411998.0654   23411989.574
        45.0004         40.0004
  -1621654.45547  -1246566.15646  24045183.1874   24045194.7224   24045182.465
        43.0004         38.0004
 -20209082.20649 -15734930.64048  19896337.3194   19896344.3574   19896337.402
        54.0004         49.0004
  -5041507.94247  -3869648.25346  23187050.4124   23187056.9774   23187051.505
        46.0004         41.0004
 -18599659.34446 -14464645.25745  24890229.2204   24890247.7214   24890230.292
        38.0004         34.0004
  -5077183.21847  -3956466.36246  23083662.5584   23083670.9524   23083662.843
        46.0004         41.0004
   2094216.37246   1685668.23245  24804980.3734   24804988.5304   24804979.983
        39.0004         35.0004
 -13996126.92649 -10897752.58248  20002142.0524   20002148.3984   20002141.676
        54.0004         50.0004
 -12266833.74248  -9495814.27447  23032204.0654   23032212.2454   23032203.436
        48.0004         43.0004
 -27357883.45848 -21262516.66348  20683792.7514   20683799.9554   20683792.456
        52.0004         48.0004
 14  5  9  0 56  0.0000000  0 12G20G07G10G26G08G02G01G28G13G09G17G04
  -4309703.36046  -3310950.46545  23853903.3534   23853916.9094   23853904.005
        39.0004         35.0004
 -18979431.23048 -14758402.76447  21079097.1184   21079102.5444   21079096.894
        52.0004         47.0004
 -11973449.47647  -9319206.45346  23399400.4604   23399408.6004   23399401.249
        45.0004         40.0004
  -1619067.53847  -1244550.22446  24045676.5844   24045687.7084   24045676.053
        43.0004         38.0004
 -20196452.76549 -15725089.49548  19898740.7544   19898747.5734   19898740.940
        54.0004         49.0004
  -5123621.87647  -3933632.99746  23171424.5434   23171430.6644   23171426.119
        46.0004         41.0004
 -18492806.62356 -14381383.46355  24910566.2335   24910576.5565   24910563.498
        38.0004         33.0004
  -5134166.56647  -4000868.93146  23072819.3904   23072828.3294   23072819.698
        46.0004         41.0004
   2155123.88946   1733128.62245  24816571.6464   24816578.3874   24816569.688
        39.0004         35.0004
 -13984140.77249 -10888412.69848  20004422.3884   20004428.8904   20004422.496
        54.0004         50.0004
 -12225396.44048  -9463525.46947  23040088.6744   23040096.6444   23040088.282
        48.0004         43.0004
 -27404920.06948 -21299168.54448  20674841.8894   20674848.5714   20674841.903
        52.0004         48.0004
 14  5  9  0 56 30.0000000  0 12G20G07G10G26G08G02G01G28G13G09G17G04
  -4283562.49946  -3290581.12945  23858880.0454   23858890.1704   23858880.394
        40.0004         35.0004
 -18906231.41348 -14701363.92547  21093026.5984   21093032.1594   21093026.303
        52.0004         47.0004
 -12039741.11647  -9370862.16246  23386785.2904   23386794.2244   23386786.396
        45.0004         40.0004
  -1616232.08247  -1242340.64846  24046213.7334   24046226.3894   24046214.626
        42.0004         38.0004
 -20183155.74949 -15714728.16048  19901271.0264   19901277.6964   19901271.194
        54.0004         49.0004
  -5205453.07447  -3997397.43346  23155853.0014   23155860.3254   23155853.797
        46.0004         41.0004
 -18385899.30846 -14298079.18945  24930907.1454   24930920.0764   24930907.586
        38.0004         33.0004
  -5191245.30947  -4045345.85746  23061956.3714   23061965.5244   23061957.405
        46.0004         41.0004
   2215787.85446   1780399.23145  24828114.1894   24828120.2494   24828114.351
        39.0004         34.0004
 -13971548.74649 -10878600.70548  20006818.3314   20006825.0724   20006818.427
        54.0004         50.0004
 -12184019.96947  -9431284.07747  23047961.3774   23047969.8674   23047962.282
        47.0004         43.0004
 -27451444.43348 -21335421.27248  20665988.7924   20665995.2184   20665988.201
        52.0004         48.0004
 14  5  9  0 57  0.0000000  0 12G20G07G10G26G08G02G01G28G13G09G17G04
  -4257110.39846  -3269969.24645  23863910.8594   23863924.1504   23863913.299
        39.0004         35.0004
 -18832599.80448 -14643988.62147  21107038.6424   21107043.4464   21107037.781
        52.0004         47.0004
 -12106178.72647  -9422631.60246  23374142.9734   23374151.6004   23374143.794
        45.0004         40.0004
  -1613157.16747  -1239944.47746  24046799.8044   24046813.1024   24046800.157
        42.0004         38.0004
 -20169199.01749 -15703852.75748  19903927.0544   19903933.3554   19903926.968
        54.0004         49.0004
  -5287006.15447  -4060945.15646  23140333.6694   23140340.2084   23140333.972
        46.0004         41.0004
 -18278947.16256 -14214739.92055  24951262.6705   24951279.1145   24951260.769
        38.0004         33.0004
  -5248424.52647  -4089901.06746  23051077.3144   23051084.4444   23051076.937
        46.0004         41.0004
   2276200.62846   1827474.10745  24839608.4754   24839618.3614   24839609.958
        39.0004         34.0004
 -13958358.83049 -10868322.82448  20009328.7094   20009335.0904   20009328.772
        54.0004         50.0004
 -12142713.58147  -9399097.27647  23055823.6014   23055832.2174   23055822.484
        47.0004         43.0004
 -27497462.27248 -21371279.30848  20657232.2374   20657238.5274   20657231.346
        53.0004         48.0004
 14  5  9  0 57 30.0000000  0 12G20G07G10G26G08G02G01G28G13G09G17G04
  -4230341.87546  -3249110.81445  23869007.0324   23869020.0334   23869007.842
        39.0004         35.0004
 -18758534.67048 -14586275.50947  21121132.2674   21121137.8054   21121132.140
        51.0004         47.0004
 -12172756.47647  -9474510.25046  23361473.6644   23361481.0904   23361473.869
        45.0004         40.0004
  -1609840.56047  -1237359.98746  24047429.6004   24047443.1864   24047429.788
        42.0004         37.0004
 -20154578.34649 -15692460.00548  19906708.6124   19906715.5344   19906709.118
        54.0004         49.0004
  -5368274.67647  -4124271.14546  23124868.9644   23124874.7344   23124869.593
        46.0004         41.0004
                 -14131364.39455                  24971636.4815   24971621.044
                        32.0004
  -5305697.77747  -4134529.55346  23040177.5824   23040187.1564   23040178.381
        45.0004         41.0004
 -10266994.19646  -7946443.99645  24851057.3904   24851065.5984   24851059.276
        39.0004         34.0004
 -13944567.56549 -10857576.35348  20011953.1634   20011959.6724   20011953.063
        54.0004         50.0004
 -12101475.32248  -9366963.57247  23063670.6164   23063678.8394   23063670.041
        48.0004         43.0004
 -27542967.74948 -21406738.09848  20648572.5764   20648578.8414   20648572.037
        53.0004         48.0004
 14  5  9  0 58  0.0000000  0 12G20G07G10G26G08G02G01G28G13G09G17G04
  -4203256.26046  -3228005.33845  23874161.6954   23874172.1544   23874162.274
        39.0004         35.0004
 -18684039.21348 -14528227.07647  21135308.6244   21135313.8404   21135307.940
        51.0004         47.0004
 -12239472.83147  -9526496.90846  23348777.5204   23348785.8314   23348778.407
        45.0004         40.0004
  -1606284.58547  -1234588.94746  24048107.3204   24048118.8564   24048107.147
        42.0004         38.0004
 -20139294.58749 -15680550.55848  19909617.2204   19909624.0564   19909617.613
        54.0004         49.0004
  -5449257.17947  -4187374.26146  23109457.5894   23109464.4114   23109458.098
        46.0004         41.0004
                                                                  24991990.551

  -5363063.09047  -4179229.77746  23029261.4274   23029269.3134   23029261.800
        45.0004         40.0004
 -10207078.01746  -7899756.08945  24862462.2474   24862467.5694   24862461.494
        39.0004         34.0004
 -13930176.46149 -10846362.48548  20014691.6584   20014698.0614   20014691.727
        54.0004         50.0004
 -12060307.28948  -9334884.59347  23071505.2524   23071512.3364   23071504.020
        48.0004         43.0004
 -27587959.75748 -21441796.78548  20640010.5544   20640017.2054   20640010.216
        53.0004         48.0004
 14  5  9  0 58 30.0000000  0 11G20G07G10G26G08G02G28G13G09G17G04
  -4175854.42846  -3206653.40845  23879375.8514   23879388.0774   23879376.330
        39.0004         34.0004
 -18609118.02448 -14469846.90347  21149565.7844   21149570.2834   21149564.987
        51.0004         47.0004
 -12306327.90147  -9578591.65646  23336056.1704   23336062.7704   23336056.995
        45.0004         40.0004
  -1602493.23647  -1231634.51946  24048827.0844   24048839.7734   24048828.060
        42.0004         38.0004
 -20123350.51149 -15668126.57648  19912651.5174   19912658.1784   19912651.744
        54.0004         49.0004
  -5529953.29947  -4250254.24946  23094102.5354   23094106.6104   23094101.678
        46.0004         41.0004
  -5420519.53147  -4224001.02746  23018327.1394   23018334.9754   23018328.042
        45.0004         41.0004
 -10147412.96346  -7853263.82645  24873815.2744   24873823.1454   24873815.148
        39.0004         34.0004
 -13915188.09149 -10834683.20348  20017543.7074   20017550.1934   20017543.738
        54.0004         50.0004
 -12019212.92647  -9302863.01647  23079324.9364   23079332.6724   23079323.904
        47.0004         43.0004
 -27632438.77948 -21476455.74748  20631546.9904   20631553.0584   20631546.238
        53.0004         48.0004
 14  5  9  0 59  0.0000000  0 11G20G07G10G26G08G02G28G13G09G17G04
  -4148133.40346  -3185052.78345  23884651.7464   23884660.2674   23884652.585
        39.0004         34.0004
 -18533771.01348 -14411134.92547  21163903.5514   21163908.9894   21163902.702
        51.0004         47.0004
 -12373317.57147  -9630791.28546  23323308.7424   23323316.3794   23323308.337
        45.0004         40.0004
  -1598466.06447  -1228496.32246  24049595.5564   24049608.8724   24049595.576
        42.0004         38.0004
 -20106743.92649 -15655186.35348  19915811.6604   19915818.1204   19915811.823
        54.0004         49.0004
  -5610358.26447  -4312907.33746  23078801.6454   23078807.7854   23078802.486
        46.0004         41.0004
  -5478062.77447  -4268839.89546  23007377.5954   23007387.2834   23007378.278
        45.0004         41.0004
 -10087997.74046  -7806966.29445  24885119.9124   24885127.2344   24885121.771
        38.0004         34.0004
 -13899600.89549 -10822537.30648  20020510.1804   20020516.2174   20020510.130
        54.0004         50.0004
 -11978192.03648  -9270898.68947  23087130.4074   23087138.9634   23087130.227
        48.0004         43.0004
 -27676400.96648 -21510711.96948  20623180.9144   20623187.5804   20623180.645
        53.0004         48.0004
 14  5  9  0 59 30.0000000  0 11G20G07G10G26G08G02G28G13G09G17G04
  -4120094.39446  -3163204.35445  23889987.3434   23889998.8564   23889987.119
        39.0004         35.0004
 -18458003.34248 -14352095.16347  21178321.3094   21178326.9534   21178321.332
        51.0004         47.0004
 -12440442.02447  -9683095.94146  23310535.3204   23310542.7724   23310534.515
        45.0004         40.0004
  -1594207.12747  -1225177.52246  24050405.2674   24050418.6854   24050404.508
        43.0004         38.0004
 -20089477.64549 -15641732.08448  19919096.8744   19919104.0374   19919097.570
        54.0004         49.0004
  -5690472.09447  -4375333.57046  23063556.6084   23063563.1044   23063556.627
        46.0004         41.0004
  -5535693.14647  -4313746.66546  22996410.8164   22996420.1914   22996411.913
        46.0004         41.0004
 -10028835.10246  -7760865.54945  24896380.5614   24896385.5224   24896379.808
        39.0004         34.0004
 -13883418.09149 -10809927.29748  20023589.5074   20023595.7234   20023589.475
        54.0004         50.0004
 -11937248.56848  -9238994.69347  23094921.6744   23094929.1164   23094921.289
        48.0004         43.0004
 -27719847.07748 -21544566.06448  20614913.3004   20614920.0684   20614912.759
        53.0004         48.0004
 14  5  9  1  0  0.0000000  0 11G20G07G10G26G08G02G28G13G09G17G04
  -4091733.19146  -3141104.92245  23895385.0744   23895395.6874   23895385.052
        39.0004         35.0004
 -18381814.46448 -14292727.18747  21192819.8424   21192825.0284   21192819.556
        51.0004         47.0004
 -12507696.71547  -9735502.08946  23297736.6234   23297743.3104   23297736.407
        45.0004         40.0004
  -1589715.33547  -1221677.26046  24051259.2664   24051272.4444   24051259.905
        43.0004         38.0004
 -20071549.00849 -15627761.69448  19922508.8324   19922515.5604   19922508.981
        54.0004         49.0004
  -5770289.88347  -4437529.12346  23048368.2084   23048374.1364   23048367.224
        46.0004         41.0004
  -5593404.96747  -4358716.89746  22985429.2464   22985437.8234   22985429.185
        46.0004         41.0004
  -9969922.03846  -7714959.27745  24907592.0394   24907595.0504   24907590.610
        39.0004         34.0004
 -13866637.36049 -10796851.37548  20026782.6064   20026788.8574   20026782.446
        54.0004         50.0004
 -11896381.50548  -9207150.23347  23102698.9644   23102706.6224   23102697.930
        48.0004         43.0004
 -27762772.26548 -21578014.24248  20606745.0604   20606751.7424   20606745.178
        53.0004         48.0004
 14  5  9  1  0 30.0000000  0 11G20G07G10G26G08G02G28G13G09G17G04
  -4063053.70146  -3118757.42445  23900840.5554   23900854.1094   23900841.888
        39.0004         35.0004
 -18305211.76548 -14233036.75147  21207396.8254   21207401.6704   21207396.508
        51.0004         47.0004
 -12575084.24347  -9788011.75646  23284913.0934   23284921.0904   23284913.178
        45.0004         41.0004
  -1584997.36547  -1218000.78646  24052156.5314   24052169.7154   24052157.655
        43.0004         38.0004
 -20052963.22549 -15613279.23648  19926045.4864   19926052.0884   19926045.816
        54.0004         49.0004
  -5849813.99147  -4499495.83446  23033233.8594   23033239.9784   23033234.288
        46.0004         41.0004
  -5651200.63147  -4403752.47446  22974431.4754   22974439.9074   22974431.005
        46.0004         41.0004
  -9911264.07646  -7669251.79845  24918751.0834   24918756.6654   24918752.841
        39.0004         35.0004
 -13849264.16249 -10783313.78348  20030088.7544   20030095.1994   20030088.690
        54.0004         50.0004
 -11855597.40048  -9175370.40647  23110459.5914   23110467.9904   23110459.397
        48.0004         43.0004
 -27805180.11948 -21611059.31348  20598675.2974   20598681.6634   20598674.781
        53.0004         48.0004
 14  5  9  1  1  0.0000000  0 11G20G07G10G26G08G02G28G13G09G17G04
 -21363653.23546 -16599744.25045  23906363.2474   23906377.1114   23906364.635
        39.0004         35.0004
 -18228175.99748 -14173008.85847  21222056.1014   21222061.5224   21222055.717
        51.0004         47.0004
 -12642581.27147  -9840606.74046  23272069.0604   23272076.6504   23272069.020
        45.0004         41.0004
  -1580033.44447  -1214132.65746  24053102.1054   24053113.2454   24053102.100
        43.0004         38.0004
 -20033699.52349 -15598268.53548  19929711.4434   19929717.6574   19929711.680
        54.0004         49.0004
  -5929020.37747  -4561214.97046  23018161.6994   23018166.8064   23018162.120
        46.0004         41.0004
  -5709056.11147  -4448834.65146  22963420.4854   22963430.7604   22963421.303
        46.0004         41.0004
  -9852839.96046  -7623726.53445  24929869.3584   24929873.9214   24929869.582
        39.0004         35.0004
 -13831278.18549 -10769298.70748  20033510.9154   20033517.1724   20033511.147
        54.0004         50.0004
 -11814876.78147  -9143640.06847  23118209.2154   23118216.6044   23118208.104
        47.0004         43.0004
 -27847047.10048 -21643682.90948  20590707.9324   20590714.7634   20590707.247
        53.0004         48.0004
 14  5  9  1  1 30.0000000  0 11G20G07G10G26G08G02G28G13G09G17G04
 -21334338.56946 -16576901.84645  23911945.1914   23911953.7114   23911942.977
        39.0004         34.0004
 -18150757.70748 -14112682.90747  21236788.5544   21236793.9154   21236787.900
        51.0004         47.0004
 -12710233.77247  -9893322.87046  23259195.0864   23259201.5514   23259194.956
        45.0004         41.0004
  -1574873.20947  -1210111.54346  24054084.7564   24054096.9334   24054083.997
        43.0004         38.0004
 -20013805.98149 -15582767.04348  19933496.9524   19933503.4794   19933497.059
        54.0004         49.0004
  -6007954.79447  -4622722.19146  23003141.0464   23003146.4944   23003140.751
        46.0004         41.0004
  -5767016.27847  -4493998.40346  22952392.0314   22952402.4254   22952392.207
        46.0004         41.0004
  -9794697.65946  -7578420.87045  24940934.4764   24940938.8604   24940934.475
        39.0004         35.0004
 -13812727.86349 -10754843.87948  20037041.1874   20037047.1114   20037041.368
        54.0004         50.0004
 -11774267.94747  -9111996.81847  23125935.4744   23125943.5864   23125935.290
        47.0004         43.0004
 -27888419.73848 -21675921.31948  20582835.2044   20582841.2784   20582835.151
        53.0004         48.0004
 14  5  9  1  2  0.0000000  0 11G20G07G10G26G08G02G28G13G09G17G04
 -21304695.00446 -16553803.12845  23917585.2224   23917595.6554   23917584.005
        39.0004         35.0004
 -18072925.69548 -14052034.56947  21251599.3014   21251604.4494   21251598.994
        51.0004         47.0004
 -12778005.87347  -9946132.19446  23246297.3654   23246305.7614   23246298.166
        45.0004         41.0004
  -1569484.82947  -1205912.65246  24055110.0764   24055120.8774   24055109.074
        43.0004         38.0004
 -19993249.39449 -15566748.90048  19937408.4074   19937415.3194   19937408.956
        54.0004         49.0004
  -6086581.15947  -4683989.37246  22988178.3264   22988184.4914   22988179.036
        46.0004         41.0004
  -5825045.03447  -4539215.60246  22941350.0324   22941358.1954   22941349.397
        46.0004         41.0004
  -9736804.27846  -7533309.12345  24951950.3704   24951956.0084   24951950.647
        39.0004         34.0004
 -13793580.48949 -10739923.81648  20040685.0244   20040691.4484   20040684.937
        54.0004         50.0004
 -11733739.99147  -9080416.59247  23133647.7004   23133655.5254   23133647.748
        47.0004         43.0004
 -27929262.91348 -21707747.15148  20575062.6164   20575069.3294   20575061.785
        53.0004         48.0004
 14  5  9  1  2 30.0000000  0 11G20G07G10G26G08G02G28G13G09G17G04
 -21274726.51846 -16530451.24945  23923287.5274   23923297.0864   23923287.337
        39.0004         35.0004
 -17994687.32548 -13991069.59147  21266487.6984   21266493.4084   21266487.094
        51.0004         46.0004
 -12845900.21247  -9999036.77646  23233378.6164   23233385.2874   23233378.797
        45.0004         41.0004
  -1563874.88747  -1201541.13746  24056176.9984   24056188.3374   24056176.844
        43.0004         38.0004
 -19972035.30249 -15550218.40948  19941445.7204   19941452.1914   19941445.966
        54.0004         49.0004
  -6164902.00447  -4745018.47646  22973274.6594   22973280.7074   22973275.642
        46.0004         41.0004
  -5883144.99847  -4584488.27546  22930293.8554   22930301.9074   22930293.311
        46.0004         41.0004
  -9679164.59946  -7488395.10045  24962918.2574   24962927.6774   24962919.312
        39.0004         34.0004
 -13773841.66349 -10724542.88248  20044440.7984   20044447.2504   20044440.981
        54.0004         50.0004
 -11693298.99447  -9048904.12547  23141343.4804   23141353.1254   23141343.516
        47.0004         43.0004
 -27969579.62648 -21739162.74848  20567390.9284   20567397.1574   20567390.552
        53.0004         48.0004
 14  5  9  1  3  0.0000000  0 11G20G07G10G26G08G02G28G13G09G17G04
 -21244429.83746 -16506843.62145  23929052.7184   23929064.1474   23929053.516
        39.0004         34.0004
 -17916043.10248 -13929788.36647  21281453.1664   21281458.5724   21281452.533
        51.0004         46.0004
 -12913912.61947 -10052033.35046  23220435.2494   23220443.5944   23220436.628
        45.0004         41.0004
  -1558043.12847  -1196996.78046  24057287.1014   24057298.3684   24057286.906
        43.0004         38.0004
 -19950162.37449 -15533174.54348  19945607.6894   19945614.5374   19945608.197
        54.0004         49.0004
  -6242913.30147  -4805806.39746  22958429.2724   22958435.8204   22958429.223
        46.0004         41.0004
  -5941311.22147  -4629812.58047  22919224.2694   22919234.1984   22919224.766
        46.0004         42.0004
  -9621776.91446  -7443677.44645  24973839.8324   24973846.9644   24973839.752
        39.0004         34.0004
 -13753510.26249 -10708700.19948  20048309.5284   20048316.0414   20048309.675
        54.0004         50.0004
 -11652944.71447  -9017459.23047  23149022.7944   23149031.0014   23149022.072
        47.0004         43.0004
 -28009366.53748 -21770165.52448  20559819.8014   20559825.9534   20559819.095
        53.0004         48.0004
 14  5  9  1  3 30.0000000  0 11G20G07G10G26G08G02G28G13G09G17G04
 -21213808.46946 -16482982.99045  23934882.3984   23934891.1024   23934879.577
        39.0004         34.0004
 -17836999.82448 -13868196.18547  21296494.6574   21296499.5324   21296493.667
        51.0004         46.0004
 -12982045.45747 -10105123.77846  23207470.8554   23207477.9124   23207470.560
        46.0004         41.0004
  -1551995.74447  -1192284.39946  24058437.5834   24058448.5674   24058436.834
        43.0004         38.0004
 -19927635.41549 -15515621.03948  19949894.8164   19949901.3124   19949894.832
        54.0004         49.0004
  -6320616.63947  -4866354.33347  22943643.6504   22943648.1454   22943643.957
        46.0004         42.0004
  -5999545.50647  -4675189.93547  22908143.3094   22908151.4124   22908143.275
        46.0004         42.0004
  -9564645.91546  -7399159.80745  24984710.6694   24984719.0484   24984711.534
        39.0004         34.0004
 -13732591.67949 -10692399.96748  20052290.1634   20052296.8414   20052290.368
        54.0004         50.0004
 -11612682.93447  -8986086.41647  23156683.9494   23156693.6854   23156684.009
        47.0004         43.0004
 -28048626.42948 -21800757.62948  20552348.3284   20552355.1244   20552347.897
        53.0004         48.0004
 14  5  9  1  4  0.0000000  0 11G20G07G10G26G08G02G28G13G09G17G04
 -21182859.99146 -16458867.48945  23940769.6994   23940782.4114   23940769.665
        39.0004         34.0004
 -17757558.76248 -13806294.04647  21311611.7744   21311617.2294   21311611.264
        51.0004         46.0004
 -13050295.17947 -10158305.28746  23194483.6924   23194490.0944   23194483.676
        46.0004         41.0004
  -1545733.22347  -1187404.37246  24059629.7154   24059638.9564   24059628.712
        43.0004         38.0004
 -19904453.43449 -15497557.13648  19954305.9064   19954312.5134   19954306.316
        54.0004         49.0004
  -6398008.33247  -4926659.42547  22928915.7524   22928920.6594   22928916.625
        46.0004         42.0004
  -6057843.86047  -4720617.20946  22897048.8574   22897057.9934   22897049.003
        46.0004         41.0004
  -9507770.35246  -7354841.20245  24995533.1244   24995541.7344   24995535.304
        39.0004         35.0004
 -13711085.23049 -10675641.66048  20056382.4774   20056389.3974   20056382.571
        54.0004         50.0004
 -11572513.99948  -8954785.94647  23164329.1354   23164336.8744   23164327.953
        48.0004         43.0004
 -28087356.36648 -21830936.79048  20544978.6964   20544984.8604   20544978.540
        53.0004         48.0004
 14  5  9  1  4 30.0000000  0 11G20G07G10G26G08G02G28G13G09G17G04
 -21151584.90446 -16434497.45745  23946718.6364   23946731.9784   23946720.974
        39.0004         34.0004
 -17677723.80048 -13744084.97147  21326803.4704   21326808.8174   21326803.084
        51.0004         46.0004
 -13118661.15847 -10211577.36846  23181472.2844   23181480.2674   23181473.505
        45.0004         41.0004
  -1539258.91447  -1182359.31646  24060861.9224   24060872.1124   24060860.488
        42.0004         38.0004
 -19880618.73849 -15478984.61948  19958841.6334   19958848.1534   19958842.059
        54.0004         49.0004
  -6475087.43747  -4986720.95847  22914248.6034   22914253.8554   22914248.497
        46.0004         42.0004
  -6116205.16347  -4766093.52446  22885942.9664   22885951.8604   22885943.470
        46.0004         41.0004
  -9451152.18746  -7310723.17245  25006308.4424   25006314.5614   25006309.121
        39.0004         35.0004
 -13688993.47049 -10658427.27048  20060586.9164   20060593.1144   20060586.663
        54.0004         50.0004
 -11532440.42248  -8923559.77847  23171954.0124   23171963.2984   23171953.648
        48.0004         43.0004
 -28125556.44348 -21860703.07148  20537709.4354   20537715.6504   20537708.807
        53.0004         48.0004
 14  5  9  1  5  0.0000000  0 11G20G07G10G26G08G02G28G13G09G17G04
 -21119983.75246 -16409873.38045  23952734.1554   23952744.2424   23952734.173
        39.0004         34.0004
 -17597498.55648 -13681571.78547  21342070.2354   21342075.2584   21342069.642
        51.0004         46.0004
 -13187142.44847 -10264939.32046  23168441.2664   23168448.4974   23168442.316
        46.0004         41.0004
  -1532575.68747  -1177151.47446  24062133.3494   24062144.2434   24062131.603
        42.0004         38.0004
 -19856133.48049 -15459905.17248  19963501.2654   19963507.8764   19963501.419
        54.0004         49.0004
  -6551853.35347  -5046538.44547  22899639.5394   22899645.9964   22899640.436
        47.0004         42.0004
  -6174627.81147  -4811617.65447  22874826.6124   22874833.2624   22874826.072
        46.0004         42.0004
  -9394792.93946  -7266806.90545  25017034.2714   25017041.9834   25017033.956
        39.0004         35.0004
 -13666318.64249 -10640758.54348  20064901.9484   20064908.1614   20064901.813
        54.0004         50.0004
 -11492465.67748  -8892410.62247  23179561.6284   23179569.5754   23179560.277
        48.0004         43.0004
 -28163226.49948 -21890056.34748  20530540.9714   20530547.1124   20530540.550
        53.0004         48.0004
 14  5  9  1  5 30.0000000  0 11G20G07G10G26G08G02G28G13G09G17G04
 -21088051.82146 -16384991.53145  23958811.9094   23958825.4254   23958812.051
        39.0004         34.0004
 -17516882.32648 -13618753.92647  21357410.7164   21357416.0874   21357410.364
        51.0004         46.0004
 -13255733.46247 -10318386.76846  23155388.4694   23155396.8744   23155389.414
        46.0004         41.0004
  -1525682.08547  -1171779.70546  24063444.1914   24063454.7724   24063444.021
        42.0004         38.0004
 -19830994.61049 -15440316.41548  19968284.8564   19968291.1304   19968285.019
        54.0004         49.0004
  -6628300.43947  -5106107.50147  22885092.6204   22885098.1804   22885092.673
        47.0004         42.0004
  -6233105.92747  -4857184.99946  22863696.8754   22863706.6194   22863698.172
        46.0004         41.0004
  -9338688.89646  -7223089.48345  25027711.8044   25027716.9464   25027710.705
        39.0004         34.0004
 -13643058.38749 -10622633.63348  20069327.8604   20069334.3334   20069327.808
        54.0004         50.0004
 -11452587.60947  -8861336.81547  23187149.9414   23187158.8774   23187148.921
        47.0004         43.0004
 -28200361.44648 -21918992.65648  20523474.8104   20523480.9734   20523474.161
        53.0004         48.0004
 14  5  9  1  6  0.0000000  0 11G20G07G10G26G08G02G28G13G09G17G04
 -21055794.01546 -16359855.75245  23964947.7354   23964964.0994   23964949.996
        39.0004         35.0004
 -17435883.68448 -13555638.08947  21372824.3024   21372829.5834   21372823.608
        51.0004         46.0004
 -13324437.81647 -10371922.53346  23142314.7174   23142322.5354   23142315.540
        46.0004         41.0004
  -1518585.72947  -1166249.93546  24064795.6064   24064805.9084   24064794.410
        43.0004         38.0004
 -19805208.89049 -15420223.62148  19973191.0194   19973198.0904   19973191.653
        54.0004         49.0004
  -6704432.06147  -5165430.73547  22870604.9554   22870610.0284   22870605.146
        47.0004         42.0004
  -6291642.63647  -4902797.99247  22852558.5264   22852567.5934   22852558.854
        46.0004         42.0004
  -9282846.28746  -7179575.80145  25038339.8984   25038342.5364   25038336.217
        39.0004         34.0004
 -13619219.47449 -10604057.82348  20073863.9744   20073870.6184   20073864.308
        54.0004         50.0004
 -11412813.62447  -8830344.10747  23194718.2584   23194727.0844   23194717.979
        47.0004         43.0004
 -28236965.88648 -21947515.58148  20516508.8544   20516515.4504   20516508.459
        53.0004         48.0004
 14  5  9  1  6 30.0000000  0 11G20G07G10G26G08G02G28G13G09G17G04
 -21023204.38746 -16334461.45345  23971154.8784   23971163.9864   23971151.858
        39.0004         34.0004
 -17354500.08748 -13492222.28747  21388310.7954   21388316.0084   21388310.454
        51.0004         46.0004
 -13393248.54447 -10425541.19346  23129220.5534   23129226.8824   23129220.819
        46.0004         41.0004
  -1511283.55547  -1160559.82546  24066183.3184   24066195.1864   24066183.954
        43.0004         38.0004
 -19778772.02748 -15399623.44248  19978222.1604   19978228.7114   19978222.374
        53.0004         49.0004
  -6780240.78247  -5224502.36947  22856179.2324   22856184.6744   22856179.708
        47.0004         42.0004
  -6350230.22847  -4948450.63047  22841409.1374   22841419.5564   22841409.873
        46.0004         42.0004
  -9227260.47746  -7136262.21445  25048915.5954   25048922.2394   25048914.229
        39.0004         34.0004
 -13594797.99849 -10585028.06048  20078511.6264   20078517.7224   20078511.515
        54.0004         50.0004
 -11373140.22247  -8799429.77447  23202267.6974   23202276.5654   23202267.851
        47.0004         43.0004
 -28273033.77548 -21975620.41448  20509645.4604   20509651.4174   20509644.680
        53.0004         48.0004
 14  5  9  1  7  0.0000000  0 11G20G07G10G26G08G02G28G13G09G17G04
 -20990287.06846 -16308811.73645  23977413.2944   23977426.6064   23977414.872
        39.0004         34.0004
 -17272739.01648 -13428512.34347  21403869.6804   21403875.0214   21403869.081
        51.0004         46.0004
 -13462168.57047 -10479245.01646  23116105.6464   23116112.6464   23116106.195
        46.0004         41.0004
  -1503782.24047  -1154714.51046  24067611.6134   24067622.4124   24067611.158
        43.0004         38.0004
 -19751690.09848 -15378520.60948  19983375.4384   19983382.2384   19983376.075
        53.0004         49.0004
  -6855729.45647  -5283324.59847  22841813.5224   22841820.4704   22841814.566
        47.0004         42.0004
  -6408871.01847  -4994144.71747  22830250.8684   22830260.0964   22830250.760
        46.0004         42.0004
  -9171936.59546  -7093152.74145  25059443.3234   25059449.8084   25059441.352
        39.0004         34.0004
 -13569800.19649 -10565549.22148  20083268.3204   20083274.5954   20083268.375
        54.0004         50.0004
 -11333573.81247  -8768598.80747  23209797.0584   23209806.9844   23209796.919
        47.0004         43.0004
 -28308568.26048 -22003309.61148  20502883.2544   20502890.0094   20502882.997
        53.0004         48.0004
 14  5  9  1  7 30.0000000  0 11G20G07G10G26G08G02G28G13G09G17G04
 -20957038.14246 -16282903.69845  23983742.5824   23983758.3554   23983743.033
        39.0004         34.0004
 -17190599.93648 -13364507.85247  21419500.0514   21419505.5074   21419499.684
        51.0004         46.0004
 -13531192.44147 -10533029.75746  23102970.6474   23102977.9674   23102971.329
        46.0004         41.0004
  -1496080.67147  -1148713.17346  24069076.7294   24069088.1714   24069076.765
        43.0004         38.0004
 -19723960.68648 -15356913.25648  19988652.2804   19988659.1284   19988652.667
        53.0004         49.0004
  -6930892.89847  -5341893.44647  22827510.9374   22827515.3084   22827510.146
        47.0004         42.0004
  -6467559.10447  -5039875.66047  22819082.6744   22819091.3264   22819083.247
        46.0004         42.0004
  -9116871.80746  -7050245.11945  25069924.4664   25069926.8294   25069920.457
        39.0004         34.0004
 -13544224.05349 -10545619.72648  20088135.3434   20088142.0094   20088135.391
        54.0004         50.0004
 -11294112.67747  -8737849.87847  23217306.0224   23217315.0834   23217306.028
        47.0004         42.0004
 -28343565.31148 -22030580.02948  20496223.7764   20496229.6994   20496223.130
        53.0004         48.0004
 14  5  9  1  8  0.0000000  0 11G20G07G10G26G08G02G28G13G09G17G04
 -20923458.60946 -16256737.99445  23990133.6814   23990144.4914   23990132.643
        38.0004         34.0004
 -17108087.42948 -13300212.37947  21435201.9694   21435206.8374   21435201.092
        51.0004         46.0004
 -13600319.18547 -10586894.66746  23089816.0844   23089823.0574   23089816.815
        46.0004         41.0004
  -1488182.35847  -1142558.51846  24070580.4614   24070591.3874   24070579.862
        43.0004         38.0004
 -19695586.25648 -15334803.27648  19994051.7744   19994058.3264   19994052.079
        53.0004         49.0004
  -7005730.55747  -5400208.41447  22813268.7734   22813274.1404   22813269.687
        47.0004         42.0004
  -6526293.31247  -5085642.54347  22807907.2394   22807916.1124   22807906.288
        46.0004         42.0004
  -9062067.54446  -7007540.53145  25080351.1804   25080358.8004   25080349.072
        38.0004         34.0004
 -13518072.36149 -10525241.75648  20093111.9434   20093117.9654   20093111.765
        54.0004         50.0004
 -11254760.53947  -8707185.88347  23224794.7464   23224803.6184   23224794.370
        47.0004         43.0004
 -28378024.92448 -22057431.66048  20489666.2834   20489672.8224   20489665.781
        53.0004         48.0004
 14  5  9  1  8 30.0000000  0 11G20G07G10G26G08G02G28G13G09G17G04
 -20889546.16946 -16230312.88745  23996585.9904   23996597.8864   23996584.973
        38.0004         34.0004
 -17025202.91048 -13235627.03147  21450973.7144   21450979.5984   21450973.985
        51.0004         46.0004
 -13669546.04747 -10640837.59647  23076642.5844   23076649.8354   23076642.988
        46.0004         42.0004
  -1480088.12147  -1136251.18846  24072118.4594   24072132.1714   24072119.374
        43.0004         38.0004
 -19666566.72548 -15312190.64548  19999573.8794   19999580.3474   19999574.231
        53.0004         49.0004
  -7080239.20847  -5458267.00247  22799090.4994   22799096.9024   22799091.798
        47.0004         42.0004
  -6585070.28847  -5131442.75347  22796721.5874   22796730.5594   22796721.360
        46.0004         42.0004
  -9007523.14146  -6965038.41745  25090729.6254   25090736.8684   25090728.844
        38.0004         34.0004
 -13491345.41549 -10504415.52848  20098197.7224   20098203.8284   20098197.920
        54.0004         50.0004
 -11215517.81047  -8676607.13947  23232262.9314   23232270.4464   23232261.858
        47.0004         42.0004
 -28411945.02648 -22083862.90548  20483211.9244   20483218.1274   20483211.276
        53.0004         48.0004
 14  5  9  1  9  0.0000000  0 11G20G07G10G26G08G02G28G13G09G17G04
 -20855301.63046 -16203629.03545  24003102.1014   24003113.6664   24003101.104
        38.0004         33.0004
 -16941950.45348 -13170754.97547  21466816.4894   21466821.6494   21466815.994
        51.0004         46.0004
 -13738872.14847 -10694857.84546  23063450.6484   23063456.4184   23063450.686
        46.0004         41.0004
  -1471801.18747  -1129793.73446  24073697.2004   24073708.0364   24073696.765
        43.0004         38.0004
 -19636904.20648 -15289076.96648  20005218.3874   20005225.2204   20005219.004
        53.0004         49.0004
  -7154417.93347  -5516068.50747  22784975.2594   22784980.2314   22784975.275
        47.0004         42.0004
  -6643888.56447  -5177275.14447  22785528.6754   22785536.4794   22785528.236
        46.0004         42.0004
  -8953240.04146  -6922739.89545  25101060.1364   25101066.1264   25101059.096
        38.0004         33.0004
 -13464045.54449 -10483142.86548  20103392.5024   20103399.0854   20103392.530
        54.0004         50.0004
 -11176386.81647  -8646115.46147  23239708.2044   23239718.0994   23239708.136
        47.0004         42.0004
 -28445325.86148 -22109873.93248  20476859.3224   20476865.7304   20476858.506
        53.0004         48.0004
 14  5  9  1  9 30.0000000  0 11G20G07G10G26G08G02G28G13G09G17G04
 -20820724.61146 -16176686.08945  24009681.9234   24009695.9904   24009682.933
        38.0004         34.0004
 -16858333.15348 -13105598.62447  21482727.9664   21482734.1124   21482728.215
        51.0004         46.0004
 -13808295.68947 -10748954.02647  23050239.2614   23050246.4364   23050240.248
        46.0004         42.0004
  -1463324.16347  -1123188.13046  24075309.2344   24075320.7684   24075309.155
        43.0004         38.0004
 -19606600.60448 -15265463.74548  20010985.4154   20010992.0434   20010985.684
        53.0004         49.0004
  -7228265.09547  -5573611.66447  22770922.0004   22770928.0124   22770922.783
        47.0004         42.0004
  -6702745.89347  -5223137.96847  22774328.7694   22774338.2994   22774328.332
        46.0004         42.0004
  -8899219.08646  -6880645.65645  25111341.8544   25111349.4454   25111339.127
        38.0004         34.0004
 -13436174.74149 -10461425.32348  20108696.4694   20108702.7554   20108696.562
        54.0004         50.0004
 -11137370.20747  -8615712.91647  23247134.2544   23247141.4894   23247132.806
        47.0004         42.0004
 -28478166.62948 -22135464.13048  20470609.4704   20470616.1384   20470609.550
        53.0004         48.0004
 14  5  9  1 10  0.0000000  0 11G20G07G10G26G08G02G28G13G09G17G04
 -20785814.49546 -16149483.59945  24016324.0424   24016335.7554   24016325.456
        38.0004         33.0004
 -16774353.49848 -13040159.92447  21498708.5644   21498715.2874   21498708.621
        51.0004         46.0004
 -13877814.51747 -10803124.46047  23037009.0484   23037017.1114   23037011.115
        46.0004         42.0004
  -1454658.70947  -1116435.70846  24076958.2364   24076968.4614   24076957.879
        43.0004         38.0004
 -19575656.76548 -15241351.64048  20016873.4604   20016879.7004   20016873.912
        53.0004         49.0004
  -7301778.26447  -5630894.56747  22756933.5464   22756938.5794   22756934.246
        47.0004         42.0004
  -6761639.58447  -5269029.11347  22763121.5504   22763130.0904   22763121.232
        46.0004         42.0004
  -8845460.12046  -6838755.54745  25121569.1614   25121575.1274   25121568.635
        38.0004         33.0004
 -13407733.89749 -10439263.59548  20114108.3604   20114114.4464   20114108.179
        54.0004         50.0004
 -11098468.45147  -8585399.87847  23254536.5434   23254545.0304   23254535.734
        47.0004         42.0004
 -28510465.93548 -22160632.41748  20464462.8464   20464469.6064   20464462.791
        53.0004         48.0004
 14  5  9  1 10 30.0000000  0 11G20G07G10G26G08G02G28G13G09G17G04
 -20750570.10846 -16122020.66045  24023032.4644   24023043.5304   24023033.631
        38.0004         34.0004
 -16690014.32648 -12974441.07047  21514758.2134   21514763.7514   21514757.804
        51.0004         46.0004
 -13947426.22747 -10857367.27846  23023762.3024   23023771.3064   23023764.012
        46.0004         41.0004
  -1445806.76047  -1109537.98346  24078643.5924   24078654.7254   24078642.624
        43.0004         38.0004
 -19544073.75148 -15216741.47848  20022883.3914   20022890.2554   20022883.778
        53.0004         49.0004
  -7374955.55347  -5687915.75447  22743008.3064   22743013.4324   22743008.044
        47.0004         43.0004
  -6820566.67147  -5314946.28947  22751907.9104   22751916.1404   22751907.814
        47.0004         42.0004
  -8791963.37546  -6797069.79445  25131747.9824   25131758.0504   25131748.564
        38.0004         34.0004
 -13378724.50049 -10416658.84248  20119628.7494   20119634.8744   20119628.904
        54.0004         50.0004
 -11059684.29647  -8555178.47347  23261917.4174   23261925.4054   23261916.447
        47.0004         42.0004
 -28542222.71748 -22185377.95348  20458420.1614   20458426.5624   20458419.818
        53.0004         48.0004
 14  5  9  1 11  0.0000000  0 11G20G07G10G26G08G02G28G13G09G17G04
 -20714989.43146 -16094295.63845  24029801.5234   24029819.6404   24029804.166
        38.0004         34.0004
 -16605316.83648 -12908443.01347  21530875.9684   21530881.2744   21530875.516
        51.0004         46.0004
 -14017126.97447 -10911679.47646  23010499.9494   23010506.4724   23010500.282
        46.0004         41.0004
  -1436768.82747  -1102495.32746  24080362.4384   24080373.1404   24080362.765
        43.0004         38.0004
 -19511851.07248 -15191632.87848  20029015.4074   20029022.2254   20029015.506
        53.0004         49.0004
  -7447793.45047  -5744672.47247  22729147.2894   22729152.6404   22729148.578
        47.0004         43.0004
  -6879522.98047  -5360886.22747  22740689.6214   22740695.2104   22740689.061
        47.0004         42.0004
  -8738727.50146  -6755587.30945  25141878.0674   25141883.2114   25141879.060
        38.0004         34.0004
 -13349146.24349 -10393610.82048  20125257.3234   20125263.7184   20125256.962
        54.0004         50.0004
 -11021017.07747  -8525048.19047  23269274.8964   23269283.0894   23269274.437
        47.0004         42.0004
 -28573434.47148 -22209698.78648  20452480.6574   20452487.4844   20452480.552
        53.0004         49.0004
 14  5  9  1 11 30.0000000  0 11G20G07G10G26G08G02G28G13G09G17G04
 -20679078.00846 -16066312.91345  24036637.5224   24036651.5224   24036637.627
        38.0004         34.0004
 -16520270.21948 -12842172.91647  21547059.5114   21547064.4344   21547059.187
        50.0004         46.0004
 -14086920.97947 -10966064.34446  22997219.1264   22997225.2174   22997219.363
        46.0004         41.0004
  -1427553.11647  -1095314.12746  24082117.2754   24082127.9394   24082116.267
        43.0004         38.0004
 -19478996.42048 -15166031.83048  20035267.7894   20035273.9534   20035267.687
        53.0004         49.0004
  -7520296.22847  -5801168.06447  22715350.5594   22715354.8284   22715351.150
        47.0004         43.0004
  -6938512.21647  -5406851.83447  22729463.8674   22729472.7404   22729463.418
        47.0004         42.0004
  -8685758.76946  -6714312.98945  25151961.7404   25151965.2404   25151957.994
        38.0004         33.0004
 -13319007.05149 -10370125.70648  20130992.7164   20130998.9694   20130992.745
        54.0004         50.0004
 -10982474.42347  -8495014.95447  23276609.3694   23276617.9234   23276609.035
        47.0004         43.0004
 -28604106.52948 -22233599.07648  20446644.2384   20446650.8594   20446643.933
        53.0004         49.0004
 14  5  9  1 12  0.0000000  0 11G20G07G10G26G08G02G28G13G09G17G04
 -20642827.57246 -16038065.99545  24043536.8914   24043550.8764   24043536.394
        39.0004         34.0004
 -16434869.20648 -12775626.65947  21563311.2284   21563316.0674   21563310.672
        50.0004         46.0004
 -14156798.19847 -11020514.06047  22983921.6734   22983927.9974   22983922.030
        46.0004         42.0004
  -1418154.04847  -1087990.06346  24083904.4764   24083916.0634   24083904.097
        43.0004         38.0004
 -19445503.49248 -15139933.42848  20041641.0144   20041647.2914   20041641.181
        53.0004         49.0004
  -7592454.04847  -5857394.86347  22701619.6644   22701624.3414   22701619.756
        47.0004         43.0004
  -6997524.03547  -5452835.03247  22718233.0144   22718241.1134   22718234.031
        47.0004         42.0004
  -8633049.74046  -6673241.02345  25161990.6714   25161996.7204   25161989.581
        38.0004         33.0004
 -13288300.71949 -10346198.66248  20136835.9544   20136841.8884   20136835.729
        54.0004         50.0004
 -10944050.21947  -8465074.02747  23283920.6844   23283930.3584   23283920.709
        47.0004         42.0004
 -28634229.98748 -22257071.89648  20440911.9644   20440918.1834   20440911.830
        53.0004         49.0004
 14  5  9  1 12 30.0000000  0 11G20G07G10G26G08G02G28G13G09G17G04
 -20606242.54846 -16009558.36045  24050501.8374   24050513.8294   24050498.907
        38.0004         34.0004
 -16349121.85548 -12708810.52947  21579627.2994   21579632.5854   21579627.473
        50.0004         46.0004
 -14226761.79747 -11075031.08047  22970607.1184   22970613.9094   22970607.459
        46.0004         42.0004
  -1408578.63847  -1080528.58546  24085727.1094   24085737.9224   24085726.668
        42.0004         38.0004
 -19411378.40048 -15113342.43048  20048134.7124   20048141.4034   20048134.988
        53.0004         49.0004
  -7664270.17447  -5913355.40047  22687953.6694   22687957.3114   22687953.427
        47.0004         43.0004
  -7056560.64347  -5498837.54847  22706998.8104   22707007.1784   22706999.856
        47.0004         43.0004
  -8580605.53746  -6632375.42445  25171965.8614   25171977.0834   25171968.806
        38.0004         33.0004
 -13257033.93249 -10321834.90448  20142785.8314   20142791.8304   20142785.758
        54.0004         50.0004
 -10905751.27847  -8435230.71247  23291208.6984   23291217.1924   23291208.515
        47.0004         42.0004
 -28663809.22548 -22280120.63948  20435283.2814   20435289.4864   20435282.428
        53.0004         49.0004
 14  5  9  1 13  0.0000000  0 11G20G07G10G26G08G02G28G13G09G17G04
 -20569321.21746 -15980788.70145  24057523.5664   24057536.6604   24057522.846
        39.0004         34.0004
 -16263029.96648 -12641725.92847  21596010.9934   21596015.9594   21596010.649
        50.0004         46.0004
 -14296808.00147 -11129612.47046  22957278.0894   22957284.5694   22957278.432
        46.0004         41.0004
  -1398827.70447  -1072930.32146  24087582.2664   24087592.7964   24087581.878
        42.0004         38.0004
 -19376621.37848 -15086259.01948  20054748.7664   20054755.2094   20054748.958
        53.0004         49.0004
  -7735740.98947  -5969046.86847  22674352.0334   22674357.2884   22674352.644
        47.0004         43.0004
  -7115618.11347  -5544856.31047  22695760.3784   22695769.7884   22695760.956
        47.0004         43.0004
  -8528425.25746  -6591715.44545  25181897.5404   25181903.5474   25181898.411
        38.0004         33.0004
 -13225206.72249 -10297034.44448  20148842.1464   20148848.1634   20148842.133
        54.0004         50.0004
 -10867577.96447  -8405485.27147  23298473.3784   23298481.8544   23298472.730
        47.0004         42.0004
 -28692841.88348 -22302743.48148  20429758.4904   20429764.7644   20429758.103
        53.0004         49.0004
 14  5  9  1 13 30.0000000  0 11G20G07G10G26G08G02G28G13G09G17G04
 -20532063.12346 -15951756.59245  24064612.9244   24064625.2114   24064614.847
        39.0004         34.0004
 -16176596.13748 -12574374.89047  21612458.7574   21612463.5694   21612458.340
        50.0004         46.0004
 -14366934.87547 -11184256.72247  22943933.0244   22943940.2644   22943933.532
        46.0004         42.0004
  -1388903.48147  -1065197.04346  24089471.2204   24089481.9594   24089471.077
        42.0004         38.0004
 -19341233.87548 -15058684.32548  20061482.8274   20061489.2444   20061483.030
        53.0004         49.0004
  -7806864.86547  -6024467.98947  22660817.9824   22660822.7714   22660819.060
        47.0004         43.0004
  -7174693.90347  -5590889.37247  22684519.2704   22684528.1004   22684519.509
        47.0004         42.0004
  -8476509.07146  -6551261.30845  25191781.8214   25191786.4864   25191778.081
        38.0004         33.0004
 -13192821.10449 -10271798.87548  20155004.7084   20155010.8784   20155004.801
        54.0004         50.0004
 -10829531.62747  -8375838.78647  23305713.3534   23305721.8264   23305712.961
        47.0004         42.0004
 -28721327.15148 -22324939.79248  20424338.1294   20424344.0014   20424337.447
        53.0004         49.0004
 14  5  9  1 14  0.0000000  0 11G20G07G10G26G08G02G28G13G09G17G04
 -20494469.90146 -15922463.34145  24071767.8934   24071780.3714   24071767.494
        39.0004         34.0004
 -16089825.60948 -12506761.47847  21628970.1164   21628975.4884   21628969.793
        50.0004         45.0004
 -14437142.77747 -11238964.11247  22930572.3594   22930579.9364   22930573.786
        46.0004         42.0004
  -1378810.31047  -1057332.12046  24091390.8854   24091402.8824   24091390.730
        42.0004         38.0004
 -19305219.58048 -15030621.21748  20068335.9814   20068342.9024   20068336.462
        53.0004         49.0004
  -7877642.06247  -6079618.97447  22647348.7194   22647354.9614   22647349.739
        47.0004         43.0004
  -7233787.99647  -5636936.67847  22673273.9254   22673282.7904   22673274.296
        47.0004         42.0004
                  -6511014.91845                  25201612.7224   25201606.297
                        33.0004
 -13159880.87349 -10246131.13548  20161273.4024   20161279.2474   20161273.269
        54.0004         50.0004
 -10791616.37747  -8346294.44347  23312928.2174   23312937.2174   23312927.558
        47.0004         42.0004
 -28749266.63148 -22346710.80648  20419021.1594   20419027.5044   20419020.975
        53.0004         49.0004
 14  5  9  1 14 30.0000000  0 11G20G07G10G26G08G02G28G13G09G17G04
 -20456537.85146 -15892906.07645  24078987.9694   24078999.9564   24078986.668
        38.0004         33.0004
 -16002717.97148 -12438885.38547  21645546.1544   21645551.5114   21645546.117
        50.0004         46.0004
 -14507426.12347 -11293730.28746  22917197.7244   22917206.4674   22917198.536
        46.0004         41.0004
  -1368546.96847  -1049334.58646  24093344.9444   24093354.8054   24093343.733
        42.0004         38.0004
 -19268576.57148 -15002068.20348  20075308.8494   20075315.2354   20075309.019
        53.0004         49.0004
  -7948067.54147  -6134495.90047  22633948.6124   22633953.2274   22633948.497
        47.0004         43.0004
  -7292894.17947  -5682993.40947  22662025.9274   22662036.5854   22662026.648
        47.0004         42.0004
  -8373473.43546  -6470973.81845  25211385.6774   25211391.6114   25211383.961
        37.0004         33.0004
 -13126384.23249 -10220029.83148  20167647.2144   20167653.3474   20167647.185
        54.0004         50.0004
 -10753830.32147  -8316850.76047  23320119.2014   23320127.7354   23320118.474
        47.0004         42.0004
 -28776656.20448 -22368053.32248  20413809.1774   20413815.8674   20413808.442
        53.0004         49.0004
 14  5  9  1 15  0.0000000  0 11G20G07G10G26G08G02G28G13G09G17G04
 -20418266.66446 -15863084.56345  24086272.4244   24086281.3704   24086269.475
        38.0004         33.0004
 -15915276.32548 -12370749.02147  21662186.0624   21662191.5204   21662185.704
        50.0004         46.0004
 -14577782.60647 -11348553.46846  22903810.4424   22903816.7254   22903810.168
        46.0004         41.0004
  -1358115.89347  -1041206.37346  24095329.9174   24095340.1734   24095328.397
        42.0004         38.0004
 -19231306.72248 -14973026.73848  20082401.3184   20082407.6544   20082401.695
        53.0004         49.0004
  -8018139.91847  -6189097.68747  22620613.1164   22620618.4874   22620613.511
        47.0004         43.0004
  -7352009.92247  -5729057.59847  22650776.4624   22650785.4994   22650777.042
        47.0004         42.0004
  -8322350.94946  -6431138.11945  25221116.6804   25221120.2834   25221112.591
        38.0004         33.0004
 -13092333.31749 -10193496.63248  20174127.3004   20174133.1994   20174127.161
        54.0004         50.0004
 -10716175.18447  -8287509.10247  23327284.1744   23327292.1804   23327284.047
        47.0004         42.0004
 -28803495.48848 -22388967.03548  20408701.7354   20408708.0034   20408701.316
        53.0004         49.0004
 14  5  9  1 15 30.0000000  0 11G20G07G10G26G08G02G28G13G09G17G04
 -20379658.65746 -15833000.59445  24093615.7284   24093628.6724   24093616.763
        38.0004         33.0004
 -15827506.52848 -12302356.96447  21678887.9924   21678893.6734   21678887.297
        50.0004         46.0004
 -14648212.89847 -11403434.16047  22890407.0684   22890414.5664   22890407.864
        46.0004         42.0004
  -1347521.86547  -1032951.15346  24097344.8364   24097354.5284   24097345.398
        42.0004         38.0004
 -19193414.11448 -14943500.01148  20089611.5334   20089618.5574   20089611.935
        53.0004         49.0004
  -8087859.67947  -6243424.71347  22607346.7484   22607350.7654   22607347.042
        47.0004         43.0004
  -7411135.27347  -5775129.26647  22639526.1344   22639533.6094   22639526.112
        47.0004         43.0004
  -8271495.01346  -6391510.14145  25230794.4714   25230796.9974   25230791.140
        37.0004         33.0004
 -13057732.44249 -10166534.88348  20180711.4764   20180717.2734   20180711.187
        54.0004         50.0004
 -10678655.27047  -8258272.80447  23334424.4784   23334433.3044   23334423.479
        47.0004         42.0004
 -28829786.17548 -22409453.27948  20403699.0554   20403705.2844   20403698.555
        53.0004         49.0004
 14  5  9  1 16  0.0000000  0 10G07G10G26G08G02G28G13G09G17G04
 -15739398.51048 -12233701.36347  21695655.1924   21695660.3204   21695654.329
        50.0004         46.0004
 -14718702.29547 -11458360.91047  22876993.7644   22877000.4974   22876994.107
        46.0004         42.0004
  -1336754.29547  -1024560.72346  24099392.9264   24099405.2194   24099392.933
        42.0004         38.0004
 -19154887.87148 -14913479.54648  20096943.3064   20096949.6714   20096943.563
        53.0004         49.0004
  -8157212.40047  -6297465.72747  22594149.9184   22594153.7064   22594148.694
        47.0004         43.0004
  -7470254.89847  -5821196.48247  22628275.6714   22628282.4934   22628275.862
        47.0004         42.0004
                  -6352080.39145                  25240427.0714   25240419.779
                        33.0004
 -13022570.59749 -10139136.02248  20187402.2434   20187408.5484   20187402.394
        54.0004         50.0004
 -10641259.40147  -8229133.16047  23341541.1784   23341548.6834   23341539.604
        47.0004         42.0004
 -28855515.08648 -22429501.77248  20398802.3904   20398808.7364   20398802.009
        53.0004         49.0004
 14  5  9  1 16 30.0000000  0 10G07G10G26G08G02G28G13G09G17G04
 -15650970.49448 -12164796.40447  21712481.1914   21712487.0104   21712481.448
        50.0004         45.0004
 -14789263.56347 -11513343.66447  22863565.5144   22863572.8034   22863567.678
        46.0004         42.0004
  -1325830.43447  -1016048.48746  24101472.7924   24101484.2844   24101472.834
        42.0004         38.0004
 -19115744.69948 -14882978.34948  20104391.7164   20104398.4834   20104392.210
        53.0004         49.0004
  -8226211.31247  -6351231.05647  22581019.1274   22581022.7294   22581019.182
        47.0004         43.0004
  -7529381.39347  -5867269.05747  22617024.3214   22617033.5654   22617024.560
        47.0004         42.0004
  -8170561.23046  -6312860.46245  25249995.5664   25250005.1224   25249997.361
        37.0004         33.0004
 -12986864.71449 -10111313.23548  20194197.0514   20194203.3164   20194197.037
        54.0004         50.0004
 -10604004.25447  -8200103.19647  23348629.9824   23348637.7024   23348628.906
        46.0004         42.0004
 -28880696.64748 -22449123.76448  20394010.7034   20394016.5864   20394010.555
        53.0004         49.0004
 14  5  9  1 17  0.0000000  0 10G07G10G26G08G02G28G13G09G17G04
 -15562229.76248 -12095647.77747  21729368.4924   21729374.3034   21729368.452
        50.0004         45.0004
 -14859898.64347 -11568383.93647  22850125.1444   22850132.7744   22850125.540
        46.0004         42.0004
  -1314756.77447  -1007419.55946  24103580.2704   24103590.0494   24103579.866
        42.0004         38.0004
 -19075990.49948 -14852001.03648  20111956.8444   20111963.3824   20111956.759
        53.0004         49.0004
  -8294858.96447  -6404722.67647  22567954.9244   22567959.7554   22567955.285
        47.0004         43.0004
  -7588516.07947  -5913348.01647  22605771.8904   22605779.4414   22605771.616
        47.0004         43.0004
                  -6273853.90645                  25259529.7344   25259523.304
                        33.0004
 -12950620.91149 -10083071.28848  20201093.7234   20201100.1734   20201093.674
        54.0004         50.0004
 -10566895.50447  -8171187.30147  23355691.6904   23355699.4194   23355690.880
        46.0004         42.0004
 -28905334.30548 -22468321.93748  20389322.3524   20389328.7354   20389321.698
        53.0004         49.0004
 14  5  9  1 17 30.0000000  0 10G07G10G26G08G02G28G13G09G17G04
 -15473171.34548 -12026251.60347  21746315.7524   21746320.3434   21746315.503
        50.0004         45.0004
 -14930597.61147 -11623474.00447  22836671.4914   22836679.4014   22836671.827
        47.0004         42.0004
  -1303527.91747   -998669.67546  24105716.7324   24105726.5224   24105716.448
        42.0004         38.0004
 -19035619.09548 -14820542.77648  20119639.2164   20119645.1184   20119639.585
        53.0004         49.0004
  -8363145.88748  -6457933.21047  22554960.4634   22554965.8654   22554960.907
        48.0004         43.0004
  -7647648.89847  -5959425.52647  22594518.9704   22594527.7374   22594519.084
        47.0004         43.0004
                  -6235054.61445                  25269006.2574   25268999.047
                        33.0004
 -12913833.32949 -10054405.61948  20208094.4154   20208100.7274   20208094.421
        54.0004         50.0004
 -10529927.09147  -8142380.75547  23362725.6164   23362734.0484   23362725.593
        46.0004         42.0004
 -28929419.97948 -22487089.99148  20384739.0534   20384745.1454   20384738.949
        53.0004         49.0004
 14  5  9  1 18  0.0000000  0 10G07G10G26G08G02G28G13G09G17G04
 -15383798.96748 -11956610.77447  21763322.4384   21763327.8874   21763321.890
        50.0004         45.0004
 -15001359.20347 -11678612.85447  22823205.9854   22823213.2844   22823206.271
        47.0004         42.0004
  -1292146.38947   -989800.83046  24107882.6864   24107893.2824   24107882.206
        42.0004         38.0004
 -18994632.92348 -14788605.47648  20127438.5294   20127444.8544   20127438.565
        53.0004         48.0004
  -8431070.84948  -6510861.69947  22542034.9544   22542038.9154   22542035.892
        48.0004         43.0004
  -7706777.66647  -6005499.87947  22583266.1974   22583274.2214   22583267.116
        47.0004         43.0004
  -8021184.72746  -6196463.25745  25278427.0244   25278429.6824   25278423.608
        37.0004         33.0004
 -12876504.45949 -10025318.17148  20215197.2794   20215203.9784   20215197.468
        54.0004         49.0004
 -10493101.05847  -8113685.15447  23369733.4624   23369742.2914   23369733.643
        46.0004         42.0004
 -28952953.60748 -22505427.88348  20380260.5284   20380267.0744   20380260.111
        53.0004         49.0004
 14  5  9  1 18 30.0000000  0 10G07G10G26G08G02G28G13G09G17G04
 -15294114.61148 -11886726.85747  21780389.1864   21780394.4974   21780388.614
        50.0004         45.0004
 -15072179.93947 -11733797.79547  22809728.6414   22809736.6294   22809729.320
        47.0004         42.0004
  -1280613.66247   -980814.17446  24110077.0284   24110088.1714   24110076.629
        42.0004         38.0004
 -18953032.93448 -14756189.88348  20135354.7694   20135361.3594   20135354.926
        53.0004         48.0004
  -8498631.37948  -6563506.21447  22529178.0464   22529183.9894   22529178.863
        48.0004         43.0004
  -7765898.61747  -6051568.12047  22572015.9304   22572025.8284   22572016.831
        47.0004         43.0004
  -7971925.42446  -6158079.41445  25287800.0894   25287801.2664   25287796.835
        38.0004         33.0004
 -12838635.47549  -9995809.85648  20222404.2544   20222410.0044   20222404.039
        54.0004         50.0004
 -10456417.89247  -8085100.88847  23376714.4324   23376723.9314   23376713.458
        46.0004         42.0004
 -28975933.82548 -22523334.53848  20375887.6844   20375894.2224   20375887.250
        53.0004         49.0004
 14  5  9  1 19  0.0000000  0 10G07G10G26G08G02G28G13G09G17G04
 -15204122.11248 -11816602.82247  21797513.3464   21797518.7174   21797513.703
        50.0004         45.0004
 -15143058.25847 -11789027.61147  22796242.1004   22796248.1134   22796242.499
        47.0004         42.0004
  -1268932.30847   -971711.70646  24112300.3554   24112311.2794   24112299.439
        42.0004         38.0004
 -18910821.26548 -14723297.65648  20143387.2184   20143394.0324   20143387.678
        53.0004         48.0004
  -8565826.18748  -6615865.76947  22516392.1584   22516396.9644   22516392.331
        48.0004         43.0004
  -7825009.64547  -6097628.65247  22560768.9244   22560776.3304   22560768.037
        47.0004         43.0004
                  -6119903.41645                  25297123.8614   25297119.493
                        32.0004
 -12800228.64149  -9965882.43248  20229712.2394   20229718.5984   20229712.395
        54.0004         50.0004
 -10419879.63047  -8056629.53247  23383666.7454   23383675.9224   23383666.945
        47.0004         42.0004
 -28998360.65648 -22540809.98848  20371620.0664   20371626.3184   20371619.824
        53.0004         49.0004
 14  5  9  1 19 30.0000000  0 10G07G10G26G08G02G28G13G09G17G04
 -15113824.04248 -11746240.68947  21814697.2714   21814702.5044   21814696.543
        50.0004         45.0004
 -15213992.17047 -11844300.74947  22782742.9884   22782750.0184   22782743.304
        47.0004         42.0004
  -1257105.00147   -962495.48346  24114549.8784   24114560.2774   24114549.696
        42.0004         38.0004
 -18868000.33248 -14689930.68048  20151535.5464   20151542.1884   20151536.314
        53.0004         48.0004
  -8632654.02748  -6667939.35647  22503675.4744   22503678.6624   22503675.773
        48.0004         43.0004
  -7884108.52347  -6143679.70547  22549521.6284   22549531.0494   22549521.931
        47.0004         42.0004
  -9449627.33346  -7309535.52045  25306391.0414   25306397.0824   25306392.864
        37.0004         33.0004
 -12761286.28049  -9935537.72448  20237123.1214   20237129.1314   20237123.040
        54.0004         50.0004
 -10383488.29047  -8028272.65147  23390592.2524   23390601.5514   23390591.846
        47.0004         42.0004
 -29020233.81948 -22557854.01448  20367457.4744   20367463.7924   20367457.109
        53.0004         49.0004
 14  5  9  1 20  0.0000000  0 10G07G10G26G08G02G28G13G09G17G04
 -15023223.82548 -11675643.11147  21831937.5344   21831943.9064   21831937.356
        50.0004         45.0004
 -15284979.20947 -11899615.28947  22769233.9704   22769241.6584   22769235.487
        47.0004         42.0004
  -1245133.80847   -953167.19046  24116828.8234   24116838.5094   24116827.413
        42.0004         38.0004
 -18824571.71948 -14656090.18248  20159800.1954   20159806.5014   20159800.435
        53.0004         48.0004
  -8699113.02648  -6719725.54447  22491029.2554   22491032.7634   22491028.569
        48.0004         43.0004
  -7943192.62447  -6189719.24447  22538278.4434   22538287.0684   22538278.905
        47.0004         43.0004
  -9401169.00146  -7271775.82045  25315614.7804   25315621.1174   25315613.764
        38.0004         34.0004
 -12721810.34849  -9904777.23648  20244635.0744   20244641.1424   20244634.887
        54.0004         49.0004
 -10347245.24947  -8000031.32847  23397489.2564   23397498.7074   23397488.612
        47.0004         42.0004
 -29041553.03148 -22574466.38248  20363400.8744   20363407.3954   20363400.578
        53.0004         49.0004
 14  5  9  1 20 30.0000000  0 10G07G10G26G08G02G28G13G09G17G04
 -14932322.09748 -11604810.58947  21849236.5744   21849240.8634   21849235.487
        49.0004         45.0004
 -15356014.77147 -11954967.62747  22755716.7684   22755725.0504   22755717.819
        47.0004         42.0004
  -1233018.46247   -943726.54946  24119133.2244   24119143.2174   24119132.761
        42.0004         38.0004
 -18780534.78848 -14621775.67348  20168179.8504   20168186.4044   20168180.275
        53.0004         48.0004
  -8765198.90948  -6771221.00147  22478452.6884   22478457.6064   22478453.219
        48.0004         43.0004
  -8002256.53347  -6235743.06447  22527039.3314   22527048.4124   22527039.301
        47.0004         43.0004
  -9352975.50346  -7234222.46145  25324785.9174   25324791.9904   25324785.186
        38.0004         33.0004
 -12681800.51449  -9873600.72948  20252248.8064   20252254.6764   20252248.389
        54.0004         49.0004
 -10311149.38747  -7971904.68747  23404357.9444   23404366.7524   23404357.735
        47.0004         42.0004
 -29062315.07748 -22590644.60048  20359449.6784   20359456.0484   20359449.134
        53.0004         49.0004
 14  5  9  1 21  0.0000000  0 10G07G10G26G08G02G28G13G09G17G04
 -14841126.74948 -11533749.27847  21866590.0014   21866594.8434   21866589.298
        49.0004         45.0004
 -15427101.80347 -12010360.08847  22742189.4554   22742196.1144   22742190.389
        47.0004         42.0004
  -1220766.25047   -934179.25846  24121464.1274   24121475.6614   24121464.811
        42.0004         38.0004
 -18735896.75048 -14586992.76448  20176674.0144   20176680.3044   20176674.297
        53.0004         48.0004
  -8830915.15848  -6822428.42247  22465947.1274   22465952.4694   22465947.762
        48.0004         44.0004
  -8061302.69148  -6281753.04647  22515801.5304   22515810.1914   22515803.245
        48.0004         43.0004
  -9305051.95446  -7196879.48445  25333902.6184   25333911.9454   25333904.583
        38.0004         33.0004
 -12641263.66349  -9842013.55648  20259962.4294   20259968.6324   20259962.556
        54.0004         49.0004
 -10275207.53047  -7943898.06247  23411197.7964   23411206.1494   23411197.242
        47.0004         42.0004
 -29082524.92148 -22606392.52748  20355604.2414   20355610.5794   20355603.888
        53.0004         49.0004
 14  5  9  1 21 30.0000000  0 10G07G10G26G08G02G28G13G09G17G04
 -14749635.88648 -11462457.69947  21883999.6824   21884006.0184   21883999.692
        49.0004         45.0004
 -15498233.33947 -12065787.22147  22728654.2974   22728660.9214   22728654.834
        47.0004         42.0004
  -1208374.48347   -924523.23646  24123822.9964   24123833.2164   24123821.443
        42.0004         38.0004
 -18690654.32248 -14551738.90548  20185283.4454   20185290.4144   20185283.807
        53.0004         48.0004
  -8896255.40248  -6873342.85447  22453514.0004   22453517.6794   22453513.910
        48.0004         43.0004
  -8120323.29548  -6327743.12147  22504571.5924   22504581.2274   22504571.960
        48.0004         43.0004
  -9257393.34246  -7159742.93345  25342972.3504   25342980.7184   25342973.303
        38.0004         33.0004
 -12600197.04049  -9810013.57448  20267777.4634   20267783.4624   20267777.327
        54.0004         49.0004
 -10239415.76247  -7916008.38547  23418008.7564   23418017.7824   23418008.175
        47.0004         42.0004
 -29102177.23248 -22621706.02348  20351864.4274   20351870.5794   20351864.148
        53.0004         49.0004
 14  5  9  1 22  0.0000000  0 10G07G10G26G08G02G28G13G09G17G04
 -14657858.17248 -11390942.58847  21901464.6864   21901469.5454   21901464.226
        49.0004         45.0004
 -15569412.18747 -12121251.21547  22715108.4794   22715116.2444   22715108.989
        47.0004         43.0004
  -1195850.94147   -914764.52646  24126206.5914   24126216.8974   24126206.097
        42.0004         38.0004
 -18644815.49548 -14516020.31748  20194006.3634   20194013.1204   20194006.383
        53.0004         48.0004
  -8961223.68548  -6923967.45547  22441150.4374   22441155.1164   22441150.119
        48.0004         43.0004
  -8179321.35348  -6373715.62247  22493344.1774   22493353.7444   22493344.692
        48.0004         43.0004
  -9210005.55546  -7122817.43745  25351986.7634   25351998.5284   25351991.379
        38.0004         33.0004
 -12558608.20849  -9777606.67948  20275691.4914   20275697.4414   20275691.368
        54.0004         49.0004
 -10203781.46647  -7888241.41447  23424789.3414   23424797.6524   23424789.342
        47.0004         42.0004
 -29121277.11748 -22636589.05348  20348229.8414   20348236.2154   20348229.235
        53.0004         49.0004
 14  5  9  1 22 30.0000000  0 10G07G10G26G08G02G28G13G09G17G04
 -14565789.52948 -11319200.78747  21918984.8734   21918990.0104   21918984.448
        49.0004         45.0004
 -15640629.01147 -12176744.81047  22701556.7664   22701563.0584   22701557.418
        47.0004         43.0004
  -1183190.88147   -904899.43646  24128615.4434   24128625.9714   24128614.548
        42.0004         38.0004
 -18598375.00948 -14479832.90748  20202843.7804   20202850.1694   20202844.122
        53.0004         48.0004
  -9025811.36448  -6974295.48147  22428858.0344   22428863.0364   22428859.290
        48.0004         43.0004
  -8238286.89148  -6419662.78147  22482124.4404   22482132.1084   22482124.038
        48.0004         43.0004
                  -7086097.43745                  25360965.9134   25360958.404
                        33.0004
 -12516492.29049  -9744789.06748  20283705.9314   20283711.8324   20283705.876
        54.0004         50.0004
 -10168298.96047  -7860592.72447  23431542.7134   23431550.8984   23431541.583
        46.0004         42.0004
 -29139817.26048 -22651035.92348  20344701.7504   20344707.7554   20344701.500
        53.0004         49.0004
 14  5  9  1 23  0.0000000  0 10G07G10G26G08G02G28G13G09G17G04
 -14473439.08148 -11247239.40647  21936558.1154   21936564.0394   21936558.046
        49.0004         45.0004
 -15711887.70047 -12232271.01847  22687996.2564   22688003.7544   22687996.943
        47.0004         43.0004
  -1170402.57847   -894934.41846  24131047.9784   24131059.1464   24131048.625
        42.0004         38.0004
 -18551340.90848 -14443182.93848  20211794.1084   20211800.4244   20211794.505
        53.0004         48.0004
  -9090022.51948  -7024330.10947  22416640.7724   22416646.2004   22416640.692
        48.0004         43.0004
  -8297223.65248  -6465587.51147  22470908.2324   22470916.6054   22470908.934
        48.0004         43.0004
  -9116027.19546  -7049587.62345  25369877.6704   25369880.6914   25369874.622
        39.0004         34.0004
 -12473857.58349  -9711567.20348  20291818.7254   20291825.1074   20291818.721
        54.0004         49.0004
 -10132975.63047  -7833068.06047  23438263.0534   23438272.7984   23438263.031
        46.0004         42.0004
 -29157803.88448 -22665051.47848  20341278.7984   20341284.8214   20341278.524
        53.0004         49.0004
 14  5  9  1 23 30.0000000  0 10G07G10G26G08G02G28G13G09G17G04
 -14380806.76548 -11175058.38547  21954186.4284   21954190.9104   21954185.413
        49.0004         45.0004
 -15783182.87647 -12287825.66747  22674428.9804   22674437.5664   22674429.855
        47.0004         43.0004
  -1157485.30147   -884868.89746  24133506.6004   24133517.3034   24133505.780
        42.0004         38.0004
 -18503712.22748 -14406069.66448  20220857.5164   20220864.1634   20220857.815
        53.0004         48.0004
  -9153852.61748  -7074067.80247  22404495.0474   22404498.9284   22404494.748
        48.0004         43.0004
  -8356125.55548  -6511485.08547  22459699.7434   22459708.3134   22459700.309
        48.0004         43.0004
  -9069439.43146  -7013285.49045  25378740.0364   25378746.6984   25378740.000
        38.0004         33.0004
 -12430703.05949  -9677940.29248  20300030.8754   20300036.8114   20300030.895
        54.0004         49.0004
 -10097809.87947  -7805666.17347  23444955.4714   23444964.3424   23444955.052
        46.0004         42.0004
 -29175233.15548 -22678632.73948  20337962.4434   20337968.8244   20337961.837
        53.0004         49.0004
 14  5  9  1 24  0.0000000  0 10G07G10G26G08G02G28G13G09G17G04
 -14287897.25348 -11102661.36247  21971866.1724   21971871.7744   21971865.895
        49.0004         45.0004
 -15854513.44747 -12343407.89947  22660856.4054   22660862.5774   22660856.499
        47.0004         43.0004
  -1144442.45247   -874705.52046  24135988.1534   24135998.7874   24135987.901
        42.0004         38.0004
 -18455492.48048 -14368495.82248  20230033.2794   20230039.8674   20230033.827
        53.0004         48.0004
  -9217301.60248  -7123508.54147  22392420.1884   22392425.5114   22392419.704
        48.0004         43.0004
  -8414991.36548  -6557354.53647  22448497.4294   22448506.2364   22448498.401
        48.0004         43.0004
                  -6977192.56245                  25387562.3484   25387554.245
                        33.0004
 -12387032.31649  -9643911.12848  20308341.0644   20308347.2384   20308341.058
        54.0004         49.0004
 -10062804.03847  -7778388.89747  23451616.8604   23451626.3124   23451617.030
        47.0004         42.0004
 -29192106.28348 -22691780.63348  20334751.0884   20334757.9034   20334750.988
        53.0004         49.0004
 14  5  9  1 24 30.0000000  0 10G07G10G26G08G02G28G13G09G17G04
 -14194713.32048 -11030050.51147  21989597.6264   21989603.5694   21989598.155
        49.0004         45.0004
 -15925877.02547 -12399015.84947  22647275.9074   22647281.8654   22647276.831
        47.0004         43.0004
  -1131276.27247   -864446.06146  24138492.4464   24138504.6424   24138492.540
        42.0004         38.0004
 -18406683.82948 -14330463.08948  20239321.5154   20239327.6664   20239321.522
        53.0004         48.0004
  -9280367.80248  -7172650.99447  22380419.4464   22380423.3954   22380419.863
        48.0004         44.0004
  -8473818.16648  -6603193.59847  22437303.8514   22437311.7614   22437304.023
        48.0004         43.0004
                                                                  25396317.886

 -12342847.35949  -9609481.27948  20316749.0694   20316755.4294   20316749.183
        54.0004         49.0004
 -10027960.10447  -7751237.80347  23458248.1334   23458256.1544   23458247.181
        47.0004         42.0004
 -29208423.01848 -22704494.98148  20331646.2034   20331653.0684   20331646.285
        53.0004         49.0004
 14  5  9  1 25  0.0000000  0 10G07G10G26G08G02G28G13G09G17G04
 -14101256.48048 -10957227.00247  22007382.8074   22007387.5544   22007382.085
        49.0004         44.0004
 -15997270.10247 -12454646.79447  22633689.9514   22633697.6524   22633690.393
        47.0004         43.0004
  -1117987.56147   -854091.12746  24141021.5474   24141034.5924   24141021.304
        42.0004         38.0004
 -18357286.83648 -14291971.90948  20248721.1494   20248727.8064   20248721.784
        53.0004         48.0004
  -9343048.14648  -7221492.78047  22368490.8614   22368496.1464   22368491.542
        48.0004         44.0004
  -8532601.67748  -6648998.92147  22426118.0084   22426125.0734   22426117.946
        48.0004         43.0004
  -8931283.73346                  25405032.2404                   25405029.972
        38.0004
 -12298148.85749  -9574651.26548  20325255.1794   20325261.2284   20325255.010
        54.0004         49.0004
  -9993277.80447  -7724212.64547  23464847.5714   23464855.3904   23464846.910
        47.0004         42.0004
 -29224181.71848 -22716774.49648  20328647.7434   20328654.0104   20328647.207
        53.0004         49.0004
 14  5  9  1 25 30.0000000  0 10G07G10G26G08G02G28G13G09G17G04
 -14007529.52748 -10884193.02747  22025218.0954   22025223.4504   22025217.907
        49.0004         45.0004
 -16068690.14847 -12510298.74647  22620099.5914   22620106.5844   22620099.744
        47.0004         43.0004
  -1104578.49247   -843642.42146  24143574.4074   24143583.4684   24143574.124
        42.0004         38.0004
 -18307303.43148 -14253023.78648  20258232.8594   20258239.6174   20258233.188
        53.0004         48.0004
  -9405341.31748  -7270032.88447  22356637.5444   22356641.5594   22356637.184
        48.0004         44.0004
  -8591339.12048  -6694768.34247  22414939.9444   22414948.4884   22414940.589
        48.0004         43.0004
  -8885765.12746                  25413693.2234                   25413692.900
        38.0004
 -12252939.02149  -9539422.81148  20333858.2464   20333864.4404   20333858.162
        54.0004         49.0004
  -9958758.26347  -7697314.31847  23471416.6144   23471424.9144   23471415.985
        47.0004         42.0004
 -29239382.28648 -22728619.10048  20325755.0144   20325761.7204   20325754.712
        53.0004         49.0004
 14  5  9  1 26  0.0000000  0 10G07G10G26G08G02G28G13G09G17G04
 -13913539.43748 -10810953.99747  22043104.2704   22043109.9864   22043103.573
        49.0004         44.0004
 -16140138.32047 -12565972.61747  22606502.4794   22606509.2694   22606504.057
        47.0004         43.0004
  -1091054.99747   -833104.54346  24146147.3834   24146157.9884   24146147.513
        42.0004         38.0004
 -18256739.51448 -14213623.32448  20267854.9174   20267861.0234   20267855.070
        53.0004         48.0004
  -9467249.53348  -7318273.01347  22344856.4614   22344860.9174   22344856.857
        48.0004         44.0004
  -8650031.28848  -6740502.48847  22403771.6254   22403780.6784   22403771.641
        48.0004         43.0004
  -8840516.37646  -6834904.02545  25422302.9314   25422306.4874   25422302.822
        38.0004         34.0004
 -12207223.99949  -9503800.70748  20342557.5404   20342563.4524   20342557.569
        54.0004         49.0004
  -9924406.49847  -7670546.71647  23477952.0204   23477961.6934   23477952.818
        47.0004         42.0004
 -29254028.37548 -22740031.64948  20322968.2114   20322974.4124   20322967.870
        53.0004         49.0004
 14  5  9  1 26 30.0000000  0 10G07G10G26G08G02G28G13G09G17G04
 -13819285.46548 -10737509.36947  22061039.8184   22061044.6774   22061039.651
        49.0004         44.0004
 -16211608.53947 -12621663.67147  22592901.9874   22592909.7274   22592902.827
        47.0004         43.0004
  -1077415.56047   -822476.31646  24148742.4164   24148752.5384   24148742.875
        42.0004         38.0004
 -18205593.82748 -14173769.52148  20277587.3894   20277593.9464   20277588.002
        53.0004         48.0004
  -9528767.03748  -7366208.70447  22333149.8764   22333154.3594   22333150.356
        48.0004         44.0004
  -8708671.81748  -6786196.38347  22392612.6234   22392621.8564   22392612.529
        48.0004         43.0004
  -8795534.05146  -6799852.90645  25430861.7664   25430873.6264   25430861.684
        39.0004         34.0004
 -12161002.15049  -9467783.67248  20351353.0394   20351359.1474   20351352.925
        54.0004         49.0004
  -9890220.21347  -7643908.04847  23484459.2174   23484467.5304   23484458.423
        47.0004         42.0004
 -29268116.06749 -22751009.08048  20320287.1764   20320293.7994   20320286.886
        54.0004         49.0004
 14  5  9  1 27  0.0000000  0 10G07G10G26G08G02G28G13G09G17G04
 -13724772.92048 -10663863.24147  22079025.3404   22079030.6614   22079024.988
        49.0004         44.0004
 -16283100.39847 -12677371.59247  22579297.8434   22579305.2434   22579298.375
        47.0004         43.0004
  -1063664.44447   -811761.06646  24151359.2124   24151370.2464   24151359.312
        42.0004         38.0004
 -18153870.29048 -14133465.45648  20287430.2554   20287436.7854   20287430.436
        53.0004         48.0004
  -9589894.79348  -7413840.70047  22321517.4934   22321522.5074   22321517.873
        48.0004         44.0004
  -8767259.68448  -6831849.25347  22381464.1394   22381472.6094   22381463.779
        48.0004         43.0004
  -8750819.79246  -6765010.64645  25439370.6384   25439378.1554   25439371.169
        39.0004         34.0004
 -12114277.89649  -9431375.15948  20360244.6034   20360250.3314   20360244.713
        54.0004         49.0004
  -9856202.82047  -7617400.99947  23490932.3814   23490940.3744   23490931.378
        47.0004         42.0004
 -29281647.17749 -22761552.81548  20317712.3854   20317718.9084   20317712.398
        54.0004         49.0004
 14  5  9  1 27 30.0000000  0 10G07G10G26G08G02G28G13G09G17G04
 -13630002.34648 -10590016.04347  22097059.1334   22097064.8244   22097058.686
        49.0004         44.0004
 -16354609.52347 -12733092.95147  22565690.8884   22565697.4854   22565691.128
        47.0004         43.0004
  -1049801.85247   -800958.94646  24153997.7124   24154007.3414   24153997.245
        43.0004         38.0004
 -18101569.04848 -14092711.22948  20297382.5034   20297389.1814   20297383.078
        53.0004         48.0004
  -9650629.56948  -7461166.46447  22309960.5554   22309965.4554   22309960.687
        49.0004         44.0004
  -8825790.12948  -6877457.38247  22370326.8274   22370333.9394   22370325.881
        48.0004         43.0004
  -8706371.49246  -6730375.62245  25447827.3654   25447834.8614   25447829.144
        39.0004         35.0004
 -12067051.39249  -9394575.27348  20369231.2234   20369237.3964   20369231.267
        54.0004         49.0004
  -9822353.43847  -7591024.86547  23497372.6294   23497382.1604   23497372.617
        47.0004         42.0004
 -29294619.86749 -22771661.42248  20315243.9384   20315250.0814   20315243.529
        54.0004         49.0004
 14  5  9  1 28  0.0000000  0 10G07G10G26G08G02G28G13G09G17G04
 -13534981.52048 -10515973.86247  22115140.5174   22115145.4724   22115140.706
        49.0004         44.0004
 -16426137.70647 -12788829.16447  22552079.9334   22552085.7544   22552079.583
        47.0004         43.0004
  -1035834.31447   -790075.07046  24156656.1444   24156664.5184   24156655.309
        43.0004         38.0004
 -18048697.01348 -14051512.23248  20307443.7634   20307450.0184   20307444.142
        53.0004         48.0004
  -9710973.92448  -7508188.01547  22298476.5354   22298481.6944   22298477.267
        49.0004         44.0004
  -8884264.72948  -6923021.98747  22359199.0474   22359207.3704   22359198.695
        48.0004         43.0004
  -8662193.59946  -6695951.30645  25456235.7554   25456244.3654   25456236.471
        40.0004         35.0004
 -12019329.21049  -9357389.14948  20378312.7714   20378318.8054   20378312.596
        54.0004         49.0004
  -9788677.48547  -7564783.85647  23503781.1914   23503790.0224   23503781.130
        47.0004         42.0004
 -29307038.25649 -22781338.10648  20312880.5384   20312887.6784   20312880.269
        54.0004         49.0004
 14  5  9  1 28 30.0000000  0 10G07G10G26G08G02G28G13G09G17G04
 -13439707.88948 -10441734.69047  22133271.1584   22133276.3764   22133271.064
        49.0004         44.0004
 -16497677.24147 -12844574.23847  22538465.7174   22538472.3464   22538465.837
        47.0004         43.0004
  -1021758.84247   -779107.08046  24159333.9314   24159344.3954   24159333.440
        43.0004         38.0004
 -17995251.13748 -14009866.08148  20317613.7794   20317620.9674   20317614.333
        53.0004         48.0004
  -9770921.10848  -7554900.07447  22287070.0624   22287073.6944   22287069.993
        49.0004         44.0004
  -8942675.12648  -6968536.57447  22348082.9974   22348091.1544   22348083.260
        48.0004         43.0004
  -8618280.50546  -6661733.33945  25464590.6734   25464597.3304   25464593.064
        39.0004         35.0004
 -11971108.20449  -9319814.32848  20387488.7474   20387494.8874   20387488.673
        54.0004         49.0004
  -9755171.03947  -7538674.92947  23510158.3344   23510165.7934   23510157.371
        47.0004         42.0004
 -29318897.07049 -22790578.75948  20310624.1584   20310630.5994   20310623.856
        54.0004         49.0004
 14  5  9  1 29  0.0000000  0 10G07G10G26G08G02G28G13G09G17G04
 -13344187.62948 -10367303.33147  22151448.8454   22151452.9204   22151447.631
        49.0004         44.0004
 -16569228.82047 -12900328.68547  22524849.9264   22524856.5114   22524849.909
        47.0004         43.0004
  -1007580.89747   -768059.24146  24162031.8024   24162041.7434   24162031.715
        43.0004         38.0004
 -17941236.88948 -13967777.05048  20327892.7954   20327899.1064   20327893.221
        53.0004         48.0004
  -9830473.17948  -7601304.26247  22275737.0224   22275741.9164   22275737.397
        49.0004         44.0004
  -9001022.24248  -7014001.83447  22336980.4034   22336987.2004   22336980.266
        48.0004         43.0004
  -8574635.22346  -6627724.06745  25472894.1624   25472906.2964   25472896.877
        38.0004         33.0004
 -11922394.23249  -9281855.38048  20396758.8994   20396764.5514   20396758.604
        54.0004         49.0004
  -9721839.31447  -7512702.14647  23516501.3964   23516508.6684   23516499.928
        47.0004         42.0004
 -29330199.56049 -22799385.91548  20308473.6874   20308479.5614   20308473.231
        54.0004         49.0004
 14  5  9  1 29 30.0000000  0 10G07G10G26G08G02G28G13G09G17G04
 -13248423.23348 -10292681.72947  22169671.3024   22169676.1724   22169670.846
        48.0004         44.0004
 -16640789.35247 -12956090.11847  22511231.8524   22511239.0904   22511232.842
        47.0004         43.0004
   -993301.83847   -756932.60746  24164748.7164   24164759.1694   24164748.555
        43.0004         38.0004
 -17886655.81048 -13925246.32848  20338279.3764   20338285.6444   20338279.504
        53.0004         48.0004
  -9889627.40848  -7647398.44547  22264480.4024   22264485.3964   22264481.127
        49.0004         44.0004
  -9059302.11648  -7059414.71447  22325889.7434   22325898.0344   22325890.487
        48.0004         43.0004
  -8531256.84346  -6593922.73245  25481153.1224   25481160.8434   25481151.950
        39.0004         35.0004
 -11873188.82349  -9243513.49948  20406122.1974   20406128.2654   20406122.137
        54.0004         49.0004
  -9688682.04147  -7486865.29647  23522809.7704   23522818.0004   23522809.602
        46.0004         42.0004
 -29340945.05148 -22807759.05448  20306428.6064   20306434.6384   20306428.178
        53.0004         49.0004
 14  5  9  1 30  0.0000000  0  9G07G10G26G08G02G28G09G17G04
 -13152418.74848 -10217873.05447  22187940.0344   22187945.2214   22187940.270
        48.0004         44.0004
 -16712357.34547 -13011857.37147  22497613.4634   22497619.4064   22497613.462
        47.0004         43.0004
   -978924.98647   -745729.75946  24167483.9314   24167493.7924   24167484.370
        43.0004         38.0004
 -17831511.47148 -13882276.70548  20348773.2174   20348779.2134   20348773.189
        53.0004         48.0004
  -9948383.80748  -7693182.62647  22253298.5444   22253303.8314   22253299.989
        49.0004         44.0004
  -9117513.18748  -7104773.97247  22314813.2424   22314820.8904   22314813.006
        48.0004         43.0004
 -11823495.49149  -9204791.40748  20415578.3834   20415584.6344   20415578.346
        54.0004         49.0004
  -9655701.58647  -7461166.23447  23529086.2374   23529094.4654   23529085.671
        46.0004         42.0004
 -29351134.77449 -22815699.12148  20304489.8074   20304495.8324   20304489.195
        54.0004         49.0004
 14  5  9  1 30 30.0000000  0  9G07G10G26G08G02G28G09G17G04
 -13056174.87448 -10142877.83747  22206255.7184   22206259.8604   22206255.218
        49.0004         44.0004
 -16783927.78248 -13067626.50847  22483993.1454   22484000.0254   22483994.380
        48.0004         43.0004
   -964450.24047   -734450.64346  24170238.7124   24170249.9094   24170238.694
        43.0004         39.0004
 -17775803.72848 -13838868.06848  20359373.5364   20359380.0534   20359373.890
        53.0004         48.0004
 -10006738.33248  -7738653.64547  22242194.7614   22242199.7954   22242195.488
        49.0004         44.0004
  -9175649.96348  -7150075.32947  22303749.2844   22303757.1434   22303749.585
        48.0004         43.0004
 -11773314.01049  -9165688.94948  20425127.6654   20425133.8274   20425127.797
        54.0004         49.0004
  -9622897.05747  -7435604.25047  23535329.6654   23535336.8894   23535328.131
        46.0004         42.0004
 -29360766.30248 -22823204.23148  20302656.7764   20302663.3814   20302656.370
        53.0004         49.0004
 14  5  9  1 31  0.0000000  0  9G07G10G26G08G02G28G09G17G04
 -12959697.29748 -10067700.52247  22224614.5684   22224618.3774   22224613.707
        48.0004         44.0004
 -16855500.91148 -13123397.75547  22470373.7224   22470379.9914   22470374.638
        48.0004         43.0004
   -949882.42547   -723098.99346  24173010.8484   24173021.9204   24173010.302
        43.0004         38.0004
 -17719537.64948 -13795024.36448  20370081.0194   20370087.1444   20370080.984
        52.0004         48.0004
 -10064692.89948  -7783813.02947  22231166.7094   22231171.5524   22231166.975
        49.0004         44.0004
  -9233712.06248  -7195318.50247  22292700.9064   22292708.5614   22292701.109
        48.0004         44.0004
 -11722649.49949  -9126210.09548  20434768.8194   20434774.9724   20434768.952
        54.0004         49.0004
  -9590272.17247  -7410182.24747  23541536.5724   23541544.6144   23541536.196
        46.0004         42.0004
 -29369842.25348 -22830276.42848  20300929.6134   20300935.8754   20300929.017
        53.0004         49.0004
 14  5  9  1 31 30.0000000  0  9G07G10G26G08G02G28G09G17G04
 -12862987.05148  -9992341.90147  22243017.5834   22243021.7094   22243017.056
        48.0004         44.0004
 -16927072.43148 -13179167.74447  22456753.8494   22456760.6824   22456754.452
        48.0004         43.0004
   -935221.89347   -711675.10346  24175800.4514   24175810.0864   24175800.708
        43.0004         38.0004
 -17662713.86448 -13750746.08148  20380893.6284   20380900.3524   20380894.193
        52.0004         48.0004
 -10122243.64448  -7828657.73747  22220215.0664   22220219.6594   22220215.409
        49.0004         44.0004
  -9291694.64848  -7240499.71547  22281667.0204   22281675.5184   22281667.085
        48.0004         44.0004
 -11671502.50949  -9086355.28948  20444501.7734   20444507.8274   20444501.690
        54.0004         49.0004
  -9557826.19947  -7384899.64446  23547711.1064   23547719.6764   23547710.202
        46.0004         41.0004
 -29378361.22949 -22836914.61448  20299308.8164   20299314.9884   20299308.174
        54.0004         49.0004
 14  5  9  1 32  0.0000000  0  9G07G10G26G08G02G28G09G17G04
 -12766048.74848  -9916805.58347  22261465.2424   22261468.7304   22261464.100
        48.0004         43.0004
 -16998641.51348 -13234935.84147  22443134.9644   22443142.9754   22443135.439
        48.0004         43.0004
   -920472.53047   -700182.00446  24178606.9394   24178618.5474   24178606.690
        43.0004         38.0004
 -17605336.43448 -13706036.38748  20391812.7214   20391818.6184   20391812.927
        52.0004         48.0004
 -10179391.24848  -7873188.31747  22209340.5644   22209344.9384   22209339.962
        49.0004         44.0004
  -9349596.84248  -7285618.27147  22270648.3224   22270657.4534   22270648.566
        48.0004         44.0004
 -11619877.11749  -9046127.70248  20454325.7764   20454331.4884   20454325.658
        54.0004         49.0004
  -9525561.94447  -7359758.65346  23553849.9754   23553859.0144   23553850.420
        46.0004         41.0004
 -29386324.99449 -22843120.17448  20297793.1584   20297799.5634   20297792.940
        54.0004         49.0004
 14  5  9  1 32 30.0000000  0  9G07G10G26G08G02G28G09G17G04
 -12668885.14948  -9841093.69947  22279954.1354   22279959.4524   22279953.691
        48.0004         44.0004
 -17070205.19148 -13290699.73247  22429517.2984   22429523.3284   22429517.682
        48.0004         43.0004
   -905636.19147   -688621.11446  24181430.1044   24181441.1414   24181430.896
        43.0004         39.0004
 -17547407.75548 -13660897.15248  20402835.8544   20402842.5174   20402836.007
        52.0004         48.0004
 -10236134.09148  -7917403.49147  22198542.0504   22198547.3554   22198542.714
        49.0004         44.0004
  -9407415.58048  -7330671.81547  22259646.6044   22259654.5734   22259646.153
        49.0004         44.0004
 -11567775.63349  -9005529.13348  20464240.3214   20464246.3484   20464240.462
        54.0004         49.0004
  -9493480.30047  -7334759.94847  23559955.0224   23559963.3494   23559955.046
        46.0004         42.0004
 -29393733.17649 -22848892.80048  20296383.7324   20296389.9544   20296383.013
        54.0004         49.0004
 14  5  9  1 33  0.0000000  0  9G07G10G26G08G02G28G09G17G04
 -12571498.12048  -9765207.71847  22298486.2434   22298489.9744   22298486.028
        48.0004         44.0004
 -17141759.79548 -13346456.54147  22415900.3524   22415906.9774   22415901.111
        48.0004         43.0004
   -890714.16347   -676993.47646  24184269.7524   24184280.2054   24184269.287
        43.0004         38.0004
 -17488928.81348 -13615329.13648  20413964.4664   20413970.7324   20413964.562
        52.0004         48.0004
 -10292469.76748  -7961301.40847  22187821.6754   22187826.7274   22187822.125
        49.0004         44.0004
  -9465146.59048  -7375656.99547  22248660.2394   22248668.3154   22248660.618
        49.0004         44.0004
 -11515199.47949  -8964560.69048  20474245.0784   20474251.2904   20474245.158
        54.0004         49.0004
  -9461581.32547  -7309903.58747  23566025.8774   23566034.4534   23566025.421
        46.0004         42.0004
 -29400585.13649 -22854232.01148  20295079.5714   20295086.2184   20295079.196
        54.0004         49.0004
 14  5  9  1 33 30.0000000  0  9G07G10G26G08G02G28G09G17G04
 -12473891.47848  -9689150.61847  22317060.7874   22317064.9974   22317059.983
        48.0004         44.0004
 -17213303.54448 -13402204.89347  22402285.4494   22402292.2954   22402287.170
        48.0004         43.0004
   -875709.10447   -665301.12246  24187124.1714   24187135.9744   24187125.085
        43.0004         38.0004
 -17429902.98748 -13569334.98148  20425196.1784   20425202.7174   20425196.388
        52.0004         48.0004
 -10348397.27448  -8004881.25347  22177179.5544   22177184.7014   22177180.036
        49.0004         45.0004
  -9522787.60648  -7420572.04547  22237691.9994   22237700.2144   22237691.694
        49.0004         44.0004
 -11462151.64349  -8923224.70948  20484339.7924   20484345.6294   20484339.780
        54.0004         49.0004
  -9429866.77847  -7285190.93647  23572061.6974   23572068.8774   23572060.529
        47.0004         42.0004
 -29406881.62449 -22859138.39848  20293881.3744   20293888.0204   20293881.107
        54.0004         49.0004
 14  5  9  1 34  0.0000000  0  9G07G10G26G08G02G28G09G17G04
 -12376069.14648  -9612925.42747  22335675.1014   22335680.0584   22335674.804
        48.0004         43.0004
 -17284834.75248 -13457943.47847  22388674.0484   22388681.4494   22388674.512
        48.0004         43.0004
   -860624.26647   -653546.59446  24189995.6234   24190004.9294   24189995.252
        43.0004         38.0004
 -17370333.52848 -13522917.22048  20436532.0544   20436538.1294   20436532.662
        52.0004         48.0004
 -10403916.64448  -8048143.07747  22166614.6554   22166618.9414   22166614.494
        49.0004         44.0004
  -9580336.55248  -7465415.35647  22226739.9844   22226748.2254   22226740.315
        49.0004         44.0004
 -11408635.54949  -8881523.85648  20494523.4214   20494529.4614   20494523.536
        54.0004         49.0004
  -9398338.82547  -7260623.69247  23578060.6424   23578068.4934   23578059.827
        47.0004         42.0004
 -29412623.91749 -22863612.93848  20292788.4614   20292795.2574   20292788.202
        54.0004         49.0004
 14  5  9  1 34 30.0000000  0  9G07G10G26G08G02G28G09G17G04
 -12278034.51548  -9536534.83547  22354329.1484   22354335.2724   22354329.834
        48.0004         43.0004
 -17356351.04448 -13513670.43947  22375064.9394   22375070.8074   22375065.770
        48.0004         43.0004
   -845462.25347   -641731.95146  24192879.8154   24192890.5494   24192880.296
        42.0004         38.0004
 -17310223.58648 -13476078.30348  20447970.8614   20447976.6924   20447970.848
        52.0004         48.0004
 -10459026.97748  -8091086.17247  22156126.9804   22156131.6184   22156127.358
        49.0004         45.0004
  -9637790.95148  -7510184.98547  22215807.6004   22215815.3434   22215806.730
        48.0004         44.0004
 -11354653.92749  -8839460.24348  20504796.3394   20504801.9654   20504796.151
        54.0004         49.0004
  -9366998.58147  -7236202.70547  23584023.4104   23584032.2144   23584023.584
        46.0004         42.0004
 -29417812.85149 -22867656.29248  20291801.3074   20291807.9024   20291800.844
        54.0004         49.0004
 14  5  9  1 35  0.0000000  0  9G07G10G26G08G02G28G09G17G04
 -12179788.76148  -9459979.71147  22373025.4144   22373030.9484   22373025.908
        48.0004         43.0004
 -17427848.36948 -13569382.62247  22361458.7074   22361466.7464   22361460.209
        48.0004         43.0004
   -830223.43247   -629857.44146  24195779.4724   24195789.7244   24195780.423
        42.0004         38.0004
 -17249574.17248 -13428819.01748  20459511.8744   20459518.1234   20459512.366
        52.0004         48.0004
 -10513725.12648  -8133708.08747  22145718.3754   22145722.6334   22145718.456
        49.0004         45.0004
  -9695146.33848  -7554877.45647  22204891.8874   22204900.1434   22204892.704
        49.0004         44.0004
 -11300207.63849  -8797034.55248  20515156.6124   20515162.5864   20515156.628
        54.0004         49.0004
  -9335845.83747  -7211927.83446  23589952.4524   23589962.1904   23589951.862
        46.0004         41.0004
 -29422446.81149 -22871267.20148  20290919.6474   20290925.9574   20290919.394
        54.0004         49.0004
 14  5  9  1 35 30.0000000  0  9G07G10G26G08G02G28G09G17G04
 -12081335.31548  -9383262.76747  22391760.8774   22391766.1624   22391760.664
        48.0004         43.0004
 -17499324.24548 -13625078.09047  22347857.1274   22347865.6414   22347858.554
        48.0004         43.0004
   -814910.42747   -617925.14846  24198695.8474   24198702.1484   24198694.588
        42.0004         38.0004
 -17188387.97248 -13381141.46148  20471154.8374   20471161.8154   20471155.429
        52.0004         48.0004
 -10568010.34048  -8176008.23447  22135388.6374   22135392.4854   22135388.678
        49.0004         45.0004
  -9752399.74748  -7599490.47147  22193997.6694   22194006.4494   22193997.836
        49.0004         44.0004
 -11245299.82348  -8754249.23448  20525605.4024   20525610.9184   20525605.289
        53.0004         49.0004
  -9304881.92147  -7187800.08947  23595844.5824   23595854.3974   23595844.289
        46.0004         42.0004
 -29426526.36149 -22874446.09948  20290142.9954   20290149.7824   20290142.346
        54.0004         49.0004
 14  5  9  1 36  0.0000000  0  9G07G10G26G08G02G28G09G17G04
 -11982677.80148  -9306386.79847  22410534.6904   22410538.8744   22410534.339
        48.0004         43.0004
 -17570776.90148 -13680755.45947  22334260.6944   22334268.3754   22334261.268
        48.0004         43.0004
   -799526.21347   -605937.33546  24201621.4474   24201631.4864   24201621.330
        42.0004         38.0004
 -17126668.10448 -13333048.05548  20482899.9884   20482906.4814   20482900.661
        52.0004         48.0004
 -10621882.01048  -8217986.14347  22125137.0384   22125141.4464   22125137.172
        49.0004         45.0004
  -9809549.16448  -7644022.43647  22183122.2694   22183130.4984   22183122.304
        49.0004         44.0004
 -11189933.55148  -8711106.67948  20536141.4624   20536147.3764   20536141.210
        53.0004         49.0004
  -9274108.27447  -7163820.60647  23601699.8874   23601709.2944   23601700.123
        46.0004         42.0004
 -29430052.90149 -22877194.07948  20289471.9314   20289478.2144   20289471.692
        54.0004         49.0004
 14  5  9  1 36 30.0000000  0  9G07G10G26G08G02G28G09G17G04
 -11883820.52848  -9229355.18447  22429347.1124   22429352.4994   22429346.480
        48.0004         43.0004
 -17642204.93548 -13736413.65247  22320668.2824   22320675.5754   22320669.298
        48.0004         43.0004
   -784074.22547   -593896.70946  24204562.4304   24204571.5114   24204562.052
        42.0004         38.0004
 -17064418.69248 -13284542.02048  20494745.4584   20494752.1654   20494746.124
        52.0004         48.0004
 -10675340.05348  -8259641.74247  22114964.0424   22114968.1624   22114964.306
        49.0004         45.0004
  -9866593.01748  -7688472.16947  22172266.8464   22172275.8874   22172267.684
        49.0004         44.0004
 -11134112.53248  -8667609.76948  20546763.4884   20546769.4764   20546763.577
        53.0004         49.0004
  -9243527.82547  -7139991.67946  23607519.7854   23607527.3374   23607519.505
        46.0004         41.0004
 -29433027.99149 -22879512.36148  20288906.0654   20288912.6744   20288905.656
        54.0004         49.0004
 14  5  9  1 37  0.0000000  0  9G07G10G26G08G02G28G09G17G04
 -11784763.60248  -9152167.98947  22448197.2174   22448202.9204   22448196.297
        48.0004         43.0004
 -17713602.79448 -13792048.33547  22307083.1454   22307089.4304   22307082.710
        48.0004         43.0004
   -768553.73747   -581802.76246  24207514.9994   24207526.1804   24207514.812
        42.0004         38.0004
 -17001639.50548 -13235623.17248  20506692.0184   20506698.7044   20506692.336
        52.0004         48.0004
 -10728380.74548  -8300972.13747  22104870.4484   22104874.7684   22104871.276
        49.0004         45.0004
  -9923525.24648  -7732834.91847  22161433.2934   22161442.3564   22161433.641
        49.0004         44.0004
 -11077836.66548  -8623758.43448  20557472.5014   20557478.6684   20557472.284
        53.0004         49.0004
  -9213138.56747  -7116311.73446  23613303.0844   23613311.7084   23613302.453
        46.0004         41.0004
 -29435449.15148 -22881399.00248  20288445.1154   20288451.3194   20288444.595
        53.0004         49.0004
 14  5  9  1 37 30.0000000  0  9G07G10G26G08G02G28G09G17G04
 -11685513.92047  -9074830.60147  22467083.9264   22467088.0324   22467082.878
        47.0004         43.0004
 -17784971.63448 -13847660.41547  22293500.8034   22293508.9704   22293501.643
        48.0004         44.0004
   -752970.80947   -569660.13546  24210481.0554   24210490.5644   24210480.191
        42.0004         38.0004
 -16938336.95348 -13186296.50848  20518738.1624   20518745.0774   20518738.741
        52.0004         48.0004
 -10781006.62748  -8341979.31047  22094856.5674   22094860.6044   22094856.591
        49.0004         45.0004
  -9980346.77248  -7777111.38847  22150619.6164   22150628.9954   22150620.412
        48.0004         44.0004
 -11021112.31648  -8579557.64248  20568266.8544   20568272.6394   20568266.889
        53.0004         49.0004
  -9182945.06947  -7092784.33246  23619048.6554   23619056.4144   23619047.808
        46.0004         41.0004
 -29437320.47648 -22882857.19948  20288089.1484   20288095.6044   20288089.154
        53.0004         49.0004
 14  5  9  1 38  0.0000000  0  9G07G10G26G08G02G28G09G17G04
 -11586070.12747  -8997341.95747  22486006.6404   22486013.0654   22486006.282
        47.0004         43.0004
 -17856304.82948 -13903244.70947  22279927.3734   22279934.1114   22279927.245
        48.0004         44.0004
   -737323.28747   -557467.13846  24213458.5234   24213468.5994   24213458.673
        42.0004         38.0004
 -16874509.38748 -13136560.74848  20530884.6834   20530890.5324   20530884.666
        52.0004         48.0004
 -10833212.24348  -8382658.99847  22084921.6424   22084926.4074   22084922.347
        49.0004         45.0004
 -10037050.29848  -7821295.91347  22139829.7994   22139837.6744   22139830.161
        48.0004         44.0004
 -10963937.86048  -8535006.11548  20579146.5924   20579152.7054   20579146.714
        53.0004         49.0004
  -9152944.11647  -7069406.96346  23624756.6014   23624765.1064   23624756.668
        46.0004         41.0004
 -29438638.35548 -22883884.14648  20287838.5244   20287845.1794   20287837.987
        53.0004         49.0004
 14  5  9  1 38 30.0000000  0  9G07G10G26G08G02G28G09G17G04
 -11486440.15247  -8919708.23747  22504964.9894   22504970.3064   22504965.232
        47.0004         43.0004
 -17927604.24548 -13958802.67547  22266358.1704   22266366.4844   22266359.565
        48.0004         44.0004
   -721618.32447   -545229.39146  24216446.7054   24216456.7014   24216446.044
        42.0004         38.0004
 -16810164.32148 -13086421.73748  20543129.2324   20543134.9164   20543129.224
        52.0004         48.0004
 -10885001.39848  -8423014.17447  22075066.6724   22075071.2174   22075066.908
        49.0004         45.0004
 -10093637.68948  -7865389.95247  22129061.8314   22129069.6124   22129061.768
        49.0004         44.0004
 -10906320.68448  -8490109.61548  20590110.7904   20590116.8074   20590110.897
        53.0004         49.0004
  -9123141.71447  -7046184.30246  23630427.9614   23630436.9694   23630427.716
        46.0004         41.0004
 -29439408.23948 -22884484.07848  20287691.6884   20287698.8534   20287691.676
        53.0004         49.0004
 14  5  9  1 39  0.0000000  0  9G07G10G26G08G02G28G09G17G04
 -11386622.84547  -8841928.53147  22523960.7354   22523966.2284   22523959.841
        47.0004         42.0004
 -17998863.07048 -14014329.01947  22252799.7744   22252805.8124   22252799.310
        48.0004         44.0004
   -705854.04247   -532945.47046  24219446.9184   24219455.9174   24219447.372
        42.0004         38.0004
 -16745300.59748 -13035878.58048  20555471.8374   20555478.5014   20555472.331
        52.0004         48.0004
 -10936368.87248  -8463040.77247  22065291.6334   22065296.3984   22065292.441
        50.0004         45.0004
 -10150102.29348  -7909388.31147  22118316.2834   22118325.8984   22118317.174
        49.0004         44.0004
 -10848259.24148  -8444866.93148  20601159.7474   20601165.3274   20601159.589
        53.0004         49.0004
  -9093534.41747  -7023113.67446  23636062.2144   23636071.7834   23636062.122
        46.0004         41.0004
 -29439626.24748 -22884653.98648  20287650.6654   20287656.8584   20287650.200
        53.0004         49.0004
 14  5  9  1 39 30.0000000  0  9G07G10G26G08G02G28G09G17G04
 -11286622.85247  -8764006.48447  22542989.5234   22542994.5614   22542989.257
        47.0004         42.0004
 -18070080.28148 -14069822.94447  22239247.6074   22239253.4454   22239247.688
        49.0004         44.0004
   -690034.11647   -520618.15546  24222456.9944   24222466.7074   24222456.535
        42.0004         38.0004
 -16679922.49048 -12984934.60348  20567913.0024   20567919.3384   20567913.243
        52.0004         48.0004
 -10987315.15648  -8502739.17147  22055597.4764   22055602.6584   22055597.277
        50.0004         45.0004
 -10206442.27148  -7953289.54347  22107595.6974   22107603.5324   22107596.070
        49.0004         44.0004
 -10789757.88048  -8399281.45548  20612292.1354   20612297.9754   20612292.111
        53.0004         49.0004
  -9064125.15847  -7000197.35746  23641658.6044   23641666.8034   23641658.405
        46.0004         41.0004
 -29439294.96248 -22884395.87048  20287713.1244   20287720.2714   20287712.851
        53.0004         49.0004
 14  5  9  1 40  0.0000000  0 10G07G10G26G08G02G05G28G09G17G04
 -11186443.16247  -8685944.42947  22562053.2204   22562058.9604   22562053.426
        47.0004         42.0004
 -18141253.70348 -14125282.74647  22225702.7384   22225709.6914   22225703.465
        49.0004         44.0004
   -674161.23947   -508249.56646  24225477.7204   24225485.3384   24225477.854
        42.0004         38.0004
 -16614032.95248 -12933592.10947  20580451.0314   20580457.5024   20580451.496
        52.0004         47.0004
 -11037839.46548  -8542108.75747  22045982.4134   22045987.2404   22045983.668
        50.0004         45.0004
  -1454393.35446  -1092272.72745  25488197.0914   25488208.0404   25488197.779
        40.0004         35.0004
 -10262655.15848  -7997091.76147  22096899.9854   22096907.0874   22096899.309
        49.0004         44.0004
 -10730819.75348  -8353355.63848  20623507.7654   20623513.7894   20623507.400
        53.0004         49.0004
  -9034915.45247  -6977436.54246  23647216.7404   23647225.8714   23647217.011
        46.0004         41.0004
 -29438415.01748 -22883710.21948  20287881.2234   20287887.0464   20287880.702
        53.0004         49.0004
 14  5  9  1 40 30.0000000  0 10G07G10G26G08G02G05G28G09G17G04
 -11086087.78347  -8607745.45347  22581151.0834   22581155.7334   22581150.012
        47.0004         42.0004
 -18212381.00348 -14180706.60547  22212168.2514   22212174.9004   22212168.584
        49.0004         44.0004
   -658238.15747   -495841.89446  24228508.1924   24228517.5904   24228507.135
        43.0004         38.0004
 -16547635.51748 -12881853.85347  20593086.6064   20593092.7714   20593086.723
        52.0004         47.0004
 -11087941.39948  -8581149.22847  22036448.0774   22036453.4374   22036448.543
        50.0004         45.0004
  -1534914.20246  -1155015.87746  25472876.7964   25472887.5484   25472875.330
        40.0004         36.0004
 -10318738.57048  -8040793.08947  22086226.0084   22086234.9614   22086227.004
        49.0004         44.0004
 -10671448.06448  -8307091.98848  20634805.6094   20634811.5354   20634805.405
        53.0004         49.0004
  -9005906.70447  -6954832.31846  23652737.7274   23652746.3244   23652737.259
        46.0004         41.0004
 -29436987.72048 -22882598.05948  20288152.9434   20288159.4534   20288152.187
        53.0004         49.0004
 14  5  9  1 41  0.0000000  0 10G07G10G26G08G02G05G28G09G17G04
 -10985558.75147  -8529411.17947  22600280.7604   22600284.9664   22600279.902
        47.0004         42.0004
 -18283458.93648 -14236092.00447  22198641.9984   22198648.4754   22198642.523
        49.0004         44.0004
   -642266.10847   -483396.01546  24231545.7744   24231556.3274   24231546.388
        43.0004         38.0004
 -16480732.15448 -12829721.36747  20605817.3004   20605823.7874   20605818.001
        52.0004         47.0004
 -11137619.08148  -8619859.10447  22026995.9864   22027000.2134   22026995.806
        50.0004         45.0004
  -1615652.15346  -1217928.21646  25457511.2554   25457521.2954   25457510.391
        41.0004         37.0004
 -10374688.44948  -8084390.35447  22075579.1724   22075587.4644   22075579.839
        49.0004         44.0004
 -10611644.58048  -8260491.87248  20646185.7484   20646192.1124   20646186.028
        53.0004         49.0004
  -8977098.82847  -6932384.61946  23658219.7944   23658228.1134   23658219.590
        46.0004         41.0004
 -29435012.96348 -22881059.30848  20288528.5424   20288534.7844   20288528.091
        53.0004         49.0004
 14  5  9  1 41 30.0000000  0 10G07G10G26G08G02G05G28G09G17G04
 -10884858.91047  -8450943.80247  22619442.5004   22619448.4644   22619442.740
        47.0004         42.0004
 -18354484.66848 -14291436.72247  22185127.3834   22185133.3164   22185127.167
        49.0004         44.0004
   -626247.30347   -470913.74046  24234595.1874   24234604.2984   24234594.499
        43.0004         38.0004
 -16413325.67248 -12777196.84247  20618644.7434   20618650.6824   20618644.873
        52.0004         47.0004
 -11186871.68848  -8658237.76047  22017623.2054   22017627.4724   22017622.683
        50.0004         45.0004
  -1696606.39546  -1281009.08946  25442104.5654   25442117.6574   25442105.145
        41.0004         36.0004
 -10430502.01448  -8127881.40847  22064958.3384   22064967.1784   22064958.769
        49.0004         44.0004
 -10551412.01948  -8213557.40748  20657647.6744   20657653.9474   20657647.456
        53.0004         49.0004
  -8948492.54647  -6910093.99246  23663662.8824   23663671.7664   23663662.982
        46.0004         41.0004
 -29432491.03648 -22879094.18748  20289008.6164   20289014.5894   20289007.939
        53.0004         49.0004
 14  5  9  1 42  0.0000000  0 10G07G10G26G08G02G05G28G09G17G04
 -10783991.89647  -8372346.16747  22638637.5784   22638641.8434   22638636.986
        47.0004         42.0004
 -18425455.88648 -14346738.95847  22171620.9454   22171628.6184   22171621.014
        49.0004         44.0004
   -610184.59947   -458397.29546  24237651.1714   24237661.5304   24237651.112
        43.0004         38.0004
 -16345419.43648 -12724282.89347  20631566.4984   20631573.2634   20631567.150
        52.0004         47.0004
 -11235698.42048  -8696284.56647  22008331.1594   22008335.2464   22008332.251
        50.0004         45.0004
  -1777775.63446  -1344257.49246  25426660.1354   25426670.6304   25426658.524
        41.0004         36.0004
 -10486176.84348  -8171264.33947  22054364.1824   22054372.2504   22054364.202
        49.0004         44.0004
 -10490753.57348  -8166291.08748  20669190.3224   20669197.0674   20669190.652
        53.0004         49.0004
  -8920089.66647  -6887961.86646  23669068.1884   23669076.8264   23669067.500
        46.0004         41.0004
 -29429423.58848 -22876703.98548  20289591.9054   20289598.5894   20289591.580
        53.0004         49.0004
 14  5  9  1 42 30.0000000  0 10G07G10G26G08G02G05G28G09G17G04
 -10682961.99847  -8293621.59247  22657863.1114   22657868.1044   22657862.746
        47.0004         42.0004
 -18496371.40948 -14401997.80647  22158126.3394   22158133.1224   22158127.026
        49.0004         44.0004
   -594081.66447   -445849.45446  24240716.1104   24240725.2874   24240715.753
        43.0004         38.0004
 -16277017.82548 -12670982.94747  20644583.2304   20644589.6104   20644583.485
        52.0004         47.0004
 -11284099.82648  -8733999.94747  21999120.7094   21999125.1414   21999120.844
        50.0004         45.0004
  -1859160.85747  -1407674.19446  25411172.1064   25411182.8444   25411171.914
        42.0004         37.0004
 -10541711.38548  -8214537.96147  22043796.0504   22043803.6514   22043796.240
        49.0004         44.0004
 -10429673.72548  -8118696.40448  20680813.7494   20680820.2974   20680814.116
        53.0004         49.0004
  -8891892.60947  -6865990.13146  23674433.3094   23674442.4614   23674433.264
        46.0004         41.0004
 -29425812.76848 -22873890.38448  20290279.3974   20290285.3814   20290278.921
        53.0004         49.0004
 14  5  9  1 43  0.0000000  0 10G07G10G26G08G02G05G28G09G17G04
 -10581768.35647  -8214769.44847  22677118.7204   22677124.4194   22677119.476
        47.0004         42.0004
 -18567224.26048 -14457207.81147  22144644.4124   22144649.4654   22144643.686
        49.0004         44.0004
   -577936.54947   -433268.74346  24243788.9994   24243796.2534   24243787.560
        43.0004         38.0004
 -16208119.53648 -12617295.96947  20657694.0584   20657700.3184   20657694.158
        52.0004         47.0004
 -11332071.04048  -8771380.12447  21989992.7454   21989997.7804   21989992.934
        50.0004         45.0004
  -1940756.67246  -1471255.02246  25395646.8284   25395654.4144   25395644.102
        41.0004         36.0004
 -10597098.48248  -8257696.68147  22033256.3004   22033265.2184   22033256.577
        49.0004         44.0004
 -10368171.19848  -8070772.35448  20692517.5294   20692523.6004   20692517.245
        53.0004         49.0004
  -8863898.12047  -6844176.24046  23679760.9904   23679770.6944   23679760.360
        46.0004         41.0004
 -29421655.03148 -22870650.60548  20291070.0804   20291077.4574   20291069.776
        53.0004         49.0004
 14  5  9  1 43 30.0000000  0 10G07G10G26G08G02G05G28G09G17G04
 -10480418.54147  -8135795.59747  22696406.2484   22696410.0504   22696405.944
        47.0004         42.0004
 -18638016.76648 -14512370.80247  22131172.0594   22131178.5624   22131172.695
        49.0004         44.0004
   -561756.15947   -420660.56946  24246867.4684   24246875.8534   24246866.875
        43.0004         38.0004
 -16138732.12748 -12563227.86847  20670898.3924   20670904.7594   20670898.317
        52.0004         47.0004
 -11379615.84948  -8808428.03147  21980944.8124   21980950.4804   21980945.051
        50.0004         45.0004
  -2022565.82146  -1535002.07445  25380075.4194   25380085.1104   25380076.409
        40.0004         35.0004
 -10652339.91748  -8300741.90947  22022743.6304   22022752.5774   22022744.506
        49.0004         44.0004
 -10306253.20048  -8022524.56948  20704300.0064   20704306.1034   20704300.026
        53.0004         49.0004
  -8836111.82847  -6822524.56846  23685048.4394   23685057.4804   23685048.339
        46.0004         41.0004
 -29416955.87148 -22866988.93748  20291964.5354   20291971.0814   20291964.259
        53.0004         49.0004
 14  5  9  1 44  0.0000000  0 10G07G10G26G08G02G05G28G09G17G04
 -10378912.65047  -8056700.13547  22715721.2134   22715727.5974   22715721.252
        47.0004         42.0004
 -18708743.23848 -14567482.34047  22117712.5874   22117719.5964   22117713.632
        49.0004         44.0004
   -545539.77447   -408024.31346  24249951.8944   24249961.9874   24249951.591
        42.0004         38.0004
 -16068855.67648 -12508778.68547  20684194.7714   20684201.2334   20684195.210
        52.0004         47.0004
 -11426730.63448  -8845140.86247  21971979.2714   21971983.3324   21971979.510
        50.0004         45.0004
  -2104584.69346  -1598912.55746  25364467.1084   25364478.4124   25364467.932
        40.0004         36.0004
 -10707429.74748  -8343669.00147  22012261.6414   22012269.5594   22012260.996
        49.0004         44.0004
 -10243919.69348  -7973953.00648  20716161.5814   20716167.3984   20716161.645
        53.0004         49.0004
  -8808531.64147  -6801033.48646  23690297.4274   23690305.6514   23690296.510
        46.0004         41.0004
 -29411713.39748 -22862903.91148  20292962.0924   20292968.6684   20292961.899
        53.0004         49.0004
 14  5  9  1 44 30.0000000  0 10G07G10G26G08G02G05G28G09G17G04
 -10277253.91647  -7977485.57747  22735066.8284   22735071.7094   22735066.313
        47.0004         42.0004
 -18779401.14148 -14622540.44247  22104266.9824   22104274.6244   22104268.267
        49.0004         44.0004
   -529290.00247   -395362.05546  24253045.0154   24253053.7334   24253045.531
        43.0004         38.0004
 -15998493.31948 -12453950.88547  20697584.3824   20697591.2024   20697584.944
        52.0004         47.0004
 -11473414.55748  -8881517.95347  21963094.2964   21963100.0764   21963095.404
        50.0004         45.0004
  -2186812.46046  -1662985.82546  25348821.5004   25348832.8794   25348819.622
        41.0004         37.0004
 -10762365.52248  -8386476.04747  22001807.7724   22001815.7424   22001806.948
        49.0004         44.0004
 -10181173.73548  -7925060.05348  20728101.7584   20728107.8504   20728101.723
        53.0004         49.0004
  -8781158.98947  -6779704.14046  23695504.6514   23695512.9554   23695505.016
        46.0004         41.0004
 -29405928.67948 -22858396.35648  20294062.9944   20294069.5284   20294062.861
        53.0004         49.0004
 14  5  9  1 45  0.0000000  0 10G07G10G26G08G02G05G28G09G17G04
 -10175447.13247  -7898155.66347  22754439.7024   22754445.7584   22754439.704
        47.0004         42.0004
 -18849989.67848 -14677544.49847  22090834.9284   22090841.9384   22090835.594
        49.0004         44.0004
   -513010.85247   -382676.89846  24256142.5424   24256153.2384   24256142.155
        43.0004         38.0004
 -15927650.01348 -12398748.30747  20711065.0644   20711072.5404   20711065.705
        52.0004         47.0004
 -11519668.70748  -8917560.15547  21954293.1454   21954298.5464   21954294.264
        50.0004         45.0004
  -2269249.44846  -1727222.12246  25333133.4544   25333144.9614   25333132.412
        41.0004         36.0004
 -10817145.76648  -8429161.89347  21991382.9764   21991390.9584   21991382.872
        49.0004         44.0004
 -10118019.88648  -7875849.26148  20740119.8014   20740125.7344   20740119.532
        53.0004         49.0004
  -8753996.23447  -6758538.34046  23700674.4334   23700683.4414   23700674.228
        45.0004         41.0004
 -29399604.38648 -22853468.34848  20295266.5494   20295273.1724   20295266.073
        53.0004         49.0004
 14  5  9  1 45 30.0000000  0 10G07G10G26G08G02G05G28G09G17G04
 -10073492.59647  -7818710.61647  22773841.9364   22773846.9724   22773841.263
        47.0004         42.0004
 -18920503.08848 -14732490.01547  22077415.6624   22077423.2764   22077417.328
        49.0004         44.0004
   -496701.52247   -369968.22446  24259247.0284   24259255.4704   24259246.452
        43.0004         38.0004
 -15856325.81848 -12343171.02347  20724638.5314   20724645.1854   20724638.511
        52.0004         47.0004
 -11565489.28948  -8953264.51347  21945573.9254   21945578.4714   21945574.364
        50.0004         45.0004
  -2351891.23646  -1791617.97846  25317409.2284   25317417.0964   25317406.981
        41.0004         36.0004
 -10871764.57848  -8471721.95447  21980988.7324   21980996.7034   21980988.816
        49.0004         44.0004
 -10054458.13748  -7826320.62948  20752215.1204   20752220.8954   20752215.095
        53.0004         49.0004
  -8727041.64847  -6737534.75546  23705803.9614   23705811.5784   23705803.608
        46.0004         41.0004
 -29392738.51748 -22848118.33548  20296573.3154   20296579.9714   20296572.722
        53.0004         49.0004
 14  5  9  1 46  0.0000000  0 10G07G10G26G08G02G05G28G09G17G04
  -9971396.59147  -7739155.33547  22793269.6144   22793274.1764   22793269.120
        47.0004         42.0004
 -18990942.19248 -14787377.62847  22064012.9774   22064019.4634   22064013.084
        49.0004         44.0004
   -480367.60047   -357240.42946  24262353.7184   24262365.0224   24262354.280
        43.0004         38.0004
 -15784527.15248 -12287224.01947  20738301.0794   20738307.4534   20738301.342
        52.0004         47.0004
 -11610878.74948  -8988632.93447  21936936.1894   21936941.6274   21936937.317
        50.0004         45.0004
  -2434740.28546  -1856175.37246  25301641.0044   25301650.7984   25301640.917
        41.0004         36.0004
 -10926222.50248  -8514156.63947  21970625.2364   21970633.6714   21970625.741
        49.0004         44.0004
  -9990494.59148  -7776478.90548  20764387.0714   20764392.4434   20764386.751
        53.0004         49.0004
  -8700299.28547  -6716696.53246  23710892.7694   23710901.7074   23710892.319
        46.0004         41.0004
 -29385335.35948 -22842349.65748  20297981.7484   20297988.5874   20297981.382
        53.0004         49.0004
 14  5  9  1 46 30.0000000  0 10G07G10G26G08G02G05G28G09G17G04
  -9869158.92947  -7659489.65947  22812724.6144   22812730.9234   22812723.833
        47.0004         42.0004
 -19061301.14648 -14842202.79247  22050624.0124   22050629.1084   22050624.089
        49.0004         44.0004
   -464008.54747   -344493.03046  24265468.0914   24265477.9264   24265467.586
        43.0004         38.0004
 -15712254.09848 -12230907.36047  20752054.0624   20752060.6934   20752054.238
        52.0004         47.0004
 -11655833.45648  -9023662.58747  21928382.7304   21928386.6524   21928382.357
        50.0004         45.0004
  -2517792.32046  -1920890.90146  25285835.9044   25285845.0004   25285837.142
        40.0004         36.0004
 -10980513.65148  -8556461.36947  21960294.7944   21960301.6424   21960294.629
        49.0004         44.0004
  -9926129.38548  -7726324.20048  20776635.1884   20776641.2924   20776635.139
        53.0004         49.0004
  -8673767.12047  -6696022.09346  23715941.9354   23715949.1364   23715940.643
        46.0004         41.0004
 -29377393.09049 -22836160.89048  20299493.1644   20299499.8234   20299492.694
        54.0004         49.0004
 14  5  9  1 47  0.0000000  0 10G07G10G26G08G02G05G28G09G17G04
  -9766785.98347  -7579718.58447  22832205.3934   22832210.9634   22832205.223
        47.0004         42.0004
 -19131580.33948 -14896965.80447  22037250.3334   22037257.2564   22037250.339
        49.0004         44.0004
   -447629.62247   -331730.14746  24268584.4944   24268593.0334   24268583.759
        43.0004         38.0004
 -15639512.84948 -12174225.87347  20765896.2674   20765902.8034   20765896.740
        52.0004         47.0004
 -11700356.09948  -9058355.56547  21919910.0834   21919914.7034   21919910.476
        50.0004         45.0004
  -2601049.18846  -1985766.07746  25269992.4014   25270003.8454   25269993.131
        41.0004         36.0004
 -11034638.16348  -8598636.26347  21949994.5324   21950002.3724   21949994.733
        49.0004         44.0004
  -9861368.51148  -7675861.18448  20788958.4004   20788965.1774   20788958.838
        53.0004         49.0004
  -8647449.09247  -6675514.52146  23720949.7144   23720957.6024   23720949.098
        46.0004         41.0004
 -29368915.68449 -22829555.13748  20301106.5174   20301113.1904   20301106.136
        54.0004         49.0004
 14  5  9  1 47 30.0000000  0 10G07G10G26G08G02G05G28G09G17G04
  -9664277.23747  -7499841.69447  22851712.4624   22851718.0554   22851712.421
        47.0004         42.0004
 -19201773.56348 -14951661.83447  22023892.6044   22023898.9104   22023893.694
        49.0004         44.0004
   -431229.43647   -318950.68746  24271704.8104   24271714.1094   24271704.924
        43.0004         38.0004
 -15566302.67748 -12117178.99447  20779827.9594   20779834.3664   20779828.079
        52.0004         47.0004
 -11744442.16048  -9092708.35147  21911520.3084   21911525.7384   21911521.145
        50.0004         45.0004
  -2684505.72846  -2050796.84946  25254109.8284   25254124.5374   25254112.499
        40.0004         36.0004
 -11088589.63948  -8640676.31447  21939727.6574   21939735.8914   21939728.227
        49.0004         45.0004
  -9796211.43648  -7625089.44248  20801357.6374   20801363.5044   20801357.494
        53.0004         49.0004
  -8621342.45547  -6655171.66946  23725917.9224   23725925.4684   23725916.931
        46.0004         41.0004
 -29359900.61949 -22822530.42648  20302822.1684   20302828.7194   20302821.474
        54.0004         49.0004
 14  5  9  1 48  0.0000000  0 10G07G10G26G08G02G05G28G09G17G04
  -9561637.78847  -7419862.94947  22871244.7784   22871250.3154   22871243.904
        47.0004         42.0004
 -19271880.09448 -15006290.30947  22010551.8424   22010559.2044   22010552.620
        49.0004         44.0004
   -414812.29747   -306158.01046  24274827.5214   24274838.5374   24274827.828
        43.0004         38.0004
 -15492628.66748 -12059770.67947  20793847.4604   20793854.1154   20793847.854
        52.0004         47.0004
 -11788092.87848  -9126721.90947  21903214.2604   21903219.2854   21903214.849
        50.0004         45.0004
  -2768163.05246  -2115984.07345  25238190.6624   25238203.1644   25238192.125
        40.0004         35.0004
 -11142366.98048  -8682580.68047  21929493.8874   21929503.1614   21929494.905
        49.0004         45.0004
  -9730663.16548  -7574012.87148  20813831.4124   20813837.4484   20813831.203
        53.0004         49.0004
  -8595450.21747  -6634995.87846  23730844.9424   23730852.8994   23730843.921
        46.0004         41.0004
 -29350351.01849 -22815089.19248  20304638.8914   20304645.7174   20304638.748
        54.0004         49.0004
 14  5  9  1 48 30.0000000  0 10G07G10G26G08G02G05G28G09G17G04
  -9458869.98547  -7339784.19247  22890800.3764   22890805.9544   22890800.047
        47.0004         42.0004
 -19341896.75648 -15060848.75947  21997228.4234   21997234.3404   21997229.262
        49.0004         44.0004
   -398380.09547   -293353.61946  24277955.9554   24277964.8604   24277955.919
        43.0004         38.0004
 -15418493.97048 -12002003.39947  20807954.8444   20807961.2624   20807955.198
        51.0004         47.0004
 -11831307.37648  -9160395.55947  21894991.4514   21894995.2704   21894991.242
        50.0004         45.0004
  -2852019.55946  -2181326.51845  25222235.3074   25222243.9844   25222235.096
        40.0004         35.0004
 -11195966.83448  -8724346.74047  21919294.5414   21919303.4474   21919295.151
        49.0004         45.0004
  -9664726.25448  -7522633.46248  20826378.5744   20826384.7584   20826378.468
        53.0004         48.0004
  -8569772.87547  -6614987.54646  23735731.1574   23735739.3454   23735730.390
        46.0004         41.0004
 -29340267.84449 -22807232.18948  20306557.7954   20306564.7864   20306557.611
        54.0004         49.0004
 14  5  9  1 49  0.0000000  0 10G07G10G26G08G02G05G28G09G17G04
  -9355978.66747  -7259609.19647  22910379.7974   22910384.9374   22910379.733
        46.0004         42.0004
 -19411822.46948 -15115336.33847  21983922.1314   21983928.5534   21983922.263
        49.0004         44.0004
   -381936.87447   -280540.62746  24281084.0084   24281094.4154   24281084.084
        43.0004         38.0004
 -15343903.58048 -11943881.02447  20822148.8384   20822155.2264   20822149.144
        51.0004         47.0004
 -11874086.91448  -9193730.27647  21886849.7234   21886854.8514   21886850.221
        50.0004         45.0004
  -2936075.70946  -2246824.56345  25206238.8114   25206249.8054   25206239.070
        40.0004         35.0004
 -11249388.26048  -8765973.76647  21909129.6974   21909137.3864   21909129.238
        49.0004         45.0004
  -9598405.41748  -7470954.89148  20838999.2084   20839004.7074   20838998.986
        53.0004         48.0004
  -8544313.02147  -6595148.67547  23740575.8304   23740584.0564   23740575.657
        46.0004         42.0004
 -29329653.88449 -22798961.58248  20308577.7004   20308584.2714   20308577.289
        54.0004         49.0004
 14  5  9  1 49 30.0000000  0 10G07G10G26G08G02G05G28G09G17G04
  -9252962.20247  -7179336.68747  22929984.3124   22929988.6314   22929983.521
        46.0004         42.0004
 -19481650.02648 -15169747.43547  21970633.7554   21970641.4094   21970634.547
        49.0004         44.0004
   -365480.26947   -267717.21546  24284216.9174   24284225.6284   24284215.579
        43.0004         38.0004
 -15268855.73948 -11885402.19247  20836429.5014   20836436.5604   20836430.206
        51.0004         47.0004
 -11916426.15348  -9226721.90147  21878793.0014   21878797.4684   21878793.815
        50.0004         45.0004
  -3020325.23046  -2312473.23646  25190206.5554   25190216.1154   25190206.926
        40.0004         36.0004
 -11302623.59248  -8807455.78647  21898998.4734   21899006.4284   21898999.369
        49.0004         45.0004
  -9531698.80448  -7418975.70748  20851692.8344   20851699.1184   20851692.571
        53.0004         48.0004
  -8519066.87947  -6575476.34646  23745380.1574   23745388.6474   23745380.111
        46.0004         41.0004
 -29318505.39149 -22790274.46048  20310699.3594   20310705.6944   20310698.874
        54.0004         49.0004
 14  5  9  1 50  0.0000000  0 10G07G10G26G08G02G05G28G09G17G04
  -9149829.08747  -7098973.27746  22949608.7214   22949614.2804   22949608.713
        46.0004         41.0004
 -19551382.03148 -15224084.07247  21957364.5204   21957370.7324   21957365.074
        49.0004         45.0004
   -349017.73347   -254889.19846  24287349.4104   24287358.6494   24287349.179
        43.0004         38.0004
 -15193358.74948 -11826573.37947  20850796.5984   20850803.4274   20850796.827
        51.0004         47.0004
 -11958329.53148  -9259373.90047  21870819.0674   21870824.1034   21870819.606
        50.0004         45.0004
  -3104772.51246  -2378276.02346  25174136.2204   25174147.2174   25174136.735
        40.0004         36.0004
 -11355675.20448  -8848794.63547  21888903.5634   21888911.2224   21888903.678
        49.0004         45.0004
  -9464614.63948  -7366702.33548  20864458.5814   20864464.6974   20864458.349
        53.0004         48.0004
  -8494040.50647  -6555975.26246  23750143.0064   23750151.4044   23750142.322
        46.0004         41.0004
 -29306829.06449 -22781176.04048  20312921.4484   20312927.9914   20312920.749
        54.0004         49.0004
 14  5  9  1 50 30.0000000  0 10G07G10G26G08G02G05G28G09G17G04
  -9046577.61147  -7018517.63746  22969257.5024   22969261.6774   22969256.653
        46.0004         41.0004
 -19621011.16948 -15278340.56047  21944114.3064   21944120.9404   21944114.837
        49.0004         44.0004
   -332546.92747   -242054.71346  24290483.8594   24290492.4054   24290482.472
        42.0004         38.0004
 -15117411.41148 -11767393.64547  20865248.9184   20865255.9544   20865249.126
        51.0004         46.0004
 -11999792.17748  -9291682.46947  21862929.3114   21862934.0604   21862929.693
        50.0004         45.0004
  -3189410.98246  -2444227.76746  25158028.1614   25158039.5724   25158029.444
        41.0004         36.0004
 -11408535.69848  -8889984.56947  21878844.3074   21878852.8574   21878844.661
        49.0004         45.0004
  -9397151.40948  -7314133.59148  20877296.4204   20877302.3704   20877296.178
        53.0004         48.0004
  -8469229.97947  -6536642.37346  23754863.3224   23754872.5774   23754863.328
        46.0004         41.0004
 -29294621.44449 -22771663.63048  20315244.4684   20315251.0264   20315244.182
        54.0004         49.0004
 14  5  9  1 51  0.0000000  0 10G07G10G26G08G02G05G28G09G17G04
  -8943214.04947  -6937974.66846  22988926.3634   22988931.9884   22988926.392
        46.0004         41.0004
 -19690537.97648 -15332517.30847  21930883.8654   21930890.7084   21930884.486
        49.0004         45.0004
   -316073.44847   -229218.15146  24293618.3614   24293626.4724   24293618.990
        43.0004         38.0004
 -15041020.30048 -11707868.11847  20879785.1034   20879792.3584   20879785.920
        51.0004         46.0004
 -12040816.74648  -9323649.68047  21855122.4414   21855127.4604   21855122.311
        50.0004         45.0004
  -3274243.18946  -2510330.49746  25141886.5404   25141896.6814   25141886.233
        41.0004         36.0004
 -11461204.88548  -8931025.43147  21868821.0834   21868829.9324   21868821.705
        50.0004         45.0004
  -9329315.42448  -7261274.38348  20890205.3984   20890211.7634   20890204.904
        53.0004         48.0004
  -8444639.72847  -6517481.12646  23759542.6284   23759552.0084   23759542.323
        46.0004         41.0004
 -29281887.16949 -22761740.84348  20317667.7624   20317674.6534   20317667.204
        54.0004         49.0004
 14  5  9  1 51 30.0000000  0 10G07G10G26G08G02G05G28G09G17G04
  -8839739.84047  -6857345.48246  23008618.3264   23008622.7054   23008616.224
        46.0004         41.0004
 -19759957.83648 -15386610.71347  21917673.7824   21917680.4654   21917674.404
        49.0004         45.0004
   -299597.79047   -216379.91246  24296753.5994   24296762.3304   24296752.785
        42.0004         38.0004
 -14964186.89348 -11647997.94747  20894406.5174   20894413.0944   20894407.037
        51.0004         46.0004
 -12081401.38248  -9355274.08847  21847399.4654   21847404.1644   21847400.048
        50.0004         46.0004
  -3359266.09746  -2576581.82146  25125704.9154   25125716.6264   25125706.838
        41.0004         36.0004
 -11513678.65848  -8971914.02547  21858836.9294   21858844.1634   21858836.658
        50.0004         45.0004
  -9261108.06948  -7208125.79748  20903184.2904   20903190.5344   20903184.536
        53.0004         48.0004
  -8420268.65047  -6498490.66046  23764180.1814   23764188.9834   23764180.589
        46.0004         41.0004
 -29268625.84249 -22751407.36148  20320191.0574   20320197.8334   20320190.725
        54.0004         49.0004
 14  5  9  1 52  0.0000000  0 10G07G10G26G08G02G05G28G09G17G04
  -8736157.51947  -6776632.04446  23028328.1914   23028333.8464   23028328.198
        46.0004         41.0004
 -19829267.75448 -15440618.45747  21904483.6904   21904491.1284   21904484.864
        49.0004         45.0004
   -283121.74447   -203541.34846  24299887.5214   24299897.0084   24299887.686
        42.0004         37.0004
 -14886914.03648 -11587785.34547  20909110.4374   20909118.1564   20909111.526
        51.0004         46.0004
 -12121544.57748  -9386554.51147  21839761.1904   21839765.3164   21839760.986
        50.0004         45.0004
  -3444477.70646  -2642980.19846  25109490.7334   25109500.7494   25109490.656
        41.0004         36.0004
 -11565953.63648  -9012647.71747  21848888.5754   21848897.0034   21848888.560
        50.0004         45.0004
  -9192532.04048  -7154689.93148  20916234.2404   20916240.5304   20916234.284
        53.0004         48.0004
  -8396116.82547  -6479671.03846  23768775.8934   23768785.7694   23768776.457
        46.0004         41.0004
 -29254838.46749 -22740663.97548  20322814.8114   20322821.6474   20322814.395
        54.0004         49.0004
 14  5  9  1 52 30.0000000  0 10G07G10G26G08G02G05G28G09G17G04
  -8632472.49047  -6695838.57946  23048058.6704   23048064.2004   23048058.612
        46.0004         41.0004
 -19898467.35448 -15494540.24447  21891316.5944   21891323.1514   21891316.693
        49.0004         45.0004
   -266650.08247   -190706.21846  24303021.6674   24303032.3714   24303022.278
        42.0004         37.0004
 -14809206.95248 -11527234.38947  20923897.7284   20923904.6964   20923898.257
        51.0004         46.0004
 -12161248.65048  -9417492.77547  21832204.5994   21832210.5064   21832205.544
        50.0004         46.0004
  -3529878.75446  -2709526.16946  25093242.0074   25093249.1934   25093239.368
        41.0004         36.0004
 -11618029.33948  -9053226.13847  21838978.5864   21838985.8794   21838978.830
        50.0004         45.0004
  -9123592.70448  -7100970.96948  20929352.8524   20929359.0504   20929352.741
        53.0004         48.0004
  -8372187.92747  -6461025.12546  23773330.8814   23773338.9804   23773329.727
        46.0004         41.0004
 -29240528.50349 -22729513.38148  20325537.7144   20325544.3604   20325537.445
        54.0004         49.0004
 14  5  9  1 53  0.0000000  0 10G07G10G26G08G02G05G28G09G17G04
  -8528682.85447  -6614963.59846  23067809.3364   23067814.8024   23067808.304
        46.0004         41.0004
 -19967549.24348 -15548370.30747  21878171.0704   21878177.4284   21878171.367
        49.0004         45.0004
   -250180.19647   -177872.48246  24306157.5474   24306166.2734   24306156.273
        42.0004         37.0004
 -14731064.51848 -11466344.19547  20938768.8544   20938775.2254   20938768.573
        51.0004         46.0004
 -12200508.18448  -9448084.64047  21824734.5404   21824738.8244   21824734.204
        50.0004         46.0004
  -3615463.92546  -2776215.65246  25076952.3394   25076963.0764   25076953.093
        41.0004         36.0004
 -11669898.10348  -9093643.30247  21829108.0464   21829115.9894   21829108.466
        50.0004         45.0004
  -9054288.43348  -7046967.64648  20942540.8614   20942546.9944   20942540.935
        53.0004         48.0004
  -8348477.85247  -6442549.71246  23777840.9384   23777850.6414   23777841.227
        45.0004         41.0004
 -29225692.87249 -22717953.16848  20328360.9004   20328367.9784   20328360.561
        54.0004         49.0004
 14  5  9  1 53 30.0000000  0 10G07G10G26G08G02G05G28G09G17G04
  -8424798.24847  -6534014.62046  23087578.9954   23087583.5454   23087577.421
        46.0004         41.0004
 -20036516.75248 -15602111.22747  21865045.9774   21865052.8044   21865046.649
        49.0004         45.0004
   -233720.82547   -165046.91846  24309287.5734   24309298.1984   24309288.562
        42.0004         37.0004
 -14652496.45048 -11405122.33647  20953719.2964   20953725.7914   20953719.617
        51.0004         46.0004
 -12239329.39248  -9478334.94847  21817346.3234   21817352.3994   21817346.984
        50.0004         45.0004
  -3701237.48146  -2843051.88646  25060630.2454   25060639.5894   25060630.655
        41.0004         36.0004
 -11721563.14148  -9133901.70847  21819276.3974   21819284.6474   21819277.233
        50.0004         45.0004
  -8984628.64948  -6992687.29648  20955796.6404   20955802.7184   20955796.831
        53.0004         48.0004
  -8324993.75347  -6424250.39646  23782310.6744   23782319.3724   23782310.120
        45.0004         41.0004
 -29210338.86949 -22705989.03548  20331282.8214   20331289.7794   20331282.464
        54.0004         49.0004
 14  5  9  1 54  0.0000000  0 10G07G10G26G08G02G05G28G09G17G04
  -8320815.42547  -6452989.11046  23107365.3074   23107370.9774   23107365.122
        46.0004         41.0004
 -20105361.32548 -15655756.35347  21851944.7624   21851951.9884   21851946.395
        50.0004         45.0004
   -217268.15547   -152226.59446  24312419.6424   24312429.7874   24312419.178
        42.0004         37.0004
 -14573499.88748 -11343566.59047  20968752.0904   20968758.5014   20968752.402
        51.0004         46.0004
 -12277705.77548  -9508238.65047  21810044.2834   21810048.7524   21810044.899
        50.0004         46.0004
  -3787192.82146  -2910029.80146  25044273.5264   25044284.6094   25044273.322
        41.0004         36.0004
 -11773015.74648  -9173994.58747  21809485.7314   21809493.2884   21809485.961
        50.0004         45.0004
  -8914610.48248  -6938127.68548  20969120.7924   20969126.6694   20969120.616
        53.0004         48.0004
  -8301730.40347  -6406123.08446  23786737.1244   23786746.2884   23786736.777
        45.0004         41.0004
 -29194462.30849 -22693617.71648  20334303.9054   20334310.6824   20334303.627
        54.0004         49.0004
 14  5  9  1 54 30.0000000  0 10G07G10G26G08G02G05G28G09G17G04
  -8216740.89047  -6371892.14546  23127170.7504   23127175.3244   23127170.202
        46.0004         41.0004
 -20174083.68448 -15709306.24847  21838867.7554   21838875.9714   21838869.051
        50.0004         45.0004
   -200827.87347   -139415.92246  24315549.4034   24315558.6484   24315548.015
        42.0004         38.0004
 -14494081.83548 -11281682.40447  20983864.4544   20983870.8514   20983865.081
        51.0004         46.0004
 -12315640.28248  -9537798.02547  21802824.9724   21802829.7184   21802825.442
        50.0004         46.0004
  -3873331.60046  -2977150.65546  25027882.0774   25027889.5884   25027881.917
        41.0004         36.0004
 -11824256.42848  -9213922.33147  21799734.7204   21799742.2004   21799735.167
        50.0004         45.0004
  -8844240.60448  -6883294.01648  20982511.8194   20982517.6984   20982511.597
        53.0004         48.0004
  -8278691.73347  -6388170.84146  23791122.1054   23791130.3134   23791121.308
        46.0004         41.0004
 -29178068.05449 -22680842.99948  20337423.3404   20337430.4064   20337423.494
        54.0004         49.0004
 14  5  9  1 55  0.0000000  0 10G07G10G26G08G02G05G28G09G17G04
  -8112575.00547  -6290723.97646  23146993.2004   23146997.8464   23146992.296
        46.0004         41.0004
 -20242678.39448 -15762756.68047  21825815.6684   21825820.6124   21825815.909
        50.0004         45.0004
   -184399.44547   -126614.48246  24318672.8574   24318682.7394   24318673.593
        42.0004         38.0004
 -14414242.74148 -11219470.13447  20999057.6904   20999063.7514   20999057.818
        51.0004         46.0004
 -12353129.96748  -9567010.77847  21795691.9194   21795696.3704   21795691.775
        50.0004         46.0004
  -3959649.89346  -3044411.39446  25011454.6264   25011464.2744   25011456.301
        41.0004         36.0004
 -11875279.54248  -9253680.53547  21790025.3254   21790033.4254   21790025.537
        50.0004         45.0004
  -8773519.16648  -6828186.40848  20995969.7534   20995975.5324   20995969.689
        53.0004         48.0004
  -8255875.98647  -6370392.29546  23795462.9874   23795471.7424   23795462.807
        46.0004         41.0004
 -29161154.54749 -22667663.67048  20340642.2654   20340649.1134   20340641.863
        54.0004         49.0004
 14  5  9  1 55 30.0000000  0 10G07G10G26G08G02G05G28G09G17G04
  -8008324.38147  -6209489.78946  23166829.8634   23166836.3644   23166830.345
        46.0004         41.0004
 -20311146.15148 -15816108.18747  21812786.1764   21812792.5514   21812786.623
        50.0004         45.0004
   -167988.76247   -113826.86446  24321797.0894   24321805.2074   24321797.276
        42.0004         38.0004
 -14333989.45248 -11156935.12247  21014329.3364   21014335.7534   21014329.645
        51.0004         46.0004
 -12390177.91148  -9595879.32547  21788641.6294   21788646.0684   21788641.746
        50.0004         46.0004
  -4046149.35546  -3111813.29546  24994993.8134   24995005.2864   24994994.861
        41.0004         36.0004
 -11926085.66148  -9293269.66147  21780357.5994   21780364.6884   21780358.060
        50.0004         45.0004
  -8702452.87448  -6772810.07948  21009492.9854   21009498.9654   21009492.896
        53.0004         48.0004
  -8233287.32247  -6352790.70446  23799760.7814   23799770.0354   23799760.935
        46.0004         41.0004
 -29143727.04048 -22654083.82448  20343958.8594   20343965.3294   20343958.558
        53.0004         49.0004
 14  5  9  1 56  0.0000000  0 10G07G10G26G08G02G05G28G09G17G04
  -7903986.79447  -6128187.83246  23186684.8824   23186690.1714   23186685.159
        45.0004         41.0004
 -20379479.38248 -15869354.86147  21799782.9184   21799789.9614   21799783.349
        50.0004         45.0004
   -151593.08447   -101050.95846  24324917.8664   24324925.3864   24324916.285
        42.0004         38.0004
 -14253320.48448 -11094076.19847  21029680.3114   21029686.5964   21029680.507
        51.0004         46.0004
 -12426779.20748  -9624399.82947  21781676.1994   21781681.1774   21781676.768
        50.0004         46.0004
  -4132823.89046  -3179351.62446  24978500.9064   24978510.1504   24978499.548
        41.0004         37.0004
 -11976667.27148  -9332683.83647  21770731.9414   21770739.9094   21770732.064
        50.0004         45.0004
  -8631039.94348  -6717163.64948  21023082.8564   21023088.3364   21023082.868
        53.0004         48.0004
  -8210921.71047  -6335362.90646  23804017.8494   23804025.8314   23804016.934
        45.0004         41.0004
 -29125782.26249 -22640100.90348  20347373.4574   20347380.1784   20347373.115
        54.0004         49.0004
 14  5  9  1 56 30.0000000  0 10G07G10G26G08G02G05G28G09G17G04
  -7799570.25747  -6046824.36246  23206555.8024   23206561.0094   23206555.216
        45.0004         41.0004
 -20447680.10748 -15922498.28347  21786805.0804   21786811.2644   21786805.298
        50.0004         45.0004
   -135219.60347    -88292.31246  24328032.2884   24328041.8594   24328032.043
        43.0004         38.0004
 -14172244.03748 -11030899.76247  21045108.6974   21045115.0564   21045108.969
        51.0004         46.0004
 -12462938.11748  -9652575.61747  21774795.1764   21774800.1764   21774795.950
        50.0004         46.0004
  -4219676.76146  -3247028.91546  24961974.3334   24961983.3824   24961972.877
        41.0004         36.0004
 -12027026.40148  -9371924.65147  21761148.6074   21761156.5354   21761149.173
        50.0004         45.0004
  -8559288.26848  -6661253.25148  21036736.7724   21036742.5084   21036736.463
        53.0004         48.0004
  -8188784.64547  -6318113.20746  23808230.1984   23808238.7834   23808228.760
        45.0004         41.0004
 -29107326.53648 -22625719.84448  20350885.7224   20350891.8944   20350885.232
        53.0004         49.0004
 14  5  9  1 57  0.0000000  0 10G07G10G26G08G02G05G28G09G17G04
  -7695074.55747  -5965399.21546  23226439.0374   23226445.5454   23226439.749
        45.0004         41.0004
 -20515742.24648 -15975533.73447  21773853.6994   21773860.3404   21773853.474
        50.0004         45.0004
   -118867.13247    -75550.05446  24331144.9214   24331152.1184   24331144.763
        42.0004         38.0004
 -14090760.09548 -10967405.79847  21060614.8024   21060620.7354   21060614.960
        51.0004         46.0004
 -12498651.41848  -9680404.18447  21767999.3094   21768004.5314   21767999.705
        50.0004         46.0004
  -4306703.45846  -3314841.67646  24945414.0424   24945421.9984   24945411.857
        41.0004         37.0004
 -12077156.49248  -9410986.99447  21751608.7924   21751616.9774   21751609.368
        50.0004         45.0004
  -8487197.91848  -6605078.96548  21050454.4304   21050460.4414   21050454.525
        53.0004         48.0004
  -8166873.29447  -6301039.39546  23812399.6984   23812408.2474   23812399.315
        45.0004         41.0004
 -29088358.01548 -22610939.20748  20354494.9604   20354501.8344   20354494.827
        53.0004         49.0004
 14  5  9  1 57 30.0000000  0 10G07G10G26G08G02G05G28G09G17G04
  -7590504.82847  -5883916.37546  23246339.5364   23246344.8524   23246338.773
        45.0004         41.0004
 -20583665.33448 -16028460.81647  21760927.7754   21760934.8834   21760928.217
        50.0004         45.0004
   -102540.16847    -62827.67846  24334250.7734   24334259.5684   24334250.360
        42.0004         38.0004
 -14008874.42148 -10903598.78947  21076197.2004   21076203.3794   21076197.291
        51.0004         46.0004
 -12533920.75548  -9707886.79447  21761288.2424   21761292.8514   21761288.440
        50.0004         46.0004
  -4393904.89146  -3382790.56846  24928817.9564   24928828.2054   24928818.718
        41.0004         37.0004
 -12127056.93248  -9449870.38047  21742113.3794   21742122.1184   21742113.463
        50.0004         45.0004
  -8414774.26848  -6548644.95448  21064236.6624   21064242.3524   21064236.597
        52.0004         48.0004
  -8145190.73147  -6284143.85146  23816525.7094   23816534.6624   23816525.320
        45.0004         41.0004
 -29068880.60748 -22595762.03548  20358201.2244   20358208.4204   20358201.033
        53.0004         49.0004
 14  5  9  1 58  0.0000000  0 10G07G10G26G08G02G05G28G09G17G04
  -7485860.53947  -5802375.43446  23266252.3584   23266257.8534   23266252.242
        45.0004         41.0004
 -20651443.22748 -16081274.75447  21748029.8394   21748036.4644   21748030.505
        50.0004         45.0004
    -86237.72747    -50124.39646  24337353.6074   24337362.4404   24337353.324
        42.0004         38.0004
 -13926586.95248 -10839478.69447  21091855.8524   21091861.9804   21091855.901
        51.0004         46.0004
 -12568742.74848  -9735020.82847  21754661.8294   21754666.6164   21754662.233
        51.0004         46.0004
  -4481276.12446  -3450871.80246  24912193.1204   24912200.4554   24912191.978
        41.0004         37.0004
 -12176721.69748  -9488570.13047  21732661.5214   21732670.3324   21732662.445
        50.0004         45.0004
  -8342017.07148  -6491951.03648  21078081.2704   21078087.5884   21078081.438
        52.0004         48.0004
  -8123734.43047  -6267424.61346  23820609.3604   23820617.3374   23820608.755
        46.0004         41.0004
 -29048892.47948 -22580186.89548  20362005.4334   20362012.1434   20362005.065
        53.0004         49.0004
