     2.11           OBSERVATION DATA    G (GPS)             RINEX VERSION / TYPE
teqc  2013Mar15     gpsops              20140529 00:23:12UTCPGM / RUN BY / DATE
Linux 2.4.21-27.ELsmp|Opteron|gcc -static|Linux x86_64|=+   COMMENT
BIT 2 OF LLI FLAGS DATA COLLECTED UNDER A/S CONDITION       COMMENT
GLPS                                                        MARKER NAME
42005M002                                                   MARKER NUMBER
GGN                 JPL                                     OBSERVER / AGENCY
ZR220013847         ASHTECH UZ-12       CQ00                REC # / TYPE / VERS
CR519992104         ASH701945B_M    SCIT                    ANT # / TYPE
   -33801.4662 -6377516.5323   -82154.3508                  APPROX POSITION XYZ
        0.0083        0.0000        0.0000                  ANTENNA: DELTA H/E/N
     1     1                                                WAVELENGTH FACT L1/2
     7    L1    L2    P1    P2    C1    S1    S2            # / TYPES OF OBSERV
    30.0000                                                 INTERVAL
                                                            COMMENT
This data is provided as a public service by NASA/JPL.      COMMENT
No warranty is expressed or implied regarding suitability   COMMENT
for use.  For further information, contact:                 COMMENT
Dave Stowers, NASA/JPL m/s 238-600                          COMMENT
4800 Oak Grove Drive, Pasadena CA 91109 USA                 COMMENT
                                                            COMMENT
Forced Modulo Decimation to 30 seconds                      COMMENT
 SNR is mapped to RINEX snr flag value [0-9]                COMMENT
  L1 & L2: min(max(int(snr_dBHz/6), 0), 9)                  COMMENT
pseudorange smoothing corrections not applied               COMMENT
  2014     5    28     0     0    0.0000000     GPS         TIME OF FIRST OBS
                                                            END OF HEADER
 14  5 28  0  0  0.0000000  0 10G30G26G07G02G08G04G28G10G20G17
  -9924848.37949  -7724352.60248  20445881.0914   20445888.3214   20445881.006
        54.0004         50.0004
  -1007533.52747   -771602.93146  24118019.3314   24118028.1624   24118019.602
        42.0004         38.0004
 -15473757.19148 -12031839.53047  21776572.0304   21776576.4324   21776571.532
        50.0004         45.0004
  -8693446.59848  -6719161.15847  22492076.3634   22492080.9294   22492076.881
        48.0004         43.0004
 -24911155.60748 -19370848.53548  20210669.4434   20210675.1384   20210669.524
        53.0004         48.0004
 -27344359.38648 -21255877.33548  20398956.4564   20398962.1964   20398956.100
        53.0004         49.0004
  -8831764.50947  -6848936.21247  22591725.3234   22591730.4304   22591725.641
        47.0004         43.0004
 -13962155.79347 -10873614.54547  22855391.4464   22855398.8924   22855392.187
        46.0004         42.0004
 -10566932.97646  -8166777.06845  24050779.6964   24050787.5504   24050777.344
        38.0004         34.0004
 -10025225.98347  -7764247.87747  23379873.3524   23379881.5524   23379872.918
        47.0004         43.0004
 14  5 28  0  0 30.0000000  0 10G30G26G07G02G08G04G28G10G20G17
  -9885925.18349  -7694022.81848  20453288.3274   20453295.2664   20453288.254
        54.0004         50.0004
   -996245.04647   -762806.60046  24120167.4364   24120177.3464   24120167.414
        42.0004         38.0004
 -15383798.90548 -11961742.12847  21793690.9304   21793694.8464   21793690.315
        50.0004         45.0004
  -8760326.34748  -6771275.16647  22479349.8354   22479354.0514   22479349.804
        48.0004         43.0004
 -24864619.61248 -19334586.69848  20219525.0774   20219530.5894   20219525.385
        53.0004         48.0004
 -27368520.17248 -21274703.89148  20394358.8564   20394364.3684   20394358.707
        53.0004         49.0004
  -8890906.07847  -6895020.44347  22580470.7764   22580476.9774   22580471.229
        47.0004         43.0004
 -14033160.80547 -10928943.01647  22841880.1364   22841887.2324   22841880.312
        46.0004         42.0004
 -10527418.24846  -8135986.32445  24058296.6064   24058307.2214   24058298.299
        39.0004         34.0004
  -9988204.34347  -7735399.83347  23386918.8784   23386927.0984   23386918.039
        47.0004         43.0004
 14  5 28  0  1  0.0000000  0 10G30G26G07G02G08G04G28G10G20G17
  -9846485.80849  -7663290.81448  20460792.8224   20460800.1134   20460793.031
        54.0004         50.0004
   -984804.78747   -753892.00446  24122344.9334   24122353.8844   24122344.269
        42.0004         38.0004
 -15293532.95648 -11891404.99347  21810868.3014   21810872.3554   21810867.064
        50.0004         45.0004
  -8826835.94548  -6823100.75247  22466694.3014   22466697.6204   22466693.140
        48.0004         43.0004
 -24817485.13648 -19297858.51148  20228493.8004   20228500.1724   20228494.459
        53.0004         48.0004
 -27392128.86448 -21293100.24148  20389866.5904   20389871.9454   20389865.706
        53.0004         49.0004
  -8950039.17347  -6941098.05447  22569218.4444   22569224.2254   22569218.558
        47.0004         43.0004
 -14104226.86847 -10984319.06247  22828355.9624   22828362.3224   22828356.660
        46.0004         42.0004
 -10487560.95246  -8104928.65545  24065882.3724   24065892.4614   24065881.216
        38.0004         34.0004
  -9951329.45747  -7706666.13847  23393934.7564   23393944.5964   23393935.122
        47.0004         43.0004
 14  5 28  0  1 30.0000000  0 10G30G26G07G02G08G04G28G10G20G17
  -9806535.11749  -7632160.38148  20468395.3554   20468402.7164   20468395.526
        54.0004         50.0004
   -973218.26447   -744863.43846  24124550.1784   24124559.7184   24124549.591
        43.0004         38.0004
 -15202965.65548 -11820833.03847  21828101.7274   21828106.3244   21828101.158
        50.0004         45.0004
  -8892976.98948  -6874639.14747  22454107.5434   22454111.5414   22454107.807
        48.0004         43.0004
 -24769757.65748 -19260668.24748  20237576.6764   20237581.8784   20237576.792
        53.0004         48.0004
 -27415188.01548 -21311068.38348  20385478.1864   20385483.7734   20385477.918
        53.0004         49.0004
  -9009164.58647  -6987169.67747  22557967.5464   22557974.1504   22557966.988
        47.0004         43.0004
 -14175355.34747 -11039743.73247  22814821.0004   22814827.5354   22814821.770
        46.0004         42.0004
 -10447364.96446                  24073529.7234                   24073531.888
        39.0004
  -9914605.85747  -7678050.32247  23400924.4614   23400933.1124   23400922.764
        47.0004         42.0004
 14  5 28  0  2  0.0000000  0 10G30G26G07G02G08G04G28G10G20G17
  -9766071.04349  -7600629.90848  20476095.5544   20476102.6074   20476095.480
        54.0004         50.0004
   -961483.86147   -735719.62546  24126782.8294   24126791.9014   24126782.004
        43.0004         38.0004
 -15112096.11048 -11750025.56847  21845393.5534   21845398.3854   21845393.480
        50.0004         45.0004
  -8958743.92748  -6925886.03947  22441592.6284   22441596.1634   22441592.554
        48.0004         44.0004
 -24721435.16748 -19223014.32848  20246771.7964   20246777.6414   20246772.167
        53.0004         48.0004
 -27437693.48548 -21328605.07848  20381195.3624   20381200.9404   20381195.133
        53.0004         49.0004
  -9068275.94747  -7033230.35947  22546718.7164   22546724.0214   22546717.889
        47.0004         43.0004
 -14246540.06147 -11095212.22847  22801275.5314   22801280.7834   22801275.434
        46.0004         42.0004
                                                                  24081246.270

  -9878031.33847  -7649550.68047  23407884.0104   23407892.7784   23407882.443
        47.0004         42.0004
 14  5 28  0  2 30.0000000  0 10G30G26G07G02G08G04G28G10G20G17
  -9725095.60849  -7568700.97248  20483892.9444   20483900.1364   20483892.769
        54.0004         50.0004
   -949604.13147   -726462.59446  24129043.6704   24129052.0894   24129043.010
        43.0004         38.0004
 -15020927.74948 -11678985.24447  21862742.4064   21862747.6134   21862741.676
        50.0004         45.0004
  -9024135.38948  -6976840.35247  22429147.4384   22429153.2844   22429148.630
        48.0004         44.0004
 -24672519.96748 -19184898.56648  20256080.2774   20256085.4494   20256080.492
        53.0004         48.0004
 -27459645.14948 -21345710.24048  20377018.2054   20377023.6974   20377017.882
        53.0004         49.0004
  -9127370.99347  -7079278.32447  22535471.8074   22535478.0694   22535472.735
        47.0004         43.0004
 -14317778.86847 -11150722.89247  22787718.0084   22787725.5584   22787719.090
        47.0004         42.0004
 -10365943.75546  -8010161.81645  24089025.1574   24089032.7194   24089026.918
        39.0004         34.0004
  -9841607.63647  -7621168.55747  23414813.7664   23414823.1964   23414814.161
        47.0004         42.0004
 14  5 28  0  3  0.0000000  0 10G30G26G07G02G08G04G28G10G20G17
  -9683612.21349  -7536376.22148  20491786.9514   20491794.0304   20491786.960
        54.0004         50.0004
   -937583.04547   -717095.40546  24131330.4674   24131339.3044   24131329.719
        43.0004         38.0004
 -14929465.03048 -11607715.55947  21880147.4284   21880152.3124   21880147.064
        49.0004         45.0004
  -9089151.44748  -7027502.14047  22416776.9824   22416779.1924   22416776.237
        48.0004         44.0004
 -24623016.06148 -19146324.06348  20265500.5314   20265506.1634   20265500.607
        53.0004         48.0004
 -27481044.02648 -21362384.66148  20372946.1494   20372951.8584   20372945.796
        53.0004         49.0004
  -9186448.56547  -7125312.68947  22524230.2754   22524236.9554   22524230.585
        47.0004         43.0004
 -14389071.59947 -11206275.56047  22774151.6344   22774158.6824   22774152.152
        47.0004         42.0004
 -10324719.91746  -7978039.30545  24096872.3844   24096878.9244   24096869.989
        39.0004         34.0004
  -9805337.65247  -7592906.21347  23421716.7014   23421725.8334   23421716.024
        47.0004         42.0004
 14  5 28  0  3 30.0000000  0 10G30G26G07G02G08G04G28G10G20G17
  -9641622.13049  -7503656.64448  20499777.0674   20499784.5724   20499777.257
        54.0004         50.0004
   -925422.30747   -707619.38946  24133643.7774   24133653.8414   24133644.477
        43.0004         38.0004
 -14837710.83748 -11536218.74547  21897607.8894   21897612.2294   21897607.027
        49.0004         45.0004
  -9153790.39348  -7077870.07547  22404476.1154   22404479.9714   22404476.257
        48.0004         44.0004
 -24572925.12748 -19107292.13748  20275032.4494   20275038.3614   20275032.696
        53.0004         48.0004
 -27501889.57948 -21378627.91348  20368979.0224   20368985.0674   20368978.815
        53.0004         49.0004
  -9245505.30747  -7171330.81147  22512992.2374   22512998.9024   22512992.521
        47.0004         43.0004
 -14460415.41147 -11261868.03647  22760575.4734   22760581.4074   22760575.414
        47.0004         42.0004
 -10283153.71146  -7945650.01545  24104780.4444   24104786.5684   24104781.446
        39.0004         34.0004
  -9769222.69447  -7564764.67547  23428589.2364   23428598.0094   23428588.429
        47.0004         42.0004
 14  5 28  0  4  0.0000000  0 10G30G26G07G02G08G04G28G10G20G17
  -9599126.40649  -7470543.06848  20507864.0374   20507871.3544   20507864.039
        54.0004         50.0004
   -913123.46847   -698035.76846  24135985.2224   24135994.9384   24135983.887
        43.0004         38.0004
 -14745667.54048 -11464496.65947  21915123.0474   21915127.6244   21915122.170
        49.0004         45.0004
  -9218049.71248  -7127942.19247  22392248.1974   22392251.7854   22392248.442
        48.0004         44.0004
 -24522248.36448 -19067803.72048  20284676.1034   20284681.3534   20284676.180
        53.0004         48.0004
 -27522180.40348 -21394438.91748  20365118.1964   20365123.6464   20365117.798
        53.0004         49.0004
  -9304537.91947  -7217330.13647  22501757.9944   22501763.5904   22501758.723
        47.0004         43.0004
 -14531807.51847 -11317498.15347  22746989.9934   22746996.4914   22746990.324
        47.0004         42.0004
 -10241244.12846  -7912993.13245  24112753.3094   24112762.8914   24112754.121
        38.0004         34.0004
  -9733263.73347  -7536744.68447  23435431.6734   23435442.2314   23435430.810
        46.0004         42.0004
 14  5 28  0  4 30.0000000  0 10G30G26G07G02G08G04G28G10G20G17
  -9556126.20249  -7437036.38548  20516046.5304   20516053.5654   20516046.500
        54.0004         50.0004
   -900688.13347   -688345.77846  24138350.9444   24138360.4924   24138351.129
        43.0004         38.0004
 -14653337.25148 -11392550.94147  21932692.9054   21932697.7234   21932691.944
        49.0004         45.0004
  -9281927.18748  -7177716.77147  22380091.3854   22380096.4544   22380092.141
        48.0004         44.0004
 -24470987.39448 -19027860.07948  20294430.7654   20294435.7994   20294430.962
        53.0004         48.0004
 -27541915.85948 -21409817.16448  20361362.4514   20361368.2744   20361362.343
        53.0004         49.0004
  -9363543.20047  -7263308.16047  22490530.2034   22490535.5344   22490530.440
        47.0004         43.0004
 -14603244.90247 -11373163.54747  22733395.8104   22733401.0284   22733395.915
        47.0004         42.0004
 -10198990.29046  -7880068.03545  24120797.7414   24120802.0654   24120797.523
        38.0004         34.0004
  -9697461.30147  -7508846.66747  23442244.3284   23442253.5914   23442244.279
        46.0004         42.0004
 14  5 28  0  5  0.0000000  0 10G30G26G07G02G08G04G28G10G20G17
  -9512627.12949  -7403140.97548  20524324.2984   20524331.0494   20524324.055
        54.0004         50.0004
   -888122.24147   -678554.07246  24140741.5164   24140751.0754   24140741.754
        42.0004         38.0004
 -14560726.85848 -11320386.95847  21950315.7624   21950321.2134   21950315.095
        49.0004         45.0004
  -9345424.44148  -7227195.08547  22368008.4814   22368013.6574   22368008.571
        48.0004         44.0004
 -24419148.25148 -18987465.91148  20304295.4924   20304300.3044   20304295.540
        53.0004         48.0004
 -27561099.31748 -21424765.27948  20357711.6584   20357717.9344   20357711.561
        53.0004         49.0004
  -9422522.19947  -7309265.69347  22479307.4084   22479312.0134   22479306.925
        47.0004         43.0004
 -14674729.08447 -11428865.41347  22719793.1674   22719798.0874   22719793.597
        47.0004         42.0004
 -10156396.10646  -7846877.67245  24128902.5654   24128909.1494   24128900.952
        38.0004         33.0004
  -9661820.53047  -7481074.62347  23449027.2344   23449035.4774   23449026.293
        46.0004         42.0004
 14  5 28  0  5 30.0000000  0 10G30G26G07G02G08G04G28G10G20G17
  -9468626.96849  -7368855.10048  20532697.0204   20532704.0314   20532697.060
        54.0004         50.0004
   -875424.12847   -668659.31046  24143159.0074   24143168.5204   24143158.658
        42.0004         38.0004
 -14467835.41748 -11248003.97347  21967991.9064   21967996.3964   21967991.906
        49.0004         45.0004
  -9408536.65948  -7276373.36147  22355999.0794   22356002.2664   22355999.479
        48.0004         44.0004
 -24366729.16348 -18946619.83948  20314270.2934   20314275.7544   20314270.628
        53.0004         48.0004
 -27579726.41048 -21439279.86048  20354167.5714   20354173.0994   20354166.978
        53.0004         49.0004
  -9481468.13047  -7355197.46147  22468088.6054   22468096.8814   22468090.006
        47.0004         43.0004
 -14746253.56847 -11484598.68647  22706180.6564   22706189.3174   22706182.024
        47.0004         42.0004
 -10113457.19046  -7813418.72045  24137071.5914   24137083.4674   24137073.213
        38.0004         34.0004
  -9626338.71647  -7453426.45247  23455778.3874   23455787.7354   23455778.279
        46.0004         42.0004
 14  5 28  0  6  0.0000000  0 10G30G26G07G02G08G04G28G10G20G17
  -9424129.58049  -7334181.78348  20541164.7664   20541171.7524   20541164.565
        54.0004         50.0004
   -862598.07347   -658664.87746  24145599.3894   24145608.2024   24145598.918
        42.0004         38.0004
 -14374668.21648 -11175406.11547  21985721.4714   21985725.3414   21985721.096
        49.0004         45.0004
  -9471264.25648  -7325251.93847  22344061.5314   22344066.4194   22344062.023
        48.0004         44.0004
 -24313734.50648 -18905325.26948  20324354.7574   20324360.1274   20324354.894
        53.0004         48.0004
 -27597798.88848 -21453362.27948  20350728.4464   20350733.7514   20350727.746
        53.0004         49.0004
  -9540380.10048  -7401102.76747  22456878.5624   22456886.1474   22456878.978
        48.0004         43.0004
 -14817817.97047 -11540363.06647  22692563.9614   22692569.7584   22692564.570
        47.0004         42.0004
 -10070175.36246  -7779692.60945  24145310.6904   24145315.7844   24145308.058
        38.0004         33.0004
  -9591019.63947  -7425905.10347  23462500.1124   23462507.9684   23462499.362
        46.0004         42.0004
 14  5 28  0  6 30.0000000  0 10G30G26G07G02G08G04G28G10G20G17
  -9379134.62549  -7299120.74348  20549726.8394   20549733.8974   20549726.875
        54.0004         50.0004
   -849643.91747   -648570.60546  24148063.1824   24148072.9474   24148062.925
        42.0004         38.0004
 -14281225.59748 -11102593.63347  22003502.3214   22003507.8874   22003502.194
        49.0004         44.0004
  -9533603.43548  -7373827.85447  22332199.4114   22332203.5664   22332199.619
        48.0004         44.0004
 -24260164.27748 -18863582.20648  20334548.5614   20334553.9094   20334548.996
        53.0004         48.0004
 -27615314.28948 -21467010.61248  20347395.2674   20347401.0214   20347394.523
        53.0004         49.0004
  -9599253.08448  -7446977.70647  22445675.9144   22445683.0624   22445676.113
        48.0004         43.0004
 -14889417.91947 -11596155.14547  22678937.5594   22678944.0764   22678939.046
        47.0004         42.0004
 -10026548.35646  -7745697.44645  24153609.0924   24153618.1004   24153608.610
        38.0004         33.0004
  -9555862.25047  -7398509.73747  23469190.0174   23469199.0924   23469189.536
        46.0004         42.0004
 14  5 28  0  7  0.0000000  0 10G30G26G07G02G08G04G28G10G20G17
  -9333649.19149  -7263677.52048  20558382.4464   20558389.6724   20558382.172
        54.0004         49.0004
   -836569.21947   -638382.43446  24150551.5044   24150561.5334   24150551.334
        42.0004         37.0004
 -14187516.21348 -11029573.30147  22021335.6554   22021339.8154   22021334.735
        49.0004         44.0004
  -9595557.69848  -7422103.82747  22320409.5684   22320414.0904   22320410.103
        48.0004         44.0004
 -24206026.10648 -18821396.58548  20344850.8094   20344856.5164   20344851.275
        53.0004         48.0004
 -27632277.65648 -21480228.78548  20344167.1224   20344172.8064   20344166.823
        53.0004         49.0004
  -9658089.76547  -7492824.35247  22434478.7834   22434485.1964   22434479.656
        47.0004         43.0004
 -14961056.16847 -11651977.06647  22665306.4824   22665314.0334   22665306.785
        47.0004         42.0004
  -9982581.51656  -7711437.52355  24161974.5055   24161983.9015   24161977.097
        38.0004         33.0004
  -9520872.92047  -7371245.31947  23475848.0424   23475856.8794   23475847.889
        47.0004         42.0004
 14  5 28  0  7 30.0000000  0 10G30G26G07G02G08G04G28G10G20G17
  -9287668.98549  -7227848.75548  20567132.1274   20567139.2014   20567132.237
        54.0004         49.0004
   -823370.05847   -628097.26446  24153063.6904   24153072.2114   24153063.044
        42.0004         38.0004
 -14093536.68648 -10956342.45347  22039218.4284   22039223.1744   22039218.443
        49.0004         44.0004
  -9657119.59848  -7470074.06747  22308695.0144   22308699.1394   22308694.877
        48.0004         44.0004
 -24151315.79648 -18778765.14748  20355261.7234   20355267.1014   20355262.170
        53.0004         48.0004
 -27648682.57748 -21493011.81248  20341045.3454   20341050.6344   20341045.096
        53.0004         49.0004
  -9716881.10047  -7538635.66747  22423293.3744   22423297.7204   22423291.828
        47.0004         43.0004
 -15032724.50147 -11707822.42647  22651667.4034   22651675.1914   22651668.355
        47.0004         42.0004
  -9938268.09346  -7676907.55845  24170412.1144   24170416.0774   24170409.393
        38.0004         33.0004
  -9486046.70447  -7344108.01447  23482476.3844   23482484.3924   23482475.111
        47.0004         42.0004
 14  5 28  0  8  0.0000000  0 10G30G26G07G02G08G04G28G10G20G17
  -9241199.64249  -7191638.84848  20575975.0364   20575982.3834   20575974.745
        54.0004         49.0004
   -810052.32947   -617719.70746  24155597.0704   24155606.4294   24155597.366
        42.0004         38.0004
 -13999293.85648 -10882906.43547  22057151.8254   22057157.4174   22057151.544
        49.0004         44.0004
  -9718291.32448  -7517740.27747  22297054.3904   22297059.6944   22297054.528
        48.0004         44.0004
 -24096039.47448 -18735692.65448  20365780.2424   20365786.0314   20365780.674
        53.0004         48.0004
 -27664532.63548 -21505362.47848  20338029.2494   20338034.8454   20338028.643
        53.0004         49.0004
  -9775628.31447  -7584412.60047  22412112.8344   22412118.5374   22412112.633
        47.0004         43.0004
 -15104424.29147 -11763692.30347  22638024.6234   22638030.4184   22638024.547
        47.0004         42.0004
  -9893611.94946  -7642110.51045  24178908.2994   24178916.7454   24178907.076
        38.0004         34.0004
  -9451389.23847  -7317102.20147  23489070.1864   23489079.4534   23489070.479
        47.0004         42.0004
 14  5 28  0  8 30.0000000  0 10G30G26G07G02G08G04G28G10G20G17
  -9194242.80149  -7155049.07348  20584910.6574   20584917.6144   20584910.452
        54.0004         49.0004
   -796618.01847   -607251.30646  24158154.0424   24158163.2724   24158153.810
        43.0004         38.0004
 -13904790.59748 -10809267.48547  22075135.8904   22075140.1474   22075135.618
        49.0004         44.0004
  -9779071.03948  -7565101.03047  22285488.9184   22285492.2054   22285488.479
        48.0004         44.0004
 -24040199.21748 -18692180.73648  20376406.7024   20376411.8144   20376406.927
        53.0004         48.0004
 -27679827.24248 -21517280.32048  20335118.9514   20335124.3404   20335118.316
        53.0004         49.0004
  -9834327.89847  -7630152.42047  22400941.7054   22400948.3944   22400942.400
        47.0004         43.0004
 -15176152.82147 -11819584.57247  22624373.2654   22624380.5364   22624374.549
        47.0004         42.0004
  -9848612.72246  -7607046.12545  24187470.8754   24187475.5764   24187469.309
        38.0004         34.0004
  -9416901.30547  -7290228.50947  23495632.7944   23495643.0234   23495633.371
        47.0004         42.0004
 14  5 28  0  9  0.0000000  0 10G30G26G07G02G08G04G28G10G20G17
  -9146799.47049  -7118080.21048  20593938.6314   20593945.8144   20593938.659
        54.0004         49.0004
   -783068.34247   -596693.01246  24160732.2054   24160741.8314   24160732.794
        43.0004         38.0004
 -13810028.99448 -10735427.25347  22093167.9404   22093172.6784   22093167.795
        49.0004         44.0004
  -9839456.28748  -7612154.39447  22273997.0494   22274000.6024   22273997.509
        48.0004         44.0004
 -23983796.63648 -18648230.64048  20387139.6194   20387145.2114   20387139.953
        53.0004         48.0004
 -27694565.70248 -21528764.80548  20332314.0054   20332319.4384   20332313.625
        53.0004         49.0004
  -9892976.30148  -7675852.35447  22389781.9854   22389788.5754   22389781.847
        48.0004         43.0004
 -15247906.56947 -11875496.48647  22610719.9864   22610726.7914   22610720.960
        47.0004         42.0004
  -9803269.43346  -7571713.65445  24196097.8384   24196105.2924   24196098.467
        38.0004         33.0004
  -9382583.36947  -7263487.27047  23502164.3524   23502172.4074   23502163.788
        47.0004         42.0004
 14  5 28  0  9 30.0000000  0 10G30G26G07G02G08G04G28G10G20G17
  -9098870.72649  -7080733.10948  20603059.3374   20603066.5034   20603059.362
        54.0004         49.0004
   -769404.84847   -586046.02146  24163332.1904   24163341.1554   24163331.828
        43.0004         38.0004
 -13715011.27948 -10661387.43047  22111249.2624   22111254.5844   22111248.942
        49.0004         44.0004
  -9899444.79748  -7658898.60947  22262582.0964   22262585.4524   22262581.830
        48.0004         44.0004
 -23926832.96048 -18603843.32948  20397979.1534   20397984.7984   20397979.416
        52.0004         48.0004
 -27708746.58948 -21539814.81248  20329615.2394   20329620.8684   20329614.865
        53.0004         49.0004
  -9951569.79548  -7721509.50047  22378631.4334   22378637.9014   22378631.961
        48.0004         43.0004
 -15319682.48147 -11931425.67247  22597061.0794   22597068.0754   22597061.713
        47.0004         43.0004
  -9757581.11346  -7536112.30445  24204793.6234   24204802.8774   24204792.774
        38.0004         34.0004
  -9348435.51247  -7236878.55847  23508662.0664   23508670.9904   23508661.900
        47.0004         42.0004
 14  5 28  0 10  0.0000000  0 10G30G26G07G02G08G04G28G10G20G17
  -9050461.14649  -7043011.32648  20612271.2644   20612278.4884   20612271.204
        54.0004         49.0004
   -755632.12447   -575313.92146  24165953.4144   24165962.0404   24165953.148
        43.0004         38.0004
 -13619742.58548 -10587152.01747  22129378.4894   22129383.3984   22129377.940
        49.0004         44.0004
  -9959037.70948  -7705334.57447  22251241.5344   22251246.4864   22251241.527
        49.0004         44.0004
 -23869313.20748 -18559022.71148  20408924.5464   20408930.6594   20408925.391
        52.0004         48.0004
 -27722372.48648 -21550432.36748  20327022.0924   20327028.1234   20327022.011
        53.0004         49.0004
 -10010108.12348  -7767123.67747  22367492.0394   22367498.4724   22367492.457
        48.0004         43.0004
 -15391480.41847 -11987372.02347  22583398.8144   22583405.3474   22583398.491
        47.0004         42.0004
  -9711550.33646  -7500244.11345  24213552.6294   24213562.8524   24213552.122
        38.0004         34.0004
  -9314461.73247  -7210405.48847  23515127.4154   23515136.1414   23515126.258
        46.0004         42.0004
 14  5 28  0 10 30.0000000  0 10G30G26G07G02G08G04G28G10G20G17
  -9001570.24749  -7004914.48748  20621575.3454   20621581.9084   20621574.893
        54.0004         49.0004
   -741750.07147   -564496.62546  24168594.0924   24168604.3144   24168594.578
        43.0004         38.0004
 -13524223.73348 -10512721.69347  22147555.2554   22147560.0504   22147554.952
        49.0004         44.0004
 -10018231.19148  -7751459.29647  22239977.8844   22239982.1184   22239978.007
        49.0004         44.0004
 -23811237.75748 -18513769.08248  20419976.2784   20419982.0274   20419976.521
        52.0004         48.0004
 -27735441.16348 -21560615.72248  20324535.6984   20324541.2284   20324535.116
        53.0004         49.0004
 -10068586.17748  -7812690.88047  22356363.7834   22356370.3194   22356364.336
        48.0004         43.0004
 -15463295.59347 -12043331.81447  22569733.3774   22569739.0304   22569733.237
        47.0004         43.0004
  -9665174.66256  -7464107.14355  24222378.5075   24222381.0195   24222376.031
        38.0004         33.0004
  -9280661.05047  -7184067.31247  23521559.6184   23521568.2114   23521558.438
        46.0004         42.0004
 14  5 28  0 11  0.0000000  0 10G30G26G07G02G08G04G28G10G20G17
  -8952204.27349  -6966447.46848  20630968.9504   20630975.7194   20630968.926
        54.0004         49.0004
   -727765.14547   -553599.18446  24171256.2284   24171264.7064   24171255.224
        43.0004         38.0004
 -13428462.02748 -10438102.14147  22165778.5484   22165782.9124   22165777.643
        49.0004         44.0004
 -10077028.08448  -7797274.98347  22228789.1944   22228791.6084   22228788.959
        49.0004         44.0004
 -23752613.17848 -18468087.56248  20431132.0534   20431138.0074   20431132.592
        52.0004         48.0004
 -27747956.57148 -21570367.95448  20322153.8184   20322159.4574   20322153.505
        53.0004         49.0004
 -10127005.23548  -7858212.09647  22345246.1214   22345252.2514   22345246.838
        48.0004         43.0004
 -15535129.81447 -12099306.43947  22556062.9744   22556068.4524   22556063.693
        47.0004         43.0004
  -9618457.99346  -7427704.54645  24231267.4604   24231275.9924   24231266.161
        38.0004         33.0004
  -9247038.50247  -7157867.90846  23527958.5544   23527965.3174   23527956.712
        46.0004         41.0004
 14  5 28  0 11 30.0000000  0 10G30G26G07G02G08G04G28G10G20G17
  -8902360.27949  -6927607.95448  20640453.9794   20640460.5554   20640453.897
        54.0004         49.0004
   -713674.49947   -542619.35846  24173937.6024   24173946.3774   24173937.249
        43.0004         38.0004
 -13332455.53748 -10363291.83647  22184047.1594   22184051.5024   22184046.894
        48.0004         44.0004
 -10135421.85948  -7842776.55347  22217676.4364   22217679.6524   22217677.029
        49.0004         44.0004
 -23693436.70848 -18421975.99548  20442393.2174   20442398.5134   20442393.258
        52.0004         48.0004
 -27759914.02048 -21579685.42148  20319878.0724   20319884.0164   20319878.298
        53.0004         49.0004
 -10185357.50248  -7903681.27847  22334142.3244   22334149.7904   22334142.899
        48.0004         43.0004
 -15606975.81647 -12155290.24847  22542391.4474   22542397.0224   22542391.472
        47.0004         43.0004
  -9571395.75546  -7391032.59345  24240224.2094   24240230.9004   24240223.217
        38.0004         34.0004
  -9213590.49647  -7131804.52846  23534322.9724   23534331.9924   23534321.410
        46.0004         41.0004
 14  5 28  0 12  0.0000000  0 10G30G26G07G02G08G04G28G10G20G17
  -8852043.13549  -6888399.76048  20650028.9964   20650036.0074   20650028.853
        54.0004         49.0004
   -699483.24447   -531561.12846  24176637.2054   24176646.5544   24176636.848
        43.0004         38.0004
 -13236210.11448 -10288295.35747  22202362.1004   22202366.6074   22202361.857
        48.0004         44.0004
 -10193414.30148  -7887965.40247  22206640.9504   22206644.8594   22206641.042
        49.0004         44.0004
 -23633713.88148 -18375438.69448  20453757.9204   20453763.7374   20453758.261
        52.0004         48.0004
 -27771316.17348 -21588570.18748  20317708.7704   20317714.0934   20317708.181
        53.0004         49.0004
 -10243642.84148  -7949098.31747  22323051.8194   22323057.6414   22323051.834
        48.0004         43.0004
 -15678833.79147 -12211283.38347  22528716.3204   22528722.1954   22528717.472
        47.0004         43.0004
  -9523990.56646  -7354093.45845  24249241.8094   24249249.3454   24249242.995
        38.0004         33.0004
  -9180321.25347  -7105880.43246  23540654.2634   23540661.5404   23540652.676
        46.0004         41.0004
 14  5 28  0 12 30.0000000  0 10G30G26G07G02G08G04G28G10G20G17
  -8801253.74149  -6848823.57848  20659693.9344   20659700.7974   20659693.699
        54.0004         49.0004
   -685192.45447   -520425.32746  24179357.2594   24179365.9864   24179356.624
        43.0004         38.0004
 -13139727.68348 -10213114.22247  22220722.3524   22220726.1964   22220721.631
        48.0004         44.0004
 -10251002.61048  -7932839.33447  22195681.1094   22195685.5654   22195682.080
        49.0004         44.0004
 -23573446.13648 -18328476.78048  20465226.8784   20465232.0554   20465227.019
        52.0004         48.0004
 -27782161.67048 -21597021.19448  20315644.6274   20315649.9904   20315644.291
        53.0004         49.0004
 -10301857.17248  -7994460.02347  22311974.2284   22311978.8324   22311973.967
        48.0004         43.0004
 -15750700.14348 -12267283.04747  22515042.0044   22515047.0864   22515042.036
        48.0004         43.0004
  -9476241.42146  -7316886.31545  24258330.1954   24258337.0484   24258329.526
        37.0004         33.0004
  -9147230.79947  -7080095.64946  23546949.6334   23546959.4664   23546949.652
        46.0004         41.0004
 14  5 28  0 13  0.0000000  0 10G30G26G07G02G08G04G28G10G20G17
  -8749995.18449  -6808881.81148  20669448.0624   20669454.9224   20669448.077
        54.0004         49.0004
   -670805.31147   -509214.45346  24182093.8414   24182103.3814   24182094.692
        43.0004         38.0004
 -13043012.28148 -10137751.52047  22239126.4174   22239131.2014   22239125.952
        48.0004         44.0004
 -10308186.47348  -7977398.11847  22184800.9504   22184803.8724   22184800.436
        49.0004         44.0004
 -23512636.92048 -18281092.94548  20476798.0234   20476803.3974   20476798.376
        52.0004         48.0004
 -27792451.99048 -21605039.59348  20313686.5664   20313692.3854   20313686.178
        53.0004         49.0004
 -10359998.83848  -8039765.11147  22300910.3634   22300914.7514   22300909.956
        48.0004         43.0004
 -15822573.20847 -12323287.94247  22501364.0774   22501370.6984   22501364.720
        47.0004         43.0004
  -9428149.32946  -7279411.90945  24267480.6414   24267486.7414   24267480.887
        37.0004         33.0004
  -9114321.04447  -7054451.67646  23553212.1764   23553221.4964   23553211.983
        46.0004         41.0004
 14  5 28  0 13 30.0000000  0 10G30G26G07G02G08G04G28G10G20G17
  -8698270.24349  -6768576.63148  20679290.7694   20679297.8744   20679290.664
        54.0004         49.0004
   -656324.79247   -497930.82546  24184850.2904   24184859.0654   24184849.953
        43.0004         38.0004
 -12946067.49748 -10062210.08947  22257573.0514   22257580.2564   22257573.694
        48.0004         44.0004
 -10364965.43348  -8021641.39047  22173996.2814   22173999.5414   22173996.317
        49.0004         44.0004
 -23451289.47248 -18233289.70948  20488472.0114   20488477.9154   20488472.502
        52.0004         48.0004
 -27802187.78748 -21612625.90048  20311833.9354   20311839.6454   20311833.449
        53.0004         49.0004
 -10418065.39448  -8085011.67847  22289859.7264   22289865.1374   22289860.376
        48.0004         43.0004
 -15894451.32647 -12379296.78347  22487686.6184   22487691.9854   22487686.201
        47.0004         43.0004
  -9379715.01446  -7241670.85845  24276697.2464   24276705.6254   24276698.292
        38.0004         33.0004
  -9081594.18047  -7028950.21246  23559440.0424   23559448.6184   23559439.619
        46.0004         41.0004
 14  5 28  0 14  0.0000000  0 10G30G26G07G02G08G04G28G10G20G17
  -8646078.87049  -6727907.99848  20689222.7414   20689229.3454   20689222.465
        54.0004         49.0004
   -641750.91947   -486574.45146  24187623.9644   24187631.2134   24187623.118
        43.0004         38.0004
 -12848894.20948  -9986490.59047  22276065.9704   22276069.9854   22276065.564
        48.0004         44.0004
 -10421335.83448  -8065566.30947  22163268.9324   22163272.5644   22163268.671
        49.0004         44.0004
 -23389404.32248 -18185067.48248  20500248.4454   20500253.9114   20500248.777
        52.0004         48.0004
 -27811366.97848 -21619778.48948  20310087.2364   20310092.7404   20310086.727
        53.0004         49.0004
 -10476052.10548  -8130196.02447  22278826.2174   22278831.4574   22278825.279
        48.0004         43.0004
 -15966329.97047 -12435306.02147  22474008.8194   22474014.4894   22474008.620
        47.0004         43.0004
  -9330936.45446  -7203661.54645  24285979.6764   24285985.8904   24285980.440
        38.0004         33.0004
  -9049048.99447  -7003590.30147  23565632.2874   23565642.0584   23565632.994
        46.0004         42.0004
 14  5 28  0 14 30.0000000  0 10G30G26G07G02G08G04G28G10G20G17
  -8593425.74749  -6686879.56048  20699241.8174   20699248.5504   20699241.908
        54.0004         49.0004
   -627088.41547   -475149.01446  24190413.2964   24190422.3734   24190413.332
        43.0004         38.0004
 -12751497.96348  -9910597.36747  22294599.3404   22294604.5704   22294599.169
        48.0004         44.0004
 -10477298.90748  -8109173.82647  22152618.3404   22152623.9184   22152619.309
        49.0004         44.0004
 -23326986.46248 -18136430.15948  20512126.0184   20512131.6214   20512126.304
        52.0004         48.0004
 -27819992.42748 -21626499.58848  20308445.6384   20308451.4304   20308445.514
        53.0004         49.0004
 -10533958.43248  -8175317.71947  22267805.5584   22267811.8314   22267805.992
        48.0004         44.0004
 -16038209.16348 -12491315.69047  22460328.9504   22460336.9474   22460330.313
        48.0004         43.0004
  -9281815.83846  -7165385.71545  24295327.1754   24295336.1094   24295327.296
        37.0004         33.0004
  -9016689.50847  -6978375.10147  23571791.8594   23571800.0604   23571791.096
        46.0004         42.0004
 14  5 28  0 15  0.0000000  0 10G30G26G07G02G08G04G28G10G20G17
  -8540310.59249  -6645491.09248  20709349.2244   20709356.2174   20709349.414
        54.0004         49.0004
   -612337.23647   -463654.47346  24193221.1054   24193228.1584   24193220.601
        43.0004         38.0004
 -12653879.41448  -9834530.91847  22313175.3014   22313179.7514   22313175.125
        48.0004         43.0004
 -10532850.93448  -8152461.04847  22142047.8104   22142051.6774   22142048.071
        49.0004         44.0004
 -23264035.91048 -18087377.74648  20524104.8794   20524110.6024   20524105.617
        52.0004         48.0004
 -27828061.58849 -21632787.21848  20306910.4014   20306915.9194   20306909.934
        54.0004         49.0004
 -10591779.02448  -8220372.62447  22256803.4794   22256807.9444   22256803.178
        48.0004         44.0004
 -16110083.99948 -12547321.96947  22446651.4724   22446658.6974   22446652.565
        48.0004         43.0004
  -9232351.67046  -7126842.15745  24304740.0994   24304746.4904   24304740.014
        37.0004         33.0004
  -8984514.21647  -6953303.41946  23577913.2544   23577922.8304   23577913.080
        46.0004         41.0004
 14  5 28  0 15 30.0000000  0 10G30G26G07G02G08G04G28G10G20G17
  -8486737.42449  -6603745.73448  20719543.8634   20719551.1634   20719543.896
        54.0004         49.0004
   -597501.33447   -452093.92646  24196043.8454   24196051.9424   24196043.557
        43.0004         38.0004
 -12556043.32448  -9758294.97447  22331794.5004   22331798.1604   22331793.113
        48.0004         43.0004
 -10587992.87848  -8195428.73047  22131554.5394   22131558.2304   22131555.035
        49.0004         44.0004
 -23200557.51748 -18037914.03748  20536184.9304   20536190.1824   20536185.022
        52.0004         48.0004
 -27835576.74849 -21638643.16348  20305480.0134   20305485.5814   20305479.831
        54.0004         49.0004
 -10649513.01348  -8265360.05547  22245817.3504   22245822.4054   22245816.623
        48.0004         44.0004
 -16181953.64148 -12603324.20347  22432976.0064   22432981.2044   22432976.439
        48.0004         43.0004
                  -7088032.41245                  24314223.8534   24314218.203
                        32.0004
  -8952526.03547  -6928377.54246  23584000.6894   23584009.8074   23584000.195
        46.0004         41.0004
 14  5 28  0 16  0.0000000  0 10G30G26G07G02G08G04G28G10G20G17
  -8432707.46949  -6561644.44148  20729825.8784   20729832.6424   20729825.637
        54.0004         49.0004
   -582582.00247   -440468.36446  24198883.2464   24198891.7864   24198882.646
        43.0004         38.0004
 -12457991.87048  -9681891.20447  22350452.0484   22350455.4594   22350451.583
        48.0004         43.0004
 -10642722.35148  -8238075.00347  22121140.2534   22121144.3504   22121140.077
        49.0004         45.0004
 -23136552.85948 -17988040.24548  20548364.3014   20548369.6664   20548364.641
        52.0004         48.0004
 -27842537.22749 -21644066.88848  20304155.4184   20304161.4114   20304155.166
        54.0004         49.0004
 -10707156.39748  -8310276.88147  22234846.0784   22234853.2464   22234847.270
        48.0004         44.0004
 -16253814.81048 -12659319.83547  22419300.6724   22419307.9644   22419301.911
        48.0004         43.0004
  -9132397.23346  -7048955.49645  24323766.0624   24323771.7634   24323761.775
        37.0004         32.0004
  -8920725.21547  -6903597.64746  23590052.4574   23590060.8344   23590051.969
        46.0004         41.0004
 14  5 28  0 16 30.0000000  0 10G30G26G07G02G08G04G28G10G20G17
  -8378224.86349  -6519190.42748  20740193.3244   20740200.1954   20740193.092
        54.0004         49.0004
   -567583.44447   -428781.07646  24201736.6064   24201745.0704   24201737.132
        43.0004         38.0004
 -12359729.98948  -9605323.45747  22369150.5624   22369154.1194   22369150.365
        48.0004         43.0004
 -10697039.97348  -8280400.34647  22110803.4654   22110807.5504   22110804.242
        49.0004         45.0004
 -23072026.71348 -17937760.10048  20560643.3794   20560649.1364   20560643.496
        52.0004         48.0004
 -27848945.21049 -21649060.09348  20302936.2594   20302941.7764   20302935.966
        54.0004         49.0004
 -10764708.33448  -8355122.46147  22223895.3774   22223900.4934   22223895.737
        48.0004         44.0004
 -16325666.67848 -12715308.22247  22405628.4034   22405633.5624   22405628.650
        48.0004         43.0004
                  -7009612.93045                  24333374.0714   24333367.378
                        32.0004
  -8889114.40347  -6878965.80447  23596068.3384   23596077.2104   23596067.458
        46.0004         42.0004
 14  5 28  0 17  0.0000000  0 10G30G26G07G02G08G04G28G10G20G17
  -8323288.45149  -6476382.79848  20750647.2924   20750654.1164   20750647.053
        54.0004         49.0004
   -552504.45447   -417031.09746  24204606.1414   24204615.6634   24204605.350
        43.0004         38.0004
 -12261257.43048  -9528591.55747  22387888.6894   22387893.6994   22387888.873
        48.0004         43.0004
 -10750941.13948  -8322401.18647  22100546.9574   22100550.2784   22100546.856
        49.0004         45.0004
 -23006978.15848 -17887072.88448  20573021.7664   20573027.0424   20573022.206
        52.0004         48.0004
 -27854797.47049 -21653620.27748  20301822.4664   20301828.0884   20301821.921
        54.0004         49.0004
 -10822162.29448  -8399891.68547  22212962.6664   22212967.2414   22212962.434
        48.0004         44.0004
 -16397503.26648 -12771284.69447  22391957.9374   22391964.4844   22391958.088
        48.0004         43.0004
  -9031074.29646  -6970002.50845  24343044.0474   24343051.2574   24343042.230
        37.0004         33.0004
  -8857692.04747  -6854480.81347  23602047.7124   23602056.2554   23602046.503
        46.0004         42.0004
 14  5 28  0 17 30.0000000  0 10G30G26G07G02G08G04G28G10G20G17
  -8267904.45949  -6433226.40648  20761186.2204   20761193.5844   20761186.467
        54.0004         49.0004
   -537351.27147   -405223.31346  24207489.9564   24207498.2894   24207489.782
        43.0004         38.0004
 -12162581.22248  -9451700.96547  22406667.0134   22406671.5254   22406666.262
        48.0004         43.0004
 -10804428.71448  -8364079.74447  22090367.7464   22090371.8404   22090368.157
        49.0004         45.0004
 -22941413.83848 -17835983.76947  20585497.8414   20585503.5084   20585498.101
        52.0004         47.0004
 -27860098.50748 -21657750.92948  20300813.8394   20300819.1814   20300813.588
        53.0004         49.0004
 -10879519.60848  -8444585.61447  22202048.1774   22202053.6164   22202047.564
        48.0004         44.0004
 -16469326.22948 -12827250.55647  22378290.4854   22378296.0084   22378290.703
        48.0004         43.0004
                  -6930127.48345                  24352781.8934   24352779.802
                        32.0004
  -8826462.94647  -6830146.42046  23607989.4634   23607999.3994   23607989.417
        46.0004         41.0004
 14  5 28  0 18  0.0000000  0 10G30G26G07G02G08G04G28G10G20G17
  -8212071.63649  -6389720.27848  20771810.8704   20771818.1214   20771810.933
        54.0004         49.0004
   -522122.72647   -393356.80646  24210387.4904   24210395.4604   24210387.109
        43.0004         38.0004
 -12063700.94548  -9374651.36247  22425483.6304   22425486.8244   22425482.361
        48.0004         43.0004
 -10857497.92548  -8405432.31147  22080270.1974   22080273.2324   22080269.559
        49.0004         45.0004
 -22875333.11848 -17784492.27347  20598072.5114   20598077.9874   20598073.110
        52.0004         47.0004
 -27864844.87048 -21661449.37748  20299910.5714   20299915.6484   20299910.291
        53.0004         49.0004
 -10936773.71548  -8489199.11247  22191152.4224   22191158.7534   22191152.383
        49.0004         44.0004
 -16541129.30848 -12883200.92147  22364626.8884   22364632.0314   22364627.610
        48.0004         43.0004
                  -6889985.18645                  24362587.7484   24362583.611
                        32.0004
  -8795424.24347  -6805960.38846  23613895.7304   23613904.8084   23613895.908
        46.0004         41.0004
 14  5 28  0 18 30.0000000  0 10G30G26G07G02G08G04G28G10G20G17
  -8155793.97849  -6345867.52448  20782520.1794   20782527.4144   20782520.500
        54.0004         49.0004
   -506822.63547   -381434.55246  24213298.2494   24213307.5434   24213298.394
        43.0004         38.0004
 -11964621.14048  -9297446.27547  22444337.2604   22444340.7674   22444336.854
        48.0004         43.0004
 -10910149.50048  -8446459.44747  22070250.5794   22070254.1194   22070250.234
        49.0004         45.0004
 -22808740.59848 -17732601.96547  20610744.4764   20610750.4954   20610744.959
        52.0004         47.0004
 -27869039.03948 -21664717.53848  20299112.2114   20299118.0684   20299111.975
        53.0004         49.0004
 -10993923.47148  -8533731.28747  22180275.9414   22180282.5904   22180276.878
        49.0004         44.0004
 -16612911.72148 -12939135.19247  22350965.9804   22350973.0884   22350967.398
        48.0004         43.0004
  -8876529.05056  -6849577.57155  24372449.9065   24372456.0295   24372450.426
        37.0004         32.0004
  -8764579.46847  -6781925.46546  23619765.3754   23619774.3974   23619765.771
        46.0004         41.0004
 14  5 28  0 19  0.0000000  0 10G30G26G07G02G08G04G28G10G20G17
  -8099074.10849  -6301670.18948  20793313.8554   20793320.8854   20793313.702
        54.0004         49.0004
   -491453.63947   -369458.58946  24216222.3474   24216231.5264   24216223.238
        43.0004         38.0004
 -11865345.12148  -9220088.30247  22463230.1674   22463232.9154   22463228.453
        48.0004         43.0004
 -10962382.68148  -8487160.55847  22060310.5114   22060313.8614   22060310.870
        49.0004         45.0004
 -22741639.36048 -17680315.25747  20623513.3994   20623519.2094   20623514.134
        52.0004         47.0004
 -27872681.50549 -21667555.80548  20298419.3934   20298424.7964   20298419.139
        54.0004         49.0004
 -11050966.30748  -8578180.17647  22169422.0314   22169429.3114   22169422.461
        49.0004         44.0004
 -16684671.02248 -12995051.44547  22337312.8654   22337318.5774   22337312.156
        48.0004         43.0004
                                                                  24382383.252

  -8733929.47447  -6758042.30746  23625598.2004   23625607.1044   23625597.950
        46.0004         41.0004
 14  5 28  0 19 30.0000000  0 10G30G26G07G02G08G04G28G10G20G17
  -8041915.73749  -6257131.16748  20804190.5424   20804197.6134   20804190.804
        54.0004         49.0004
   -476019.40147   -357431.79946  24219158.7944   24219168.3444   24219159.196
        42.0004         38.0004
 -11765877.37448  -9142580.93847  22482156.6544   22482160.1634   22482156.151
        48.0004         43.0004
 -11014197.83648  -8527535.94647  22050450.3094   22050454.1374   22050450.695
        49.0004         45.0004
 -22674033.57548 -17627635.39147  20636378.8374   20636384.1694   20636378.818
        52.0004         47.0004
 -27875774.30749 -21669965.76348  20297830.6864   20297836.2454   20297830.097
        54.0004         49.0004
 -11107900.65348  -8622544.51047  22158587.6664   22158593.9774   22158587.834
        48.0004         44.0004
 -16756406.30048 -13050948.98047  22323660.1524   22323665.7234   22323660.958
        48.0004         43.0004
                  -6767968.01845                  24392389.7124   24392380.555
                        32.0004
  -8703477.02647  -6734313.08646  23631393.4704   23631402.2914   23631393.083
        46.0004         41.0004
 14  5 28  0 20  0.0000000  0 10G30G26G07G02G08G04G28G10G20G17
  -7984316.74049  -6212248.79748  20815151.2274   20815158.4644   20815151.210
        54.0004         49.0004
   -460517.66947   -345352.42646  24222109.9804   24222117.1344   24222109.954
        42.0004         38.0004
 -11666216.51748  -9064923.09747  22501121.5314   22501127.0814   22501121.242
        48.0004         43.0004
 -11065589.12148  -8567581.02947  22040670.6384   22040674.4684   22040671.025
        49.0004         45.0004
 -22605921.68348 -17574561.15747  20649339.5974   20649345.0484   20649340.354
        52.0004         47.0004
 -27878313.32549 -21671944.20348  20297347.4734   20297352.9124   20297347.231
        54.0004         49.0004
 -11164719.26548  -8666818.66447  22147774.6334   22147780.2114   22147775.523
        49.0004         44.0004
 -16828110.38448 -13106822.22647  22310016.5394   22310022.9444   22310016.407
        48.0004         43.0004
                  -6726764.25845                  24402452.5084   24402442.936
                        32.0004
  -8673218.62347  -6710735.06846  23637151.6054   23637159.7974   23637150.418
        46.0004         41.0004
 14  5 28  0 20 30.0000000  0 11G30G26G07G02G08G04G05G28G10G20G17
  -7926282.90449  -6167027.59148  20826194.6304   20826201.6644   20826194.958
        54.0004         49.0004
   -444954.15647   -333224.90346  24225071.6974   24225079.0884   24225071.234
        42.0004         38.0004
 -11566369.18448  -8987119.94247  22520121.2364   22520126.0404   22520121.531
        48.0004         43.0004
 -11116559.26048  -8607297.95647  22030971.0864   22030974.8084   22030971.388
        49.0004         45.0004
 -22537309.93548 -17521097.42647  20662396.1064   20662401.7914   20662396.340
        52.0004         47.0004
 -27880302.48749 -21673494.18448  20296969.2164   20296974.6444   20296968.603
        54.0004         49.0004
  -1324475.90647   -994131.71446  25481363.2984   25481370.8544   25481361.125
        42.0004         36.0004
 -11221422.44148  -8711002.86347  22136985.5384   22136990.4504   22136985.157
        49.0004         44.0004
 -16899784.18448 -13162671.85747  22296377.5564   22296382.6224   22296377.072
        48.0004         43.0004
  -8665701.58146  -6685296.27245  24412572.9514   24412577.9104   24412570.422
        37.0004         33.0004
  -8643158.74147  -6687311.74846  23642871.0224   23642880.3344   23642870.532
        46.0004         41.0004
 14  5 28  0 21  0.0000000  0 11G30G26G07G02G08G04G05G28G10G20G17
  -7867816.39449  -6121469.23948  20837320.7904   20837327.2734   20837320.443
        54.0004         49.0004
   -429330.92847   -321050.85446  24228043.5364   24228052.7414   24228043.867
        42.0004         38.0004
 -11466338.15647  -8909173.65847  22539157.6364   22539161.0154   22539156.568
        47.0004         43.0004
 -11167106.80148  -8646685.57847  22021352.3524   22021355.4814   22021352.808
        49.0004         45.0004
 -22468201.04748 -17467246.31547  20675547.2854   20675552.2364   20675547.681
        52.0004         47.0004
 -27881742.25149 -21674616.06248  20296695.2144   20296700.4204   20296694.807
        54.0004         49.0004
  -1404428.31046  -1056431.97546  25466147.3724   25466154.9974   25466146.745
        41.0004         36.0004
 -11278007.11148  -8755094.73147  22126217.1784   22126222.6004   22126217.339
        49.0004         44.0004
 -16971424.76548 -13218495.61947  22282744.2074   22282749.9314   22282744.218
        48.0004         43.0004
                  -6643564.46045                  24422766.3424   24422761.981
                        33.0004
  -8613297.99547  -6664043.59146  23648554.2364   23648561.8594   23648553.009
        46.0004         41.0004
 14  5 28  0 21 30.0000000  0 11G30G26G07G02G08G04G05G28G10G20G17
  -7808919.20649  -6075575.29148  20848528.3984   20848535.2374   20848528.368
        54.0004         49.0004
   -413649.69547   -308831.60646  24231029.6954   24231036.1464   24231028.392
        42.0004         38.0004
 -11366125.99147  -8831086.21147  22558226.7614   22558231.5904   22558226.378
        47.0004         43.0004
 -11217230.43948  -8685742.89247  22011813.7604   22011817.6424   22011813.892
        49.0004         45.0004
 -22398597.59948 -17413009.82447  20688792.7084   20688797.9654   20688792.612
        52.0004         47.0004
 -27882632.68949 -21675309.89248  20296525.7924   20296531.0014   20296525.448
        54.0004         49.0004
  -1484599.11846  -1118902.42446  25450890.4114   25450899.9064   25450890.879
        41.0004         36.0004
 -11334469.96248  -8799091.67547  22115472.2224   22115478.6774   22115472.865
        49.0004         44.0004
 -17043029.19148 -13274291.19447  22269117.8574   22269122.7704   22269118.735
        48.0004         44.0004
                  -6601568.55445                  24433024.6224   24433015.979
                        32.0004
  -8583637.26847  -6640931.29246  23654197.9564   23654205.9524   23654197.669
        46.0004         41.0004
 14  5 28  0 22  0.0000000  0 11G30G26G07G02G08G04G05G28G10G20G17
  -7749594.46648  -6029348.18848  20859817.4764   20859824.4144   20859817.215
        53.0004         49.0004
   -397913.66747   -296569.67146  24234024.3364   24234030.5344   24234022.517
        42.0004         38.0004
 -11265736.27947  -8752860.43347  22577331.8324   22577334.8854   22577330.076
        47.0004         43.0004
 -11266929.87948  -8724469.66147  22002356.3134   22002360.1854   22002356.837
        50.0004         45.0004
 -22328503.12448 -17358390.71747  20702130.8914   20702135.9984   20702131.347
        52.0004         47.0004
 -27882975.01949 -21675576.62548  20296460.2364   20296465.8594   20296460.043
        54.0004         49.0004
  -1564988.57646  -1181543.23346  25435594.1084   25435602.6044   25435592.019
        40.0004         36.0004
 -11390808.83448  -8842992.00647  22104751.2564   22104757.4154   22104752.065
        49.0004         44.0004
 -17114595.67548 -13330057.20947  22255499.0764   22255505.9704   22255499.863
        48.0004         44.0004
  -8504018.56346  -6559309.42845  24443334.0904   24443346.9084   24443337.428
        37.0004         33.0004
  -8554178.00947  -6617975.98646  23659803.3904   23659812.7034   23659803.466
        46.0004         41.0004
 14  5 28  0 22 30.0000000  0 10G30G26G07G02G08G04G05G28G10G17
  -7689840.50748  -5982786.62648  20871188.3894   20871195.3314   20871188.104
        53.0004         49.0004
   -382120.85347   -284263.46246  24237027.1064   24237036.6644   24237027.522
        42.0004         38.0004
 -11165168.23647  -8674495.68947  22596468.1704   22596471.5044   22596467.182
        47.0004         43.0004
 -11316199.97748  -8762861.88447  21992980.2544   21992984.2934   21992980.509
        50.0004         45.0004
 -22257916.64948 -17303388.23647  20715563.0084   20715568.3104   20715563.155
        52.0004         47.0004
 -27882766.01349 -21675413.75048  20296499.9804   20296505.7364   20296499.991
        54.0004         49.0004
  -1645590.98646  -1244350.00046  25420254.8304   25420262.3634   25420253.590
        41.0004         36.0004
 -11447016.79048  -8886790.32747  22094055.4244   22094061.3284   22094056.078
        49.0004         44.0004
 -17186117.42348 -13385788.37447  22241889.5584   22241895.4744   22241889.836
        48.0004         44.0004
  -8524917.58547  -6595175.61346  23665372.5364   23665380.3244   23665371.268
        45.0004         41.0004
 14  5 28  0 23  0.0000000  0 11G30G26G07G02G08G04G05G28G10G20G17
  -7629667.39848  -5935898.45148  20882638.5494   20882645.8464   20882638.448
        53.0004         49.0004
   -366281.20447   -271920.78346  24240042.7864   24240049.3754   24240041.500
        42.0004         37.0004
 -11064432.27747  -8596000.10347  22615637.7734   22615641.4204   22615636.986
        47.0004         43.0004
 -11365047.90048  -8800925.12847  21983684.8964   21983688.7674   21983685.916
        50.0004         45.0004
 -22186848.87848 -17248010.71647  20729087.0344   20729092.0784   20729086.778
        52.0004         47.0004
 -27882013.77649 -21674827.57648  20296643.0624   20296648.5734   20296642.744
        54.0004         49.0004
  -1726413.12746  -1307327.96946  25404875.6324   25404883.1004   25404873.489
        41.0004         36.0004
 -11503098.59748  -8930490.35447  22083384.1164   22083388.9764   22083383.859
        49.0004         44.0004
 -17257599.33248 -13441488.49147  22228286.4224   22228292.3534   22228287.166
        48.0004         44.0004
                  -6473999.17845                  24464173.5654   24464171.073
                        33.0004
  -8495864.39447  -6572536.71846  23670901.0314   23670908.9834   23670900.499
        45.0004         41.0004
 14  5 28  0 23 30.0000000  0 11G30G26G07G02G08G04G05G28G10G20G17
  -7569071.04648  -5888680.48048  20894170.0684   20894176.4204   20894169.522
        53.0004         49.0004
   -350390.41047   -259538.23346  24243065.5224   24243074.3314   24243065.746
        42.0004         37.0004
 -10963525.49447  -8517371.40547  22634838.8504   22634842.9244   22634838.929
        47.0004         43.0004
 -11413465.57848  -8838653.12347  21974471.6144   21974475.0124   21974471.373
        50.0004         45.0004
 -22115295.90948 -17192255.12147  20742702.6124   20742708.3284   20742702.970
        52.0004         47.0004
 -27880712.47349 -21673813.55448  20296890.8304   20296896.3214   20296890.453
        54.0004         49.0004
  -1807446.96846  -1370470.91946  25389454.4694   25389462.1654   25389453.342
        41.0004         37.0004
 -11559044.62448  -8974084.57447  22072737.8334   22072743.3694   22072737.559
        49.0004         44.0004
 -17329032.32048 -13497150.48647  22214693.3234   22214697.9974   22214693.946
        48.0004         44.0004
  -8339290.52846  -6430949.85445  24474684.9934   24474690.5474   24474684.768
        37.0004         32.0004
  -8467012.80347  -6550054.91346  23676390.6034   23676398.6484   23676390.345
        45.0004         41.0004
 14  5 28  0 24  0.0000000  0 11G30G26G07G02G08G04G05G28G10G20G17
  -7508055.69948  -5841136.02348  20905780.7844   20905787.4044   20905780.418
        53.0004         49.0004
   -334452.53847   -247119.02146  24246098.2074   24246106.1544   24246098.118
        42.0004         38.0004
 -10862452.34147  -8438613.06547  22654072.3224   22654076.6534   22654072.102
        47.0004         43.0004
 -11461454.22248  -8876046.80547  21965340.1484   21965342.8724   21965340.325
        50.0004         45.0004
 -22043262.44948 -17136125.11247  20756410.1404   20756415.6444   20756410.612
        52.0004         47.0004
 -27878864.69449 -21672373.71048  20297242.5194   20297248.2054   20297242.310
        54.0004         49.0004
  -1888693.04346  -1433779.24746  25373994.4044   25374002.4114   25373992.457
        41.0004         37.0004
 -11614853.86348  -9017572.21147  22062116.9574   22062122.0144   22062117.608
        49.0004         44.0004
 -17400415.73248 -13552773.85047  22201109.0384   22201115.9454   22201110.138
        48.0004         44.0004
  -8283706.66956  -6387637.72855  24485259.4275   24485269.7105   24485261.159
        37.0004         33.0004
  -8438365.74747  -6527732.48546  23681842.5344   23681850.7374   23681841.691
        45.0004         41.0004
 14  5 28  0 24 30.0000000  0 11G30G26G07G02G08G04G05G28G10G20G17
  -7446625.93048  -5793268.63648  20917470.3114   20917476.9844   20917470.314
        53.0004         49.0004
   -318471.91847   -234666.46846  24249137.6114   24249147.8104   24249138.663
        42.0004         37.0004
 -10761217.76847  -8359728.95047  22673336.4134   22673340.3554   22673336.630
        47.0004         42.0004
 -11509014.80548  -8913106.93547  21956288.7444   21956293.2114   21956289.317
        50.0004         45.0004
 -21970753.67748 -17079624.74047  20770208.2014   20770213.5174   20770208.355
        52.0004         47.0004
 -27876473.11849 -21670510.13148  20297697.4084   20297702.9994   20297697.155
        54.0004         49.0004
  -1970152.64446  -1497253.94646  25358492.2914   25358500.9334   25358490.438
        41.0004         36.0004
 -11670525.38648  -9060952.54047  22051522.3424   22051528.6084   22051523.466
        49.0004         44.0004
 -17471748.83348 -13608358.01747  22187534.9584   22187540.6704   22187535.622
        49.0004         44.0004
                  -6344064.79545                  24495904.2984   24495902.991
                        32.0004
  -8409926.11147  -6505571.68346  23687252.8084   23687262.1944   23687252.786
        45.0004         40.0004
 14  5 28  0 25  0.0000000  0 11G30G26G07G02G08G04G05G28G10G20G17
  -7384782.49148  -5745078.90848  20929238.3534   20929245.2564   20929238.289
        53.0004         49.0004
   -302449.09147   -222181.04346  24252187.9284   24252196.5524   24252188.280
        42.0004         38.0004
 -10659823.13047  -8280720.10547  22692631.9074   22692635.6494   22692631.538
        47.0004         43.0004
 -11556145.00148  -8949831.69647  21947320.3894   21947323.7034   21947320.870
        50.0004         45.0004
 -21897770.93848 -17022755.03447  20784096.8434   20784101.3824   20784096.554
        52.0004         47.0004
 -27873537.11348 -21668222.31648  20298256.3524   20298261.6384   20298255.863
        53.0004         49.0004
  -2051822.98746  -1560892.86046  25342950.6144   25342959.1594   25342948.777
        41.0004         36.0004
 -11726054.23048  -9104221.68947  22040956.5714   22040960.4064   22040956.441
        49.0004         44.0004
 -17543027.15648 -13663899.49647  22173970.8904   22173977.5614   22173971.792
        49.0004         44.0004
  -8171533.77446  -6300230.21045  24506602.4804   24506614.3284   24506607.031
        37.0004         32.0004
  -8381693.00747  -6483571.82046  23692626.3704   23692635.9564   23692625.549
        45.0004         40.0004
 14  5 28  0 25 30.0000000  0 11G30G26G07G02G08G04G05G28G10G20G17
  -7322527.03848  -5696568.13448  20941085.3874   20941092.3504   20941085.212
        53.0004         49.0004
   -286385.48647   -209663.84746  24255244.4254   24255253.9804   24255244.611
        42.0004         38.0004
 -10558270.71147  -8201588.31547  22711957.1044   22711960.6894   22711956.001
        47.0004         42.0004
 -11602843.09748  -8986219.75747  21938433.9784   21938437.3254   21938434.136
        50.0004         45.0004
 -21824316.59348 -16965517.85247  20798074.2714   20798079.1514   20798074.615
        52.0004         47.0004
 -27870056.10748 -21665509.82748  20298919.2454   20298924.2854   20298918.329
        53.0004         49.0004
  -2133701.67046  -1624694.10646  25327369.1664   25327375.4504   25327367.221
        41.0004         36.0004
 -11781437.14348  -9147377.12047  22030417.4724   22030422.8224   22030417.862
        49.0004         44.0004
 -17614247.33248 -13719395.67547  22160418.1034   22160423.6664   22160418.901
        49.0004         44.0004
  -8114943.25646  -6256133.67445  24517372.5664   24517384.9904   24517376.295
        37.0004         32.0004
  -8353666.94647  -6461733.29246  23697959.3384   23697968.4794   23697958.700
        45.0004         40.0004
 14  5 28  0 26  0.0000000  0 11G30G26G07G02G08G04G05G28G10G20G17
  -7259854.57448  -5647732.40948  20953011.3194   20953018.6344   20953011.244
        53.0004         49.0004
   -270275.69347   -197110.65446  24258311.0764   24258318.9734   24258311.052
        43.0004         38.0004
 -10456556.02747  -8122330.08447  22731311.1824   22731314.7564   22731311.356
        47.0004         42.0004
 -11649100.59748  -9022264.49447  21929631.2064   21929634.9124   21929632.058
        50.0004         45.0004
 -21750385.97948 -16907909.55047  20812141.9384   20812147.7004   20812142.614
        52.0004         47.0004
 -27866023.63648 -21662367.62348  20299685.5704   20299691.4714   20299685.439
        53.0004         49.0004
  -2215779.63746  -1688650.65846  25311748.0714   25311759.6464   25311748.120
        41.0004         36.0004
 -11836663.29648  -9190410.40547  22019908.0804   22019913.1014   22019908.137
        49.0004         45.0004
 -17685399.28848 -13774838.68947  22146878.1134   22146884.5104   22146879.248
        49.0004         44.0004
                  -6211769.81755                  24528212.6665   24528210.180
                        32.0004
  -8325840.83247  -6440050.55646  23703254.4604   23703263.7024   23703253.675
        45.0004         41.0004
 14  5 28  0 26 30.0000000  0 11G30G26G07G02G08G04G05G28G10G20G17
  -7196786.50048  -5598588.42648  20965013.1734   20965019.5774   20965013.022
        53.0004         49.0004
   -254140.90847   -184538.00346  24261380.5714   24261388.5894   24261380.206
        42.0004         38.0004
 -10354700.88647  -8042962.40547  22750694.4964   22750697.7594   22750693.800
        47.0004         42.0004
 -11694935.42348  -9057979.87847  21920908.6014   21920913.1474   21920909.297
        50.0004         45.0004
 -21676001.11148 -16849947.28447  20826297.4514   20826302.9224   20826297.998
        51.0004         47.0004
 -27861459.44948 -21658811.09148  20300554.3844   20300560.1164   20300554.099
        53.0004         49.0004
  -2298074.88046  -1752776.53746  25296086.7654   25296095.7614   25296087.648
        41.0004         36.0004
 -11891748.61748  -9233333.94447  22009424.9504   22009430.8024   22009425.610
        49.0004         44.0004
 -17756498.96548 -13830240.95947  22133348.9144   22133354.3244   22133349.223
        49.0004         44.0004
                  -6167153.75445                  24539108.9994   24539106.299
                        32.0004
  -8298234.71147  -6418539.25246  23708507.6294   23708516.1344   23708507.461
        45.0004         41.0004
 14  5 28  0 27  0.0000000  0 10G30G26G07G02G08G04G05G28G10G17
  -7133312.47548  -5549128.11248  20977091.8284   20977098.4764   20977091.517
        53.0004         49.0004
   -237970.60247   -171937.63646  24264457.2144   24264466.8924   24264458.156
        42.0004         38.0004
 -10252695.59547  -7963477.73147  22770105.7474   22770109.1624   22770104.951
        47.0004         42.0004
 -11740334.07048  -9093355.38547  21912270.0404   21912274.2914   21912270.392
        50.0004         45.0004
 -21601152.17548 -16791623.40647  20840540.6674   20840546.2164   20840541.031
        51.0004         47.0004
 -27856351.40548 -21654830.77848  20301526.6384   20301532.1934   20301526.142
        53.0004         49.0004
  -2380573.42446  -1817060.82446  25280389.2514   25280396.2424   25280389.428
        41.0004         36.0004
 -11946677.46348  -9276135.56247  21998972.7434   21998977.9534   21998973.163
        49.0004         45.0004
 -17827530.98248 -13885590.51347  22119831.4954   22119837.8084   22119832.549
        49.0004         44.0004
  -8270836.65747  -6397190.07246  23713721.9584   23713729.6194   23713721.375
        46.0004         41.0004
 14  5 28  0 27 30.0000000  0 10G30G26G07G02G08G04G05G28G10G17
  -7069439.03148  -5499356.56748  20989246.2894   20989253.2734   20989246.592
        53.0004         49.0004
   -221770.82947   -159314.34246  24267540.0434   24267548.2894   24267540.170
        42.0004         38.0004
 -10150547.14547  -7883881.49947  22789543.2154   22789547.5354   22789543.676
        47.0004         42.0004
 -11785299.70948  -9128393.48547  21903713.3434   21903716.5774   21903713.572
        50.0004         45.0004
 -21525846.15048 -16732943.35747  20854870.9324   20854876.0734   20854871.524
        51.0004         47.0004
 -27850704.34848 -21650430.45848  20302601.0024   20302606.4754   20302600.685
        53.0004         49.0004
  -2463277.56446  -1881505.32746  25264650.1694   25264660.8054   25264651.333
        40.0004         36.0004
 -12001450.85348  -9318816.04347  21988549.5564   21988554.7244   21988550.057
        49.0004         45.0004
 -17898496.38248 -13940888.15047  22106327.2434   22106333.1754   22106327.662
        49.0004         44.0004
  -8243651.34347  -6376006.67046  23718894.4154   23718903.3354   23718894.358
        46.0004         41.0004
 14  5 28  0 28  0.0000000  0 10G30G26G07G02G08G04G05G28G10G17
  -7005165.88948  -5449273.57148  21001477.0504   21001484.0124   21001477.022
        53.0004         48.0004
   -205541.08247   -146667.67146  24270629.2784   24270636.9894   24270628.622
        42.0004         37.0004
 -10048255.63047  -7804173.79247  22809009.3874   22809012.5214   22809008.603
        47.0004         42.0004
 -11829829.07848  -9163091.63047  21895239.4444   21895242.9204   21895239.801
        50.0004         45.0004
 -21450083.51648 -16673907.50947  20869288.0064   20869293.5414   20869288.286
        51.0004         47.0004
 -27844516.42348 -21645608.67748  20303778.3364   20303783.9624   20303778.107
        53.0004         49.0004
  -2546183.53846  -1946107.07546  25248873.4934   25248883.1064   25248874.979
        40.0004         36.0004
 -12056063.01448  -9361370.89547  21978157.0344   21978163.3274   21978157.615
        49.0004         45.0004
 -17969389.73848 -13996129.64847  22092836.3074   22092842.6804   22092837.272
        49.0004         44.0004
  -8216676.93847  -6354987.61646  23724026.9124   23724035.9234   23724027.045
        46.0004         41.0004
 14  5 28  0 28 30.0000000  0 10G30G26G07G02G08G04G05G28G10G17
  -6940497.66048  -5398882.71248  21013782.7674   21013789.5564   21013782.768
        53.0004         48.0004
   -189285.60947   -134000.98346  24273722.4324   24273731.2014   24273722.076
        42.0004         38.0004
  -9945825.85747  -7724358.35647  22828500.0914   22828504.8314   22828499.933
        47.0004         42.0004
 -11873923.09548  -9197450.54947  21886848.7644   21886852.5214   21886849.343
        50.0004         45.0004
 -21373869.15048 -16614519.66147  20883790.8514   20883796.4824   20883791.702
        51.0004         47.0004
 -27837790.67248 -21640367.81248  20305058.6134   20305064.3314   20305058.341
        53.0004         49.0004
  -2629292.08146  -2010866.70145  25233059.9274   25233066.6324   25233059.681
        40.0004         35.0004
 -12110512.80148  -9403799.21647  21967795.0024   21967800.5884   21967796.085
        49.0004         45.0004
 -18040210.30948 -14051314.44447  22079359.7944   22079366.1464   22079360.745
        49.0004         44.0004
  -8189916.28347  -6334135.11646  23729120.0594   23729128.8874   23729119.652
        46.0004         41.0004
 14  5 28  0 29  0.0000000  0 10G30G26G07G02G08G04G05G28G10G17
  -6875435.93448  -5348185.23448  21026163.9484   21026170.5664   21026163.645
        53.0004         48.0004
   -173005.69447   -121315.22546  24276819.8004   24276828.3034   24276820.663
        42.0004         38.0004
  -9843259.80547  -7644436.73147  22848018.4544   22848021.6944   22848018.179
        46.0004         42.0004
 -11917580.13948  -9231468.97147  21878541.1294   21878545.2394   21878541.615
        50.0004         45.0004
 -21297205.35248 -16554781.61247  20898380.3914   20898385.1764   20898380.207
        51.0004         47.0004
 -27830526.97048 -21634707.76648  20306440.5994   20306445.9744   20306440.081
        53.0004         49.0004
  -2712600.77746  -2075782.29145  25217205.8124   25217212.7204   25217206.492
        40.0004         35.0004
 -12164796.54948  -9446098.15647  21957465.8564   21957471.1634   21957466.170
        49.0004         45.0004
 -18110954.45048 -14106439.67547  22065897.5004   22065903.8004   22065898.504
        49.0004         44.0004
  -8163369.31247  -6313449.12446  23734172.3894   23734180.2954   23734171.575
        46.0004         41.0004
 14  5 28  0 29 30.0000000  0 10G30G26G07G02G08G04G05G28G10G17
  -6809984.13548  -5297183.80148  21038618.9594   21038625.4634   21038618.705
        53.0004         48.0004
   -156704.25447   -108612.70046  24279922.7364   24279931.0594   24279921.233
        42.0004         38.0004
  -9740561.31147  -7564411.89847  22867560.4964   22867564.6594   22867560.964
        46.0004         42.0004
 -11960800.32248  -9265146.97947  21870315.9814   21870320.8564   21870316.706
        50.0004         46.0004
 -21220096.01448 -16494696.38947  20913053.6024   20913058.7834   20913053.792
        51.0004         47.0004
 -27822727.29448 -21628630.07348  20307924.9034   20307930.3714   20307924.588
        53.0004         49.0004
  -2796109.11446  -2140853.44546  25201313.8004   25201321.7094   25201314.942
        40.0004         36.0004
 -12218911.71948  -9488265.73247  21947167.1814   21947172.3674   21947168.079
        49.0004         45.0004
 -18181620.50348 -14161504.05947  22052450.5504   22052456.1434   22052450.650
        49.0004         44.0004
  -8137037.51247  -6292930.79546  23739182.0914   23739190.3024   23739182.375
        46.0004         41.0004
 14  5 28  0 30  0.0000000  0 10G30G26G07G02G08G04G05G28G10G17
  -6744143.79048  -5245879.60748  21051147.7994   21051154.4944   21051147.664
        53.0004         48.0004
   -140382.54547    -95894.36946  24283027.5664   24283036.5674   24283027.767
        43.0004         38.0004
  -9637732.91847  -7484285.85247  22887128.0784   22887133.1824   22887127.716
        46.0004         42.0004
 -12003582.06048  -9298483.34347  21862175.4614   21862179.0444   21862175.942
        50.0004         46.0004
 -21142543.20348 -16434265.60047  20927810.8594   20927816.3584   20927811.256
        51.0004         46.0004
 -27814391.38448 -21622134.54248  20309510.9924   20309516.4494   20309510.714
        53.0004         49.0004
  -2879814.66246  -2206078.29245  25185383.5774   25185393.7964   25185385.225
        40.0004         35.0004
 -12272854.57848  -9530299.05047  21936902.6144   21936908.7824   21936902.812
        49.0004         45.0004
 -18252204.41548 -14216504.44147  22039018.8244   22039023.5374   22039019.477
        49.0004         44.0004
  -8110920.69747  -6272579.99546  23744152.8374   23744159.8954   23744152.373
        46.0004         41.0004
 14  5 28  0 30 30.0000000  0 10G30G26G07G02G08G04G05G28G10G17
  -6677917.37048  -5194274.57948  21063750.2634   21063757.0774   21063750.164
        53.0004         48.0004
   -124042.64847    -83161.86846  24286137.6104   24286145.5274   24286136.618
        42.0004         38.0004
  -9534777.09947  -7404060.50647  22906720.9644   22906723.8734   22906719.668
        46.0004         42.0004
 -12045924.46348  -9331477.37247  21854117.5384   21854120.9894   21854117.733
        50.0004         46.0004
 -21064550.00548 -16373491.66047  20942652.4684   20942657.6594   20942653.238
        51.0004         46.0004
 -27805520.26848 -21615221.96548  20311199.0474   20311204.8324   20311198.779
        53.0004         49.0004
  -2963716.14146  -2271455.77746  25169419.2494   25169426.7584   25169419.389
        40.0004         36.0004
 -12326621.86848  -9572195.56347  21926671.5344   21926676.1154   21926671.606
        49.0004         45.0004
 -18322703.31948 -14271438.58847  22025602.7544   22025609.0994   22025603.915
        49.0004         45.0004
  -8085019.68147  -6252397.34246  23749082.3334   23749090.3314   23749080.622
        46.0004         41.0004
 14  5 28  0 31  0.0000000  0 10G30G26G07G02G08G04G05G28G10G17
  -6611309.93748  -5142372.65848  21076425.0884   21076432.1214   21076425.052
        53.0004         48.0004
   -107689.15047    -70418.76646  24289249.4544   24289257.1244   24289249.020
        42.0004         38.0004
  -9431699.14647  -7323739.99847  22926335.3944   22926339.2834   22926335.252
        46.0004         42.0004
 -12087829.27348  -9364130.41947  21846143.5334   21846147.4934   21846144.274
        50.0004         46.0004
 -20986121.95548 -16312378.87347  20957577.1344   20957581.9364   20957577.086
        51.0004         46.0004
 -27796117.18948 -21607894.87248  20312988.3314   20312993.8814   20312988.163
        53.0004         49.0004
  -3047814.29546  -2336986.55746  25153415.7014   25153424.1634   25153416.223
        40.0004         36.0004
 -12380213.45548  -9613955.16747  21916472.5304   21916477.9804   21916473.320
        49.0004         45.0004
 -18393116.71748 -14326306.10247  22012203.6794   22012210.5664   22012204.651
        49.0004         45.0004
  -8059337.39747  -6232385.14746  23753968.4244   23753976.6454   23753967.943
        46.0004         41.0004
 14  5 28  0 31 30.0000000  0 10G30G26G07G02G08G04G05G28G10G17
  -6544319.97548  -5090172.66548  21089172.8324   21089179.8684   21089172.736
        53.0004         48.0004
    -91320.14647    -57663.59146  24292363.6794   24292371.5854   24292363.866
        42.0004         38.0004
  -9328497.81747  -7243323.35447  22945974.3634   22945977.8634   22945973.861
        46.0004         42.0004
 -12129291.55248  -9396438.63547  21838253.3004   21838256.8614   21838253.833
        50.0004         46.0004
 -20907258.04048 -16250926.44647  20972584.7374   20972589.7304   20972584.750
        51.0004         46.0004
 -27786179.28148 -21600151.02948  20314879.7224   20314884.8744   20314879.363
        53.0004         49.0004
  -3132104.00546  -2402666.59646  25137375.0664   25137381.5264   25137375.736
        40.0004         36.0004
 -12433621.60248  -9655571.82647  21906309.5914   21906315.4134   21906310.078
        49.0004         45.0004
 -18463437.75348 -14381101.65147  21998822.8424   21998828.5724   21998822.571
        49.0004         45.0004
  -8033870.58647  -6212540.84446  23758814.4414   23758823.2524   23758813.513
        46.0004         41.0004
 14  5 28  0 32  0.0000000  0 10G30G26G07G02G08G04G05G28G10G17
  -6476956.37848  -5037681.52648  21101992.0444   21101998.2744   21101991.782
        53.0004         48.0004
    -74944.08647    -44902.93146  24295480.3824   24295488.5004   24295479.214
        42.0004         38.0004
  -9225182.29547  -7162817.72847  22965634.4244   22965639.1784   22965633.659
        46.0004         42.0004
 -12170317.30748  -9428406.70847  21830446.8124   21830450.4244   21830447.134
        50.0004         46.0004
 -20827967.90948 -16189141.90947  20987673.1674   20987677.9394   20987673.040
        51.0004         46.0004
 -27775713.87148 -21591996.14648  20316871.3424   20316876.4744   20316870.911
        53.0004         49.0004
  -3216590.05046  -2468499.61945  25121299.1994   25121307.1714   25121297.964
        40.0004         35.0004
 -12486849.80248  -9697048.27547  21896180.1274   21896186.3694   21896181.120
        49.0004         45.0004
 -18533669.99448 -14435828.00147  21985456.8854   21985462.8284   21985458.248
        49.0004         45.0004
  -8008626.25947  -6192869.90746  23763618.2634   23763627.3244   23763617.851
        46.0004         41.0004
 14  5 28  0 32 30.0000000  0 10G30G26G07G02G08G04G05G28G10G17
  -6409214.72648  -4984895.79148  21114882.4414   21114889.1584   21114882.213
        53.0004         48.0004
    -58556.10047    -32132.95646  24298598.7134   24298606.9684   24298599.005
        42.0004         38.0004
  -9121748.68147  -7082220.08047  22985317.2694   22985322.5014   22985316.548
        46.0004         42.0004
 -12210898.65248  -9460028.48747  21822724.5584   21822727.6554   21822724.309
        50.0004         46.0004
 -20748247.62348 -16127022.18747  21002843.0564   21002848.3644   21002843.315
        51.0004         46.0004
 -27764714.99748 -21583425.57748  20318964.1944   20318969.4984   20318964.027
        53.0004         49.0004
  -3301263.56946  -2534478.71245  25105186.2744   25105194.9214   25105184.164
        40.0004         35.0004
 -12539888.33648  -9738376.91647  21886087.4024   21886092.4824   21886087.871
        49.0004         45.0004
 -18603803.81848 -14490477.67647  21972110.8214   21972116.5824   21972111.409
        49.0004         45.0004
  -7983598.23147  -6173367.49646  23768380.5164   23768390.0934   23768380.793
        46.0004         41.0004
 14  5 28  0 33  0.0000000  0 10G30G26G07G02G08G04G05G28G10G17
  -6341100.93348  -4931820.08948  21127844.2904   21127850.9704   21127844.206
        53.0004         48.0004
    -42161.69647    -19357.99046  24301718.2024   24301726.1744   24301717.512
        42.0004         38.0004
  -9018203.27147  -7001535.32246  23005020.6464   23005025.2964   23005020.838
        46.0004         41.0004
 -12251038.45248  -9491306.21047  21815086.4184   21815089.3284   21815086.475
        50.0004         46.0004
 -20668103.85048 -16064572.47347  21018093.9944   21018098.7384   21018094.336
        51.0004         46.0004
 -27753187.06949 -21574442.75548  20321157.7994   20321162.9694   20321157.610
        54.0004         49.0004
  -3386126.75346  -2600605.60346  25089038.0504   25089044.8184   25089036.189
        41.0004         36.0004
 -12592737.15748  -9779557.75047  21876031.1004   21876036.4714   21876031.228
        49.0004         45.0004
 -18673839.62748 -14545050.97647  21958784.0924   21958789.1384   21958784.696
        49.0004         45.0004
  -7958790.23647  -6154036.54946  23773101.2814   23773110.6744   23773100.910
        45.0004         41.0004
 14  5 28  0 33 30.0000000  0 10G30G26G07G02G08G04G05G28G10G17
  -6272619.56848  -4878457.96148  21140875.8004   21140882.3994   21140875.631
        53.0004         48.0004
    -25764.87047     -6581.12646  24304839.9014   24304846.6344   24304839.197
        43.0004         38.0004
  -8914550.59347  -6920766.97446  23024745.4484   23024749.0844   23024745.151
        46.0004         41.0004
 -12290737.97948  -9522240.85147  21807531.0584   21807534.8374   21807531.595
        50.0004         46.0004
 -20587541.46548 -16001796.56947  21033424.4354   21033429.3874   21033425.003
        51.0004         46.0004
 -27741133.08349 -21565050.01848  20323451.5114   20323457.3384   20323451.284
        54.0004         49.0004
  -3471180.13446  -2666880.73046  25072850.6044   25072858.7514   25072851.081
        41.0004         37.0004
 -12645395.19248  -9820589.91347  21866010.3544   21866015.3314   21866010.572
        49.0004         45.0004
 -18743776.38248 -14599547.09747  21945475.2634   21945481.0774   21945476.083
        49.0004         45.0004
  -7934205.22547  -6134879.34946  23777779.6714   23777788.7254   23777779.504
        45.0004         41.0004
 14  5 28  0 34  0.0000000  0 10G30G26G07G02G08G04G05G28G10G17
  -6203770.63848  -4824809.41848  21153977.4464   21153984.0714   21153977.475
        53.0004         48.0004
     -9365.14947      6197.98046  24307958.5624   24307967.5644   24307958.065
        42.0004         38.0004
  -8810790.87947  -6839915.21546  23044489.9904   23044494.3954   23044489.515
        46.0004         41.0004
 -12329993.90848  -9552829.83947  21800061.0344   21800064.4654   21800061.332
        50.0004         46.0004
 -20506561.04648 -15938694.92247  21048834.2714   21048839.0924   21048834.552
        51.0004         46.0004
 -27728551.55749 -21555246.21248  20325845.5894   20325851.2814   20325845.436
        54.0004         49.0004
  -3556419.50546  -2733300.76846  25056631.5114   25056636.5744   25056630.232
        41.0004         36.0004
 -12697856.91348  -9861469.10247  21856027.6734   21856032.9854   21856027.703
        50.0004         45.0004
 -18813608.70648 -14653961.84047  21932186.9074   21932191.8784   21932186.911
        49.0004         45.0004
  -7909841.10547  -6115894.27246  23782416.2224   23782424.9704   23782415.333
        45.0004         41.0004
 14  5 28  0 34 30.0000000  0 10G30G26G07G02G08G04G05G28G10G17
  -6134557.90648  -4770877.39748  21167148.3844   21167154.4694   21167147.891
        53.0004         48.0004
      7034.14347     18976.76746  24311080.1384   24311088.0954   24311079.174
        42.0004         38.0004
  -8706928.34847  -6758983.35146  23064255.0434   23064259.4204   23064253.980
        46.0004         41.0004
 -12368806.94048  -9583073.71547  21792675.2034   21792678.2094   21792675.438
        50.0004         46.0004
 -20425167.00948 -15875270.98047  21064323.2014   21064328.1154   21064323.421
        51.0004         46.0004
 -27715445.14549 -21545033.40648  20328339.8284   20328345.3434   20328339.434
        54.0004         49.0004
  -3641844.50146  -2799865.44746  25040374.6204   25040382.2154   25040374.451
        41.0004         36.0004
 -12750120.26348  -9902193.71847  21846081.8564   21846087.4994   21846082.019
        49.0004         45.0004
 -18883334.63248 -14708293.68047  21918918.2154   21918923.7494   21918918.665
        49.0004         45.0004
  -7885699.56347  -6097082.62646  23787010.0384   23787019.1684   23787009.623
        45.0004         41.0004
 14  5 28  0 35  0.0000000  0 10G30G26G07G02G08G04G05G28G10G17
  -6064984.82548  -4716664.58048  21180387.5134   21180394.1274   21180387.429
        53.0004         48.0004
     23430.11547     31752.96246  24314199.6774   24314207.0404   24314199.627
        42.0004         38.0004
  -8602967.03947  -6677974.52046  23084037.5504   23084042.3544   23084036.740
        46.0004         41.0004
 -12407177.42548  -9612972.75247  21785373.4774   21785376.7494   21785373.934
        50.0004         46.0004
 -20343363.39848 -15811527.88747  21079890.0804   21079895.0164   21079889.885
        51.0004         46.0004
 -27701815.53649 -21534412.91348  20330933.5544   20330938.8524   20330933.161
        54.0004         49.0004
  -3727454.69946  -2866574.45246  25024080.7784   25024090.0314   25024083.153
        41.0004         36.0004
 -12802183.13648  -9942762.11647  21836174.2824   21836179.0154   21836174.721
        50.0004         45.0004
 -18952952.31848 -14762541.17047  21905670.0594   21905676.2324   21905671.036
        49.0004         45.0004
  -7861781.87047  -6078445.40546  23791561.4434   23791569.7714   23791561.058
        46.0004         41.0004
 14  5 28  0 35 30.0000000  0 10G30G26G07G02G08G04G05G28G10G17
  -5995048.50648  -4662168.72848  21193695.8314   21193702.3764   21193695.715
        53.0004         48.0004
     39826.19547     44529.24546  24317318.9724   24317327.0954   24317319.156
        42.0004         38.0004
  -8498903.72147  -6596886.20946  23103840.1204   23103844.0944   23103839.571
        46.0004         41.0004
 -12445099.16548  -9642522.11147  21778156.9564   21778160.7124   21778157.606
        50.0004         46.0004
 -20261147.69448 -15747463.68447  21095535.1094   21095540.1334   21095534.736
        50.0004         46.0004
 -27687658.24449 -21523381.24448  20333627.4104   20333633.1674   20333627.260
        54.0004         49.0004
  -3813242.85846  -2933422.13046  25007759.3914   25007766.9344   25007758.557
        41.0004         36.0004
 -12854036.87248  -9983167.54347  21826307.1134   21826311.8404   21826307.447
        50.0004         45.0004
 -19022453.12848 -14816697.60747  21892444.3504   21892449.8254   21892444.784
        49.0004         45.0004
  -7838083.44147  -6059979.02846  23796071.3094   23796078.9704   23796070.535
        46.0004         41.0004
 14  5 28  0 36  0.0000000  0 10G30G26G07G02G08G04G05G28G10G17
  -5924760.88848  -4607399.13048  21207071.0654   21207077.6544   21207071.112
        52.0004         48.0004
     56210.93747     57296.70446  24320437.1114   24320445.4604   24320436.996
        42.0004         37.0004
  -8394750.64747  -6515727.95046  23123660.4254   23123663.9074   23123659.805
        46.0004         41.0004
 -12482580.93748  -9671728.63547  21771025.0514   21771027.7864   21771025.070
        50.0004         46.0004
 -20178532.39848 -15683088.11647  21111255.4344   21111261.2944   21111256.164
        50.0004         46.0004
 -27672983.96949 -21511946.72748  20336420.4594   20336425.2584   20336419.587
        54.0004         49.0004
  -3899216.68247  -3000414.47546  24991397.6774   24991404.8724   24991397.839
        42.0004         37.0004
 -12905687.71148 -10023414.88247  21816478.2354   21816482.7484   21816478.413
        50.0004         45.0004
 -19091843.62548 -14870768.07947  21879240.0444   21879246.4004   21879240.562
        49.0004         45.0004
  -7814614.03647  -6041691.11446  23800537.4784   23800545.4254   23800536.453
        46.0004         41.0004
 14  5 28  0 36 30.0000000  0 10G30G26G07G02G08G04G05G28G10G17
  -5854118.55048  -4552353.12748  21220514.3594   21220520.4854   21220513.705
        52.0004         48.0004
     72588.33647     70058.41946  24323554.6294   24323561.3734   24323553.358
        42.0004         37.0004
  -8290504.73047  -6434497.34846  23143497.3034   23143502.1274   23143496.993
        46.0004         41.0004
 -12519616.27148  -9700587.29347  21763976.7084   21763980.6454   21763977.148
        50.0004         46.0004
 -20095514.70848 -15618398.98247  21127053.9994   21127058.6444   21127054.001
        50.0004         46.0004
 -27657787.98449 -21500105.68248  20339311.4554   20339317.3944   20339311.265
        54.0004         49.0004
  -3985368.29247  -3067545.34846  24975003.9134   24975010.2604   24975002.880
        42.0004         37.0004
 -12957126.33048 -10063496.84547  21806689.5764   21806695.3164   21806689.932
        50.0004         45.0004
 -19161115.10448 -14924745.80947  21866058.0604   21866063.3824   21866058.674
        49.0004         45.0004
  -7791368.21547  -6023577.40646  23804960.1204   23804969.4704   23804959.784
        45.0004         41.0004
 14  5 28  0 37  0.0000000  0 10G30G26G07G02G08G04G05G28G10G17
  -5783125.17048  -4497033.59248  21234023.4254   21234029.9654   21234023.290
        53.0004         48.0004
     88955.26347     82811.98746  24326669.5494   24326676.3374   24326668.405
        42.0004         38.0004
  -8186169.54947  -6353197.17846  23163351.3014   23163356.3394   23163351.267
        46.0004         41.0004
 -12556205.49048  -9729098.32847  21757014.5394   21757017.4574   21757014.631
        50.0004         46.0004
 -20012098.86248 -15553399.60447  21142927.6394   21142932.3834   21142927.438
        50.0004         46.0004
 -27642072.34349 -21487859.71548  20342302.3054   20342307.4574   20342302.044
        54.0004         49.0004
  -4071697.23946  -3134814.41646  24958576.8284   24958581.0704   24958575.309
        41.0004         36.0004
 -13008351.03648 -10103412.13447  21796941.8114   21796947.0954   21796942.029
        50.0004         45.0004
 -19230265.31648 -14978629.05447  21852899.0044   21852904.8934   21852899.233
        49.0004         45.0004
  -7768347.46147  -6005639.08146  23809341.1404   23809349.9714   23809340.963
        45.0004         41.0004
 14  5 28  0 37 30.0000000  0 10G30G26G07G02G08G04G05G28G10G17
  -5711784.66748  -4441443.56548  21247599.2154   21247605.7614   21247598.811
        52.0004         48.0004
    105308.46847     95554.85146  24329780.0204   24329786.8474   24329779.944
        43.0004         38.0004
  -8081749.47947  -6271830.87546  23183222.5744   23183225.8344   23183221.449
        45.0004         41.0004
 -12592349.60648  -9757262.52847  21750136.1654   21750139.8254   21750136.254
        50.0004         46.0004
 -19928289.57048 -15488093.64647  21158876.1334   21158881.3274   21158875.467
        50.0004         46.0004
 -27625839.69949 -21475210.88948  20345391.2124   20345396.2214   20345390.831
        54.0004         49.0004
  -4158203.67046  -3202221.76746  24942114.4074   24942120.7264   24942113.349
        41.0004         37.0004
 -13059360.14448 -10143159.41047  21787234.6764   21787240.3284   21787235.038
        50.0004         45.0004
 -19299292.70448 -15032416.58247  21839763.1224   21839768.8864   21839764.128
        49.0004         45.0004
  -7745553.47047  -5987877.45146  23813678.7264   23813687.4574   23813678.029
        45.0004         41.0004
 14  5 28  0 38  0.0000000  0 10G30G26G07G02G08G04G05G28G10G17
  -5640099.90848  -4385585.29248  21261240.2294   21261246.6884   21261240.391
        52.0004         48.0004
    121645.51847    108285.15246  24332889.5264   24332895.0684   24332889.264
        43.0004         38.0004
  -7977247.37847  -6190400.64446  23203108.4674   23203112.7014   23203107.449
        45.0004         41.0004
 -12628048.42848  -9785079.74947  21743342.7714   21743346.4294   21743343.145
        50.0004         46.0004
 -19844089.96048 -15422483.54147  21174898.8634   21174903.3744   21174898.835
        50.0004         46.0004
 -27609091.70848 -21462160.49248  20348578.2204   20348583.6244   20348577.793
        53.0004         49.0004
  -4244885.73846  -3269766.00446  24925619.1234   24925626.1804   24925618.185
        41.0004         37.0004
 -13110150.63448 -10182736.35147  21777570.6254   21777574.7354   21777570.655
        50.0004         45.0004
 -19368194.59048 -15086106.32047  21826652.2044   21826657.7964   21826652.778
        49.0004         45.0004
  -7722987.31847  -5970293.35546  23817972.4164   23817981.5004   23817972.489
        45.0004         41.0004
 14  5 28  0 38 30.0000000  0 10G30G26G07G02G08G04G05G28G10G17
  -5568070.65648  -4329458.57648  21274946.7904   21274953.5414   21274946.694
        52.0004         48.0004
    137967.35647    121003.57546  24335995.1014   24336002.1744   24335994.864
        43.0004         38.0004
  -7872663.09147  -6108906.38546  23223009.3674   23223013.9434   23223009.814
        45.0004         41.0004
 -12663298.59348  -9812547.36647  21736634.2834   21736637.6134   21736635.038
        50.0004         46.0004
 -19759500.63248 -15356569.76347  21190994.7514   21191000.0454   21190995.287
        50.0004         46.0004
 -27591826.53648 -21448707.10248  20351863.3704   20351869.0244   20351863.404
        53.0004         49.0004
  -4331739.06747  -3337443.67846  24909090.9794   24909097.2484   24909090.793
        42.0004         37.0004
 -13160716.31448 -10222138.10747  21767947.2414   21767952.5554   21767947.486
        50.0004         45.0004
 -19436965.04348 -15139693.64747  21813565.2794   21813570.7034   21813566.209
        50.0004         45.0004
  -7700646.38947  -5952884.74946  23822224.0114   23822232.6434   23822224.114
        45.0004         41.0004
 14  5 28  0 39  0.0000000  0 10G30G26G07G02G08G04G05G28G10G17
  -5495704.06348  -4273069.00248  21288717.6144   21288724.1514   21288717.691
        52.0004         48.0004
    154267.42847    133705.05846  24339097.2724   24339104.0214   24339096.121
        43.0004         38.0004
  -7768003.95847  -6027353.78746  23242926.2784   23242930.4214   23242925.390
        46.0004         41.0004
 -12698103.99448  -9839668.41347  21730011.8454   21730015.3994   21730012.535
        51.0004         46.0004
 -19674528.95048 -15290358.04947  21207164.0524   21207169.4964   21207164.962
        50.0004         46.0004
 -27574050.24748 -21434855.44148  20355246.3304   20355251.8084   20355245.907
        53.0004         49.0004
  -4418766.46047  -3405256.98246  24892528.7824   24892537.5004   24892529.968
        42.0004         37.0004
 -13211058.86448 -10261365.99847  21758368.1644   21758372.1784   21758367.941
        50.0004         45.0004
 -19505605.73448 -15193179.85747  21800503.7484   21800508.6224   21800504.279
        50.0004         45.0004
  -7678535.76747  -5935655.60646  23826431.1224   23826440.2534   23826431.073
        45.0004         41.0004
 14  5 28  0 39 30.0000000  0 10G30G26G07G02G08G04G05G28G10G17
  -5423000.01348  -4216416.47648  21302552.5744   21302559.4384   21302552.561
        52.0004         48.0004
    170546.47247    146390.14746  24342194.6614   24342201.1724   24342194.636
        43.0004         38.0004
  -7663270.04147  -5945742.93046  23262856.0264   23262860.2904   23262855.596
        45.0004         41.0004
 -12732461.17948  -9866440.20347  21723473.3614   21723476.4874   21723473.765
        51.0004         46.0004
 -19589175.57448 -15223848.90647  21223406.4724   21223412.1514   21223407.062
        50.0004         46.0004
 -27555761.37548 -21420604.36848  20358726.4454   20358731.9474   20358726.290
        53.0004         49.0004
  -4505963.42447  -3473202.40546  24875935.3354   24875943.0864   24875937.511
        42.0004         37.0004
 -13261172.11248 -10300415.20947  21748831.6844   21748836.0594   21748831.542
        50.0004         45.0004
 -19574110.90248 -15246560.46547  21787467.3874   21787472.3544   21787468.082
        50.0004         45.0004
  -7656652.84747  -5918603.89346  23830595.3464   23830604.3484   23830595.114
        45.0004         41.0004
 14  5 28  0 40  0.0000000  0 10G30G26G07G02G08G04G05G28G10G17
  -5349962.23548  -4159503.89548  21316451.1584   21316457.3554   21316451.491
        52.0004         48.0004
    186801.35547    159056.40546  24345287.3484   24345294.5984   24345286.390
        43.0004         38.0004
  -7558465.18647  -5864076.79446  23282800.1974   23282803.5524   23282799.119
        45.0004         41.0004
 -12766371.49148  -9892863.78247  21717020.8224   21717024.3224   21717021.577
        51.0004         46.0004
 -19503444.84948 -15157045.72247  21239720.5134   21239725.8024   21239720.647
        50.0004         45.0004
 -27536962.13948 -21405955.60648  20362303.8314   20362309.0654   20362303.531
        53.0004         49.0004
  -4593329.25746  -3541279.42146  24859311.2664   24859316.5674   24859311.845
        41.0004         37.0004
 -13311054.33648 -10339284.41147  21739339.1574   21739343.8654   21739339.025
        50.0004         45.0004
 -19642478.75548 -15299834.07547  21774457.3744   21774462.9594   21774457.905
        50.0004         45.0004
  -7634999.26447  -5901730.87846  23834715.9204   23834723.8974   23834715.562
        45.0004         40.0004
 14  5 28  0 40 30.0000000  0 10G30G26G07G02G08G04G05G28G10G17
  -5276593.25948  -4102333.24848  21330413.2494   21330419.7304   21330413.028
        52.0004         48.0004
    203030.26847    171702.44646  24348374.6944   24348383.8734   24348375.112
        42.0004         38.0004
  -7453591.75547  -5782357.21946  23302756.9124   23302761.1464   23302755.807
        45.0004         40.0004
 -12799834.11348  -9918938.51547  21710652.7364   21710656.4864   21710653.235
        51.0004         46.0004
 -19417339.93248 -15089950.96347  21256105.7024   21256111.1654   21256106.361
        50.0004         45.0004
 -27517653.89148 -21390910.21348  20365978.1234   20365983.7464   20365977.623
        53.0004         49.0004
  -4680862.41946  -3609486.87346  24842655.4264   24842660.4234   24842654.361
        41.0004         37.0004
 -13360702.37848 -10377971.12147  21729891.2894   21729896.5974   21729891.305
        50.0004         45.0004
 -19710705.98548 -15352998.10747  21761474.2624   21761479.8914   21761474.823
        50.0004         45.0004
  -7613575.39647  -5885036.85746  23838793.1754   23838801.5414   23838792.521
        45.0004         40.0004
 14  5 28  0 41  0.0000000  0 10G30G26G07G02G08G04G05G28G10G17
  -5202902.19548  -4044911.62048  21344436.0874   21344442.8054   21344435.832
        52.0004         48.0004
    219224.76047    184321.64646  24351457.7254   24351464.5914   24351457.093
        43.0004         38.0004
  -7348658.96847  -5700591.39446  23322724.5954   23322729.1944   23322723.614
        45.0004         40.0004
 -12832855.43948  -9944669.37647  21704368.8934   21704372.1644   21704369.378
        51.0004         46.0004
 -19330870.33548 -15022572.04447  21272560.5014   21272565.4434   21272561.065
        50.0004         45.0004
 -27497844.41548 -21375474.25648  20369747.7384   20369752.8484   20369747.614
        53.0004         49.0004
  -4768567.38546  -3677828.17946  24825965.4424   24825970.3554   24825964.817
        41.0004         37.0004
 -13410119.28948 -10416477.74147  21720487.1144   21720492.6374   21720487.729
        50.0004         45.0004
 -19778796.06748 -15406055.27347  21748516.9874   21748522.0654   21748517.758
        50.0004         45.0004
  -7592388.22247  -5868527.28046  23842825.9174   23842833.3594   23842824.108
        45.0004         40.0004
 14  5 28  0 41 30.0000000  0 10G30G26G07G02G08G04G05G28G10G17
  -5128878.35848  -3987230.68748  21358522.4524   21358528.9294   21358522.350
        52.0004         48.0004
    235396.17947    196922.87146  24354533.1854   24354541.5944   24354532.635
        43.0004         38.0004
  -7243656.34047  -5618771.15846  23342706.0784   23342710.2904   23342705.750
        45.0004         40.0004
 -12865421.70348  -9970045.64747  21698172.1464   21698174.9484   21698172.444
        51.0004         46.0004
 -19244025.69848 -14954900.87547  21289085.8554   21289091.6894   21289086.765
        50.0004         45.0004
 -27477521.92348 -21359638.54448  20373615.2124   20373620.4264   20373614.684
        53.0004         49.0004
  -4856428.97646  -3746291.52646  24809245.3174   24809251.0074   24809244.498
        41.0004         37.0004
 -13459288.78848 -10454791.56547  21711130.3614   21711135.6124   21711130.904
        50.0004         45.0004
 -19846732.65248 -15458992.83347  21735589.4904   21735594.2014   21735589.721
        50.0004         45.0004
  -7571424.86847  -5852192.11346  23846813.5684   23846821.8314   23846813.465
        45.0004         41.0004
 14  5 28  0 42  0.0000000  0 10G30G26G07G02G08G04G05G28G10G17
  -5054531.17748  -3929297.80347  21372670.0284   21372677.1314   21372669.994
        52.0004         47.0004
    251535.74947    209499.29046  24357605.3054   24357612.6204   24357606.030
        42.0004         38.0004
  -7138593.38847  -5536903.90346  23362697.8594   23362702.8904   23362698.429
        45.0004         40.0004
 -12897538.78348  -9995071.90447  21692059.9834   21692063.9284   21692060.220
        51.0004         46.0004
 -19156816.29448 -14886945.48147  21305682.4094   21305687.2164   21305682.477
        50.0004         45.0004
 -27456694.44248 -21343409.33848  20377578.6014   20377583.8274   20377577.933
        53.0004         49.0004
  -4944452.92847  -3814881.40646  24792494.0684   24792498.5064   24792494.145
        42.0004         37.0004
 -13508214.25848 -10492915.24547  21701820.9884   21701825.4714   21701821.108
        50.0004         45.0004
 -19914519.52848 -15511813.73947  21722689.4704   21722695.2684   21722690.447
        50.0004         46.0004
  -7550691.84947  -5836036.41446  23850759.7144   23850766.6884   23850758.542
        45.0004         41.0004
 14  5 28  0 42 30.0000000  0 10G30G26G07G02G08G04G05G28G10G17
  -4979867.19348  -3871118.05047  21386877.8594   21386884.8984   21386877.923
        52.0004         47.0004
    267637.58247    222046.28146  24360669.6564   24360675.6254   24360669.330
        43.0004         38.0004
  -7033476.55147  -5454994.67046  23382702.1474   23382706.2624   23382700.999
        45.0004         40.0004
 -12929210.44048 -10019751.06947  21686033.0054   21686037.4534   21686033.900
        51.0004         46.0004
 -19069249.19648 -14818711.35147  21322345.3244   21322350.2224   21322345.720
        50.0004         45.0004
 -27435367.40848 -21326790.86748  20381636.8434   20381642.0644   20381636.436
        53.0004         49.0004
  -5032640.84447  -3883599.04946  24775712.7584   24775717.1324   24775712.506
        42.0004         37.0004
 -13556896.77848 -10530849.61147  21692556.1554   21692561.2124   21692556.272
        50.0004         45.0004
 -19982157.33648 -15564518.48147  21709818.5664   21709823.8094   21709819.216
        50.0004         46.0004
  -7530193.74247  -5820063.77346  23854659.2714   23854668.1804   23854659.132
        45.0004         41.0004
 14  5 28  0 43  0.0000000  0 10G30G26G07G02G08G04G05G28G10G17
  -4904884.32248  -3812689.82047  21401146.7984   21401153.3204   21401146.949
        52.0004         47.0004
    283704.54847    234566.13446  24363726.8004   24363733.9234   24363726.626
        43.0004         38.0004
  -6928303.78147  -5373041.85246  23402716.0294   23402719.1014   23402715.276
        45.0004         40.0004
 -12960431.65248 -10044079.25347  21680091.8644   21680095.7384   21680092.489
        51.0004         46.0004
 -18981322.73548 -14750197.21447  21339077.2574   21339081.8954   21339077.756
        50.0004         45.0004
 -27413537.43748 -21309780.50048  20385790.9844   20385796.2214   20385790.493
        53.0004         49.0004
  -5120986.14747  -3952439.35446  24758899.6964   24758904.9254   24758900.620
        42.0004         37.0004
 -13605328.70948 -10568588.71947  21683340.4034   21683345.6264   21683340.520
        50.0004         45.0004
 -20049638.50248 -15617101.16847  21696977.6054   21696982.7744   21696977.775
        50.0004         46.0004
  -7509926.17847  -5804270.77046  23858516.5274   23858524.5494   23858515.766
        45.0004         41.0004
 14  5 28  0 43 30.0000000  0 10G30G26G07G02G08G04G05G28G10G17
  -4829585.25848  -3754015.20547  21415475.5584   21415482.0954   21415475.527
        52.0004         47.0004
    299734.64847    247057.24846  24366777.0184   24366784.8234   24366776.470
        43.0004         38.0004
  -6823077.89847  -5291047.64246  23422738.6494   23422743.0854   23422738.737
        45.0004         40.0004
 -12991202.24248 -10068056.29147  21674236.3724   21674239.6494   21674237.224
        51.0004         46.0004
 -18893040.44148 -14681405.79447  21355877.2034   21355881.7464   21355877.005
        50.0004         45.0004
 -27391206.17548 -21292379.51848  20390040.3624   20390046.1364   20390040.193
        53.0004         49.0004
  -5209487.31047  -4021401.11246  24742058.5854   24742066.4984   24742058.851
        42.0004         37.0004
 -13653506.63248 -10606129.89547  21674172.2904   21674176.8274   21674171.990
        50.0004         45.0004
 -20116959.91348 -15669559.37447  21684166.5544   21684171.8084   21684167.342
        50.0004         46.0004
  -7489889.78747  -5788657.91946  23862328.7994   23862337.9844   23862328.290
        45.0004         41.0004
 14  5 28  0 44  0.0000000  0 10G30G26G07G02G08G04G05G28G10G17
  -4753977.59948  -3695100.12547  21429863.4624   21429870.4544   21429862.959
        52.0004         47.0004
    315721.01347    259514.26746  24369819.1844   24369826.4394   24369819.828
        43.0004         38.0004
  -6717806.37847  -5209017.87346  23442771.7014   23442775.0194   23442771.552
        45.0004         40.0004
 -13021526.93048 -10091685.88347  21668466.0904   21668469.4654   21668465.970
        51.0004         46.0004
 -18804410.30948 -14612343.33847  21372742.1744   21372747.9754   21372742.720
        50.0004         45.0004
 -27368379.90648 -21274592.81448  20394383.9654   20394389.3364   20394383.643
        53.0004         49.0004
  -5298147.06847  -4090486.43146  24725187.1634   24725193.5774   24725186.735
        42.0004         37.0004
 -13701432.24948 -10643474.46947  21665052.5644   21665056.0684   21665052.092
        50.0004         45.0004
 -20184123.51848 -15721894.61047  21671386.0434   21671390.8314   21671386.064
        50.0004         46.0004
  -7470089.49347  -5773229.02446  23866096.6934   23866104.5574   23866096.315
        45.0004         41.0004
 14  5 28  0 44 30.0000000  0 10G30G26G07G02G08G04G05G28G10G17
  -4678059.99748  -3635943.54447  21444310.4324   21444316.9484   21444310.316
        52.0004         47.0004
    331665.78647    271938.88446  24372853.6234   24372859.9164   24372852.164
        43.0004         38.0004
  -6612487.57247  -5126951.25946  23462813.0724   23462816.7974   23462813.182
        44.0004         40.0004
 -13051401.39448 -10114964.64447  21662781.0064   21662784.5354   21662781.664
        51.0004         46.0004
 -18715431.65648 -14543009.30247  21389674.5294   21389679.9684   21389674.716
        50.0004         45.0004
 -27345056.21548 -21256418.50848  20398822.3484   20398827.8204   20398821.989
        53.0004         49.0004
  -5386959.77347  -4159690.94746  24708286.6964   24708293.6544   24708286.228
        42.0004         37.0004
 -13749098.55448 -10680616.98247  21655981.5904   21655985.4864   21655981.722
        50.0004         45.0004
 -20251122.13148 -15774101.28347  21658635.9734   21658641.1124   21658637.085
        50.0004         46.0004
  -7450521.50147  -5757981.15546  23869820.7594   23869828.3564   23869819.824
        45.0004         41.0004
 14  5 28  0 45  0.0000000  0 10G30G26G07G02G08G04G05G28G10G17
  -4601836.42248  -3576548.52347  21458815.0094   21458821.5364   21458814.546
        52.0004         47.0004
    347565.64747    284328.51246  24375880.1924   24375885.5194   24375879.081
        43.0004         38.0004
  -6507125.68547  -5044851.06046  23482863.1164   23482867.2584   23482863.445
        44.0004         40.0004
 -13080826.80148 -10137893.48747  21657181.6834   21657184.1954   21657181.820
        51.0004         46.0004
 -18626108.86648 -14473407.11547  21406672.2064   21406677.4014   21406672.615
        50.0004         45.0004
 -27321237.95048 -21237858.82248  20403354.7894   20403360.2454   20403354.548
        53.0004         49.0004
  -5475924.86947  -4229014.20146  24691358.4624   24691363.9134   24691356.911
        42.0004         37.0004
 -13796503.67748 -10717555.98447  21646960.6174   21646964.7254   21646960.934
        50.0004         45.0004
 -20317954.04848 -15826178.06447  21645918.2164   21645923.9644   21645918.896
        50.0004         46.0004
  -7431187.56147  -5742915.65346  23873499.1084   23873507.2784   23873499.186
        45.0004         41.0004
 14  5 28  0 45 30.0000000  0 10G30G26G07G02G08G04G05G28G10G17
  -4525309.52448  -3516917.15547  21473376.9774   21473384.2164   21473377.360
        52.0004         47.0004
    363418.76747    296681.70546  24378895.2374   24378901.9274   24378895.657
        43.0004         38.0004
  -6401723.31947  -4962719.33946  23502920.1974   23502925.3024   23502920.175
        44.0004         40.0004
 -13109803.02348 -10160472.32147  21651667.2564   21651670.8014   21651668.009
        51.0004         46.0004
 -18536445.23348 -14403539.33047  21423734.3354   21423739.7374   21423734.870
        50.0004         45.0004
 -27296926.64648 -21218914.94848  20407980.6804   20407986.5264   20407980.968
        53.0004         49.0004
  -5565040.25447  -4298454.57846  24674398.7374   24674407.0584   24674398.425
        42.0004         37.0004
 -13843644.66448 -10754289.16447  21637989.9044   21637995.2334   21637989.910
        50.0004         45.0004
 -20384616.07548 -15878122.46347  21633232.7704   21633238.1674   21633233.848
        50.0004         46.0004
  -7412087.80447  -5728032.62746  23877134.5324   23877141.2194   23877133.856
        45.0004         41.0004
 14  5 28  0 46  0.0000000  0 10G30G26G07G02G08G04G05G28G10G17
  -4448482.80648  -3457052.16247  21487997.2974   21488003.7564   21487997.011
        52.0004         47.0004
    379222.35047    308996.30446  24381901.1424   24381909.2844   24381902.979
        43.0004         38.0004
  -6296283.90447  -4880558.73746  23522985.0144   23522988.5544   23522983.881
        44.0004         40.0004
 -13138330.29648 -10182701.31847  21646238.6824   21646242.6004   21646239.070
        51.0004         46.0004
 -18446444.81348 -14333409.11847  21440861.1794   21440866.1734   21440861.850
        50.0004         45.0004
 -27272124.46648 -21199588.57448  20412700.6834   20412706.2444   20412700.530
        53.0004         49.0004
  -5654305.17247  -4368011.46446  24657413.0954   24657418.8014   24657411.545
        42.0004         37.0004
 -13890519.24848 -10790814.75847  21629070.4124   21629074.7924   21629070.400
        50.0004         46.0004
 -20451106.01548 -15929932.76647  21620581.0194   21620586.1134   21620581.086
        50.0004         46.0004
  -7393223.24247  -5713332.88046  23880723.3874   23880730.6514   23880723.384
        45.0004         40.0004
 14  5 28  0 46 30.0000000  0 10G30G26G07G02G08G04G05G28G10G17
  -4371360.26048  -3396956.65047  21502672.9764   21502679.4644   21502672.655
        52.0004         47.0004
    394973.21947    321269.82846  24384899.7574   24384907.1204   24384899.220
        43.0004         38.0004
  -6190811.18647  -4798372.17946  23543055.4874   23543060.0314   23543054.780
        44.0004         40.0004
 -13166409.71948 -10204581.34647  21640895.9184   21640898.6984   21640896.017
        51.0004         46.0004
 -18356112.19848 -14263020.05447  21458050.6704   21458056.2324   21458051.226
        50.0004         45.0004
 -27246834.47048 -21179882.08648  20417513.5194   20417518.9634   20417513.168
        53.0004         49.0004
  -5743719.16947  -4437684.50746  24640397.6964   24640402.7214   24640396.447
        42.0004         38.0004
 -13937125.32848 -10827131.13847  21620201.2054   21620205.4304   21620201.445
        50.0004         46.0004
 -20517422.15448 -15981607.64747  21607960.3104   21607966.4124   21607961.453
        50.0004         46.0004
  -7374595.50047  -5698817.65946  23884268.6684   23884276.3504   23884267.817
        45.0004         40.0004
 14  5 28  0 47  0.0000000  0 10G30G26G07G02G08G04G05G28G10G17
  -4293940.50348  -3336629.54647  21517405.4244   21517412.4634   21517405.475
        52.0004         47.0004
    410673.58747    333504.01146  24387888.0674   24387895.4444   24387888.175
        43.0004         38.0004
  -6085303.89747  -4716158.69346  23563131.8914   23563136.0434   23563132.364
        44.0004         39.0004
 -13194037.12748 -10226109.15347  21635638.1784   21635641.6494   21635638.458
        51.0004         46.0004
 -18265446.67848 -14192371.58047  21475302.7794   21475309.1334   21475304.331
        50.0004         45.0004
 -27221054.15248 -21159793.52848  20422419.3554   20422424.6244   20422419.088
        53.0004         49.0004
  -5833275.94247  -4507468.83846  24623354.1764   24623360.8474   24623354.748
        42.0004         38.0004
 -13983455.72048 -10863232.69047  21611384.2904   21611389.5514   21611385.020
        50.0004         46.0004
 -20583557.20048 -16033141.41347  21595375.9354   21595380.9494   21595376.245
        50.0004         46.0004
  -7356200.69547  -5684483.96346  23887768.7274   23887775.4114   23887768.299
        45.0004         40.0004
 14  5 28  0 47 30.0000000  0 10G30G26G07G02G08G04G05G28G10G17
  -4216231.47648  -3276077.03747  21532193.1184   21532199.4434   21532192.750
        51.0004         47.0004
    426316.26947    345693.22646  24390863.6344   24390871.1324   24390863.174
        43.0004         38.0004
  -5979769.68847  -4633924.22146  23583215.7444   23583220.3974   23583215.068
        44.0004         40.0004
 -13221217.90748 -10247288.94647  21630465.7644   21630469.4464   21630466.322
        51.0004         46.0004
 -18174456.68048 -14121470.26747  21492618.7284   21492623.6874   21492619.033
        50.0004         45.0004
 -27194790.60748 -21139328.42748  20427417.0404   20427422.1274   20427416.744
        53.0004         49.0004
  -5922979.05747  -4577367.18746  24606285.0154   24606291.4774   24606284.534
        43.0004         38.0004
 -14029513.00248 -10899121.43547  21602620.6414   21602625.3044   21602620.558
        50.0004         46.0004
 -20649513.62948 -16084535.99347  21582824.6624   21582830.3374   21582825.267
        50.0004         46.0004
  -7338044.36147  -5670336.08346  23891224.0694   23891231.8524   23891223.516
        45.0004         40.0004
 14  5 28  0 48  0.0000000  0 10G30G26G07G02G08G04G05G28G10G17
  -4138231.55048  -3215297.85847  21547036.2394   21547042.1614   21547036.193
        51.0004         47.0004
    441903.73547    357839.43346  24393830.2174   24393837.6704   24393830.086
        43.0004         38.0004
  -5874207.12547  -4551667.66246  23603302.6064   23603307.4004   23603302.447
        44.0004         39.0004
 -13247947.81848 -10268117.39847  21625379.4554   21625382.4514   21625379.667
        51.0004         46.0004
 -18083141.15148 -14050315.29547  21509996.2304   21510000.7004   21509995.926
        49.0004         45.0004
 -27168040.98748 -21118484.57348  20432506.7034   20432512.3964   20432506.676
        53.0004         49.0004
  -6012822.08747  -4647374.57046  24589189.0564   24589193.7934   24589188.772
        43.0004         38.0004
 -14075289.57248 -10934791.43947  21593908.6184   21593913.9374   21593909.452
        50.0004         46.0004
 -20715283.56048 -16135785.25447  21570308.9014   21570313.8634   21570309.285
        50.0004         46.0004
  -7320122.17847  -5656370.66646  23894634.0074   23894642.0384   23894633.623
        45.0004         40.0004
 14  5 28  0 48 30.0000000  0 10G30G26G07G02G08G04G05G28G10G17
  -4059948.42348  -3154297.99747  21561932.6694   21561938.5964   21561932.578
        51.0004         47.0004
    457429.07447    369937.20346  24396784.7574   24396791.2054   24396784.538
        43.0004         39.0004
  -5768623.56747  -4469394.74546  23623394.4294   23623398.3424   23623394.852
        44.0004         39.0004
 -13274231.21748 -10288597.93047  21620377.2724   21620381.3954   21620378.449
        51.0004         46.0004
 -17991508.32948 -13978913.08247  21527431.7464   21527436.8464   21527432.571
        49.0004         45.0004
 -27140811.95348 -21097267.14448  20437688.5744   20437694.0334   20437688.293
        53.0004         49.0004
  -6102808.30647  -4717493.54546  24572064.9274   24572071.7254   24572064.931
        43.0004         38.0004
 -14120787.22348 -10970244.10847  21585251.7674   21585255.8154   21585251.547
        50.0004         46.0004
 -20780869.09348 -16186890.83047  21557828.0714   21557833.2994   21557829.123
        50.0004         46.0004
  -7302439.40947  -5642591.79946  23897998.2944   23898007.9484   23897998.827
        45.0004         40.0004
 14  5 28  0 49  0.0000000  0 10G30G26G07G02G08G04G05G28G10G17
  -3981380.21548  -3093075.99147  21576883.7374   21576889.7794   21576883.442
        51.0004         47.0004
    472895.04647    381988.74246  24399726.6164   24399735.0874   24399726.593
        43.0004         38.0004
  -5663016.90447  -4387103.82846  23643491.5344   23643496.1614   23643490.745
        44.0004         39.0004
 -13300063.49548 -10308726.93847  21615462.3584   21615465.7374   21615462.144
        51.0004         46.0004
 -17899556.82048 -13907262.54847  21544930.4734   21544935.6124   21544930.967
        49.0004         45.0004
 -27113100.65448 -21075673.92848  20442962.2564   20442967.7384   20442961.793
        53.0004         49.0004
  -6192931.11547  -4787718.96046  24554915.3554   24554920.6914   24554914.416
        43.0004         38.0004
 -14165998.18948 -11005473.39047  21576648.4214   21576652.0464   21576648.046
        50.0004         46.0004
 -20846262.95748 -16237847.05047  21545384.0364   21545389.4254   21545384.982
        50.0004         46.0004
  -7284991.62647  -5628996.04046  23901319.1144   23901327.6174   23901318.819
        45.0004         40.0004
 14  5 28  0 49 30.0000000  0 10G30G26G07G02G08G04G05G28G10G17
  -3902533.51448  -3031636.99147  21591888.1664   21591893.8544   21591887.630
        51.0004         47.0004
    488295.80347    393989.46146  24402658.3954   24402665.0264   24402657.567
        43.0004         38.0004
  -5557393.61947  -4304799.95746  23663591.9124   23663595.4404   23663590.410
        44.0004         39.0004
 -13325448.89648 -10328507.73047  21610630.7394   21610634.0744   21610631.458
        51.0004         46.0004
 -17807293.65048 -13835369.15047  21562487.9024   21562492.5604   21562487.888
        49.0004         45.0004
 -27084912.58448 -21053709.20448  20448325.9354   20448331.6934   20448325.560
        53.0004         49.0004
  -6283192.15147  -4858052.07246  24537739.1084   24537743.2944   24537737.956
        43.0004         38.0004
 -14210923.50448 -11040480.08547  21568098.7714   21568103.7164   21568099.370
        50.0004         46.0004
 -20911465.67648 -16288654.32747  21532976.8334   21532981.8384   21532977.211
        50.0004         46.0004
  -7267782.72947  -5615586.41946  23904593.3114   23904601.3424   23904593.448
        45.0004         40.0004
 14  5 28  0 50  0.0000000  0 10G30G26G07G02G08G04G05G28G10G17
  -3823407.45248  -2969980.30247  21606944.9584   21606951.1914   21606944.814
        51.0004         47.0004
    503633.18747    405940.78246  24405576.5394   24405583.1744   24405576.735
        43.0004         38.0004
  -5451752.78447  -4222482.40346  23683693.2174   23683697.7074   23683693.110
        44.0004         39.0004
 -13350383.48548 -10347937.23447  21605886.8024   21605889.2144   21605887.200
        51.0004         47.0004
 -17714718.69348 -13763232.80847  21580104.4764   21580109.2714   21580104.237
        49.0004         45.0004
 -27056245.93848 -21031371.56248  20453781.3564   20453786.7354   20453781.020
        53.0004         49.0004
  -6373586.40347  -4928489.00446  24520537.0464   24520541.4564   24520536.197
        43.0004         38.0004
 -14255556.56248 -11075259.04647  21559605.5824   21559609.2844   21559605.591
        50.0004         46.0004
 -20976470.38448 -16339307.31047  21520606.8324   21520611.6274   21520607.451
        50.0004         46.0004
  -7250809.48747  -5602360.42846  23907824.2574   23907831.6734   23907823.408
        45.0004         40.0004
 14  5 28  0 50 30.0000000  0 10G30G26G07G02G08G04G05G28G10G17
  -3744007.86548  -2908110.47447  21622054.1024   21622060.6984   21622054.290
        51.0004         47.0004
    518902.19447    417838.83546  24408482.5894   24408488.5834   24408481.253
        43.0004         38.0004
  -5346099.97347  -4140155.51546  23703798.4624   23703802.6234   23703797.951
        44.0004         39.0004
 -13374870.36748 -10367017.89147  21601226.8734   21601229.6034   21601226.582
        51.0004         46.0004
 -17621838.24548 -13690858.42047  21597778.0234   21597783.3544   21597778.964
        49.0004         45.0004
 -27027105.66448 -21008664.86348  20459326.3084   20459331.5584   20459326.006
        53.0004         49.0004
  -6464114.69047  -4999030.37846  24503310.0764   24503316.0064   24503309.399
        42.0004         38.0004
 -14299897.02348 -11109810.00547  21551167.0864   21551172.1284   21551167.581
        50.0004         46.0004
 -21041276.98148 -16389805.92047  21508274.0974   21508279.7714   21508274.592
        50.0004         46.0004
  -7234075.00147  -5589320.48346  23911007.8454   23911017.0924   23911007.691
        44.0004         40.0004
 14  5 28  0 51  0.0000000  0 10G30G26G07G02G08G04G05G28G10G17
  -3664337.28348  -2846029.48347  21637214.2904   21637221.4034   21637214.518
        51.0004         47.0004
    534101.12447    429682.27946  24411373.4554   24411380.9354   24411373.577
        43.0004         38.0004
  -5240437.66347  -4057821.22846  23723906.0114   23723910.2734   23723905.382
        44.0004         39.0004
 -13398909.57848 -10385749.69647  21596651.5614   21596655.0774   21596652.011
        51.0004         46.0004
 -17528655.34348 -13618248.35447  21615510.7034   21615514.7504   21615510.911
        49.0004         45.0004
 -26997493.26748 -20985590.27548  20464962.0134   20464966.9124   20464961.269
        53.0004         49.0004
  -6554775.05547  -5069674.65846  24486059.2914   24486063.8124   24486057.428
        42.0004         38.0004
 -14343941.98048 -11144130.70847  21542786.2844   21542790.6504   21542786.390
        50.0004         46.0004
 -21105882.46748 -16440147.82247  21495980.2244   21495985.2674   21495980.987
        50.0004         46.0004
  -7217579.39247  -5576466.68146  23914146.9334   23914154.6614   23914146.816
        44.0004         39.0004
 14  5 28  0 51 30.0000000  0 10G30G26G07G02G08G04G05G28G10G17
  -3584397.87048  -2783739.00847  21652426.6644   21652433.1084   21652426.859
        51.0004         47.0004
    549228.63347    441470.07346  24414252.7224   24414259.6704   24414252.190
        43.0004         38.0004
  -5134767.63747  -3975480.93046  23744013.6064   23744017.8074   23744013.366
        44.0004         39.0004
 -13422500.38448 -10404132.10947  21592163.0824   21592165.8264   21592163.487
        51.0004         46.0004
 -17435172.71548 -13545404.73447  21633300.3544   21633304.5594   21633299.992
        49.0004         44.0004
 -26967409.90348 -20962148.69648  20470685.9014   20470691.3924   20470685.875
        53.0004         49.0004
  -6645564.63247  -5140419.62746  24468781.0084   24468785.3834   24468781.011
        43.0004         38.0004
 -14387687.82548 -11178218.34047  21534461.4784   21534465.6754   21534461.732
        50.0004         46.0004
 -21170283.19248 -16490330.17747  21483725.8694   21483730.6124   21483725.641
        51.0004         46.0004
  -7201322.01247  -5563798.51546  23917240.3194   23917248.4234   23917240.018
        44.0004         40.0004
 14  5 28  0 52  0.0000000  0 10G30G26G07G02G08G04G05G28G10G17
  -3504192.75748  -2721241.50047  21667689.4644   21667695.8964   21667689.451
        51.0004         47.0004
    564282.63447    453200.59446  24417117.9584   24417124.3924   24417117.519
        43.0004         38.0004
  -5029092.90847  -3893136.97546  23764122.4114   23764126.6974   23764122.367
        44.0004         39.0004
 -13445643.46348 -10422165.64047  21587758.5194   21587761.7574   21587758.924
        51.0004         47.0004
 -17341394.11448 -13472330.48347  21651144.3234   21651150.1574   21651145.419
        49.0004         44.0004
 -26936858.01748 -20938342.03948  20476499.6934   20476505.4234   20476499.677
        53.0004         49.0004
  -6736482.08647  -5211264.25146  24451480.0314   24451484.4074   24451479.831
        43.0004         38.0004
 -14431131.82948 -11212070.77147  21526194.6634   21526199.0744   21526194.881
        50.0004         46.0004
 -21234476.21248 -16540350.67847  21471509.3424   21471514.5934   21471510.372
        51.0004         46.0004
  -7185303.13747  -5551316.19246  23920290.0294   23920296.5564   23920288.581
        44.0004         40.0004
 14  5 28  0 52 30.0000000  0 10G30G26G07G02G08G04G05G28G10G17
  -3423725.41148  -2658539.65947  21683001.9454   21683007.9444   21683001.928
        51.0004         47.0004
    579260.42347    464871.71546  24419967.8674   24419974.6814   24419966.857
        43.0004         38.0004
  -4923416.67747  -3810791.85146  23784233.0724   23784235.5154   23784232.223
        44.0004         39.0004
 -13468339.28448 -10439850.65447  21583439.7854   21583443.0574   21583439.614
        51.0004         46.0004
 -17247323.70348 -13399028.85947  21669046.3484   21669050.3164   21669046.441
        49.0004         44.0004
 -26905840.04448 -20914172.19648  20482402.3694   20482407.8374   20482402.169
        53.0004         49.0004
  -6827526.12647  -5282207.51246  24434154.2064   24434159.8104   24434154.423
        43.0004         38.0004
 -14474271.73848 -11245686.23547  21517984.7294   21517989.3014   21517985.128
        50.0004         46.0004
 -21298459.08848 -16590207.43647  21459333.8004   21459339.1484   21459334.670
        51.0004         46.0004
  -7169524.13047  -5539020.77746  23923291.6384   23923299.2394   23923290.692
        44.0004         40.0004
 14  5 28  0 53  0.0000000  0 10G30G26G07G02G08G04G05G28G10G17
  -3342997.49648  -2595634.77347  21698364.3014   21698370.3444   21698364.151
        51.0004         47.0004
    594161.29847    476482.91546  24422802.9874   24422809.7484   24422802.647
        43.0004         38.0004
  -4817740.25147  -3728446.56246  23804342.3054   23804345.5744   23804342.068
        43.0004         39.0004
 -13490586.95848 -10457186.46647  21579206.1824   21579209.2584   21579207.188
        51.0004         46.0004
 -17152963.52348 -13325501.42547  21687002.1354   21687007.8024   21687002.445
        49.0004         44.0004
 -26874356.85648 -20889639.84948  20488393.6484   20488399.1074   20488393.457
        53.0004         49.0004
  -6918693.42747  -5353246.81746  24416806.1804   24416810.9434   24416805.730
        43.0004         39.0004
 -14517103.38448 -11279061.50147  21509834.0694   21509838.2034   21509834.766
        50.0004         46.0004
 -21362227.98848 -16639897.45547  21447198.9614   21447204.7644   21447199.687
        51.0004         46.0004
  -7153983.49747  -5526911.10446  23926249.5054   23926256.7674   23926248.226
        45.0004         40.0004
 14  5 28  0 53 30.0000000  0 10G30G26G07G02G08G04G05G28G10G17
  -3262010.85748  -2532528.28847  21713774.9344   21713782.0224   21713775.036
        51.0004         47.0004
    608984.29647    488033.42046  24425622.7234   24425629.6884   24425622.978
        43.0004         38.0004
  -4712065.39147  -3646102.50546  23824451.7854   23824455.5224   23824450.983
        44.0004         39.0004
 -13512385.98448 -10474172.69047  21575057.9194   21575060.5454   21575057.898
        51.0004         46.0004
 -17058316.24148 -13251750.28847  21705013.4394   21705018.0884   21705013.788
        49.0004         44.0004
 -26842409.15748 -20864745.54748  20494472.7974   20494478.6044   20494472.676
        53.0004         49.0004
  -7009981.35647  -5424380.11546  24399434.0604   24399439.3654   24399434.013
        44.0004         39.0004
 -14559622.75548 -11312193.42947  21501742.8944   21501747.6514   21501743.360
        51.0004         46.0004
 -21425778.70048 -16689417.46647  21435105.8204   21435110.7834   21435106.324
        51.0004         46.0004
  -7138680.92147  -5514986.93246  23929161.2784   23929168.4234   23929160.337
        44.0004         40.0004
 14  5 28  0 54  0.0000000  0 10G30G26G07G02G08G04G05G28G10G17
  -3180771.84048  -2469225.14547  21729234.3354   21729241.1564   21729234.232
        51.0004         47.0004
    623724.05347    499519.07846  24428427.2984   24428434.2894   24428428.694
        43.0004         38.0004
  -4606398.33347  -3563764.52146  23844559.7404   23844563.6854   23844559.010
        43.0004         39.0004
 -13533740.18648 -10490812.28047  21570994.8534   21570997.5954   21570994.607
        51.0004         47.0004
 -16963388.56548 -13177780.65447  21723076.9604   21723081.8644   21723077.485
        49.0004         44.0004
 -26810002.70448 -20839493.77748  20500639.7364   20500645.3204   20500639.362
        53.0004         49.0004
  -7101391.60147  -5495608.73246  24382040.0164   24382043.3944   24382039.088
        44.0004         39.0004
 -14601830.54348 -11345082.57747  21493710.9304   21493715.9494   21493711.576
        51.0004         46.0004
 -21489111.84548 -16738767.94447  21423054.2424   21423059.7094   21423054.809
        51.0004         46.0004
  -7123619.73347  -5503250.86446  23932026.0434   23932034.2694   23932026.019
        44.0004         40.0004
 14  5 28  0 54 30.0000000  0 10G30G26G07G02G08G04G05G28G10G17
  -3099281.15048  -2405725.89247  21744741.8694   21744747.7624   21744741.647
        51.0004         47.0004
    638380.76547    510940.02246  24431217.0734   24431223.2124   24431216.745
        43.0004         38.0004
  -4500739.38147  -3481432.85046  23864665.0814   23864669.6794   23864665.106
        43.0004         39.0004
 -13554647.59148 -10507103.73847  21567016.1064   21567018.5124   21567016.589
        51.0004         47.0004
 -16868181.82148 -13103593.56547  21741194.8534   21741199.0814   21741195.013
        49.0004         44.0004
 -26777137.26648 -20813884.35048  20506894.0684   20506899.3654   20506893.625
        53.0004         49.0004
  -7192919.68947  -5566929.17446  24364622.6874   24364627.3464   24364621.683
        44.0004         39.0004
 -14643721.68048 -11377724.97547  21485739.5104   21485744.8574   21485739.769
        51.0004         46.0004
 -21552222.46748 -16787945.02847  21411044.3014   21411049.3744   21411044.939
        51.0004         46.0004
  -7108797.92247  -5491701.30846  23934846.7804   23934853.9344   23934846.413
        44.0004         40.0004
 14  5 28  0 55  0.0000000  0 10G30G26G07G02G08G04G05G28G10G17
  -3017541.37748  -2342032.54947  21760295.9874   21760302.5924   21760295.891
        51.0004         46.0004
    652952.76547    522294.94846  24433989.7984   24433996.1274   24433989.897
        43.0004         38.0004
  -4395090.73147  -3399109.20846  23884770.3144   23884774.0124   23884769.251
        43.0004         39.0004
 -13575107.89348 -10523046.80447  21563122.3944   21563125.5014   21563122.153
        51.0004         47.0004
 -16772698.84048 -13029191.23247  21759365.0664   21759369.7644   21759364.621
        49.0004         44.0004
 -26743814.53148 -20787918.59348  20513234.8144   20513240.4834   20513234.506
        53.0004         49.0004
  -7284563.43147  -5638339.74046  24347183.2184   24347187.4334   24347182.233
        44.0004         39.0004
 -14685293.01248 -11410118.18247  21477829.0994   21477832.9694   21477829.483
        51.0004         46.0004
 -21615107.24348 -16836946.13347  21399077.7124   21399083.7304   21399078.752
        51.0004         46.0004
  -7094215.33847  -5480338.17846  23937621.0374   23937629.0074   23937621.661
        44.0004         40.0004
 14  5 28  0 55 30.0000000  0 10G30G26G07G02G08G04G05G28G10G17
  -2935557.28248  -2278148.82147  21775897.1944   21775903.4404   21775897.080
        51.0004         46.0004
    667436.19847    533580.88046  24436745.8144   24436752.5104   24436745.880
        43.0004         38.0004
  -4289456.96747  -3316797.17546  23904870.7674   23904876.4604   23904869.889
        43.0004         39.0004
 -13595123.59448 -10538643.42147  21559313.4884   21559316.0984   21559313.875
        51.0004         47.0004
 -16676945.12148 -12954577.93347  21777584.6954   21777590.6744   21777586.090
        49.0004         44.0004
 -26710038.55448 -20761599.66148  20519662.6124   20519667.7764   20519661.872
        53.0004         49.0004
  -7376322.91647  -5709840.49646  24329722.0234   24329726.2974   24329720.708
        43.0004         39.0004
 -14726543.72648 -11442261.55147  21469979.3014   21469983.6464   21469979.286
        51.0004         46.0004
 -21677764.91948 -16885770.27347  21387154.7014   21387159.4664   21387155.051
        51.0004         46.0004
  -7079873.96047  -5469162.99646  23940350.4844   23940358.2794   23940350.241
        45.0004         40.0004
 14  5 28  0 56  0.0000000  0 10G30G26G07G02G08G04G05G28G10G17
  -2853328.48248  -2214074.42347  21791544.7214   21791550.9864   21791544.509
        51.0004         46.0004
    681832.54647    544798.94046  24439485.4934   24439492.0514   24439485.691
        43.0004         38.0004
  -4183837.49047  -3234496.27746  23924970.5124   23924973.5154   23924969.010
        43.0004         39.0004
 -13614691.42448 -10553891.05147  21555590.1954   21555592.6874   21555590.265
        51.0004         47.0004
 -16580920.69448 -12879753.69047  21795858.0604   21795863.0654   21795859.117
        49.0004         44.0004
 -26675808.22248 -20734926.67948  20526176.2724   20526181.5414   20526175.568
        53.0004         48.0004
  -7468192.71047  -5781427.22046  24312239.1684   24312244.2314   24312238.227
        43.0004         38.0004
 -14767467.43348 -11474150.11547  21462191.3894   21462195.9084   21462191.851
        51.0004         46.0004
 -21740189.03348 -16934412.42547  21375275.6444   21375280.4824   21375276.557
        51.0004         47.0004
  -7065770.70947  -5458173.37446  23943034.0844   23943042.3044   23943034.305
        45.0004         40.0004
 14  5 28  0 56 30.0000000  0 10G30G26G07G02G08G04G05G28G10G17
  -2770861.88348  -2149814.71847  21807237.2544   21807244.0924   21807237.370
        51.0004         46.0004
    696135.75947    555944.41946  24442206.6454   24442212.8234   24442207.509
        43.0004         38.0004
  -4078238.67547  -3152211.47046  23945065.0714   23945068.2934   23945064.110
        43.0004         39.0004
 -13633816.31448 -10568793.53247  21551950.4354   21551953.9344   21551950.907
        51.0004         47.0004
 -16484633.17648 -12804724.44247  21814180.6834   21814185.4014   21814181.783
        49.0004         44.0004
 -26641129.42348 -20707904.25248  20532775.2504   20532781.0214   20532775.019
        53.0004         49.0004
  -7560175.28547  -5853101.81446  24294735.9124   24294740.0124   24294734.389
        43.0004         38.0004
 -14808065.33948 -11505784.80847  21454465.9964   21454470.8244   21454466.376
        51.0004         46.0004
 -21802380.96348 -16982873.64447  21363440.8044   21363446.0054   21363441.513
        51.0004         47.0004
  -7051909.49447  -5447372.33746  23945671.6934   23945679.5464   23945672.059
        45.0004         40.0004
 14  5 28  0 57  0.0000000  0 10G30G26G07G02G08G04G05G28G10G17
  -2688158.25148  -2085370.32047  21822975.2534   21822982.0214   21822975.440
        51.0004         46.0004
    710346.01247    567017.48346  24444910.9424   24444917.6184   24444910.611
        43.0004         38.0004
  -3972661.28947  -3069943.37646  23965155.1614   23965158.3654   23965154.842
        43.0004         39.0004
 -13652496.54348 -10583349.52447  21548396.2014   21548399.1344   21548396.034
        51.0004         47.0004
 -16388084.06048 -12729491.34347  21832553.7624   21832559.0814   21832554.052
        48.0004         44.0004
 -26606002.37148 -20680532.53248  20539459.5134   20539464.9564   20539459.469
        53.0004         48.0004
  -7652266.59847  -5924861.14246  24277211.2314   24277215.1324   24277209.996
        43.0004         38.0004
 -14848332.56148 -11537161.82047  21446802.9124   21446808.4044   21446803.403
        51.0004         46.0004
 -21864335.58048 -17031149.94947  21351651.5574   21351656.3484   21351652.121
        51.0004         47.0004
  -7038288.69147  -5436758.63646  23948264.5214   23948271.2644   23948263.246
        45.0004         40.0004
 14  5 28  0 57 30.0000000  0 10G30G26G07G02G08G04G05G28G10G17
  -2605219.93448  -2020743.05147  21838758.3944   21838764.2204   21838757.991
        51.0004         46.0004
    724461.98247    578017.05646  24447597.4334   24447603.2464   24447597.952
        43.0004         38.0004
  -3867107.16247  -2987693.39146  23985242.2224   23985245.5734   23985240.655
        43.0004         39.0004
 -13670731.59648 -10597558.62847  21544926.1434   21544928.7794   21544926.417
        51.0004         47.0004
 -16291275.89548 -12654056.39647  21850976.3214   21850982.0414   21850976.344
        48.0004         44.0004
 -26570428.80148 -20652812.88148  20546229.2784   20546234.6644   20546229.014
        53.0004         48.0004
  -7744463.47647  -5996702.74746  24259665.7924   24259670.4844   24259665.230
        43.0004         39.0004
 -14888265.72148 -11568278.52647  21439205.0584   21439208.7184   21439204.585
        51.0004         46.0004
 -21926049.31348 -17079238.55547  21339907.3804   21339912.5394   21339908.428
        51.0004         47.0004
  -7024907.40047  -5426331.56746  23950810.1034   23950817.9444   23950809.958
        45.0004         40.0004
 14  5 28  0 58  0.0000000  0 10G30G26G07G02G08G04G05G28G10G17
  -2522050.97048  -1955936.05747  21854584.6174   21854591.5364   21854584.544
        51.0004         46.0004
    738480.64947    588940.80746  24450265.4744   24450270.5924   24450265.183
        43.0004         38.0004
  -3761579.95147  -2905464.38846  24005323.2374   24005325.8814   24005321.887
        43.0004         38.0004
 -13688523.31148 -10611422.27747  21541539.8064   21541542.6334   21541540.165
        51.0004         47.0004
 -16194213.34548 -12578423.23147  21869445.9334   21869452.5484   21869446.032
        48.0004         44.0004
 -26534411.77848 -20624747.67548  20553082.7504   20553088.5264   20553082.655
        53.0004         49.0004
  -7836765.17347  -6068626.03246  24242101.6414   24242106.4994   24242100.989
        44.0004         39.0004
 -14927863.31948 -11599133.76147  21431669.6084   21431673.6214   21431669.285
        51.0004         46.0004
 -21987520.46548 -17127138.13047  21328210.1424   21328214.8874   21328210.514
        51.0004         47.0004
  -7011767.53147  -5416092.61146  23953311.0594   23953318.8384   23953310.382
        45.0004         40.0004
 14  5 28  0 58 30.0000000  0 10G30G26G07G02G08G04G05G28G10G17
  -2438654.06048  -1890951.43947  21870454.4384   21870461.1364   21870454.468
        51.0004         46.0004
    752400.25847    599787.39146  24452914.7884   24452920.7864   24452912.591
        43.0004         38.0004
  -3656081.90247  -2823258.11646  24025398.5194   24025403.0624   24025397.531
        43.0004         38.0004
 -13705871.99248 -10624940.70847  21538238.5734   21538241.9574   21538239.434
        51.0004         47.0004
 -16096899.74848 -12502594.44247  21887964.3934   21887968.3214   21887964.840
        48.0004         44.0004
 -26497953.27848 -20596338.46948  20560020.9554   20560026.3744   20560020.589
        53.0004         48.0004
  -7929170.24547  -6140629.86646  24224517.2794   24224522.5844   24224516.439
        44.0004         39.0004
 -14967122.18148 -11629725.04547  21424198.3384   21424202.5434   21424198.583
        51.0004         46.0004
 -22048745.69648 -17174846.08247  21316559.1954   21316564.0804   21316559.818
        51.0004         47.0004
  -6998868.69147  -5406041.47746  23955765.1864   23955772.4484   23955765.189
        45.0004         40.0004
 14  5 28  0 59  0.0000000  0 10G30G26G07G02G08G04G05G28G10G17
  -2355030.71248  -1825790.37347  21886368.1924   21886373.7264   21886367.693
        51.0004         46.0004
    766220.38647    610556.45646  24455542.9894   24455550.0804   24455543.633
        43.0004         38.0004
  -3550614.16047  -2741075.45746  24045468.0744   24045472.1274   24045467.785
        43.0004         38.0004
 -13722776.72348 -10638113.20547  21535021.7124   21535024.7274   21535022.017
        51.0004         47.0004
 -15999337.21048 -12426571.66947  21906530.1264   21906535.3314   21906529.893
        48.0004         44.0004
 -26461054.43048 -20567586.13048  20567041.9584   20567048.1854   20567041.902
        53.0004         48.0004
  -8021675.01547  -6212711.37146  24206913.2424   24206918.5464   24206913.321
        44.0004         39.0004
 -15006037.97948 -11660049.01747  21416792.8084   21416797.3394   21416793.353
        51.0004         46.0004
 -22109720.75048 -17222359.09447  21304955.5464   21304960.9744   21304956.385
        51.0004         47.0004
  -6986209.50347  -5396177.09546  23958174.8234   23958181.5864   23958173.491
        45.0004         40.0004
 14  5 28  0 59 30.0000000  0 10G30G26G07G02G08G04G05G28G10G17
  -2271186.16648  -1760456.95447  21902322.0534   21902329.0014   21902322.395
        50.0004         46.0004
    779936.73547    621244.62246  24458153.6004   24458160.1354   24458154.251
        43.0004         38.0004
  -3445182.04547  -2658920.55246  24065531.3704   24065533.9864   24065531.191
        43.0004         38.0004
 -13739240.29148 -10650941.93747  21531889.3594   21531892.3734   21531889.293
        51.0004         47.0004
 -15901531.43448 -12350359.36547  21925142.0214   21925146.1914   21925142.162
        48.0004         43.0004
 -26423719.52848 -20538494.00848  20574147.3494   20574152.7864   20574146.854
        53.0004         48.0004
  -8114279.55347  -6284870.62346  24189292.3374   24189296.9284   24189291.696
        44.0004         39.0004
 -15044610.62348 -11690105.58947  21409452.7294   21409456.8684   21409453.019
        51.0004         46.0004
 -22170444.91948 -17269676.61447  21293400.6924   21293405.4004   21293401.253
        51.0004         47.0004
  -6973792.29647  -5386501.26646  23960536.8164   23960545.0084   23960537.061
        44.0004         40.0004
 14  5 28  1  0  0.0000000  0 10G30G26G07G02G08G04G05G28G10G17
  -2187120.98548  -1694951.60547  21918319.5834   21918326.0074   21918319.475
        50.0004         46.0004
    793549.75447    631852.30046  24460744.2734   24460750.3024   24460743.101
        43.0004         38.0004
  -3339785.57747  -2576793.44246  24085588.2934   24085591.9024   24085587.286
        43.0004         38.0004
 -13755260.85848 -10663425.47347  21528840.4064   21528842.9654   21528840.571
        51.0004         47.0004
 -15803483.39748 -12273958.28547  21943798.6774   21943805.1844   21943799.959
        48.0004         43.0004
 -26385948.27148 -20509061.87648  20581334.7064   20581340.3664   20581334.041
        53.0004         48.0004
  -8206979.38147  -6357104.12846  24171651.7084   24171657.0624   24171651.332
        44.0004         39.0004
 -15082834.65248 -11719890.51347  21402179.3924   21402183.1074   21402179.146
        51.0004         46.0004
 -22230912.89248 -17316794.49447  21281893.7344   21281899.4764   21281894.225
        51.0004         47.0004
  -6961614.58947  -5377012.06046  23962853.6324   23962863.1744   23962853.640
        44.0004         40.0004
 14  5 28  1  0 30.0000000  0 10G30G26G07G02G08G04G05G28G10G17
  -2102839.99048  -1629278.09247  21934357.9094   21934363.8614   21934357.644
        50.0004         46.0004
    807055.73947    642376.57146  24463313.2654   24463320.1894   24463313.839
        43.0004         38.0004
  -3234428.81647  -2494697.26546  24105635.6414   24105640.5154   24105635.523
        43.0004         38.0004
 -13770840.76848 -10675565.64247  21525875.4474   21525878.2644   21525875.774
        51.0004         47.0004
 -15705198.43348 -12197372.59247  21962502.9674   21962508.3434   21962503.042
        48.0004         43.0004
 -26347745.25048 -20479293.30148  20588604.1754   20588610.0624   20588604.282
        53.0004         48.0004
  -8299774.84047  -6429412.15046  24153992.4134   24153997.9784   24153991.913
        44.0004         39.0004
 -15120709.37148 -11749403.25447  21394971.0864   21394976.0364   21394971.692
        51.0004         46.0004
 -22291123.98048 -17363712.20547  21270436.2614   21270441.8734   21270436.578
        51.0004         47.0004
  -6949678.58347  -5367711.19946  23965124.9974   23965131.9524   23965124.927
        44.0004         40.0004
 14  5 28  1  1  0.0000000  0 10G30G26G07G02G08G04G05G28G10G17
  -2018345.92148  -1563438.55247  21950436.2784   21950443.4724   21950436.198
        50.0004         46.0004
    820452.91847    652816.04346  24465862.8044   24465870.0854   24465863.535
        43.0004         38.0004
  -3129114.40447  -2412634.09346  24125676.8054   24125681.1044   24125676.383
        43.0004         38.0004
 -13785980.75648 -10687363.01847  21522994.4354   21522997.6464   21522994.795
        51.0004         47.0004
 -15606679.92448 -12120604.90747  21981249.4574   21981255.4004   21981250.073
        48.0004         43.0004
 -26309112.08648 -20449189.55048  20595956.4364   20595961.4004   20595956.117
        53.0004         48.0004
  -8392663.26147  -6501792.60946  24136316.8304   24136321.3444   24136316.735
        44.0004         39.0004
 -15158231.89448 -11778641.55147  21387831.1924   21387835.2924   21387831.379
        51.0004         46.0004
 -22351074.66448 -17410426.99647  21259027.1104   21259032.5354   21259028.017
        51.0004         47.0004
  -6937983.95047  -5358598.41846  23967351.8584   23967358.5064   23967350.862
        45.0004         40.0004
 14  5 28  1  1 30.0000000  0 10G30G26G07G02G08G04G05G28G10G17
  -1933640.54748  -1497434.35847  21966555.4344   21966561.9114   21966555.400
        50.0004         46.0004
    833740.53147    663170.16146  24468391.5794   24468397.1124   24468391.228
        43.0004         38.0004
  -3023843.54947  -2330604.86446  24145709.5154   24145712.3094   24145709.005
        43.0004         38.0004
 -13800680.13648 -10698817.05847  21520197.2524   21520199.8964   21520197.675
        51.0004         47.0004
 -15507930.20948 -12043657.06447  22000041.3424   22000046.8204   22000041.441
        48.0004         43.0004
 -26270050.54248 -20418752.00048  20603389.1994   20603394.8134   20603388.894
        53.0004         48.0004
  -8485641.76447  -6574243.29146  24118624.0024   24118628.0194   24118623.662
        44.0004         39.0004
 -15195398.63548 -11807602.61847  21380759.0144   21380763.2204   21380758.856
        51.0004         46.0004
 -22410761.32748 -17456936.07247  21247670.1854   21247674.9854   21247670.253
        51.0004         47.0004
  -6926529.83747  -5349673.06546  23969531.0464   23969538.0894   23969530.030
        45.0004         40.0004
 14  5 28  1  2  0.0000000  0 10G30G26G07G02G08G04G05G28G10G17
  -1848726.22848  -1431267.34547  21982714.3924   21982719.7704   21982713.597
        50.0004         46.0004
    846917.33247    673437.92446  24470898.4504   24470905.8944   24470897.771
        43.0004         38.0004
  -2918618.40647  -2248611.25646  24165732.9904   24165737.1284   24165732.770
        43.0004         38.0004
 -13814939.11648 -10709927.93947  21517484.0384   21517486.8794   21517484.295
        51.0004         47.0004
 -15408951.98948 -11966531.17047  22018876.1304   22018882.3814   22018876.173
        48.0004         43.0004
 -26230561.90548 -20387981.65048  20610903.8384   20610909.3054   20610903.567
        53.0004         48.0004
  -8578707.58447  -6646761.99246  24100913.2044   24100919.1324   24100913.747
        44.0004         40.0004
 -15232205.86448 -11836283.54647  21373754.5224   21373758.8744   21373754.667
        51.0004         46.0004
 -22470180.13648 -17503236.41947  21236362.9944   21236367.9534   21236363.678
        51.0004         47.0004
  -6915315.50147  -5340934.54646  23971664.5704   23971671.8494   23971663.957
        45.0004         40.0004
 14  5 28  1  2 30.0000000  0 10G30G26G07G02G08G04G05G28G10G17
  -1763607.19848  -1364940.81847  21998911.6314   21998918.2384   21998911.541
        50.0004         46.0004
    859980.12947    683616.86346  24473384.8434   24473391.0594   24473384.619
        43.0004         38.0004
  -2813442.65747  -2166656.13246  24185746.5644   24185751.2704   24185746.037
        43.0004         38.0004
 -13828759.37848 -10720696.95747  21514854.0924   21514856.4764   21514854.157
        51.0004         47.0004
 -15309750.04448 -11889230.93647  22037753.7154   22037759.3054   22037753.927
        48.0004         43.0004
 -26190650.19348 -20356881.62948  20618498.7584   20618503.8594   20618498.433
        53.0004         48.0004
  -8671860.14447  -6719348.29346  24083187.6724   24083192.1654   24083186.319
        44.0004         39.0004
 -15268652.38148 -11864683.40147  21366818.7014   21366822.8894   21366819.109
        51.0004         46.0004
 -22529329.34348 -17549326.69147  21225106.8844   21225111.8934   21225107.537
        51.0004         47.0004
  -6904342.31047  -5332383.92646  23973752.5374   23973759.4354   23973752.189
        45.0004         40.0004
 14  5 28  1  3  0.0000000  0 10G30G26G07G02G08G04G05G28G10G17
  -1678286.24848  -1298456.95047  22015147.7944   22015153.9114   22015147.503
        50.0004         45.0004
    872927.20247    693705.61646  24475848.8644   24475855.1854   24475848.863
        43.0004         38.0004
  -2708319.10347  -2084741.69246  24205751.1894   24205756.7494   24205751.211
        42.0004         38.0004
 -13842142.04648 -10731124.99547  21512307.6904   21512309.7614   21512307.575
        51.0004         47.0004
 -15210327.84548 -11811759.07947  22056672.3394   22056678.6434   22056673.978
        48.0004         43.0004
 -26150317.44848 -20325453.53148  20626173.8164   20626179.4394   20626173.503
        53.0004         48.0004
  -8765097.17447  -6792000.42246  24065444.8314   24065450.2924   24065443.579
        44.0004         39.0004
 -15304735.29848 -11892799.92947  21359952.3784   21359956.9984   21359952.801
        51.0004         46.0004
 -22588206.06648 -17595204.63147  21213903.3644   21213908.3524   21213903.831
        51.0004         47.0004
  -6893609.77947  -5324020.83946  23975795.1264   23975802.3924   23975794.464
        45.0004         40.0004
 14  5 28  1  3 30.0000000  0 10G30G26G07G02G08G04G05G28G10G17
  -1592766.99248  -1231818.55747  22031421.1714   22031427.2484   22031421.400
        50.0004         45.0004
    885755.97847    703702.18846  24478288.9704   24478295.7164   24478289.382
        43.0004         38.0004
  -2603250.14947  -2002869.77846  24225746.7204   24225750.0474   24225744.236
        42.0004         38.0004
 -13855087.88048 -10741212.64447  21509843.5484   21509846.1544   21509844.117
        51.0004         47.0004
 -15110689.50348 -11734118.80547  22075634.4714   22075638.8744   22075633.604
        48.0004         43.0004
 -26109566.56548 -20293699.61948  20633928.6534   20633933.7444   20633928.069
        53.0004         48.0004
  -8858417.24247  -6864717.25046  24047686.4694   24047690.8504   24047685.440
        44.0004         40.0004
 -15340452.72748 -11920631.67247  21353155.4924   21353160.2274   21353156.129
        51.0004         46.0004
 -22646808.25948 -17640868.65847  21202751.1834   21202755.9514   21202751.997
        51.0004         47.0004
  -6883119.13647  -5315846.23746  23977790.9934   23977798.3354   23977790.530
        45.0004         40.0004
 14  5 28  1  4  0.0000000  0 10G30G26G07G02G08G04G05G28G10G17
  -1507049.89448  -1165026.00347  22047732.3504   22047739.7144   22047732.198
        50.0004         45.0004
    898467.06247    713607.06746  24480707.5364   24480715.7124   24480707.315
        43.0004         38.0004
  -2498236.02747  -1921040.59546  24245729.0274   24245733.2004   24245728.137
        42.0004         38.0004
 -13867595.43748 -10750958.78047  21507463.3154   21507466.4944   21507463.946
        51.0004         47.0004
 -15010836.09748 -11656310.94347  22094636.4064   22094640.4054   22094635.246
        48.0004         43.0004
 -26068397.76748 -20261620.05348  20641762.6654   20641768.1374   20641762.371
        53.0004         48.0004
  -8951815.94747  -6937495.34946  24029913.2464   24029917.7584   24029912.618
        44.0004         40.0004
 -15375799.52148 -11948174.59747  21346429.6704   21346434.5624   21346429.452
        51.0004         46.0004
 -22705130.64548 -17686314.65247  21191653.1634   21191658.2784   21191653.968
        51.0004         47.0004
  -6872867.75347  -5307858.06646  23979741.9454   23979749.0084   23979741.840
        45.0004         40.0004
 14  5 28  1  4 30.0000000  0 10G30G26G07G02G08G04G05G28G10G17
  -1421140.63548  -1098083.71647  22064080.7384   22064086.9684   22064080.489
        50.0004         45.0004
    911056.00147    723416.75146  24483103.2394   24483110.2834   24483103.872
        43.0004         38.0004
  -2393281.96547  -1839258.22546  24265701.5864   24265705.3124   24265700.697
        42.0004         38.0004
 -13879668.16448 -10760366.08547  21505165.9864   21505168.8144   21505166.659
        51.0004         47.0004
 -14910773.46947 -11578340.06247  22113677.7044   22113681.3914   22113676.762
        47.0004         43.0004
 -26026815.73348 -20229218.49048  20649675.3364   20649680.8604   20649674.785
        53.0004         48.0004
  -9045293.74147  -7010335.07946  24012125.4154   24012129.8984   24012124.293
        44.0004         40.0004
 -15410775.69948 -11975428.73547  21339773.7044   21339777.9044   21339774.213
        51.0004         46.0004
 -22763172.79948 -17731542.28347  21180607.9584   21180613.2144   21180608.656
        52.0004         47.0004
  -6862857.74947  -5300057.99546  23981647.6614   23981653.9484   23981646.554
        45.0004         40.0004
 14  5 28  1  5  0.0000000  0 10G30G26G07G02G08G04G05G28G10G17
  -1335040.69648  -1030992.85247  22080464.2464   22080471.0014   22080464.849
        50.0004         45.0004
    923522.12547    733130.74046  24485476.5004   24485481.3564   24485476.308
        43.0004         39.0004
  -2288389.22047  -1757523.62346  24285662.3484   24285665.5714   24285661.530
        42.0004         38.0004
 -13891305.54248 -10769434.15947  21502951.7024   21502954.2534   21502952.137
        51.0004         47.0004
 -14810503.84547 -11500207.88247  22132757.4734   22132762.3584   22132757.546
        47.0004         43.0004
 -25984821.90648 -20196496.04548  20657666.5464   20657672.0134   20657666.362
        53.0004         48.0004
  -9138847.45347  -7083233.95046  23994322.3774   23994326.5394   23994321.126
        45.0004         40.0004
 -15445377.16448 -12002390.88647  21333188.8424   21333193.0254   21333189.152
        51.0004         46.0004
 -22820930.49348 -17776548.26047  21169616.8804   21169622.0614   21169617.526
        52.0004         47.0004
  -6853088.64147  -5292445.62346  23983505.0144   23983512.4524   23983504.612
        44.0004         40.0004
 14  5 28  1  5 30.0000000  0 10G30G26G07G02G08G04G05G28G10G17
  -1248751.08048   -963754.18147  22096885.2724   22096891.8374   22096885.410
        50.0004         45.0004
    935865.67147    742749.22346  24487824.5464   24487830.4754   24487824.223
        43.0004         39.0004
  -2183558.35747  -1675837.26046  24305610.2234   24305614.2014   24305610.515
        42.0004         37.0004
 -13902506.27748 -10778161.99147  21500820.3764   21500823.6454   21500820.608
        51.0004         47.0004
 -14710028.92047 -11421915.72247  22151876.5724   22151881.6314   22151877.074
        47.0004         43.0004
 -25942416.60848 -20163452.97548  20665736.3214   20665741.6624   20665735.832
        53.0004         48.0004
  -9232472.72547  -7156188.59646  23976505.9544   23976510.5904   23976505.235
        45.0004         40.0004
 -15479599.46248 -12029057.58747  21326676.5784   21326680.8814   21326677.163
        51.0004         46.0004
 -22878398.64748 -17821328.61847  21158681.0074   21158686.6674   21158681.905
        52.0004         47.0004
  -6843557.74147  -5285018.88246  23985319.5544   23985326.6474   23985319.221
        45.0004         40.0004
 14  5 28  1  6  0.0000000  0 10G30G26G07G02G08G04G05G28G10G17
  -1162277.93448   -896372.50347  22113340.9324   22113346.5474   22113340.579
        50.0004         45.0004
    948081.58447    752268.24946  24490149.4424   24490155.8564   24490148.660
        43.0004         39.0004
  -2078794.65147  -1594203.21646  24325547.8964   24325550.2814   24325545.956
        42.0004         37.0004
 -13913274.32948 -10786552.67147  21498771.6134   21498774.3724   21498771.607
        51.0004         47.0004
 -14609355.21347 -11343468.66847  22171034.7824   22171040.0624   22171034.602
        47.0004         43.0004
 -25899605.65448 -20130093.81048  20673882.7974   20673888.3814   20673882.463
        53.0004         48.0004
  -9326170.70547  -7229199.91146  23958676.0624   23958680.6134   23958675.093
        45.0004         40.0004
 -15513443.32448 -12055429.39847  21320236.5094   21320240.5914   21320236.761
        51.0004         46.0004
 -22935577.79648 -17865883.78147  21147800.2004   21147805.5164   21147800.908
        52.0004         47.0004
  -6834268.44347  -5277780.40046  23987086.3804   23987094.0864   23987086.300
        45.0004         40.0004
 14  5 28  1  6 30.0000000  0 10G30G26G07G02G08G04G05G28G10G17
  -1075623.88548   -828849.85147  22129830.5014   22129837.1934   22129830.405
        50.0004         45.0004
    960168.43847    761686.69246  24492449.7604   24492454.8284   24492449.366
        43.0004         39.0004
  -1974100.59547  -1512623.43646  24345469.0004   24345472.5024   24345468.578
        42.0004         37.0004
 -13923610.40748 -10794606.74647  21496803.9724   21496807.0604   21496804.266
        51.0004         47.0004
 -14508485.79847 -11264869.11647  22190229.3594   22190234.7534   22190230.022
        47.0004         43.0004
 -25856390.93048 -20096420.02448  20682106.0224   20682111.7894   20682105.960
        53.0004         48.0004
  -9419939.12647  -7302266.10946  23940831.7174   23940835.3174   23940831.918
        45.0004         40.0004
 -15546905.51048 -12081503.80747  21313868.9284   21313872.8024   21313869.001
        51.0004         46.0004
 -22992464.83748 -17910211.32647  21136975.1134   21136980.3624   21136975.967
        52.0004         47.0004
  -6825220.22147  -5270729.76846  23988808.3434   23988815.9074   23988807.819
        45.0004         40.0004
 14  5 28  1  7  0.0000000  0 10G30G26G07G02G08G04G05G28G10G17
   -988789.71248   -761186.86247  22146354.6474   22146361.2384   22146354.234
        50.0004         45.0004
    972126.48847    771004.77746  24494724.7384   24494730.4784   24494724.782
        43.0004         39.0004
  -1869476.29647  -1431098.01746  24365377.5244   24365382.0584   24365377.595
        42.0004         37.0004
 -13933513.27248 -10802323.25447  21494920.7304   21494922.5694   21494920.287
        52.0004         47.0004
 -14407421.93347 -11186118.04347  22209462.2834   22209466.8324   22209461.333
        47.0004         43.0004
 -25812772.89348 -20062431.95548  20690406.3404   20690411.9784   20690406.342
        53.0004         48.0004
  -9513773.50847  -7375383.71546  23922976.1184   23922979.6114   23922975.687
        45.0004         40.0004
 -15579981.47248 -12107277.25447  21307575.1134   21307578.5514   21307575.118
        51.0004         46.0004
 -23049054.65948 -17954307.27547  21126206.2624   21126211.4254   21126206.977
        52.0004         47.0004
  -6816410.63047  -5263865.07646  23990484.4494   23990492.0854   23990485.069
        45.0004         41.0004
 14  5 28  1  7 30.0000000  0 10G30G26G07G02G08G04G05G28G10G17
   -901779.14048   -693386.40347  22162911.7744   22162918.3614   22162911.571
        50.0004         45.0004
    983953.19647    780220.53046  24496974.8694   24496981.2354   24496975.072
        43.0004         39.0004
  -1764924.96847  -1349629.44946  24385273.3564   24385277.8764   24385273.615
        42.0004         37.0004
 -13942984.53948 -10809703.44747  21493117.5914   21493120.6894   21493117.709
        52.0004         47.0004
 -14306167.77347 -11107218.69447  22228728.9814   22228733.2724   22228729.449
        47.0004         43.0004
 -25768754.97948 -20028132.30848  20698783.1794   20698788.6984   20698782.610
        53.0004         48.0004
  -9607672.67447  -7448551.80946  23905106.9684   23905111.5314   23905106.617
        45.0004         40.0004
 -15612669.45948 -12132748.39047  21301354.4934   21301358.2334   21301354.674
        51.0004         46.0004
 -23105345.39948 -17998170.17347  21115495.1534   21115499.4654   21115495.506
        52.0004         47.0004
  -6807840.66247  -5257187.11146  23992115.9104   23992122.8304   23992115.127
        45.0004         41.0004
 14  5 28  1  8  0.0000000  0 10G30G26G07G02G08G04G05G28G10G17
   -814596.12148   -625451.57447  22179501.9514   22179508.7584   22179502.088
        50.0004         45.0004
    995645.57947    789331.60246  24499199.6794   24499205.0564   24499200.434
        44.0004         39.0004
  -1660449.99747  -1268220.38746  24405155.2024   24405158.8544   24405153.788
        42.0004         37.0004
 -13952026.25248 -10816748.92547  21491397.2464   21491399.6324   21491397.302
        52.0004         47.0004
 -14204727.83347 -11028174.57447  22248031.1604   22248037.4314   22248032.425
        47.0004         42.0004
 -25724340.43548 -19993523.59148  20707234.8544   20707239.9264   20707234.477
        53.0004         48.0004
  -9701635.77647  -7521769.72146  23887227.1134   23887230.4994   23887226.649
        45.0004         40.0004
 -15644968.10248 -12157916.13747  21295208.1384   21295212.3154   21295208.455
        51.0004         46.0004
 -23161334.88948 -18041798.33047  21104840.2934   21104845.5594   21104840.676
        52.0004         47.0004
  -6799511.00447  -5250696.38846  23993700.5074   23993708.7334   23993699.985
        45.0004         41.0004
 14  5 28  1  8 30.0000000  0 10G30G26G07G02G08G04G05G28G10G17
   -727241.44648   -557382.98847  22196125.1754   22196130.9204   22196125.418
        50.0004         45.0004
   1007204.17547    798338.42346  24501399.2204   24501404.6444   24501399.452
        43.0004         39.0004
  -1556051.66347  -1186871.04446  24425020.9394   24425023.8804   24425019.867
        42.0004         37.0004
 -13960636.87848 -10823458.49847  21489758.1874   21489761.0194   21489758.704
        52.0004         47.0004
 -14103103.62147 -10948986.86847  22267371.1554   22267376.0624   22267371.577
        47.0004         42.0004
 -25679529.86948 -19958606.28448  20715761.7944   20715767.7424   20715761.481
        53.0004         48.0004
  -9795657.88847  -7595033.61046  23869334.5944   23869339.4104   23869334.832
        45.0004         40.0004
 -15676872.53648 -12182776.70847  21289137.0294   21289140.9744   21289137.456
        51.0004         46.0004
 -23217018.06148 -18085187.79647  21094243.8434   21094249.6184   21094244.711
        52.0004         47.0004
  -6791419.70947  -5244391.39746  23995239.8344   23995247.4654   23995239.857
        45.0004         41.0004
 14  5 28  1  9  0.0000000  0 10G30G26G07G02G08G04G05G28G10G17
   -639718.47848   -489183.26147  22212780.1454   22212786.9394   22212780.303
        49.0004         45.0004
   1018626.64047    807239.16546  24503572.5254   24503578.7604   24503572.715
        43.0004         39.0004
  -1451732.93647  -1105583.73346  24444872.0544   24444876.9004   24444871.406
        42.0004         37.0004
 -13968817.85648 -10829833.27747  21488201.7854   21488203.8724   21488201.945
        52.0004         47.0004
 -14001298.67947 -10869658.33747  22286744.2244   22286748.3734   22286744.309
        47.0004         42.0004
 -25634326.19948 -19923382.67148  20724363.9984   20724369.5474   20724363.321
        53.0004         48.0004
  -9889737.78647  -7668342.52646  23851431.8024   23851436.7294   23851431.513
        45.0004         41.0004
 -15708380.73448 -12207328.52247  21283141.0964   21283145.4654   21283141.267
        51.0004         46.0004
 -23272392.66948 -18128336.82547  21083706.4204   21083711.3834   21083707.030
        52.0004         47.0004
  -6783566.99947  -5238272.32646  23996735.0424   23996741.1944   23996734.159
        45.0004         41.0004
 14  5 28  1  9 30.0000000  0 10G30G26G07G02G08G04G05G28G10G17
   -552032.34548   -420856.40647  22229467.0164   22229472.0984   22229466.188
        49.0004         45.0004
   1029909.01847    816030.75546  24505720.7424   24505725.0554   24505720.145
        43.0004         39.0004
  -1347498.37947  -1024362.01146  24464706.9174   24464711.9934   24464706.721
        42.0004         37.0004
 -13976572.65548 -10835875.96547  21486725.7074   21486728.8284   21486726.305
        52.0004         47.0004
 -13899318.98047 -10790193.62747  22306149.6304   22306154.1274   22306149.819
        47.0004         42.0004
 -25588734.15248 -19887856.42248  20733039.5754   20733045.3344   20733039.336
        53.0004         48.0004
  -9983875.37047  -7741696.39046  23833517.5854   23833522.7434   23833517.478
        45.0004         41.0004
 -15739492.30848 -12231571.28447  21277220.5714   21277224.7824   21277221.085
        51.0004         47.0004
 -23327458.20148 -18171245.01047  21073227.7424   21073233.3544   21073228.405
        52.0004         47.0004
  -6775955.05547  -5232340.85946  23998183.1784   23998190.1194   23998182.711
        45.0004         41.0004
 14  5 28  1 10  0.0000000  0 10G30G26G07G02G08G04G05G28G10G17
   -464182.72748   -352402.14647  22246183.8304   22246190.1904   22246183.583
        49.0004         45.0004
   1041052.78347    824714.33646  24507841.1494   24507846.2804   24507839.878
        43.0004         39.0004
  -1243346.93347   -943205.05846  24484527.5284   24484530.4844   24484525.951
        42.0004         37.0004
 -13983898.64248 -10841584.51947  21485331.9124   21485334.3084   21485332.062
        52.0004         47.0004
 -13797164.53047 -10710592.75247  22325589.9004   22325594.9864   22325589.317
        47.0004         42.0004
 -25542753.06948 -19852027.02948  20741789.4624   20741795.1234   20741789.162
        52.0004         48.0004
 -10078064.73547  -7815090.61246  23815593.9144   23815598.4224   23815594.436
        45.0004         41.0004
 -15770201.58348 -12255500.55947  21271376.8094   21271381.4144   21271377.259
        51.0004         47.0004
 -23382208.53048 -18213907.58847  21062809.5174   21062814.6934   21062810.066
        52.0004         47.0004
  -6768580.05747  -5226594.02546  23999586.5454   23999594.0614   23999586.195
        45.0004         41.0004
 14  5 28  1 10 30.0000000  0 10G30G26G07G02G08G04G05G28G10G17
   -376170.83848   -283821.45047  22262932.0064   22262938.3414   22262931.764
        49.0004         45.0004
   1052057.93247    833289.91446  24509935.0654   24509940.2344   24509934.840
        43.0004         39.0004
  -1139279.32147   -862113.44646  24504330.8904   24504334.3834   24504329.471
        42.0004         37.0004
 -13990795.20748 -10846958.45547  21484019.0664   21484022.2464   21484019.624
        52.0004         47.0004
 -13694836.97447 -10630856.99547  22345061.9804   22345066.6084   22345061.899
        47.0004         42.0004
 -25496383.91748 -19815895.24748  20750613.6454   20750619.2414   20750613.091
        52.0004         48.0004
 -10172302.92447  -7888522.88846  23797661.4064   23797665.6944   23797661.498
        45.0004         41.0004
 -15800503.92948 -12279112.75247  21265610.2044   21265614.9824   21265611.068
        51.0004         47.0004
 -23436639.13348 -18256321.02347  21052451.3914   21052456.3654   21052452.165
        52.0004         47.0004
  -6761440.19247  -5221030.42346  24000945.2834   24000952.6074   24000944.965
        45.0004         41.0004
 14  5 28  1 11  0.0000000  0 10G30G26G07G02G08G04G05G28G10G17
   -288006.71148   -215122.12047  22279708.6374   22279715.2554   22279708.706
        49.0004         45.0004
   1062915.59647    841750.53846  24512000.7824   24512005.8074   24512001.777
        43.0004         39.0004
  -1035305.12147   -781094.60446  24524114.7534   24524119.9784   24524115.036
        42.0004         37.0004
 -13997270.77548 -10852004.34647  21482786.5274   21482789.9214   21482787.184
        52.0004         47.0004
 -13592346.95147 -10550994.63947  22364564.3624   22364570.4394   22364564.685
        46.0004         42.0004
 -25449636.16648 -19779468.44448  20759508.8334   20759514.8024   20759508.782
        53.0004         48.0004
 -10266594.29347  -7961996.60446  23779718.5094   23779722.5074   23779718.175
        45.0004         41.0004
 -15830404.39948 -12302411.79647  21259920.4764   21259924.9284   21259920.863
        51.0004         46.0004
 -23490754.25548 -18298488.62847  21042153.1564   21042158.2734   21042154.371
        52.0004         47.0004
  -6754542.59547  -5215655.60646  24002257.3904   24002264.6414   24002257.176
        45.0004         41.0004
 14  5 28  1 11 30.0000000  0 10G30G26G07G02G08G04G05G28G10G17
   -199690.50248   -146304.28947  22296514.7804   22296521.1764   22296515.112
        49.0004         45.0004
   1073626.70647    850096.99546  24514038.4784   24514044.1664   24514038.337
        43.0004         39.0004
   -931423.81147   -700148.16446  24543883.8754   24543888.0624   24543883.190
        42.0004         37.0004
 -14003323.48448 -10856720.73747  21481635.4724   21481637.1914   21481635.757
        52.0004         47.0004
 -13489695.06647 -10471006.15647  22384098.3784   22384103.1114   22384099.242
        46.0004         42.0004
 -25402509.73248 -19742746.57448  20768477.0404   20768482.8234   20768476.554
        52.0004         48.0004
 -10360933.75847  -8035507.80746  23761766.8654   23761770.3594   23761765.076
        45.0004         40.0004
 -15859898.19248 -12325393.94747  21254308.1704   21254312.5274   21254308.375
        51.0004         47.0004
 -23544548.30148 -18340406.04947  21031917.1584   21031922.1964   21031917.585
        52.0004         47.0004
  -6747884.29047  -5210467.25346  24003524.7214   24003531.9734   24003524.595
        45.0004         41.0004
 14  5 28  1 12  0.0000000  0 10G30G26G07G02G08G04G05G28G10G17
   -111221.70748    -77367.56047  22313350.2344   22313356.7694   22313350.154
        49.0004         44.0004
   1084193.00447    858330.60046  24516049.7954   24516054.9794   24516048.983
        43.0004         39.0004
   -827634.38947   -619273.32846  24563634.4214   24563637.5414   24563633.400
        42.0004         37.0004
 -14008950.86548 -10861105.70347  21480564.6814   21480567.6644   21480564.681
        52.0004         47.0004
 -13386881.38147 -10390891.59047  22403664.8864   22403668.9064   22403663.964
        46.0004         42.0004
 -25355003.90248 -19705729.06448  20777517.0784   20777523.1654   20777516.796
        52.0004         48.0004
 -10455315.79747  -8109052.16946  23743805.4634   23743809.5234   23743805.531
        45.0004         40.0004
 -15888979.15148 -12348054.40947  21248774.2484   21248778.7714   21248774.393
        51.0004         47.0004
 -23598014.67348 -18382068.13747  21021742.9394   21021747.6784   21021743.359
        52.0004         47.0004
  -6741461.49747  -5205462.41446  24004747.6334   24004754.4184   24004746.305
        45.0004         41.0004
 14  5 28  1 12 30.0000000  0 10G30G26G07G02G08G04G05G28G10G17
    -22605.01948     -8315.59047  22330213.0874   22330219.0564   22330213.070
        49.0004         44.0004
   1094610.98047    866448.62846  24518031.6754   24518036.9114   24518032.084
        43.0004         39.0004
   -723940.91547   -538473.26346  24583365.0324   24583369.3924   24583365.597
        42.0004         37.0004
 -14014155.82148 -10865161.49847  21479574.2444   21479576.6204   21479574.727
        52.0004         47.0004
 -13283911.09147 -10310654.99146  22423258.2094   22423264.1544   22423258.196
        46.0004         41.0004
 -25307122.98948 -19668419.28648  20786628.3884   20786634.2814   20786628.345
        52.0004         48.0004
 -10549740.39947  -8182629.70646  23725836.6734   23725842.2704   23725836.849
        45.0004         41.0004
 -15917646.43348 -12370392.52747  21243319.3084   21243323.1034   21243319.045
        51.0004         47.0004
 -23651152.62448 -18423474.31147  21011630.6664   21011635.9264   21011631.533
        52.0004         47.0004
  -6735275.90047  -5200642.39046  24005923.8274   24005930.0924   24005923.069
        45.0004         41.0004
 14  5 28  1 13  0.0000000  0 10G30G26G07G02G08G04G05G28G10G17
     66155.38048     60848.36047  22347102.5494   22347110.1034   22347103.618
        49.0004         44.0004
   1104877.58247    874448.70146  24519984.9024   24519990.2064   24519985.028
        43.0004         39.0004
   -620347.04047   -457750.79346  24603080.3954   24603083.5224   24603078.932
        42.0004         37.0004
 -14018941.00848 -10868890.20947  21478663.5464   21478665.9884   21478663.332
        52.0004         47.0004
 -13180788.64647 -10230299.84047  22442882.9464   22442886.6414   22442882.154
        46.0004         42.0004
 -25258871.04748 -19630820.40448  20795810.7774   20795816.6644   20795810.453
        52.0004         48.0004
 -10644206.35947  -8256239.46746  23707860.4564   23707865.6764   23707860.135
        45.0004         41.0004
 -15945898.73248 -12392407.27547  21237942.3484   21237946.9504   21237943.098
        51.0004         47.0004
 -23703960.98948 -18464623.66547  21001581.8784   21001586.5814   21001582.259
        52.0004         47.0004
  -6729328.27447  -5196007.81146  24007055.6414   24007063.4234   24007055.528
        45.0004         41.0004
 14  5 28  1 13 30.0000000  0 10G30G26G07G02G08G04G05G28G10G17
    155058.51648    130123.54247  22364021.5774   22364028.2544   22364021.177
        49.0004         44.0004
   1114993.05147    882331.00946  24521911.3864   24521914.7734   24521909.550
        43.0004         38.0004
   -516853.32747   -377106.37546  24622773.8474   24622777.0624   24622772.966
        42.0004         37.0004
 -14023305.16648 -10872290.84747  21477832.8834   21477835.4574   21477833.112
        52.0004         47.0004
 -13077515.42747 -10149827.20947  22462533.2584   22462539.8644   22462533.930
        46.0004         42.0004
 -25210248.59248 -19592932.80648  20805063.3104   20805068.7454   20805062.932
        52.0004         48.0004
 -10738709.28847  -8329878.03246  23689878.1074   23689881.9124   23689877.263
        46.0004         41.0004
 -15973732.25048 -12414095.71247  21232646.0224   21232649.8894   21232646.434
        51.0004         47.0004
 -23756434.82848 -18505512.34747  20991596.1394   20991601.1394   20991596.896
        52.0004         47.0004
  -6723616.80247  -5191557.24546  24008141.7924   24008149.0764   24008141.457
        46.0004         41.0004
 14  5 28  1 14  0.0000000  0 10G30G26G07G02G08G04G05G28G10G17
    244099.21648    199505.90947  22380965.1124   22380971.7004   22380964.894
        49.0004         44.0004
   1124953.44147    890092.47046  24523804.5754   24523810.0674   24523805.176
        43.0004         38.0004
   -413463.90147   -296543.24046  24642447.3174   24642452.2844   24642447.061
        42.0004         37.0004
 -14027251.90048 -10875366.21347  21477081.9224   21477084.3724   21477082.251
        52.0004         47.0004
 -12974097.31547 -10069241.65647  22482214.0204   22482219.4184   22482213.909
        46.0004         42.0004
 -25161260.49248 -19554760.28548  20814385.6504   20814390.7744   20814385.186
        52.0004         48.0004
 -10833249.26847  -8403545.47146  23671887.9364   23671891.5254   23671886.611
        46.0004         41.0004
 -16001146.83948 -12435457.71147  21227429.8114   21227433.2714   21227429.688
        51.0004         47.0004
 -23808573.45648 -18546139.83147  20981674.6324   20981679.3574   20981675.224
        52.0004         47.0004
  -6718143.35447  -5187292.14746  24009184.1194   24009190.1634   24009183.237
        46.0004         41.0004
 14  5 28  1 14 30.0000000  0 10G30G26G07G02G08G04G05G28G10G17
    333278.97048    268996.63747  22397935.0924   22397941.2734   22397935.560
        49.0004         44.0004
   1134761.41647    897735.15546  24525671.5114   24525676.9784   24525671.226
        43.0004         38.0004
   -310176.59646   -216059.65646  24662103.3594   24662106.2194   24662102.605
        41.0004         37.0004
 -14030777.99248 -10878113.81447  21476411.0644   21476413.9714   21476411.403
        52.0004         47.0004
 -12870533.29647  -9988542.41746  22501922.2784   22501927.5484   22501922.552
        46.0004         41.0004
 -25111905.29748 -19516301.72448  20823777.8394   20823782.9134   20823777.253
        52.0004         48.0004
 -10927819.86747  -8477236.77046  23653891.6104   23653895.4414   23653890.067
        46.0004         41.0004
 -16028135.33248 -12456487.69047  21222293.4964   21222298.1674   21222293.918
        51.0004         47.0004
 -23860369.77448 -18586500.58447  20971817.8664   20971823.1954   20971818.784
        52.0004         47.0004
  -6712903.26247  -5183208.88446  24010181.1244   24010187.4614   24010180.369
        46.0004         41.0004
 14  5 28  1 15  0.0000000  0 10G30G26G07G02G08G04G05G28G10G17
    422589.41548    338589.20447  22414930.5234   22414936.8454   22414930.545
        49.0004         44.0004
   1144409.87647    905253.56046  24527507.5584   24527512.9094   24527506.160
        43.0004         38.0004
   -206999.25346   -135661.75446  24681737.1794   24681741.8174   24681737.023
        41.0004         37.0004
 -14033890.12348 -10880538.84347  21475818.6224   21475820.9534   21475819.203
        52.0004         47.0004
 -12766832.29047  -9907736.43646  22521655.1074   22521659.5764   22521655.129
        46.0004         41.0004
 -25062190.70948 -19477563.11348  20833238.1494   20833243.4594   20833237.457
        52.0004         48.0004
 -11022424.06147  -8550954.25046  23635888.9564   23635891.8704   23635888.196
        45.0004         41.0004
 -16054701.13648 -12477188.29347  21217238.1344   21217242.9144   21217238.792
        51.0004         47.0004
 -23911826.57748 -18626596.77547  20962026.3294   20962030.9444   20962026.723
        52.0004         47.0004
  -6707901.47147  -5179311.30746  24011132.8214   24011139.4394   24011132.534
        46.0004         41.0004
 14  5 28  1 15 30.0000000  0 10G30G26G07G02G08G04G05G28G10G17
    512031.93448    408284.67947  22431951.2684   22431957.7434   22431950.894
        49.0004         44.0004
   1153901.34247    912649.63146  24529313.5394   24529318.9524   24529312.956
        43.0004         38.0004
   -103930.06546    -55348.14446  24701350.5474   24701354.7844   24701350.289
        41.0004         37.0004
 -14036585.21548 -10882638.91347  21475305.6074   21475309.1634   21475305.847
        51.0004         47.0004
 -12662993.15447  -9826822.81846  22541415.8304   22541419.9164   22541414.867
        46.0004         41.0004
 -25012115.61348 -19438543.59348  20842767.2054   20842772.3074   20842766.562
        52.0004         48.0004
 -11117055.00047  -8624692.57246  23617879.4214   23617884.1764   23617880.066
        45.0004         41.0004
 -16080837.75148 -12497554.47147  21212264.9064   21212268.9344   21212265.252
        52.0004         47.0004
 -23962936.91748 -18666422.99547  20952300.0614   20952305.0904   20952300.639
        52.0004         47.0004
  -6703133.84847  -5175596.20046  24012040.2264   24012046.5154   24012039.819
        46.0004         41.0004
 14  5 28  1 16  0.0000000  0 10G30G26G07G02G08G04G05G28G10G17
    601601.87248    478079.44347  22448996.1224   22449001.6634   22448995.991
        49.0004         44.0004
   1163232.37547    919920.68546  24531089.6364   24531094.0974   24531089.791
        43.0004         38.0004
      -973.10646     24878.02346  24720943.2454   24720947.6024   24720942.504
        41.0004         36.0004
 -14038866.26048 -10884416.34747  21474871.8384   21474874.5564   21474871.756
        52.0004         47.0004
 -12559021.10647  -9745805.63046  22561199.9624   22561205.0044   22561199.542
        46.0004         41.0004
 -24961684.21748 -19399246.43048  20852363.7904   20852368.8154   20852363.671
        52.0004         48.0004
 -11211712.57947  -8698451.65346  23599868.0674   23599870.8544   23599867.145
        45.0004         41.0004
 -16106544.39848 -12517585.60947  21207372.9574   21207377.2214   21207372.963
        52.0004         47.0004
 -24013699.59248 -18705978.31147  20942640.2234   20942645.4724   20942641.005
        52.0004         47.0004
  -6698601.59147  -5172064.49246  24012902.4814   24012909.6634   24012901.574
        46.0004         41.0004
 14  5 28  1 16 30.0000000  0 10G30G26G07G02G08G04G05G28G10G17
    691299.06348    547973.36647  22466064.3874   22466071.2984   22466064.485
        49.0004         44.0004
   1172404.13147    927067.62846  24532834.2484   24532839.6134   24532834.366
        43.0004         38.0004
    101872.25946    105017.23446  24740512.7924   24740516.5534   24740513.577
        40.0004         36.0004
 -14040731.53548 -10885869.80747  21474516.8404   21474519.5734   21474516.745
        52.0004         47.0004
 -12454917.06547  -9664685.58746  22581011.0644   22581015.4314   22581010.480
        46.0004         41.0004
 -24910896.53148 -19359671.65048  20862028.0774   20862033.4994   20862027.630
        52.0004         48.0004
 -11306392.03547  -8772227.77646  23581850.4154   23581854.7814   23581850.200
        45.0004         41.0004
 -16131816.06848 -12537277.80747  21202563.9084   21202568.2304   21202564.349
        52.0004         47.0004
 -24064109.24048 -18745258.54647  20933047.6064   20933052.9154   20933048.099
        52.0004         47.0004
  -6694301.87247  -5168713.99346  24013720.5494   24013727.7104   24013719.886
        46.0004         41.0004
 14  5 28  1 17  0.0000000  0 10G30G26G07G02G08G04G05G28G10G17
    781116.45148    617960.95347  22483155.9794   22483163.1324   22483156.023
        49.0004         44.0004
   1181410.69147    934085.84746  24534548.6104   24534553.0504   24534547.237
        42.0004         38.0004
    204600.15246    185064.90945  24760060.7334   24760063.3254   24760061.849
        40.0004         35.0004
 -14042186.67448 -10887003.68247  21474240.2784   21474242.8514   21474240.675
        52.0004         47.0004
 -12350688.24447  -9583468.31846  22600844.2794   22600848.9624   22600844.703
        46.0004         41.0004
 -24859759.57948 -19319824.71748  20871759.9774   20871765.0774   20871759.179
        52.0004         48.0004
 -11401095.03547  -8846022.25646  23563829.8814   23563833.2944   23563829.189
        46.0004         41.0004
 -16156654.61448 -12556632.50647  21197837.3894   21197841.6564   21197837.385
        52.0004         47.0004
 -24114167.29648 -18784264.80847  20923521.7054   20923526.7434   20923522.450
        52.0004         47.0004
  -6690238.29147  -5165547.49946  24014493.0494   24014499.8934   24014493.002
        46.0004         41.0004
 14  5 28  1 17 30.0000000  0 10G30G26G07G02G08G04G05G28G10G17
    871054.13648    688042.27247  22500270.7054   22500276.3994   22500270.395
        49.0004         44.0004
   1190253.37447    940976.37846  24536231.0394   24536236.3134   24536230.349
        42.0004         38.0004
    307210.37846    265020.88945  24779587.7544   24779591.0374   24779588.523
        40.0004         35.0004
 -14043230.05848 -10887816.70147  21474041.4094   21474043.9244   21474041.956
        52.0004         47.0004
 -12246335.02147  -9502154.12246  22620702.5924   22620706.8974   22620702.870
        45.0004         41.0004
 -24808272.84348 -19279705.22248  20881557.0294   20881562.4884   20881556.614
        52.0004         48.0004
 -11495816.19547  -8919830.86746  23545803.9384   23545808.1924   23545803.948
        46.0004         41.0004
 -16181055.12448 -12575645.87447  21193193.5144   21193198.0134   21193194.316
        51.0004         47.0004
 -24163868.17248 -18822992.75247  20914063.9494   20914069.2054   20914064.605
        52.0004         47.0004
  -6686407.65047  -5162562.51446  24015222.2504   24015229.6864   24015222.039
        46.0004         41.0004
 14  5 28  1 18  0.0000000  0 10G30G26G07G02G08G04G05G28G10G17
    961108.52248    758214.53147  22517407.9204   22517414.4194   22517407.436
        49.0004         44.0004
   1198929.88747    947737.40846  24537882.0214   24537887.0734   24537882.596
        43.0004         38.0004
    409700.38246    344883.19545  24799092.7334   24799094.7874   24799091.338
        40.0004         35.0004
 -14043863.58148 -10888310.34947  21473921.0784   21473923.5074   21473921.255
        52.0004         47.0004
 -12141861.43747  -9420746.12246  22640582.2244   22640588.1394   22640583.117
        46.0004         41.0004
 -24756439.92948 -19239315.98548  20891420.7664   20891426.0544   20891420.167
        52.0004         48.0004
 -11590553.79147  -8993652.28846  23527776.2924   23527780.6244   23527776.062
        46.0004         41.0004
 -16205015.89248 -12594316.59047  21188634.8874   21188638.5184   21188634.525
        51.0004         47.0004
 -24213209.57348 -18861440.58748  20904674.9704   20904680.1264   20904675.310
        52.0004         48.0004
  -6682810.31747  -5159759.32946  24015906.3914   24015914.0254   24015906.310
        46.0004         41.0004
 14  5 28  1 18 30.0000000  0 10G30G26G07G02G08G04G05G28G10G17
   1051276.78448    828475.51747  22534566.2414   22534571.9404   22534565.991
        48.0004         44.0004
   1207438.53547    954367.62746  24539500.2284   24539506.8574   24539500.766
        43.0004         38.0004
    512068.06446    424650.17445  24818571.5804   24818575.2444   24818571.551
        39.0004         35.0004
 -14044088.29148 -10888485.44847  21473878.1434   21473880.9464   21473878.441
        52.0004         47.0004
 -12037270.90947  -9339247.01146  22660485.7964   22660491.8864   22660485.785
        46.0004         41.0004
 -24704263.60248 -19198659.15048  20901349.7604   20901354.7094   20901349.255
        52.0004         48.0004
 -11685305.30847  -9067484.56346  23509745.9254   23509749.6984   23509745.312
        46.0004         41.0004
 -16228534.45548 -12612642.73447  21184158.8934   21184162.9344   21184159.275
        51.0004         47.0004
 -24262188.98848 -18899606.36048  20895354.3164   20895359.5154   20895355.067
        52.0004         48.0004
  -6679445.80247  -5157137.57146  24016547.1744   24016554.1584   24016546.735
        46.0004         41.0004
 14  5 28  1 19  0.0000000  0 10G30G26G07G02G08G04G05G28G10G17
   1141554.92748    898822.13047  22551745.6934   22551751.8924   22551744.977
        48.0004         44.0004
   1215776.67247    960864.99846  24541087.4744   24541091.0134   24541086.868
        42.0004         38.0004
    614310.15046    504319.30945  24838025.2074   24838032.4954   24838028.217
        39.0004         35.0004
 -14043907.00548 -10888344.18647  21473912.7544   21473915.0684   21473912.875
        52.0004         47.0004
 -11932567.57547  -9257659.98246  22680410.2634   22680414.8124   22680410.970
        46.0004         41.0004
 -24651747.76448 -19157737.76248  20911342.8504   20911348.4074   20911342.740
        52.0004         48.0004
 -11780070.25247  -9141327.29446  23491712.2284   23491716.6074   23491711.451
        46.0004         41.0004
 -16251610.03348 -12630623.68947  21179767.4134   21179771.8044   21179768.041
        51.0004         47.0004
 -24310804.77948 -18937488.78648  20886103.4124   20886107.9354   20886103.608
        52.0004         48.0004
  -6676314.77847  -5154697.74846  24017143.0724   24017150.0174   24017142.732
        46.0004         41.0004
 14  5 28  1 19 30.0000000  0 10G30G26G07G02G08G04G05G28G10G17
   1231941.50648    969253.24547  22568944.6034   22568951.1174   22568944.900
        48.0004         43.0004
   1223944.03747    967229.28946  24542640.8624   24542645.8124   24542640.908
        42.0004         38.0004
    716425.89146    583889.95045  24857459.8774   24857465.2004   24857459.776
        39.0004         35.0004
 -14043319.84648 -10887886.65547  21474024.1114   21474026.9844   21474024.518
        52.0004         47.0004
 -11827753.40647  -9175986.60346  22700355.6944   22700361.1814   22700356.047
        45.0004         41.0004
 -24598893.62148 -19116552.76248  20921400.7524   20921406.5494   20921400.270
        52.0004         48.0004
 -11874844.52147  -9215177.29846  23473677.1664   23473681.0644   23473676.762
        46.0004         41.0004
 -16274238.81248 -12648256.49147  21175461.6024   21175465.1544   21175461.840
        51.0004         47.0004
 -24359052.60348 -18975084.49148  20876921.9324   20876926.7244   20876922.678
        52.0004         48.0004
  -6673415.40247  -5152438.42846  24017694.1784   24017701.3074   24017693.947
        46.0004         41.0004
 14  5 28  1 20  0.0000000  0 10G30G26G07G02G08G04G05G28G10G17
   1322437.06948   1039769.28147  22586165.7334   22586172.4644   22586165.906
        48.0004         43.0004
   1231942.47147    973461.93846  24544162.6804   24544167.6784   24544163.695
        43.0004         38.0004
    818416.37646    663363.02145  24876867.9474   24876875.1264   24876867.794
        39.0004         34.0004
 -14042324.20548 -10887110.83147  21474214.1034   21474216.0524   21474213.976
        52.0004         47.0004
 -11722828.46947  -9094226.90946  22720321.3894   22720328.3294   22720322.269
        45.0004         41.0004
 -24545700.49448 -19075103.62348  20931523.2314   20931529.0314   20931522.773
        52.0004         48.0004
 -11969622.13547  -9289029.91546  23455641.4404   23455645.8144   23455641.034
        46.0004         41.0004
 -16296415.39448 -12665536.93447  21171240.9334   21171245.5254   21171241.614
        51.0004         47.0004
 -24406926.47548 -19012388.80148  20867812.1004   20867816.9934   20867812.230
        52.0004         48.0004
  -6670744.27647  -5150356.97346  24018202.9664   24018209.8534   24018202.409
        46.0004         41.0004
 14  5 28  1 20 30.0000000  0 10G30G26G07G02G08G04G05G28G10G17
   1413031.22348   1110362.13747  22603404.6624   22603412.0574   22603405.613
        48.0004         43.0004
   1239762.84747    979555.85946  24545651.7314   24545656.5004   24545652.290
        42.0004         38.0004
    920272.11546    742731.06945  24896251.3864   24896254.0104   24896249.560
        39.0004         34.0004
 -14040929.29648 -10886023.88847  21474479.1014   21474481.9204   21474479.443
        52.0004         47.0004
 -11617803.63047  -9012389.35846  22740308.3604   22740312.4134   22740308.052
        45.0004         41.0004
 -24492178.94448 -19033398.56048  20941707.6904   20941713.4314   20941707.655
        52.0004         48.0004
 -12064408.48347  -9362889.33147  23437604.2004   23437608.3464   23437603.417
        46.0004         42.0004
 -16318144.97348 -12682469.05947  21167106.5674   21167110.3204   21167106.878
        51.0004         47.0004
 -24454431.57448 -19049405.75648  20858771.8174   20858776.9984   20858772.365
        52.0004         48.0004
  -6668308.22547  -5148458.71446  24018666.7384   24018672.9794   24018666.292
        46.0004         41.0004
 14  5 28  1 21  0.0000000  0 10G30G26G07G02G08G04G05G28G10G17
   1503728.60848   1181035.44247  22620665.1534   22620670.8084   22620664.453
        48.0004         43.0004
   1247411.05047    985515.59746  24547106.2804   24547111.3704   24547106.660
        43.0004         38.0004
   1021998.41946    821998.25845  24915607.5134   24915612.4314   24915608.194
        39.0004         34.0004
 -14039128.97548 -10884621.03947  21474821.5314   21474824.7884   21474822.176
        52.0004         47.0004
 -11512674.79647  -8930470.77946  22760313.8534   22760318.1164   22760313.813
        45.0004         41.0004
 -24438323.96148 -18991433.69447  20951956.1844   20951961.4284   20951955.850
        52.0004         47.0004
 -12159193.35547  -9436747.59747  23419567.5334   23419571.5394   23419567.240
        46.0004         42.0004
 -16339418.18048 -12699045.57047  21163058.0774   21163062.5244   21163058.713
        51.0004         47.0004
 -24501557.58248 -19086127.31948  20849804.2764   20849809.5334   20849804.671
        52.0004         48.0004
  -6666099.36747  -5146737.47946  24019087.3204   24019092.8894   24019086.533
        46.0004         41.0004
 14  5 28  1 21 30.0000000  0 10G30G26G07G02G08G04G05G28G10G17
   1594521.44348   1251783.12347  22637942.4374   22637948.2374   22637942.134
        48.0004         43.0004
   1254880.57547    991336.11646  24548528.0534   24548533.9144   24548527.860
        43.0004         38.0004
   1123588.18746    901159.10045  24934939.5714   24934945.7914   24934940.894
        39.0004         34.0004
 -14036929.64348 -10882907.27947  21475240.0184   21475243.1894   21475240.278
        52.0004         47.0004
 -11407450.34747  -8848477.69846  22780337.1504   22780341.1924   22780336.860
        45.0004         41.0004
 -24384143.49148 -18949215.19347  20962266.6704   20962272.1434   20962266.121
        52.0004         47.0004
 -12253979.82647  -9510607.10547  23401530.8994   23401534.4954   23401530.055
        46.0004         42.0004
 -16360237.57148 -12715268.45647  21159096.1294   21159100.9304   21159096.563
        51.0004         47.0004
 -24548306.76248 -19122555.24648  20840907.8904   20840913.0914   20840908.547
        52.0004         48.0004
  -6664122.15247  -5145196.74746  24019462.9744   24019469.4714   24019462.445
        46.0004         41.0004
 14  5 28  1 22  0.0000000  0 10G30G26G07G02G08G04G05G28G10G17
   1685409.36648   1322604.88747  22655237.5544   22655244.7194   22655236.944
        48.0004         43.0004
   1262172.26247    997018.05646  24549914.8254   24549919.0714   24549915.507
        43.0004         38.0004
  -3501218.32746  -2702586.28745  24954246.2434   24954252.4384   24954245.647
        39.0004         34.0004
 -14034330.33148 -10880881.83447  21475735.0314   21475738.0434   21475735.388
        52.0004         47.0004
 -11302130.78747  -8766410.50446  22800378.9854   22800383.4514   22800378.405
        45.0004         41.0004
 -24329637.73448 -18906743.22647  20972638.5084   20972643.8274   20972638.232
        52.0004         47.0004
 -12348762.66447  -9584463.78647  23383493.6974   23383497.0704   23383492.981
        47.0004         42.0004
 -16380598.71748 -12731134.26747  21155222.1024   21155226.0074   21155222.200
        51.0004         47.0004
 -24594673.94748 -19158685.52248  20832084.7454   20832089.0044   20832085.096
        52.0004         48.0004
  -6662373.95047  -5143834.46446  24019795.4464   24019802.1184   24019795.112
        46.0004         41.0004
 14  5 28  1 22 30.0000000  0 10G30G26G07G02G08G04G05G28G10G17
   1776389.34148   1393498.38847  22672550.4574   22672556.8494   22672550.075
        48.0004         43.0004
   1269284.43647   1002560.10746  24551269.4254   24551275.2704   24551269.302
        43.0004         38.0004
  -3399903.35446  -2623639.61445  24973524.5584   24973532.0664   24973525.455
        39.0004         34.0004
 -14031332.47348 -10878545.83847  21476305.6154   21476308.1914   21476305.868
        52.0004         47.0004
 -11196719.50147  -8684271.83746  22820437.6234   22820441.5604   22820437.733
        45.0004         40.0004
 -24274809.75048 -18864020.17247  20983072.4444   20983077.6384   20983071.766
        52.0004         47.0004
 -12443539.95847  -9658316.15447  23365458.0694   23365461.6994   23365457.035
        47.0004         42.0004
 -16400499.62048 -12746641.44547  21151435.0204   21151438.5654   21151435.058
        51.0004         47.0004
 -24640656.49648 -19194516.07948  20823334.1784   20823339.5854   20823334.946
        52.0004         48.0004
  -6660854.15447  -5142650.16046  24020084.8294   24020090.5494   24020084.246
        46.0004         41.0004
 14  5 28  1 23  0.0000000  0 10G30G26G07G02G08G04G05G28G10G17
   1867458.87748   1464461.67547  22689880.0874   22689886.2914   22689880.312
        48.0004         43.0004
   1276215.89247   1007961.35146  24552587.3114   24552591.3174   24552586.740
        43.0004         38.0004
  -3298728.67646  -2544802.25245  24992776.7444   24992783.8974   24992779.722
        39.0004         35.0004
 -14027937.36448 -10875900.29247  21476951.8694   21476954.4804   21476951.957
        52.0004         47.0004
 -11091219.54547  -8602064.07046  22840513.6384   22840518.3714   22840513.848
        45.0004         41.0004
 -24219662.15048 -18821048.06347  20993566.4884   20993571.6034   20993566.139
        52.0004         47.0004
 -12538308.81847  -9732161.95347  23347423.8234   23347427.5964   23347423.682
        47.0004         42.0004
 -16419938.01148 -12761788.22847  21147735.8144   21147739.5794   21147736.110
        51.0004         47.0004
 -24686251.80848 -19230044.90048  20814657.9524   20814662.9244   20814658.508
        52.0004         48.0004
  -6659562.06247  -5141643.29346  24020330.6914   24020338.1044   24020330.404
        46.0004         41.0004
 14  5 28  1 23 30.0000000  0 10G30G26G07G02G08G04G05G28G10G17
   1958615.02048   1535492.44947  22707226.8284   22707232.1624   22707226.684
        48.0004         43.0004
   1282964.84547   1013220.38446  24553872.5354   24553876.0944   24553871.969
        43.0004         38.0004
  -3197696.52946  -2466075.92745  25012005.0714   25012009.4004   25012004.665
        39.0004         35.0004
 -14024146.54448 -10872946.40647  21477672.7284   21477675.3414   21477673.200
        52.0004         47.0004
 -10985634.40647  -8519789.92446  22860605.8554   22860611.0624   22860606.146
        45.0004         41.0004
 -24164197.66148 -18777829.02747  21004120.9944   21004126.5394   21004120.566
        52.0004         47.0004
 -12633067.28247  -9805999.65447  23329391.6564   23329396.6634   23329391.516
        47.0004         42.0004
 -16438911.90448 -12776573.06147  21144124.7524   21144129.9514   21144125.376
        51.0004         47.0004
 -24731457.45048 -19265270.07748  20806055.4024   20806060.8594   20806056.083
        52.0004         48.0004
  -6658497.22247  -5140813.50746  24020532.4994   24020539.5274   24020532.672
        46.0004         41.0004
 14  5 28  1 24  0.0000000  0 10G30G26G07G02G08G04G05G28G10G17
   2049853.27348   1606587.20947  22724588.0574   22724594.4614   22724588.019
        48.0004         43.0004
   1289528.23947   1018334.82646  24555120.8934   24555125.7544   24555121.315
        43.0004         38.0004
  -3096810.52246  -2387463.50245  25031201.1964   25031206.3284   25031202.607
        39.0004         34.0004
 -14019963.04748 -10869686.52747  21478468.6984   21478471.7474   21478469.274
        52.0004         47.0004
 -10879968.80247  -8437453.08946  22880713.4464   22880719.2964   22880713.445
        45.0004         41.0004
 -24108420.80348 -18734366.59747  21014734.8354   21014740.6734   21014734.520
        52.0004         47.0004
 -12727814.12647  -9879828.30347  23311361.4144   23311366.0424   23311361.517
        46.0004         42.0004
 -16457420.95848 -12790995.68447  21140602.5744   21140607.1274   21140603.313
        51.0004         47.0004
 -24776272.16948 -19300190.64048  20797527.4894   20797532.3374   20797528.205
        52.0004         48.0004
  -6657660.73647  -5140161.66146  24020691.7814   24020699.8114   24020692.045
        45.0004         41.0004
 14  5 28  1 24 30.0000000  0 10G30G26G07G02G08G04G05G28G10G17
   2141174.62847   1677746.71247  22741965.9634   22741971.6624   22741966.026
        47.0004         43.0004
   1295908.25347   1023306.35446  24556335.4374   24556339.1474   24556336.251
        43.0004         39.0004
  -2996069.13946  -2308963.77845  25050373.6064   25050378.3934   25050373.992
        39.0004         35.0004
 -14015384.89948 -10866119.14347  21479340.3104   21479343.0064   21479340.505
        52.0004         47.0004
 -10774222.47847  -8355053.34046  22900836.2674   22900839.2534   22900836.040
        45.0004         41.0004
 -24052330.67248 -18690660.05247  21025408.4654   21025414.5564   21025408.219
        52.0004         47.0004
 -12822543.25347  -9953643.14847  23293335.9114   23293339.0664   23293334.817
        46.0004         42.0004
 -16475459.34448 -12805051.54547  21137170.3474   21137174.5854   21137170.591
        51.0004         47.0004
 -24820689.77348 -19334801.76248  20789075.1424   20789080.3594   20789075.687
        52.0004         48.0004
  -6657048.90047  -5139684.86146  24020808.2704   24020815.0404   24020808.303
        45.0004         41.0004
 14  5 28  1 25  0.0000000  0 10G30G26G07G02G08G04G05G28G10G17
   2232573.67647   1748966.76647  22759358.7434   22759365.1254   22759358.904
        47.0004         43.0004
   1302100.78947   1028131.80146  24557513.9434   24557518.6474   24557514.302
        43.0004         38.0004
  -2895476.68546  -2230580.11645  25069515.6754   25069520.1144   25069514.573
        40.0004         35.0004
 -14010416.25248 -10862247.46847  21480285.7504   21480288.3924   21480285.611
        52.0004         47.0004
 -10668401.09147  -8272595.10546  22920972.8364   22920976.8994   22920973.021
        45.0004         41.0004
 -23995932.67648 -18646713.61047  21036140.8694   21036146.5714   21036140.373
        52.0004         47.0004
 -12917254.98147 -10027444.43547  23275313.0084   23275316.5144   23275312.145
        46.0004         42.0004
 -16493027.96248 -12818741.36547  21133827.4974   21133831.4914   21133827.428
        51.0004         47.0004
 -24864710.30248 -19369103.47348  20780698.2504   20780703.3894   20780698.986
        52.0004         48.0004
  -6656663.33147  -5139384.37846  24020882.2854   24020888.2264   24020881.690
        45.0004         41.0004
 14  5 28  1 25 30.0000000  0 10G30G26G07G02G08G04G05G28G10G17
   2324047.57747   1820245.13147  22776766.3354   22776772.3844   22776765.869
        47.0004         43.0004
   1308104.32147   1032809.97546  24558654.9354   24558661.0974   24558655.422
        43.0004         38.0004
  -2795035.48046  -2152314.27645  25088627.7624   25088633.5834   25088629.557
        40.0004         35.0004
 -14005058.50848 -10858072.60247  21481305.0574   21481308.1894   21481305.757
        52.0004         47.0004
 -10562507.73147  -8190080.78446  22941124.5694   22941128.6994   22941124.028
        45.0004         40.0004
 -23939229.70448 -18602529.52847  21046931.6504   21046937.0494   21046930.813
        52.0004         47.0004
 -13011946.82347 -10101230.22247  23257293.4274   23257297.3504   23257293.450
        47.0004         42.0004
 -16510124.67348 -12832063.46247  21130574.0054   21130578.2404   21130574.071
        51.0004         47.0004
 -24908331.17048 -19403093.76248  20772397.4664   20772402.2174   20772397.878
        52.0004         48.0004
  -6656503.38947  -5139259.70446  24020912.4174   24020919.2544   24020912.371
        45.0004         41.0004
 14  5 28  1 26  0.0000000  0 10G30G26G07G02G08G04G05G28G10G17
   2415594.92347   1891580.74047  22794186.8864   22794192.4364   22794186.965
        47.0004         43.0004
   1313918.66247   1037340.72046  24559761.9044   24559766.2364   24559761.453
        43.0004         39.0004
  -2694746.32046  -2074166.92845  25107712.0934   25107714.3774   25107713.454
        40.0004         35.0004
 -13999311.96648 -10853594.77347  21482399.5074   21482401.7484   21482398.754
        52.0004         47.0004
 -10456544.44747  -8107511.98746  22961288.0244   22961292.8914   22961288.443
        45.0004         40.0004
 -23882223.37448 -18558109.07047  21057778.8424   21057784.8204   21057778.479
        52.0004         47.0004
 -13106615.08747 -10174997.64447  23239278.3374   23239282.5884   23239277.688
        47.0004         42.0004
 -16526746.18748 -12845015.28047  21127410.3764   21127414.5824   21127411.037
        51.0004         47.0004
 -24951548.43648 -19436769.55548  20764172.9544   20764178.2534   20764174.257
        52.0004         48.0004
  -6656567.40247  -5139309.54546  24020900.0434   24020906.9684   24020899.491
        45.0004         41.0004
 14  5 28  1 26 30.0000000  0 10G30G26G07G02G08G04G05G28G10G17
   2507211.67247   1962970.43147  22811620.8544   22811627.5924   22811620.920
        47.0004         43.0004
   1319541.12647   1041721.94446  24560832.4814   24560837.7894   24560832.481
        43.0004         39.0004
  -2594612.31746  -1996140.47245  25126766.8154   25126770.8534   25126767.191
        40.0004         35.0004
 -13993179.42648 -10848816.16647  21483565.4734   21483568.5794   21483566.067
        52.0004         47.0004
 -10350515.60347  -8024892.09946  22981464.1104   22981469.1324   22981464.933
        45.0004         40.0004
 -23824917.62048 -18513455.28647  21068683.9174   21068689.5224   21068683.696
        52.0004         47.0004
 -13201258.29547 -10248745.54747  23221269.1654   23221272.8194   23221268.257
        46.0004         42.0004
 -16542891.84548 -12857596.29947  21124339.0194   21124342.6064   21124338.622
        51.0004         47.0004
 -24994360.96648 -19470129.96748  20756026.7174   20756031.5754   20756027.213
        52.0004         48.0004
  -6656855.88447  -5139534.30546  24020845.4154   24020852.7364   24020845.239
        45.0004         40.0004
 14  5 28  1 27  0.0000000  0 10G30G26G07G02G08G04G05G28G10G17
   2598896.84447   2034413.43147  22829067.1504   22829074.3374   22829068.064
        47.0004         43.0004
   1324972.08747   1045953.95546  24561865.4874   24561869.9524   24561865.250
        43.0004         38.0004
  -2494633.60646  -1918235.03145  25145790.8844   25145798.4984   25145793.071
        40.0004         35.0004
 -13986660.63048 -10843736.58547  21484806.1854   21484809.0914   21484806.429
        52.0004         47.0004
 -10244422.59847  -7942222.21346  23001652.7584   23001658.8914   23001654.001
        45.0004         40.0004
 -23767313.52448 -18468569.01947  21079645.7804   21079651.0404   21079645.302
        52.0004         47.0004
 -13295872.61047 -10322470.93647  23203264.6044   23203267.6344   23203263.762
        46.0004         42.0004
 -16558557.76948 -12869803.50147  21121357.5084   21121361.1154   21121357.714
        51.0004         47.0004
 -25036764.28548 -19503171.51648  20747957.6974   20747962.9404   20747958.144
        53.0004         48.0004
  -6657366.60947  -5139932.23846  24020747.6684   24020754.5064   24020747.348
        45.0004         40.0004
 14  5 28  1 27 30.0000000  0 10G30G26G07G02G08G04G05G28G10G17
   2690645.58947   2105905.97347  22846527.7224   22846534.3324   22846527.090
        47.0004         42.0004
   1330207.99447   1050033.96946  24562861.8694   24562865.5654   24562861.252
        43.0004         39.0004
  -2394814.18246  -1840453.68645  25164789.4574   25164793.3784   25164787.537
        40.0004         35.0004
 -13979759.33348 -10838358.94847  21486119.2104   21486122.1694   21486119.641
        52.0004         47.0004
 -10138270.72947  -7859506.45846  23021854.1244   23021858.9874   23021853.555
        45.0004         40.0004
 -23709416.12548 -18423454.21947  21090663.1884   21090668.2024   21090663.007
        52.0004         47.0004
 -13390457.20547 -10396173.17047  23185265.0614   23185269.4344   23185264.228
        47.0004         42.0004
 -16573744.11848 -12881637.00647  21118468.0034   21118471.6504   21118467.734
        51.0004         47.0004
 -25078757.97248 -19535893.86948  20739966.2864   20739971.2324   20739967.237
        53.0004         48.0004
  -6658100.87047  -5140504.35946  24020608.6924   24020615.0894   24020607.724
        45.0004         40.0004
 14  5 28  1 28  0.0000000  0  9G30G26G02G08G04G05G28G10G17
   2782457.34747   2177447.61647  22863997.9734   22864004.3994   22863998.330
        47.0004         42.0004
   1335249.58447   1053962.58646  24563820.5164   24563825.6324   24563820.702
        43.0004         39.0004
 -13972475.06948 -10832682.89447  21487505.7444   21487508.5204   21487506.177
        52.0004         47.0004
 -10032060.94347  -7776745.56546  23042064.3304   23042069.2884   23042065.115
        44.0004         40.0004
 -23651225.90248 -18378111.24147  21101736.5454   21101742.9284   21101736.238
        52.0004         47.0004
 -13485007.50647 -10469848.67547  23167273.0964   23167276.7154   23167271.826
        47.0004         42.0004
 -16588447.05648 -12893093.83347  21115669.5124   21115673.9454   21115669.729
        51.0004         47.0004
 -25120337.25048 -19568293.30548  20732054.3434   20732058.8954   20732054.726
        53.0004         48.0004
  -6659056.17147  -5141248.73146  24020426.7974   24020432.3774   24020426.400
        45.0004         40.0004
 14  5 28  1 28 30.0000000  0  9G30G26G02G08G04G05G28G10G17
   2874328.60247   2249035.60847  22881480.2414   22881487.3904   22881481.053
        47.0004         42.0004
   1340094.72147   1057738.10846  24564743.0344   24564748.0614   24564743.471
        43.0004         38.0004
 -13964809.82748 -10826709.98247  21488964.3104   21488966.5964   21488964.539
        52.0004         47.0004
  -9925797.12647  -7693942.59546  23062286.5784   23062290.5524   23062286.981
        44.0004         40.0004
 -23592746.55048 -18332542.95947  21112864.8724   21112870.9174   21112864.346
        52.0004         47.0004
 -13579521.85147 -10543496.17947  23149286.7054   23149291.0734   23149286.470
        47.0004         42.0004
 -16602665.63348 -12904173.23147  21112963.7644   21112967.8934   21112963.843
        51.0004         47.0004
 -25161500.30248 -19600368.41048  20724220.9684   20724226.1924   20724221.921
        53.0004         48.0004
  -6660232.52747  -5142165.34246  24020202.3474   24020209.8244   24020202.754
        45.0004         40.0004
 14  5 28  1 29  0.0000000  0  9G30G26G02G08G04G05G28G10G17
   2966257.91147   2320668.84747  22898974.9824   22898980.1664   22898974.410
        47.0004         42.0004
   1344743.19847   1061360.40146  24565626.1174   24565633.2974   24565627.206
        43.0004         39.0004
 -13956764.15248 -10820440.62747  21490495.2384   21490498.0524   21490495.573
        52.0004         47.0004
  -9819481.29347  -7611099.08246  23082517.4324   23082521.6514   23082517.841
        44.0004         40.0004
 -23533979.78148 -18286750.72047  21124047.1514   21124053.6594   21124047.110
        52.0004         47.0004
 -13673996.13747 -10617112.45247  23131309.4234   23131312.4834   23131308.716
        47.0004         42.0004
 -16616396.52348 -12914872.61847  21110351.5754   21110355.1744   21110351.164
        51.0004         47.0004
 -25202243.44448 -19632116.31448  20716467.7964   20716472.7164   20716468.331
        53.0004         48.0004
  -6661628.05047  -5143252.73946  24019937.1024   24019943.8214   24019936.550
        45.0004         40.0004
 14  5 28  1 29 30.0000000  0  9G30G26G02G08G04G05G28G10G17
   3058240.80747   2392343.84747  22916478.7554   22916483.4594   22916477.886
        47.0004         42.0004
   1349191.91047   1064827.04346  24566473.8254   24566479.2874   24566472.798
        43.0004         39.0004
 -13948341.53948 -10813877.55147  21492098.0534   21492100.5974   21492098.096
        52.0004         47.0004
  -9713118.20047  -7528218.73946  23102757.6324   23102763.2094   23102757.260
        44.0004         40.0004
 -23474929.98548 -18240737.94147  21135285.1534   21135290.3954   21135284.389
        51.0004         47.0004
 -13768430.05447 -10690697.27847  23113338.7624   23113342.6514   23113338.251
        47.0004         42.0004
 -16629639.65348 -12925191.92447  21107830.4504   21107834.0434   21107831.054
        51.0004         47.0004
 -25242566.04448 -19663536.51848  20708794.8434   20708799.7294   20708795.546
        53.0004         48.0004
  -6663243.79047  -5144511.73046  24019629.4164   24019635.8284   24019629.307
        45.0004         40.0004
 14  5 28  1 30  0.0000000  0  9G30G26G02G08G04G05G28G10G17
   3150274.59847   2464058.49647  22933992.7634   22933997.6744   22933991.587
        47.0004         42.0004
   1353439.48747   1068136.94646  24567282.2684   24567287.4604   24567281.818
        43.0004         39.0004
 -13939543.87048 -10807022.23147  21493772.5874   21493774.6664   21493772.521
        52.0004         47.0004
  -9606710.91047  -7445303.96646  23123005.4774   23123010.3604   23123005.816
        44.0004         40.0004
 -23415600.17848 -18194506.97347  21146574.6774   21146580.6974   21146574.219
        51.0004         47.0004
 -13862821.20347 -10764248.77147  23095376.8474   23095380.4674   23095376.565
        47.0004         42.0004
 -16642393.31048 -12935129.83147  21105404.4374   21105407.8374   21105404.042
        51.0004         47.0004
 -25282465.60848 -19694627.09148  20701202.1314   20701207.0314   20701202.737
        53.0004         48.0004
  -6665079.00347  -5145941.74546  24019279.9294   24019287.2664   24019280.175
        45.0004         40.0004
 14  5 28  1 30 30.0000000  0  9G30G26G02G08G04G05G28G10G17
   3242357.98147   2535811.78947  22951514.7124   22951521.2654   22951514.228
        47.0004         42.0004
   1357486.01247   1071290.18546  24568052.6614   24568057.0394   24568052.169
        43.0004         39.0004
 -13930371.05048 -10799874.58647  21495517.8984   21495520.7474   21495517.976
        52.0004         47.0004
  -9500261.18247  -7362356.11546  23143262.3214   23143267.5484   23143262.691
        44.0004         40.0004
 -23355991.71848 -18148058.87547  21157917.7094   21157923.8814   21157917.604
        51.0004         47.0004
 -13957165.06947 -10837763.42747  23077423.7024   23077427.0444   23077423.883
        47.0004         42.0004
 -16654654.14448 -12944683.71747  21103070.4034   21103074.2634   21103070.851
        51.0004         47.0004
 -25321938.21348 -19725384.96248  20693690.5704   20693695.8524   20693691.085
        53.0004         48.0004
  -6667131.25947  -5147540.88346  24018890.1734   24018895.8154   24018889.620
        45.0004         40.0004
 14  5 28  1 31  0.0000000  0 10G30G26G02G24G08G04G05G28G10G17
   3334479.77447   2607595.01547  22969044.9634   22969049.9974   22969045.015
        47.0004         42.0004
   1361321.52247   1074278.97846  24568782.8174   24568786.5614   24568782.435
        43.0004         39.0004
 -13920833.39048 -10792442.65347  21497332.6564   21497335.0934   21497332.828
        52.0004         47.0004
  -1703526.09247  -1298634.63246  24637195.0854   24637208.3914   24637193.024
        47.0004         36.0004
  -9393780.66847  -7279384.28446  23163524.9884   23163529.3714   23163525.034
        44.0004         39.0004
 -23296116.07848 -18101402.57347  21169312.0284   21169318.0554   21169311.721
        51.0004         47.0004
 -14051467.82047 -10911246.05247  23059478.7014   23059481.7354   23059477.684
        47.0004         43.0004
 -16666429.04848 -12953858.95747  21100830.4264   21100834.4084   21100829.971
        51.0004         47.0004
 -25360989.80748 -19755814.77948  20686259.2894   20686264.3624   20686260.258
        53.0004         48.0004
  -6669408.93947  -5149315.67846  24018457.3924   24018463.3774   24018456.370
        45.0004         40.0004
 14  5 28  1 31 30.0000000  0 10G30G26G02G24G08G04G05G28G10G17
   3426647.28747   2679413.85447  22986583.5474   22986589.9844   22986583.933
        47.0004         42.0004
   1364954.71447   1077110.13446  24569474.1714   24569478.4904   24569473.635
        43.0004         39.0004
 -13910922.93848 -10784720.22947  21499218.5534   21499221.1574   21499218.567
        52.0004         47.0004
  -1769739.50347  -1350229.19246  24624594.7144   24624607.1644   24624593.255
        43.0004         36.0004
  -9287262.54447  -7196383.15146  23183795.9684   23183799.7764   23183794.919
        44.0004         39.0004
 -23235966.00648 -18054532.43547  21180757.7214   21180763.3684   21180757.681
        51.0004         47.0004
 -14145716.78447 -10984686.76347  23041543.1914   23041547.6114   23041543.021
        47.0004         43.0004
 -16677705.90548 -12962646.10247  21098684.3884   21098688.4934   21098684.081
        51.0004         47.0004
 -25399608.14648 -19785906.99548  20678910.6294   20678915.9144   20678911.221
        53.0004         48.0004
  -6671901.16147  -5151257.65046  24017981.7404   24017988.5874   24017981.356
        45.0004         40.0004
 14  5 28  1 32  0.0000000  0 10G30G26G02G24G08G04G05G28G10G17
   3518856.96647   2751265.57047  23004130.9934   23004137.4764   23004130.521
        47.0004         42.0004
   1368383.30547   1079781.86746  24570125.9894   24570130.3254   24570125.875
        43.0004         39.0004
 -13900641.92448 -10776709.05547  21501174.8584   21501177.6964   21501175.196
        52.0004         47.0004
  -1835628.21647  -1401570.73946  24612055.3514   24612070.0534   24612054.848
        42.0004         37.0004
  -9180710.72547  -7113355.75046  23204070.6794   23204075.4234   23204071.296
        44.0004         39.0004
 -23175545.08648 -18007451.25047  21192256.0434   21192261.9354   21192255.542
        51.0004         47.0004
 -14239910.26047 -11058084.21647  23023619.0604   23023622.4664   23023619.285
        47.0004         43.0004
 -16688484.02848 -12971044.62647  21096632.8544   21096637.4244   21096633.276
        51.0004         47.0004
 -25437791.53148 -19815660.28648  20671644.6074   20671649.4854   20671645.308
        53.0004         48.0004
  -6674608.10447  -5153366.93146  24017466.8164   24017473.8704   24017467.228
        45.0004         40.0004
 14  5 28  1 32 30.0000000  0 10G30G26G02G24G08G04G05G28G10G17
   3611108.28047   2823149.72147  23021685.6444   23021691.4994   23021685.568
        47.0004         42.0004
   1371608.25247   1082294.92546  24570739.9784   24570744.0744   24570738.870
        43.0004         38.0004
 -13889989.80148 -10768408.71147  21503201.9444   21503204.6664   21503202.487
        52.0004         47.0004
  -1901188.99446  -1452656.73646  24599578.0064   24599595.0244   24599577.982
        41.0004         37.0004
  -9074126.01647  -7030302.72546  23224352.4094   23224358.1514   23224353.132
        44.0004         39.0004
 -23114854.43748 -17960159.88747  21203804.9054   21203810.8204   21203804.376
        51.0004         47.0004
 -14334043.45847 -11131434.71647  23005705.7704   23005709.8174   23005705.181
        47.0004         43.0004
 -16698759.97948 -12979051.84347  21094677.4664   21094682.1354   21094677.890
        51.0004         47.0004
 -25475535.34848 -19845071.05248  20664462.3734   20664467.2434   20664462.971
        53.0004         48.0004
  -6677526.85447  -5155641.24446  24016911.5294   24016918.7944   24016911.134
        45.0004         40.0004
 14  5 28  1 33  0.0000000  0 10G30G26G02G24G08G04G05G28G10G17
   3703398.40747   2895064.11247  23039247.6204   23039253.5494   23039247.519
        46.0004         42.0004
   1374627.99247   1084648.05446  24571314.7354   24571318.9014   24571313.775
        43.0004         38.0004
 -13878968.62948 -10759820.79847  21505299.5674   21505302.3674   21505299.862
        52.0004         47.0004
  -1966421.16846  -1503486.69746  24587164.5544   24587178.6294   24587165.438
        41.0004         36.0004
  -8967511.61247  -6947226.54746  23244641.2614   23244646.5514   23244642.434
        44.0004         40.0004
 -23053896.87848 -17912660.53147  21215404.3514   21215411.2644   21215404.441
        51.0004         46.0004
 -14428114.31647 -11204736.64347  22987804.3424   22987809.0984   22987804.507
        47.0004         43.0004
 -16708531.89748 -12986666.31547  21092818.3064   21092822.0904   21092818.235
        51.0004         47.0004
 -25512837.58448 -19874137.73348  20657363.8224   20657369.0144   20657364.562
        53.0004         48.0004
  -6680656.83647  -5158080.16646  24016315.6104   24016321.8384   24016315.619
        45.0004         40.0004
 14  5 28  1 33 30.0000000  0 10G30G26G02G24G08G04G05G28G10G17
   3795721.15947   2967003.91747  23056816.3114   23056822.5264   23056816.121
        46.0004         42.0004
   1377437.68447   1086837.52846  24571848.7194   24571852.4214   24571847.819
        43.0004         38.0004
 -13867583.67948 -10750949.41247  21507465.8954   21507468.7764   21507465.999
        52.0004         47.0004
  -2031327.42146  -1554062.69846  24574814.7354   24574830.2624   24574813.815
        41.0004         37.0004
  -8860873.98547  -6864132.29246  23264933.9064   23264939.1004   23264934.405
        44.0004         40.0004
 -22992678.73448 -17864958.13047  21227054.6024   21227059.8754   21227053.969
        51.0004         46.0004
 -14522123.78048 -11277990.72847  22969915.6854   22969918.9644   22969915.020
        48.0004         43.0004
 -16717801.78648 -12993889.58647  21091054.7284   21091058.1784   21091054.392
        51.0004         47.0004
 -25549699.12348 -19902861.00848  20650349.4674   20650354.1904   20650350.101
        53.0004         48.0004
  -6684000.62747  -5160685.69846  24015678.7174   24015686.2074   24015679.036
        45.0004         40.0004
 14  5 28  1 34  0.0000000  0 10G30G26G02G24G08G04G05G28G10G17
   3888074.06047   3038967.23047  23074390.4034   23074396.7254   23074390.087
        46.0004         42.0004
   1380036.17747   1088862.42846  24572342.5244   24572347.8824   24572342.338
        43.0004         38.0004
 -13855836.67348 -10741795.91647  21509701.2554   21509704.2334   21509701.787
        52.0004         47.0004
  -2095906.61946  -1604383.83846  24562524.7544   24562538.6974   24562524.281
        41.0004         36.0004
  -8754216.01247  -6781022.17446  23285230.8424   23285235.4794   23285230.849
        44.0004         40.0004
 -22931202.71648 -17817054.79747  21238752.7534   21238758.8844   21238752.607
        51.0004         46.0004
 -14616068.79848 -11351194.59847  22952037.8274   22952041.8884   22952038.109
        48.0004         43.0004
 -16726567.63448 -13000720.09647  21089386.3884   21089390.0654   21089386.137
        51.0004         47.0004
 -25586117.45548 -19931238.92948  20643419.5194   20643424.3734   20643419.842
        53.0004         48.0004
  -6687557.25247  -5163457.07746  24015002.0444   24015010.0124   24015001.889
        44.0004         40.0004
 14  5 28  1 34 30.0000000  0 10G30G26G02G24G08G04G05G28G10G17
   3980454.88647   3110952.29547  23091970.1554   23091975.9184   23091969.451
        46.0004         42.0004
   1382422.69047   1090722.13246  24572796.0904   24572801.0724   24572796.565
        43.0004         38.0004
 -13843728.83248 -10732361.24247  21512004.7234   21512008.0364   21512005.508
        52.0004         47.0004
  -2160157.44446  -1654449.10046  24550297.6444   24550312.6194   24550297.684
        41.0004         37.0004
  -8647540.39347  -6697898.31246  23305529.5864   23305535.5884   23305530.451
        44.0004         39.0004
 -22869471.45048 -17768952.55747  21250499.7244   21250505.8204   21250499.390
        51.0004         46.0004
 -14709946.51148 -11424346.01347  22934174.7584   22934176.9864   22934173.582
        48.0004         43.0004
 -16734827.53148 -13007156.35947  21087814.1304   21087818.4924   21087814.409
        51.0004         47.0004
 -25622089.98248 -19959269.46548  20636573.8354   20636578.9644   20636574.293
        53.0004         48.0004
  -6691325.57547  -5166393.40446  24014286.3264   24014291.8284   24014285.844
        44.0004         40.0004
 14  5 28  1 35  0.0000000  0 10G30G26G02G24G08G04G05G28G10G17
   4072861.98147   3182957.82547  23109554.4564   23109559.6584   23109553.966
        46.0004         42.0004
   1384596.83647   1092416.35346  24573211.3574   24573215.3404   24573210.370
        43.0004         38.0004
 -13831261.07748 -10722646.11947  21514378.1544   21514380.4954   21514378.193
        52.0004         47.0004
  -2224078.16646  -1704257.15646  24538134.9214   24538148.3994   24538134.406
        41.0004         37.0004
  -8540849.18547  -6614762.30446  23325832.5534   23325836.6324   23325832.920
        44.0004         39.0004
 -22807486.84348 -17720652.91347  21262295.4344   21262300.4914   21262294.936
        51.0004         46.0004
 -14803752.99648 -11497441.92847  22916323.0094   22916326.1854   22916322.488
        48.0004         43.0004
 -16742578.98448 -13013196.43447  21086339.2514   21086343.7184   21086339.165
        51.0004         47.0004
 -25657613.49248 -19986950.12248  20629813.9374   20629819.0074   20629814.573
        53.0004         48.0004
  -6695303.96747  -5169493.43546  24013528.5484   24013535.0084   24013528.297
        44.0004         40.0004
 14  5 28  1 35 30.0000000  0 10G30G26G02G24G08G04G05G28G10G17
   4165292.14947   3254981.33647  23127143.5824   23127149.6114   23127143.197
        46.0004         42.0004
   1386556.83747   1093943.71446  24573582.8974   24573587.0324   24573583.969
        43.0004         38.0004
 -13818435.76148 -10712652.37747  21516818.0654   21516821.3484   21516818.552
        52.0004         47.0004
  -2287668.13146  -1753807.49646  24526032.6634   24526047.2494   24526032.850
        41.0004         37.0004
  -8434145.79547  -6531616.79846  23346137.4924   23346142.7044   23346138.273
        44.0004         39.0004
 -22745252.19848 -17672158.43747  21274138.5634   21274144.5474   21274137.849
        51.0004         46.0004
 -14897486.31548 -11570480.83847  22898485.8724   22898490.2534   22898486.041
        48.0004         43.0004
 -16749820.91348 -13018839.47747  21084961.0374   21084964.9854   21084961.074
        51.0004         47.0004
 -25692686.17348 -20014279.47748  20623139.9094   20623144.8294   20623140.417
        53.0004         48.0004
  -6699492.31647  -5172757.06846  24012732.4544   24012738.2544   24012731.641
        44.0004         40.0004
 14  5 28  1 36  0.0000000  0 10G30G26G02G24G08G04G05G28G10G17
   4257741.54747   3327019.83347  23144736.0814   23144742.1404   23144735.667
        46.0004         42.0004
   1388300.19447   1095302.26746  24573915.0554   24573919.5024   24573914.658
        43.0004         38.0004
 -13805255.99748 -10702382.44747  21519326.8454   21519329.6374   21519326.804
        52.0004         47.0004
  -2350927.90846  -1803100.52246  24513994.9364   24514008.0814   24513993.644
        41.0004         37.0004
  -8327434.54947  -6448465.18146  23366445.3504   23366448.2854   23366444.022
        44.0004         39.0004
 -22682771.69948 -17623472.38847  21286027.9264   21286033.9584   21286027.608
        51.0004         46.0004
 -14991145.34048 -11643461.85247  22880664.3294   22880667.1434   22880662.950
        48.0004         43.0004
 -16756553.03348 -13024085.26847  21083680.3474   21083683.4614   21083680.465
        51.0004         47.0004
 -25727306.91048 -20041256.67748  20616551.6224   20616556.8694   20616552.279
        53.0004         48.0004
  -6703890.86647  -5176184.48846  24011894.7684   24011901.5314   24011894.395
        44.0004         40.0004
 14  5 28  1 36 30.0000000  0 10G30G26G02G24G08G04G05G28G10G17
   4350211.30547   3399074.19847  23162332.5594   23162338.6244   23162332.159
        46.0004         42.0004
   1389829.42047   1096493.96146  24574206.0114   24574209.2934   24574205.673
        43.0004         38.0004
 -13791719.64148 -10691834.65447  21521901.9084   21521905.1374   21521902.483
        52.0004         47.0004
  -2413853.22446  -1852132.93646  24502020.1814   24502033.4284   24502020.221
        41.0004         37.0004
  -8220714.76347  -6365306.90846  23386752.5784   23386756.5104   23386752.125
        44.0004         39.0004
 -22620044.41248 -17574594.03047  21297964.9314   21297969.7064   21297964.211
        51.0004         46.0004
 -15084723.68848 -11716380.00247  22862856.3984   22862859.5824   22862856.138
        48.0004         43.0004
 -16762769.98648 -13028929.62747  21082496.5234   21082500.5014   21082497.063
        51.0004         47.0004
 -25761469.62348 -20067876.96748  20610050.6284   20610055.8724   20610051.298
        53.0004         48.0004
  -6708495.05347  -5179772.13546  24011017.7714   24011024.4904   24011018.015
        44.0004         39.0004
 14  5 28  1 37  0.0000000  0 10G30G26G02G24G08G04G05G28G10G17
   4442695.49247   3471139.79747  23179930.8604   23179937.0304   23179930.886
        46.0004         42.0004
   1391139.87347   1097515.18246  24574455.1534   24574460.2584   24574454.710
        43.0004         38.0004
 -13777832.22148 -10681013.30247  21524545.1354   21524547.7164   21524545.309
        52.0004         47.0004
  -2476446.32646  -1900906.48346  24490108.8554   24490123.3744   24490108.597
        41.0004         37.0004
  -8113992.68747  -6282146.84746  23407061.1684   23407066.7844   23407061.440
        44.0004         39.0004
 -22557076.83648 -17525528.43747  21309946.6084   21309952.8674   21309946.329
        51.0004         46.0004
 -15178221.86548 -11789235.67347  22845064.2374   22845067.8144   22845063.931
        48.0004         43.0004
 -16768473.76748 -13033374.11347  21081411.5024   21081415.6204   21081411.825
        51.0004         47.0004
 -25795175.23148 -20094141.07248  20603636.7544   20603641.4774   20603637.392
        53.0004         48.0004
  -6713307.21047  -5183521.84246  24010101.9114   24010108.5614   24010101.779
        44.0004         39.0004
 14  5 28  1 37 30.0000000  0 10G30G26G02G24G08G04G05G28G10G17
   4535193.01547   3543215.80147  23197533.3644   23197538.7144   23197532.597
        46.0004         42.0004
   1392231.91047   1098366.22246  24574662.4664   24574668.0014   24574662.013
        43.0004         38.0004
 -13763593.99248 -10669918.59547  21527254.0514   21527257.0744   21527254.425
        51.0004         47.0004
  -2538704.35846  -1949418.95046  24478262.5634   24478274.2694   24478261.162
        41.0004         37.0004
  -8007269.71747  -6198986.07646  23427369.7024   23427374.0224   23427369.584
        44.0004         39.0004
 -22493870.01548 -17476276.41847  21321974.5324   21321980.9094   21321974.488
        51.0004         46.0004
 -15271635.70748 -11862025.64047  22827288.4674   22827292.0054   22827287.538
        48.0004         43.0004
 -16773661.42748 -13037416.42747  21080424.2034   21080428.0924   21080424.315
        51.0004         47.0004
 -25828420.16748 -20120046.21248  20597310.2354   20597315.5424   20597311.218
        53.0004         48.0004
  -6718324.94647  -5187431.75346  24009147.6124   24009154.0194   24009147.536
        44.0004         40.0004
 14  5 28  1 38  0.0000000  0 10G30G26G02G24G08G04G05G28G10G17
   4627701.39747   3615300.25947  23215136.6954   23215143.0934   23215136.550
        46.0004         42.0004
   1393104.37347   1099046.15746  24574828.2704   24574832.1874   24574829.351
        43.0004         38.0004
 -13749006.62148 -10658551.83047  21530030.7934   21530033.2694   21530030.733
        51.0004         47.0004
  -2600627.39547  -1997670.37446  24466478.0804   24466492.3194   24466477.502
        42.0004         37.0004
  -7900548.75747  -6115826.87946  23447678.2994   23447683.6884   23447678.106
        44.0004         39.0004
 -22430427.04448 -17426840.39047  21334047.0274   21334054.0054   21334046.977
        51.0004         46.0004
 -15364962.71048 -11934747.93047  22809529.1854   22809530.8424   22809527.980
        48.0004         43.0004
 -16778331.50948 -13041055.42847  21079535.3704   21079539.4684   21079535.580
        51.0004         47.0004
 -25861202.02948 -20145590.51448  20591072.2504   20591076.7414   20591072.892
        53.0004         48.0004
  -6723547.63047  -5191501.36046  24008152.9804   24008160.8334   24008153.268
        44.0004         40.0004
 14  5 28  1 38 30.0000000  0 10G30G26G02G24G08G04G05G28G10G17
   4720215.79747   3687389.41146  23232741.9774   23232747.6514   23232741.119
        46.0004         41.0004
   1393753.89147   1099552.35646  24574952.9174   24574957.4334   24574953.106
        43.0004         38.0004
 -13734074.36648 -10646916.32247  21532871.1774   21532874.6844   21532871.944
        51.0004         47.0004
  -2662216.62246  -2045661.69246  24454757.0044   24454770.6094   24454756.657
        41.0004         37.0004
  -7793835.09347  -6032673.37546  23467984.3174   23467990.0244   23467985.219
        43.0004         39.0004
 -22366752.87148 -17377224.21447  21346164.0914   21346170.5044   21346163.865
        51.0004         46.0004
 -15458202.17848 -12007402.02347  22791785.7404   22791790.0944   22791784.792
        48.0004         43.0004
 -16782484.40548 -13044291.43747  21078745.1144   21078748.8144   21078745.300
        51.0004         47.0004
 -25893520.62148 -20170773.82848  20584922.3394   20584927.1064   20584922.886
        53.0004         48.0004
  -6728976.52847  -5195731.64146  24007120.9804   24007127.3334   24007120.304
        44.0004         40.0004
 14  5 28  1 39  0.0000000  0 10G30G26G02G24G08G04G05G28G10G17
   4812736.44347   3759483.41846  23250347.5154   23250354.4834   23250346.930
        46.0004         41.0004
   1394181.87847   1099885.94646  24575033.8424   24575038.4144   24575033.930
        43.0004         38.0004
 -13718796.52548 -10635011.52647  21535778.9704   21535781.9144   21535779.463
        51.0004         47.0004
  -2723468.31846  -2093389.99146  24443101.4004   24443115.0374   24443101.330
        41.0004         37.0004
  -7687128.57947  -5949525.43246  23488289.8094   23488295.5264   23488290.978
        43.0004         39.0004
 -22302847.56548 -17327427.92047  21358324.8184   21358330.9804   21358324.870
        51.0004         46.0004
 -15551348.60148 -12079983.61647  22774059.2864   22774063.0144   22774060.204
        48.0004         43.0004
 -16786116.23948 -13047121.41647  21078054.1884   21078058.3514   21078054.313
        51.0004         47.0004
 -25925371.18648 -20195592.44848  20578861.4914   20578866.3434   20578861.791
        53.0004         48.0004
  -6734607.50947  -5200119.39346  24006048.9504   24006055.8444   24006048.867
        44.0004         40.0004
 14  5 28  1 39 30.0000000  0 10G30G26G02G24G08G04G05G28G10G17
   4905261.16547   3831580.61446  23267955.0834   23267960.8464   23267954.792
        46.0004         41.0004
   1394387.76147   1100046.45846  24575072.9184   24575076.3054   24575071.951
        43.0004         38.0004
 -13703174.38848 -10622838.45047  21538751.8004   21538754.7144   21538751.873
        51.0004         47.0004
  -2784381.20847  -2140854.30346  24431510.5914   24431521.9894   24431509.793
        42.0004         37.0004
  -7580431.69147  -5866385.00446  23508593.7324   23508599.7554   23508594.617
        43.0004         39.0004
 -22238713.64248 -17277453.47147  21370529.2444   21370534.8944   21370528.966
        51.0004         46.0004
 -15644399.03548 -12152490.40747  22756353.7844   22756357.2754   22756352.653
        48.0004         43.0004
 -16789225.22948 -13049543.98547  21077462.6914   21077466.7124   21077462.710
        51.0004         47.0004
 -25956751.39548 -20220044.55248  20572889.9574   20572894.7514   20572890.663
        53.0004         48.0004
  -6740439.70647  -5204663.94746  24004939.9804   24004945.9304   24004939.637
        45.0004         40.0004
 14  5 28  1 40  0.0000000  0 10G30G26G02G24G08G04G05G28G10G17
   4997784.82547   3903676.98546  23285562.0634   23285567.1704   23285561.106
        46.0004         41.0004
   1394367.60947   1100030.84046  24575069.0334   24575073.5514   24575069.062
        43.0004         38.0004
 -13687212.42648 -10610400.57447  21541789.1554   21541791.8694   21541789.941
        51.0004         47.0004
  -2844957.24347  -2188056.10246  24419984.0524   24419997.4354   24419982.105
        42.0004         37.0004
  -7473750.42347  -5783256.75646  23528895.3894   23528899.6864   23528895.329
        43.0004         39.0004
 -22174356.46348 -17227305.07347  21382776.4794   21382781.8254   21382775.788
        51.0004         46.0004
 -15737353.89848 -12224922.73047  22738664.9864   22738669.0374   22738664.238
        48.0004         43.0004
 -16791812.51848 -13051560.03147  21076970.0234   21076974.0154   21076970.465
        51.0004         47.0004
 -25987661.16048 -20244130.08148  20567007.7724   20567012.8654   20567008.486
        53.0004         48.0004
  -6746474.57347  -5209366.42046  24003790.3764   24003796.6864   24003790.968
        45.0004         40.0004
 14  5 28  1 40 30.0000000  0 10G30G26G02G24G08G04G05G28G10G17
   5090308.33347   3975773.23146  23303167.5654   23303174.4174   23303167.703
        46.0004         41.0004
   1394123.82247   1099840.96046  24575023.4934   24575026.7514   24575022.187
        43.0004         38.0004
 -13670909.49648 -10597697.01447  21544891.8404   21544894.3784   21544891.815
        52.0004         47.0004
  -2905192.60347  -2234992.46646  24408520.0054   24408533.5384   24408518.934
        42.0004         37.0004
  -7367084.03047  -5700140.07646  23549191.8704   23549196.6584   23549193.260
        43.0004         39.0004
 -22109775.79048 -17176982.51947  21395065.4924   21395072.4574   21395065.449
        51.0004         46.0004
 -15830206.60148 -12297275.44247  22720994.9284   22720998.2274   22720994.531
        48.0004         43.0004
 -16793873.47648 -13053165.94947  21076577.4774   21076582.3344   21076578.087
        51.0004         47.0004
 -26018094.98948 -20267844.75248  20561216.5204   20561221.0194   20561217.145
        53.0004         48.0004
  -6752708.10547  -5214223.69746  24002605.3034   24002611.0564   24002604.599
        44.0004         40.0004
 14  5 28  1 41  0.0000000  0 10G30G26G02G24G08G04G05G28G10G17
   5182827.32947   4047865.96146  23320773.6044   23320779.4694   23320773.497
        46.0004         41.0004
   1393653.32647   1099474.42746  24574932.4374   24574936.0994   24574932.775
        43.0004         38.0004
 -13654269.08048 -10584730.47547  21548058.6404   21548061.2454   21548058.907
        52.0004         47.0004
  -2965088.27947  -2281664.14246  24397123.2234   24397136.0294   24397121.856
        42.0004         37.0004
  -7260437.08847  -5617038.55946  23569487.0304   23569491.4704   23569487.453
        43.0004         39.0004
 -22044976.19348 -17126489.37747  21407396.3874   21407403.1014   21407395.987
        51.0004         46.0004
 -15922956.30648 -12369547.89647  22703346.1504   22703348.5024   22703345.138
        48.0004         43.0004
 -16795408.51448 -13054362.05747  21076285.6264   21076289.8534   21076286.020
        51.0004         47.0004
 -26048052.85748 -20291188.54748  20555515.8284   20555520.6444   20555516.701
        53.0004         48.0004
  -6759140.93447  -5219236.26546  24001381.1424   24001386.4224   24001380.383
        44.0004         40.0004
 14  5 28  1 41 30.0000000  0 10G30G26G02G24G08G04G05G28G10G17
   5275338.75947   4119952.79146  23338378.1224   23338384.0564   23338377.970
        45.0004         41.0004
   1392954.51447   1098929.98146  24574799.8264   24574804.2304   24574799.512
        43.0004         38.0004
 -13637293.69448 -10571502.92447  21551288.7404   21551291.8034   21551289.009
        52.0004         47.0004
  -3024643.99647  -2328070.89746  24385789.6684   24385801.4464   24385788.290
        42.0004         37.0004
  -7153813.05347  -5533954.89246  23589776.3094   23589781.5504   23589776.450
        43.0004         39.0004
 -21979961.16548 -17075828.36847  21419768.7874   21419774.5574   21419768.227
        51.0004         46.0004
 -16015600.68148 -12441738.26947  22685716.5224   22685719.1474   22685715.633
        48.0004         43.0004
 -16796416.84348 -13055147.74147  21076093.7384   21076097.5484   21076094.464
        51.0004         47.0004
 -26077533.05948 -20314160.13648  20549905.6314   20549910.8454   20549906.384
        53.0004         48.0004
  -6765772.59547  -5224403.76746  24000119.0624   24000124.2464   24000118.555
        44.0004         40.0004
 14  5 28  1 42  0.0000000  0 10G30G26G02G24G08G04G05G28G10G17
   5367841.58747   4192032.92246  23355980.5644   23355985.7304   23355980.934
        45.0004         41.0004
   1392027.77547   1098207.91646  24574623.5014   24574627.6024   24574623.323
        43.0004         38.0004
 -13619983.60048 -10558014.55547  21554582.8124   21554585.9364   21554583.205
        52.0004         47.0004
  -3083857.60247  -2374211.09546  24374519.7244   24374534.3294   24374520.076
        42.0004         37.0004
  -7047213.42747  -5450890.25446  23610062.7774   23610067.9304   23610061.894
        43.0004         38.0004
 -21914732.12048 -17025000.58347  21432181.5164   21432187.8944   21432181.209
        50.0004         46.0004
 -16108135.58848 -12513843.35947  22668106.8084   22668109.3814   22668106.295
        48.0004         43.0004
 -16796896.00048 -13055521.08447  21076001.9454   21076006.2744   21076002.928
        51.0004         47.0004
 -26106532.10248 -20336756.79148  20544387.1514   20544392.6184   20544388.100
        53.0004         48.0004
  -6772600.34847  -5229724.08046  23998819.8964   23998826.3644   23998819.322
        44.0004         40.0004
 14  5 28  1 42 30.0000000  0 10G30G26G02G24G08G04G05G28G10G17
   5460332.21847   4264103.55046  23373580.6134   23373587.3344   23373581.162
        45.0004         41.0004
   1390870.86547   1097306.51346  24574404.4644   24574407.3854   24574403.300
        43.0004         38.0004
 -13602342.35148 -10544268.15147  21557939.7094   21557942.4694   21557940.278
        52.0004         47.0004
  -3142729.41547  -2420084.95746  24363319.1864   24363330.6794   24363316.575
        42.0004         38.0004
  -6940642.12647  -5367847.68846  23630341.3074   23630347.1604   23630341.896
        43.0004         38.0004
 -21849292.85148 -16974008.98747  21444634.0594   21444639.9164   21444633.672
        50.0004         46.0004
 -16200559.61248 -12585862.03947  22650519.1884   22650522.8814   22650519.277
        48.0004         44.0004
 -16796845.64748 -13055481.82347  21076012.1794   21076015.8094   21076012.464
        51.0004         47.0004
 -26135048.97648 -20358977.73648  20538960.9034   20538965.5984   20538961.823
        53.0004         48.0004
  -6779625.17847  -5235197.93446  23997482.3354   23997488.2984   23997482.564
        44.0004         40.0004
 14  5 28  1 43  0.0000000  0 10G30G26G02G24G08G04G05G28G10G17
   5552809.32747   4336163.63346  23391179.4204   23391185.6724   23391179.183
        45.0004         41.0004
   1389483.84647   1096225.78546  24574138.9104   24574143.8584   24574139.494
        43.0004         38.0004
 -13584370.54948 -10530264.17447  21561359.6084   21561363.1694   21561360.163
        51.0004         47.0004
  -3201258.09947  -2465691.45946  24352180.8624   24352191.9824   24352179.480
        42.0004         38.0004
  -6834100.62747  -5284828.33746  23650615.3114   23650620.3794   23650616.305
        43.0004         39.0004
 -21783645.28448 -16922855.08547  21457126.3964   21457132.2614   21457125.888
        50.0004         46.0004
 -16292868.70048 -12657791.15947  22632952.8874   22632955.8974   22632953.419
        48.0004         44.0004
 -16796263.34148 -13055028.05247  21076123.1514   21076127.3384   21076123.251
        51.0004         47.0004
 -26163080.49248 -20380820.48048  20533626.8434   20533631.8964   20533627.366
        53.0004         48.0004
  -6786843.99547  -5240822.95846  23996109.5494   23996114.3584   23996108.583
        45.0004         40.0004
 14  5 28  1 43 30.0000000  0 10G30G26G02G24G08G04G05G28G10G17
   5645267.72947   4408209.14146  23408773.2284   23408779.1444   23408772.756
        45.0004         41.0004
   1387863.05147   1094962.91046  24573830.7394   24573834.8364   24573831.059
        43.0004         38.0004
 -13566072.95348 -10516006.32347  21564841.7544   21564844.6434   21564841.656
        51.0004         47.0004
  -3259444.97947  -2511031.63146  24341107.4254   24341120.0374   24341106.141
        42.0004         38.0004
  -6727594.47047  -5201836.53446  23670883.4314   23670888.9354   23670883.672
        43.0004         39.0004
 -21717794.79848 -16871543.05947  21469657.6724   21469663.4444   21469656.911
        50.0004         46.0004
 -16385063.06148 -12729630.88247  22615409.5434   22615412.4004   22615408.816
        48.0004         44.0004
 -16795150.73748 -13054161.06047  21076334.2794   21076338.0904   21076335.211
        51.0004         47.0004
 -26190627.08348 -20402285.35848  20528384.7654   20528389.7324   20528385.446
        53.0004         48.0004
  -6794259.06847  -5246600.90146  23994697.7164   23994703.6964   23994697.729
        45.0004         40.0004
 14  5 28  1 44  0.0000000  0 10G30G26G02G24G08G04G05G28G10G17
   5737710.29947   4480242.31246  23426363.5004   23426370.7744   23426363.969
        45.0004         41.0004
   1386012.58447   1093521.07346  24573480.0654   24573482.6644   24573479.088
        42.0004         38.0004
 -13547446.10848 -10501491.92147  21568386.3594   21568388.8304   21568386.448
        51.0004         47.0004
  -3317284.80847  -2556101.36446  24330099.9144   24330114.3704   24330099.173
        42.0004         38.0004
  -6621121.11547  -5118870.29146  23691144.5324   23691149.1704   23691144.404
        43.0004         38.0004
 -21651739.15648 -16820071.18347  21482227.7394   21482233.7094   21482226.759
        50.0004         46.0004
 -16477134.37148 -12801374.72147  22597888.8894   22597892.1104   22597888.266
        49.0004         44.0004
 -16793501.36948 -13052875.81147  21076648.4554   21076652.5414   21076648.652
        51.0004         47.0004
 -26217681.27848 -20423366.55448  20523236.8594   20523241.4834   20523237.357
        53.0004         48.0004
  -6801863.92947  -5252526.73846  23993250.5764   23993257.3144   23993250.300
        45.0004         40.0004
 14  5 28  1 44 30.0000000  0 10G30G26G02G24G08G04G05G28G10G17
   5830129.89947   4552257.57946  23443950.9374   23443957.6934   23443951.260
        45.0004         40.0004
   1383926.78147   1091895.83646  24573082.6424   24573085.3564   24573081.501
        42.0004         38.0004
 -13528496.95648 -10486726.36447  21571991.6264   21571994.8604   21571992.441
        51.0004         47.0004
  -3374781.33747  -2600903.59546  24319159.7094   24319172.2974   24319158.223
        42.0004         38.0004
  -6514688.05547  -5035935.44046  23711398.1244   23711402.8954   23711398.431
        43.0004         38.0004
 -21585485.78848 -16768445.23347  21494834.3674   21494841.1024   21494834.332
        50.0004         46.0004
 -16569084.73148 -12873024.31747  22580391.9554   22580394.8324   22580390.935
        49.0004         44.0004
 -16791318.68848 -13051175.00347  21077063.7814   21077067.9064   21077064.105
        51.0004         47.0004
 -26244246.13448 -20444066.44348  20518181.0764   20518186.1454   20518181.943
        53.0004         48.0004
  -6809661.96447  -5258603.10446  23991767.1704   23991773.7684   23991766.179
        44.0004         40.0004
 14  5 28  1 45  0.0000000  0 10G30G26G02G24G08G04G05G28G10G17
   5922526.21547   4624254.71146  23461534.0124   23461539.7944   23461533.506
        45.0004         40.0004
   1381606.64347   1090088.00646  24572640.0034   24572644.5394   24572640.128
        42.0004         38.0004
 -13509225.37348 -10471709.56647  21575659.3794   21575662.6014   21575659.881
        51.0004         47.0004
  -3431932.20847  -2645436.50146  24308282.6814   24308296.3654   24308282.335
        42.0004         37.0004
  -6408295.93647  -4953032.50846  23731643.2444   23731648.9884   23731644.457
        43.0004         38.0004
 -21519035.50248 -16716665.82847  21507479.0644   21507486.5684   21507479.308
        50.0004         45.0004
 -16660909.46148 -12944576.01147  22562917.1774   22562919.6664   22562917.097
        49.0004         44.0004
 -16788599.36048 -13049056.02247  21077581.5474   21077585.5194   21077581.697
        51.0004         47.0004
 -26270317.35648 -20464381.68448  20513220.4554   20513225.3914   20513220.923
        53.0004         48.0004
  -6817650.36847  -5264827.80846  23990247.2814   23990252.6304   23990246.478
        45.0004         40.0004
 14  5 28  1 45 30.0000000  0 10G30G26G02G24G08G04G05G28G10G17
   6014896.13547   4696231.27746  23479110.5764   23479117.4044   23479110.661
        45.0004         40.0004
   1379050.61147   1088096.35646  24572154.0584   24572158.0014   24572153.678
        42.0004         38.0004
 -13489633.78148 -10456443.40947  21579387.8014   21579390.2224   21579387.665
        51.0004         47.0004
  -3488737.45647  -2689700.08546  24297472.3144   24297486.2304   24297472.367
        42.0004         38.0004
  -6301948.20247  -4870164.16346  23751881.0794   23751886.8674   23751882.092
        43.0004         38.0004
 -21452391.85948 -16664735.76047  21520161.5244   21520168.5284   21520161.548
        50.0004         45.0004
 -16752606.08048 -13016027.87847  22545468.5074   22545471.1594   22545467.871
        49.0004         44.0004
 -16785343.04148 -13046518.60947  21078200.8674   21078204.9894   21078201.370
        51.0004         47.0004
 -26295893.60348 -20484311.23048  20508353.1214   20508358.3534   20508353.661
        53.0004         48.0004
  -6825828.39947  -5271200.28646  23988690.8254   23988696.4664   23988689.688
        45.0004         40.0004
 14  5 28  1 46  0.0000000  0 10G30G26G02G24G08G04G05G28G10G17
   6107237.34647   4768185.47146  23496682.2844   23496688.8464   23496682.566
        45.0004         41.0004
   1376257.67247   1085920.09546  24571621.7354   24571625.8934   24571621.889
        42.0004         38.0004
 -13469724.39148 -10440929.61847  21583176.1384   21583179.1324   21583176.360
        51.0004         47.0004
  -3545196.27247  -2733693.75446  24286730.8614   24286742.3344   24286729.729
        42.0004         38.0004
  -6195647.51647  -4787332.46246  23772110.5304   23772115.5164   23772110.046
        43.0004         38.0004
 -21385557.53948 -16612657.11447  21532880.1954   21532887.0024   21532879.759
        50.0004         46.0004
 -16844171.74648 -13087377.71447  22528043.5604   22528047.4364   22528043.211
        49.0004         44.0004
 -16781548.76548 -13043562.00947  21078922.8234   21078926.9764   21078923.184
        51.0004         47.0004
 -26320972.81848 -20503853.47048  20503581.0024   20503586.0864   20503581.338
        53.0004         48.0004
  -6834195.11847  -5277719.78446  23987098.7704   23987104.7844   23987097.932
        45.0004         40.0004
 14  5 28  1 46 30.0000000  0 10G30G26G02G24G08G04G05G28G10G17
   6199548.59047   4840116.31046  23514249.0874   23514256.0894   23514249.307
        45.0004         41.0004
   1373227.93847   1083559.31646  24571044.3834   24571048.5234   24571044.825
        42.0004         38.0004
 -13449498.13848 -10425168.92847  21587025.4314   21587027.8824   21587025.416
        51.0004         47.0004
  -3601306.81047  -2777416.03246  24276051.9464   24276064.3514   24276050.632
        42.0004         38.0004
  -6089395.59047  -4704538.75446  23792327.9934   23792334.1484   23792328.852
        42.0004         38.0004
 -21318534.35248 -16560431.31147  21545634.2124   21545640.5264   21545633.957
        50.0004         46.0004
 -16935602.82348 -13158622.67447  22510645.5114   22510649.7624   22510644.331
        49.0004         45.0004
 -16777214.16448 -13040184.38147  21079748.1584   21079752.3894   21079747.974
        51.0004         47.0004
 -26345551.90948 -20523006.01448  20498903.7884   20498908.3554   20498904.263
        53.0004         48.0004
  -6842748.11047  -5284384.41746  23985470.4124   23985477.1814   23985469.593
        45.0004         40.0004
 14  5 28  1 47  0.0000000  0 10G30G26G02G24G08G04G05G28G10G17
   6291826.23347   4912020.97446  23531808.7654   23531814.6154   23531808.700
        45.0004         40.0004
   1369959.33247   1081012.40946  24570422.4744   24570427.3844   24570422.482
        42.0004         38.0004
 -13428958.32948 -10409163.90647  21590933.9444   21590936.6444   21590934.193
        51.0004         47.0004
  -3657069.66647  -2820867.37146  24265440.8354   24265452.1414   24265439.634
        42.0004         37.0004
  -5983196.25647  -4621786.05246  23812536.9404   23812542.9344   23812537.832
        42.0004         37.0004
 -21251326.26048 -16508061.42447  21558423.7764   21558430.0674   21558423.132
        50.0004         45.0004
 -17026897.72948 -13229761.52747  22493272.2274   22493275.6864   22493271.843
        49.0004         45.0004
 -16772339.30748 -13036385.76947  21080675.2914   21080678.9024   21080675.554
        51.0004         47.0004
 -26369630.12248 -20541768.25848  20494321.8884   20494326.5514   20494322.028
        53.0004         49.0004
  -6851487.24647  -5291194.11246  23983808.0054   23983814.5274   23983807.025
        45.0004         40.0004
 14  5 28  1 47 30.0000000  0 10G30G26G02G24G08G04G05G28G10G17
   6384069.18347   4983898.60546  23549362.3464   23549368.3584   23549362.123
        45.0004         40.0004
   1366452.00547   1078279.48746  24569756.1604   24569761.4714   24569755.385
        42.0004         37.0004
 -13408105.50748 -10392914.97547  21594901.8714   21594904.7784   21594901.912
        51.0004         47.0004
  -3712483.65747  -2864046.89646  24254894.6484   24254908.4754   24254894.863
        42.0004         37.0004
  -5877050.80647  -4539075.32946  23832734.0954   23832740.7984   23832737.232
        42.0004         37.0004
 -21183934.93648 -16455548.75747  21571248.0444   21571253.9294   21571247.352
        50.0004         45.0004
 -17118052.28648 -13300791.01247  22475926.8014   22475930.4964   22475925.728
        49.0004         45.0004
 -16766922.06648 -13032164.53147  21081705.8754   21081710.2774   21081706.586
        51.0004         47.0004
 -26393204.34048 -20560137.77848  20489835.7094   20489840.7244   20489836.182
        53.0004         49.0004
  -6860410.70247  -5298147.43646  23982108.1134   23982115.4864   23982109.067
        45.0004         40.0004
 14  5 28  1 48  0.0000000  0 10G30G26G02G24G08G04G05G28G10G17
   6476273.22347   5055745.91246  23566907.9954   23566914.9104   23566908.024
        45.0004         40.0004
   1362703.26047   1075358.46146  24569043.1664   24569045.6294   24569042.348
        42.0004         37.0004
 -13386943.37948 -10376425.02447  21598928.8594   21598931.6734   21598929.556
        51.0004         47.0004
  -3767549.54447  -2906955.15646  24244416.8324   24244429.3444   24244415.552
        42.0004         37.0004
  -5770963.99047  -4456410.29346  23852924.5384   23852928.5604   23852924.378
        42.0004         37.0004
 -21116364.89748 -16402896.82847  21584105.9494   21584111.9564   21584105.684
        50.0004         45.0004
 -17209065.53948 -13371710.39247  22458606.6694   22458609.7284   22458606.474
        49.0004         45.0004
 -16760963.19548 -13027521.23947  21082840.2414   21082844.3284   21082840.375
        51.0004         47.0004
 -26416274.57648 -20578114.58848  20485445.6114   20485450.5084   20485446.310
        53.0004         49.0004
  -6869518.93147  -5305244.74346  23980376.5044   23980381.4754   23980375.704
        45.0004         40.0004
 14  5 28  1 48 30.0000000  0 10G30G26G02G24G08G04G05G28G10G17
   6568438.39247   5127562.92546  23584447.5844   23584453.9904   23584446.635
        45.0004         40.0004
   1358714.50947   1072250.41546  24568283.7164   24568286.6504   24568283.112
        42.0004         37.0004
 -13365472.41248 -10359694.42447  21603014.9564   21603017.8334   21603015.251
        51.0004         47.0004
  -3822264.76447  -2949590.17846  24234004.7364   24234015.7484   24234004.319
        42.0004         38.0004
  -5664935.93947  -4373791.05146  23873099.9264   23873104.3104   23873100.895
        42.0004         37.0004
 -21048616.69048 -16350106.07147  21596998.3074   21597004.3584   21596997.527
        50.0004         45.0004
 -17299932.37848 -13442515.70047  22441314.9934   22441318.7924   22441314.530
        49.0004         45.0004
 -16754459.20048 -13022453.18347  21084077.7794   21084082.0304   21084078.249
        51.0004         47.0004
 -26438836.42948 -20595695.25548  20481152.0284   20481157.1494   20481152.586
        53.0004         49.0004
  -6878808.27647  -5312483.16246  23978608.7244   23978615.3864   23978608.292
        45.0004         40.0004
 14  5 28  1 49  0.0000000  0 10G30G26G02G24G08G04G05G28G10G17
   6660561.91047   5199347.48446  23601977.4434   23601983.0614   23601976.985
        45.0004         40.0004
   1354484.43347   1068954.32046  24567478.9534   24567482.2674   24567478.826
        42.0004         38.0004
 -13343694.63648 -10342724.74947  21607158.8614   21607161.6144   21607159.137
        51.0004         47.0004
  -3876629.55447  -2991952.14046  24223658.7534   24223671.6164   24223656.735
        42.0004         38.0004
  -5558969.89247  -4291220.11646  23893264.1324   23893269.6694   23893265.017
        42.0004         37.0004
 -20980693.75848 -16297179.16447  21609922.6784   21609929.5174   21609922.698
        50.0004         45.0004
 -17390650.34548 -13513204.99347  22424052.0624   22424055.8664   22424052.136
        49.0004         45.0004
 -16747410.13848 -13016960.40547  21085419.8784   21085422.8214   21085419.561
        51.0004         47.0004
 -26460888.38648 -20612878.59648  20476955.6914   20476961.0684   20476956.401
        53.0004         49.0004
  -6888278.28747  -5319862.37446  23976806.3124   23976813.2514   23976805.875
        45.0004         40.0004
 14  5 28  1 49 30.0000000  0 10G30G26G02G24G08G04G05G28G10G17
   6752638.81847   5271095.71746  23619498.3554   23619504.8244   23619498.800
        45.0004         40.0004
   1350009.50047   1065467.42146  24566627.3434   24566630.5464   24566626.975
        43.0004         38.0004
 -13321614.96948 -10325519.82847  21611360.2384   21611363.3494   21611360.640
        51.0004         46.0004
  -3930645.59747  -3034042.34046  24213379.8334   24213392.1974   24213379.574
        43.0004         38.0004
  -5453070.86447  -4208701.40446  23913416.7864   23913422.4504   23913417.403
        42.0004         37.0004
 -20912601.32148 -16244120.18847  21622881.4154   21622887.4824   21622880.695
        50.0004         45.0004
 -17481219.15948 -13583778.07047  22406817.9984   22406820.9894   22406817.111
        50.0004         45.0004
 -16739817.44248 -13011044.01447  21086863.8114   21086867.9034   21086864.100
        51.0004         47.0004
 -26482431.46648 -20629665.41548  20472856.4724   20472861.0794   20472857.030
        53.0004         49.0004
  -6897930.20047  -5327383.32846  23974969.8454   23974975.8154   23974969.690
        45.0004         41.0004
 14  5 28  1 50  0.0000000  0 10G30G26G02G24G08G04G05G28G10G17
   6844669.91147   5342808.24546  23637012.0324   23637017.4234   23637012.012
        45.0004         40.0004
   1345291.77947   1061791.34946  24565728.5734   24565734.1504   24565728.925
        43.0004         38.0004
 -13299232.13048 -10308078.67547  21615619.6604   21615623.0394   21615619.998
        51.0004         47.0004
  -3984309.43347  -3075858.10846  24203168.5274   24203179.8574   24203167.687
        43.0004         38.0004
  -5347238.47747  -4126234.62446  23933555.8684   23933561.7674   23933556.609
        42.0004         37.0004
 -20844339.09848 -16190928.89947  21635871.1054   21635877.6034   21635870.627
        50.0004         45.0004
 -17571633.02048 -13654230.40147  22389612.4024   22389616.3034   22389612.347
        50.0004         45.0004
 -16731677.07148 -13004700.85847  21088413.3384   21088416.7174   21088413.767
        51.0004         47.0004
 -26503460.65248 -20646051.79048  20468854.2374   20468859.2334   20468855.245
        53.0004         49.0004
  -6907759.62947  -5335042.59246  23973098.9744   23973104.8834   23973098.804
        45.0004         41.0004
 14  5 28  1 50 30.0000000  0 10G30G26G02G24G08G04G05G28G10G17
   6936652.35847   5414482.88746  23654515.6594   23654520.7834   23654515.697
        45.0004         40.0004
   1340329.93347   1057925.02446  24564785.7334   24564790.0724   24564785.410
        43.0004         38.0004
 -13276549.04448 -10290403.56347  21619936.2674   21619939.4364   21619936.701
        51.0004         47.0004
  -4037621.06947  -3117399.39546  24193022.2384   24193033.9274   24193021.967
        43.0004         38.0004
  -5241476.04547  -4043822.36346  23953683.2564   23953686.6884   23953682.477
        42.0004         37.0004
 -20775910.43348 -16137607.91847  21648892.8994   21648899.1854   21648892.124
        50.0004         45.0004
 -17661889.62948 -13724560.19647  22372437.4814   22372440.9334   22372436.528
        50.0004         45.0004
 -16722988.59848 -12997930.61047  21090066.9814   21090070.2734   21090066.755
        51.0004         47.0004
 -26523974.55548 -20662036.64948  20464950.8984   20464955.5444   20464951.564
        53.0004         49.0004
  -6917766.06647  -5342839.78546  23971195.2484   23971200.9664   23971194.648
        45.0004         40.0004
 14  5 28  1 51  0.0000000  0 10G30G26G02G24G08G04G05G28G10G17
   7028583.51047   5486117.55846  23672010.1364   23672016.4334   23672009.250
        45.0004         40.0004
   1335122.79247   1053867.54946  24563793.0424   24563797.2504   24563794.098
        42.0004         37.0004
 -13253567.80848 -10272496.12747  21624309.7894   21624312.6694   21624309.600
        51.0004         47.0004
  -4090580.46847  -3158666.24346  24182944.6324   24182957.1364   24182945.019
        43.0004         38.0004
  -5135786.41847  -3961466.82846  23973795.5154   23973799.6594   23973795.038
        42.0004         37.0004
 -20707318.62448 -16084159.81647  21661945.5954   21661951.2334   21661944.776
        50.0004         45.0004
 -17751986.74748 -13794765.71447  22355291.8324   22355296.2484   22355291.957
        50.0004         45.0004
 -16713751.54448 -12990732.90447  21091824.0704   21091828.6484   21091824.612
        51.0004         47.0004
 -26543971.88248 -20677618.98848  20461145.3074   20461150.5354   20461146.007
        53.0004         49.0004
  -6927948.56447  -5350774.18546  23969257.2104   23969262.7934   23969256.777
        45.0004         40.0004
 14  5 28  1 51 30.0000000  0 10G30G26G02G24G08G04G05G28G10G17
   7120460.60447   5557710.09646  23689492.3494   23689499.3644   23689492.684
        45.0004         40.0004
   1329668.97947   1049617.85346  24562756.4924   24562758.9334   24562756.684
        42.0004         38.0004
 -13230291.18248 -10254358.52147  21628739.0864   21628741.7544   21628739.111
        51.0004         47.0004
  -4143187.99247  -3199658.86946  24172933.7674   24172945.1964   24172932.664
        43.0004         38.0004
  -5030172.58847  -3879170.34846  23993891.1454   23993896.4974   23993892.500
        42.0004         37.0004
 -20638566.81748 -16030587.03747  21675028.5264   21675034.4314   21675028.051
        50.0004         45.0004
 -17841922.01748 -13864845.12147  22338178.4574   22338181.6624   22338177.160
        50.0004         45.0004
 -16703965.78448 -12983107.63047  21093685.7204   21093690.2384   21093686.351
        51.0004         47.0004
 -26563451.30648 -20692797.76048  20457438.8134   20457443.7334   20457439.306
        53.0004         49.0004
  -6938306.24647  -5358845.09246  23967286.4344   23967292.8174   23967285.836
        45.0004         40.0004
 14  5 28  1 52  0.0000000  0 10G30G26G02G24G08G04G05G28G10G17
   7212280.28347   5629257.89646  23706965.7104   23706972.6174   23706965.486
        45.0004         40.0004
   1323966.61047   1045174.48446  24561669.9234   24561673.2664   24561671.215
        42.0004         37.0004
 -13206722.56648 -10235993.39047  21633224.2784   21633226.4964   21633224.503
        51.0004         47.0004
  -4195443.87847  -3240377.52446  24162989.3164   24163001.2244   24162988.824
        42.0004         38.0004
  -4924637.97147  -3796935.59146  24013975.6064   24013979.2634   24013974.495
        42.0004         37.0004
 -20569658.99148 -15976892.69247  21688141.1134   21688147.4654   21688140.666
        50.0004         45.0004
 -17931693.34148 -13934796.77147  22321094.7974   22321098.3354   22321094.552
        50.0004         45.0004
 -16693631.52948 -12975054.94847  21095652.8274   21095656.8954   21095653.158
        51.0004         47.0004
 -26582412.18148 -20707572.46948  20453830.6054   20453835.5464   20453830.976
        53.0004         49.0004
  -6948839.08847  -5367052.47946  23965281.0124   23965287.8304   23965281.000
        45.0004         41.0004
 14  5 28  1 52 30.0000000  0 10G30G26G02G24G08G04G05G28G10G17
   7304043.30147   5700761.54746  23724427.6364   23724433.3564   23724427.628
        44.0004         40.0004
   1318017.75247   1040539.03346  24560539.1904   24560543.2084   24560539.111
        42.0004         38.0004
 -13182861.18048 -10217400.12647  21637764.8614   21637767.4034   21637765.020
        51.0004         47.0004
  -4247345.10747  -3280819.81646  24153111.3224   24153123.9274   24153112.161
        42.0004         38.0004
  -4819182.36847  -3714762.40746  24034041.9104   24034048.4524   24034042.563
        42.0004         37.0004
 -20500594.86648 -15923076.55647  21701283.6314   21701289.3694   21701283.353
        50.0004         45.0004
 -18021294.80448 -14004616.07147  22304044.8854   22304047.5054   22304043.656
        50.0004         45.0004
 -16682745.07548 -12966571.98947  21097724.8344   21097728.6464   21097724.665
        51.0004         47.0004
 -26600849.83148 -20721939.47248  20450321.9254   20450326.8934   20450322.525
        53.0004         49.0004
  -6959542.80947  -5375393.02146  23963244.8514   23963251.2654   23963244.184
        45.0004         41.0004
 14  5 28  1 53  0.0000000  0 10G30G26G02G24G08G04G05G28G10G17
   7395745.46647   5772217.77746  23741877.8404   23741883.4834   23741878.040
        45.0004         40.0004
   1311819.73947   1035709.44446  24559359.7664   24559363.5824   24559359.508
        43.0004         38.0004
 -13158710.83448 -10198581.70047  21642360.7564   21642363.2484   21642360.772
        51.0004         47.0004
  -4298893.37247  -3320987.06046  24143303.2684   24143314.3664   24143302.672
        42.0004         38.0004
  -4713810.09647  -3632654.16746  24054095.0914   24054099.8394   24054094.112
        42.0004         37.0004
 -20431379.26348 -15869142.39147  21714454.6764   21714461.1894   21714454.854
        50.0004         45.0004
 -18110725.69648 -14074302.45447  22287026.8594   22287029.9924   22287026.219
        50.0004         45.0004
 -16671307.62848 -12957659.67947  21099901.3324   21099904.9714   21099901.226
        51.0004         47.0004
 -26618764.23948 -20735898.75548  20446913.0204   20446917.8544   20446913.784
        53.0004         49.0004
  -6970417.93847  -5383867.11746  23961175.3104   23961182.3094   23961174.919
        46.0004         41.0004
 14  5 28  1 53 30.0000000  0 10G30G26G02G24G08G04G05G28G10G17
   7487386.03547   5843626.01746  23759316.0624   23759322.3344   23759316.361
        44.0004         40.0004
   1305373.30247   1030686.29546  24558132.8554   24558136.8194   24558132.187
        43.0004         38.0004
 -13134272.35448 -10179538.74747  21647010.9854   21647013.3174   21647011.238
        51.0004         47.0004
  -4350086.33547  -3360877.47146  24133561.9054   24133571.2644   24133561.165
        42.0004         38.0004
  -4608522.15047  -3550611.61746  24074129.7764   24074134.1284   24074130.499
        42.0004         37.0004
 -20362013.41448 -15815091.14247  21727654.9214   21727661.5294   21727654.603
        50.0004         45.0004
 -18199981.78148 -14143852.62947  22270041.8704   22270044.8754   22270040.726
        50.0004         45.0004
 -16659316.75448 -12948316.13347  21102182.5844   21102186.5034   21102182.813
        51.0004         47.0004
 -26636152.35648 -20749447.93948  20443604.2444   20443609.2234   20443604.788
        53.0004         49.0004
  -6981461.86247  -5392472.73946  23959073.9814   23959079.9474   23959073.347
        46.0004         41.0004
 14  5 28  1 54  0.0000000  0 10G30G26G02G24G08G04G05G28G10G17
   7578961.74247   5914983.71746  23776742.2024   23776749.3784   23776742.949
        44.0004         39.0004
   1298676.44347   1025467.99246  24556859.1044   24556861.1964   24556858.188
        42.0004         37.0004
 -13109548.72448 -10160273.61047  21651715.5734   21651718.9064   21651716.201
        51.0004         47.0004
  -4400924.85647  -3400491.68646  24123886.1324   24123898.8914   24123885.766
        42.0004         38.0004
  -4503322.37647  -3468637.80646  24094148.3204   24094154.6394   24094148.763
        42.0004         37.0004
 -20292501.14648 -15760925.80747  21740882.7224   21740888.4934   21740882.335
        50.0004         45.0004
 -18289061.18748 -14213265.13047  22253090.4544   22253093.5264   22253089.892
        50.0004         45.0004
 -16646772.71148 -12938541.54247  21104570.3054   21104573.5874   21104570.089
        51.0004         47.0004
 -26653013.64248 -20762586.60448  20440395.5464   20440400.9594   20440396.115
        53.0004         49.0004
  -6992674.34947  -5401209.71546  23956939.8094   23956947.0044   23956940.239
        46.0004         41.0004
 14  5 28  1 54 30.0000000  0 10G30G26G02G24G08G04G05G28G10G17
   7670469.74347   5986288.65846  23794156.5944   23794161.7334   23794156.433
        44.0004         39.0004
   1291727.93947   1020053.65446  24555536.9244   24555539.7884   24555535.932
        43.0004         38.0004
 -13084542.76848 -10140788.47247  21656473.8354   21656476.8954   21656474.112
        51.0004         47.0004
  -4451409.77947  -3439830.35346  24114280.0674   24114293.1244   24114278.917
        42.0004         38.0004
  -4398213.90247  -3386735.11546  24114149.2134   24114155.1484   24114150.461
        42.0004         37.0004
 -20222845.75148 -15706648.93947  21754137.0244   21754143.1974   21754137.265
        50.0004         45.0004
 -18377961.36348 -14282537.95947  22236172.0454   22236176.9034   22236172.510
        50.0004         45.0004
 -16633675.75948 -12928336.10947  21107061.7284   21107065.6994   21107062.360
        51.0004         47.0004
 -26669347.22848 -20775314.07248  20437287.2194   20437292.5524   20437288.040
        53.0004         49.0004
  -7004054.52347  -5410077.35346  23954774.5254   23954781.0884   23954774.107
        46.0004         41.0004
 14  5 28  1 55  0.0000000  0 10G30G26G02G24G08G04G05G28G10G17
   7761907.67247   6057538.97946  23811556.6154   23811562.2564   23811556.944
        44.0004         39.0004
   1284526.65547   1014442.28946  24554166.4304   24554169.9784   24554165.369
        43.0004         38.0004
 -13059257.02748 -10121085.32947  21661286.0324   21661288.7414   21661286.575
        51.0004         47.0004
  -4501540.63647  -3478893.16346  24104740.0674   24104751.3234   24104739.384
        42.0004         38.0004
  -4293199.38947  -3304905.64346  24134133.5194   24134139.2054   24134134.523
        42.0004         37.0004
 -20153050.31448 -15652262.94547  21767419.7064   21767425.8134   21767419.136
        50.0004         45.0004
 -18466679.80248 -14351669.18247  22219290.1424   22219293.5004   22219289.509
        50.0004         45.0004
 -16620025.65548 -12917699.65247  21109659.5104   21109664.0494   21109660.050
        51.0004         47.0004
 -26685151.59648 -20787629.16848  20434279.4194   20434284.7914   20434280.477
        53.0004         48.0004
  -7015600.97547  -5419074.55546  23952578.1084   23952584.1644   23952577.188
        46.0004         41.0004
 14  5 28  1 55 30.0000000  0 10G30G26G02G24G08G04G05G28G10G17
   7853275.95047   6128735.03846  23828943.2934   23828949.2304   23828943.541
        44.0004         39.0004
   1277074.49347   1008635.48746  24552748.0584   24552750.8284   24552747.544
        42.0004         38.0004
 -13033690.94848 -10101163.73047  21666151.0684   21666154.0084   21666151.129
        51.0004         47.0004
  -4551314.39147  -3517677.67946  24095267.8804   24095281.0454   24095266.573
        42.0004         38.0004
  -4188278.49647  -3223149.12746  24154098.2254   24154105.0074   24154100.053
        42.0004         37.0004
 -20083114.90448 -15597767.88247  21780727.8884   21780733.9344   21780727.429
        49.0004         45.0004
 -18555211.25448 -14420654.70347  22202443.5054   22202447.3224   22202443.139
        50.0004         46.0004
 -16605818.87048 -12906629.41447  21112363.4654   21112367.0674   21112363.318
        51.0004         47.0004
 -26700422.34648 -20799528.45248  20431373.9294   20431379.1744   20431374.476
        53.0004         48.0004
  -7027310.12047  -5428198.54146  23950349.0754   23950355.6714   23950348.660
        46.0004         41.0004
 14  5 28  1 56  0.0000000  0 10G30G26G02G24G08G04G05G28G10G17
   7944570.22147   6199873.42746  23846316.2484   23846321.7624   23846316.186
        44.0004         39.0004
   1269368.67947   1002631.01746  24551281.5484   24551285.0244   24551280.872
        42.0004         38.0004
 -13007848.99448 -10081027.16447  21671068.7334   21671071.5904   21671069.057
        51.0004         47.0004
  -4600733.37547  -3556185.76846  24085866.4214   24085875.5044   24085864.060
        42.0004         38.0004
  -4083455.68946  -3141469.04646  24174045.6934   24174052.8854   24174047.163
        41.0004         37.0004
 -20013044.57548 -15543167.69147  21794061.8554   21794068.1884   21794061.262
        49.0004         45.0004
 -18643554.77848 -14489493.79047  22185632.1054   22185635.6744   22185631.952
        50.0004         46.0004
 -16591057.06048 -12895126.68947  21115172.5874   21115176.0014   21115172.267
        51.0004         47.0004
 -26715160.18248 -20811012.48548  20428569.4984   20428574.5774   20428570.094
        53.0004         48.0004
  -7039182.86447  -5437450.01646  23948090.0824   23948096.3134   23948089.901
        46.0004         41.0004
 14  5 28  1 56 30.0000000  0 10G30G26G02G24G08G04G05G28G10G17
   8035788.96447   6270952.97346  23863674.0624   23863679.8654   23863674.117
        44.0004         39.0004
   1261408.98147    996428.72046  24549766.5514   24549771.6474   24549766.183
        42.0004         38.0004
 -12981732.69348 -10060676.82247  21676038.1994   21676041.4694   21676038.373
        51.0004         46.0004
  -4649795.97547  -3594416.16046  24076527.9064   24076538.9614   24076525.982
        42.0004         38.0004
  -3978732.88946  -3059866.88046  24193974.3084   24193979.1124   24193975.038
        41.0004         37.0004
 -19942841.34248 -15488463.94047  21807421.1524   21807427.6884   21807420.522
        49.0004         45.0004
 -18731706.96748 -14558183.78747  22168857.0334   22168860.7634   22168856.924
        50.0004         46.0004
 -16575739.15148 -12883190.63447  21118086.6784   21118090.8334   21118087.214
        51.0004         46.0004
 -26729363.06848 -20822079.67248  20425866.7064   20425871.6414   20425867.292
        53.0004         48.0004
  -7051217.30347  -5446827.48846  23945799.9454   23945806.0774   23945799.586
        46.0004         41.0004
 14  5 28  1 57  0.0000000  0 10G30G26G02G24G08G04G05G28G10G17
   8126929.71447   6341971.73646  23881017.4944   23881024.2764   23881017.964
        44.0004         39.0004
   1253194.49647    990027.85446  24548203.7584   24548206.4354   24548203.128
        43.0004         38.0004
 -12955344.40548 -10040114.54347  21681059.7594   21681062.6774   21681060.272
        51.0004         46.0004
  -4698503.03547  -3632369.51346  24067259.1004   24067271.1614   24067258.238
        42.0004         38.0004
  -3874112.78446  -2978344.74546  24213884.8834   24213887.7204   24213883.844
        41.0004         37.0004
 -19872508.15148 -15433658.92047  21820805.4114   21820811.0364   21820804.570
        49.0004         44.0004
 -18819665.39548 -14626722.79347  22152119.5954   22152122.9844   22152119.051
        50.0004         46.0004
 -16559864.59048 -12870820.83147  21121107.9554   21121111.9894   21121108.181
        51.0004         46.0004
 -26743029.58648 -20832728.90848  20423265.8624   20423271.3004   20423266.796
        53.0004         48.0004
  -7063412.00747  -5456329.84946  23943479.2594   23943485.6224   23943478.920
        46.0004         41.0004
 14  5 28  1 57 30.0000000  0 10G30G26G02G24G08G04G05G28G10G17
   8217991.39847   6412928.89446  23898345.5694   23898351.9884   23898346.607
        44.0004         39.0004
   1244725.40047    983428.57546  24546592.9054   24546595.9164   24546591.521
        43.0004         38.0004
 -12928685.46348 -10019341.36747  21686132.5334   21686136.3524   21686132.976
        51.0004         46.0004
  -4746853.17847  -3670044.76346  24058058.1134   24058067.9404   24058057.493
        43.0004         38.0004
  -3769596.92846  -2896903.84946  24233771.7164   24233777.9934   24233772.722
        41.0004         37.0004
 -19802046.79348 -15378754.04647  21834213.7994   21834220.4354   21834213.005
        49.0004         44.0004
 -18907425.76348 -14695107.46547  22135419.5374   22135422.5914   22135419.056
        50.0004         46.0004
 -16543432.25648 -12858016.39247  21124234.8304   21124238.6454   21124234.925
        51.0004         46.0004
 -26756157.31848 -20842958.32048  20420767.8004   20420773.0114   20420768.644
        53.0004         48.0004
  -7075764.65847  -5465955.29446  23941128.3834   23941133.9624   23941128.294
        46.0004         41.0004
 14  5 28  1 58  0.0000000  0 10G30G26G02G24G08G04G05G28G10G17
   8308970.34747   6483821.57046  23915658.8314   23915665.3314   23915659.098
        44.0004         39.0004
   1235999.63847    976629.31546  24544931.1784   24544935.4824   24544930.981
        42.0004         37.0004
 -12901759.33548  -9998359.98947  21691256.7324   21691259.0944   21691257.033
        51.0004         47.0004
  -4794847.29747  -3707442.60546  24048924.7134   24048936.3264   24048923.636
        43.0004         38.0004
  -3665189.30046  -2815547.28046  24253639.7694   24253644.2204   24253640.764
        41.0004         37.0004
 -19731461.50548 -15323752.59347  21847644.7684   21847652.6594   21847644.720
        49.0004         44.0004
 -18994987.04248 -14763337.00247  22118757.2144   22118759.8894   22118755.991
        51.0004         46.0004
 -16526442.60748 -12844777.68247  21127467.9904   21127471.5514   21127467.891
        51.0004         46.0004
 -26768746.32948 -20852767.94848  20418372.4274   20418377.0964   20418372.867
        53.0004         48.0004
  -7088275.64647  -5475704.11446  23938747.7224   23938755.2114   23938747.298
        45.0004         41.0004
 14  5 28  1 58 30.0000000  0 10G30G26G02G24G08G04G05G28G10G17
   8399865.46347   6554648.92746  23932955.9314   23932961.6654   23932955.439
        44.0004         39.0004
   1227017.50147    969630.27846  24543221.8114   24543224.8074   24543221.949
        42.0004         37.0004
 -12874567.41748  -9977171.51147  21696431.4204   21696434.6754   21696431.693
        51.0004         47.0004
  -4842484.42847  -3744562.26446  24039860.2634   24039872.1024   24039859.260
        43.0004         38.0004
  -3560891.27646  -2734276.11746  24273487.8724   24273493.7414   24273486.980
        41.0004         37.0004
 -19660753.86348 -15268655.79447  21861100.2094   21861106.6164   21861100.049
        49.0004         44.0004
 -19082345.12648 -14831408.21047  22102133.0984   22102136.0214   22102132.927
        51.0004         46.0004
 -16508894.53548 -12831103.83747  21130807.4514   21130810.9604   21130807.327
        51.0004         46.0004
 -26780793.88748 -20862155.66148  20416079.8364   20416084.8464   20416080.480
        53.0004         48.0004
  -7100941.86447  -5485573.88446  23936337.1124   23936343.7864   23936337.113
        45.0004         41.0004
 14  5 28  1 59  0.0000000  0 10G30G26G02G24G08G04G05G28G10G17
   8490674.64947   6625409.32746  23950235.4144   23950242.2714   23950235.706
        44.0004         39.0004
   1217778.40947    962431.06146  24541462.8234   24541466.2994   24541463.471
        42.0004         37.0004
 -12847112.12548  -9955777.79847  21701656.0144   21701658.4174   21701656.238
        51.0004         47.0004
  -4889764.28947  -3781403.53746  24030863.4144   24030873.1564   24030862.314
        43.0004         38.0004
  -3456705.05746  -2653092.07846  24293314.2384   24293318.9454   24293313.424
        41.0004         37.0004
 -19589926.72148 -15213465.86647  21874579.1554   21874585.8244   21874578.378
        49.0004         44.0004
 -19169497.18148 -14899318.87047  22085549.2934   22085551.6424   22085548.395
        51.0004         46.0004
 -16490788.04748 -12816994.86447  21134252.6114   21134256.6204   21134252.953
        51.0004         46.0004
 -26792298.86848 -20871120.59148  20413890.5954   20413895.5604   20413891.035
        53.0004         48.0004
  -7113762.36947  -5495563.89346  23933897.6944   23933904.6744   23933897.598
        45.0004         41.0004
 14  5 28  1 59 30.0000000  0 10G30G26G02G24G08G04G05G28G10G17
   8581394.88847   6696100.42246  23967499.3764   23967505.0684   23967499.373
        44.0004         39.0004
   1208280.68447    955030.31346  24539656.7604   24539659.9854   24539656.624
        42.0004         37.0004
 -12819396.13348  -9934180.94547  21706929.8484   21706932.7864   21706930.393
        51.0004         47.0004
  -4936688.05147  -3817967.32146  24021932.2734   24021943.5754   24021931.717
        43.0004         38.0004
  -3352633.90946  -2571997.71546  24313117.4234   24313122.6504   24313117.554
        41.0004         37.0004
 -19518983.85548 -15158185.78447  21888078.2534   21888084.6034   21888078.128
        49.0004         44.0004
 -19256441.29248 -14967067.49947  22069003.8654   22069007.0794   22069002.950
        51.0004         46.0004
 -16472123.22048 -12802450.82147  21137804.7314   21137808.1614   21137804.718
        51.0004         46.0004
 -26803260.76948 -20879662.34548  20411804.4364   20411809.3794   20411805.016
        53.0004         48.0004
  -7126736.26947  -5505673.42746  23931428.4364   23931435.4714   23931428.264
        45.0004         41.0004
 14  5 28  2  0  0.0000000  0 10G30G26G02G24G08G04G05G28G10G17
   8672025.12947   6766721.38846  23984746.1884   23984752.2914   23984745.400
        43.0004         39.0004
   1198524.76247    947428.35446  24537800.3234   24537803.2154   24537800.265
        42.0004         38.0004
 -12791420.70448  -9912381.93247  21712253.3614   21712256.4434   21712253.788
        51.0004         47.0004
  -4983254.05647  -3854252.34846  24013072.5524   24013082.2674   24013071.925
        43.0004         38.0004
  -3248678.97246  -2490993.89746  24332899.3294   24332906.9784   24332899.303
        41.0004         37.0004
 -19447926.68948 -15102816.64347  21901599.6404   21901606.9424   21901600.055
        49.0004         44.0004
 -19343173.54148 -15034651.04547  22052499.0014   22052501.8504   22052498.630
        51.0004         46.0004
 -16452898.34148 -12787470.37547  21141463.0614   21141466.4394   21141462.939
        51.0004         46.0004
 -26813676.90948 -20887778.83148  20409821.9944   20409827.3884   20409822.736
        53.0004         48.0004
  -7139861.70347  -5515901.04946  23928930.9574   23928937.1544   23928930.953
        45.0004         41.0004
 14  5 28  2  0 30.0000000  0 10G30G26G02G24G08G04G05G28G10G17
   8762563.30047   6837270.60246  24001974.6734   24001981.2684   24001974.973
        43.0004         39.0004
   1188509.93747    939624.65546  24535893.4204   24535897.1584   24535893.643
        43.0004         38.0004
 -12763188.55748  -9890382.87747  21717625.5624   21717628.9514   21717626.402
        51.0004         47.0004
  -5029462.61847  -3890258.82446  24004277.4814   24004289.6294   24004277.093
        43.0004         38.0004
  -3144842.88546  -2410082.69746  24352657.1984   24352663.5864   24352658.552
        41.0004         37.0004
 -19376758.22648 -15047360.76747  21915142.8454   21915150.3904   21915143.055
        49.0004         44.0004
 -19429690.88948 -15102067.13047  22036035.6994   22036038.2414   22036034.892
        51.0004         46.0004
 -16433113.41548 -12772053.52547  21145227.5534   21145231.3054   21145227.988
        51.0004         46.0004
 -26823546.09048 -20895469.12148  20407944.2284   20407949.2094   20407945.341
        53.0004         48.0004
  -7153136.91747  -5526245.37346  23926405.4354   23926411.7894   23926404.884
        45.0004         41.0004
 14  5 28  2  1  0.0000000  0 10G30G26G02G24G08G04G05G28G10G17
   8853007.79947   6907746.82346  24019185.8584   24019191.3214   24019186.171
        43.0004         39.0004
   1178236.05547    931619.06646  24533938.0534   24533942.6484   24533938.976
        43.0004         38.0004
 -12734701.20348  -9868184.96247  21723047.3124   21723050.1014   21723047.356
        51.0004         47.0004
  -5075312.70047  -3925985.98846  23995553.7274   23995564.1894   23995553.163
        43.0004         38.0004
  -3041127.30646  -2329265.38346  24372394.0024   24372402.2854   24372394.910
        41.0004         37.0004
 -19305480.50748 -14991819.75947  21928707.4914   21928713.8964   21928706.681
        49.0004         44.0004
 -19515989.90348 -15169313.08347  22019613.2984   22019616.7614   22019612.657
        51.0004         46.0004
 -16412767.70048 -12756199.69847  21149099.7904   21149103.3064   21149099.484
        51.0004         46.0004
 -26832866.45248 -20902731.75948  20406170.5614   20406175.7084   20406171.221
        53.0004         48.0004
  -7166559.91747  -5536704.86846  23923850.3654   23923857.4014   23923850.296
        46.0004         41.0004
 14  5 28  2  1 30.0000000  0 10G30G26G02G24G08G04G05G28G10G17
   8943355.03247   6978147.26746  24036378.0094   24036384.7834   24036378.568
        43.0004         38.0004
   1167701.11747    923410.08046  24531932.8834   24531937.6494   24531933.413
        43.0004         38.0004
 -12705962.51148  -9845791.19747  21728515.7594   21728519.4124   21728516.198
        51.0004         47.0004
  -5120806.16047  -3961435.28846  23986895.9124   23986906.7374   23986895.396
        43.0004         38.0004
  -2937535.92446  -2248544.86846  24392108.4654   24392112.8774   24392107.156
        41.0004         36.0004
 -19234097.58448 -14936196.77647  21942290.5194   21942297.6584   21942290.181
        49.0004         44.0004
 -19602069.60248 -15236388.14747  22003232.7144   22003235.9874   22003232.406
        51.0004         46.0004
 -16391862.41448 -12739909.84047  21153077.4344   21153081.3904   21153077.514
        51.0004         46.0004
 -26841638.33748 -20909567.01448  20404501.6734   20404506.1534   20404502.199
        53.0004         49.0004
  -7180130.77547  -5547279.58846  23921269.9954   23921274.2734   23921268.304
        46.0004         41.0004
 14  5 28  2  2  0.0000000  0 10G30G26G02G24G08G04G05G28G10G17
   9033602.86547   7048470.25046  24053552.7484   24053558.0474   24053551.944
        43.0004         38.0004
   1156904.38547    914997.06746  24529879.5544   24529882.7544   24529878.953
        43.0004         38.0004
 -12676974.77248  -9823203.36747  21734031.8624   21734035.4084   21734032.431
        51.0004         47.0004
  -5165943.02447  -3996606.68446  23978307.2944   23978316.5144   23978306.214
        43.0004         38.0004
  -2834071.41946  -2167923.20646  24411796.6414   24411802.5224   24411796.323
        41.0004         36.0004
 -19162612.56848 -14880494.25147  21955893.7894   21955901.0204   21955893.799
        49.0004         44.0004
 -19687927.02948 -15303290.00747  21986894.7604   21986897.8574   21986894.244
        51.0004         46.0004
 -16370397.58048 -12723183.97947  21157161.9794   21157165.7514   21157162.349
        51.0004         47.0004
 -26849860.37548 -20915973.81748  20402936.6114   20402942.0724   20402937.500
        53.0004         49.0004
  -7193847.93847  -5557968.31246  23918658.4774   23918663.7964   23918657.987
        46.0004         41.0004
 14  5 28  2  2 30.0000000  0 10G30G26G02G24G08G04G05G28G10G17
   9123751.68647   7118716.07146  24070707.2054   24070711.6674   24070706.445
        43.0004         38.0004
   1145847.54147    906381.36946  24527775.2044   24527778.7574   24527774.588
        42.0004         38.0004
 -12647737.69848  -9800421.25147  21739595.7594   21739598.5104   21739595.767
        51.0004         47.0004
  -5210720.42547  -4031497.98346  23969786.2014   23969796.7884   23969785.210
        43.0004         38.0004
  -2730733.78846  -2087400.41846  24431460.6764   24431467.0144   24431460.759
        41.0004         36.0004
 -19091025.53648 -14824712.21947  21969516.8544   21969524.0614   21969516.198
        49.0004         44.0004
 -19773556.59348 -15370014.31447  21970599.6044   21970603.4364   21970599.146
        51.0004         46.0004
 -16348370.59748 -12706020.07647  21161353.7784   21161357.8124   21161353.840
        51.0004         47.0004
 -26857529.20648 -20921949.55348  20401477.8294   20401482.6914   20401478.451
        53.0004         48.0004
  -7207707.75747  -5568768.20546  23916019.8274   23916026.9774   23916020.041
        46.0004         41.0004
 14  5 28  2  3  0.0000000  0 10G30G26G02G24G08G04G05G28G10G17
   9213796.95447   7188881.21546  24087841.7744   24087847.2954   24087841.803
        43.0004         38.0004
   1134527.75647    897560.79146  24525620.3714   24525625.8274   24525621.032
        43.0004         38.0004
 -12618256.17448  -9777448.65547  21745205.8274   21745209.1094   21745206.179
        51.0004         47.0004
  -5255141.45947  -4066111.61746  23961333.3154   23961343.0154   23961332.114
        43.0004         38.0004
  -2627527.49746  -2006979.97946  24451099.8034   24451105.8844   24451101.061
        41.0004         36.0004
 -19019341.69948 -14768854.76147  21983157.9084   21983165.4504   21983157.181
        49.0004         44.0004
 -19858958.40248 -15436561.15747  21954348.0134   21954351.3784   21954347.799
        51.0004         46.0004
 -16325783.38048 -12688419.62647  21165651.9504   21165655.7034   21165652.325
        51.0004         46.0004
 -26864645.88748 -20927495.03948  20400123.4524   20400128.6314   20400123.796
        53.0004         48.0004
  -7221711.13347  -5579679.94746  23913356.7444   23913363.0634   23913355.862
        46.0004         41.0004
 14  5 28  2  3 30.0000000  0 10G30G26G02G24G08G04G05G28G10G17
   9303737.99447   7258965.12646  24104956.4834   24104962.6974   24104956.808
        43.0004         38.0004
   1122945.57247    888535.78846  24523416.7564   24523422.3564   24523416.469
        43.0004         38.0004
 -12588530.84748  -9754286.07847  21750861.7644   21750865.9274   21750862.649
        51.0004         47.0004
  -5299204.43647  -4100446.24546  23952948.1724   23952958.4054   23952947.110
        43.0004         39.0004
  -2524453.46946  -1926662.59346  24470716.1124   24470720.8404   24470715.049
        41.0004         36.0004
 -18947562.46748 -14712922.97447  21996816.8864   21996823.7104   21996816.601
        48.0004         44.0004
 -19944128.17048 -15502927.17547  21938140.9364   21938143.6334   21938140.511
        51.0004         46.0004
 -16302634.76848 -12670381.72347  21170056.8484   21170060.3154   21170057.015
        51.0004         46.0004
 -26871208.02848 -20932608.41848  20398874.1654   20398879.7014   20398875.286
        53.0004         48.0004
  -7235855.23147  -5590701.33746  23910664.5474   23910670.1594   23910664.404
        46.0004         41.0004
 14  5 28  2  4  0.0000000  0 10G30G26G02G24G08G04G05G28G10G17
   9393573.12647   7328966.51046  24122052.3844   24122058.9504   24122052.824
        43.0004         38.0004
   1111100.92247    879306.20046  24521164.3114   24521166.7994   24521162.483
        42.0004         38.0004
 -12558564.12348  -9730935.40547  21756565.0754   21756568.3084   21756565.174
        51.0004         47.0004
  -5342909.09147  -4134501.65646  23944630.3884   23944642.1124   23944629.792
        43.0004         39.0004
  -2421513.64346  -1846449.79746  24490303.8174   24490309.0764   24490304.634
        41.0004         36.0004
 -18875690.13448 -14656918.64547  22010494.3004   22010499.7924   22010493.481
        48.0004         44.0004
 -20029062.11548 -15569109.44847  21921977.8144   21921981.4114   21921977.873
        51.0004         46.0004
 -16278924.08148 -12651905.84447  21174568.3264   21174572.2674   21174569.302
        51.0004         46.0004
 -26877213.85348 -20937288.30948  20397732.0504   20397737.0284   20397732.544
        53.0004         49.0004
  -7250138.03747  -5601830.81546  23907946.3954   23907952.9534   23907946.328
        46.0004         41.0004
 14  5 28  2  4 30.0000000  0 10G30G26G02G24G08G04G05G28G10G17
   9483300.24047   7398883.74346  24139126.9814   24139132.7164   24139126.911
        43.0004         38.0004
   1098993.01747    869871.50246  24518858.5274   24518863.4784   24518858.092
        42.0004         37.0004
 -12528358.22048  -9707398.35747  21762312.9114   21762315.9484   21762313.082
        51.0004         47.0004
  -5386255.42747  -4168277.85846  23936382.3984   23936392.3464   23936380.835
        43.0004         38.0004
  -2318710.73146  -1766343.66446  24509867.5614   24509872.3484   24509867.227
        41.0004         36.0004
 -18803727.46148 -14600843.91647  22024186.2904   22024195.4544   22024187.611
        48.0004         44.0004
 -20113757.64148 -15635105.93447  21905861.7824   21905864.9614   21905861.171
        51.0004         46.0004
 -16254651.51048 -12632992.13147  21179187.4594   21179191.4144   21179187.917
        51.0004         46.0004
 -26882662.43348 -20941533.97948  20396694.8914   20396700.2034   20396695.462
        53.0004         49.0004
  -7264558.29647  -5613067.39646  23905202.4604   23905209.2714   23905202.168
        46.0004         41.0004
 14  5 28  2  5  0.0000000  0 10G30G26G02G24G08G04G05G28G10G17
   9572923.66647   7468720.16546  24156181.4094   24156187.1604   24156181.392
        43.0004         38.0004
   1086627.74147    860236.24646  24516507.7064   24516509.3474   24516505.563
        42.0004         38.0004
 -12497909.22748  -9683671.89347  21768106.6774   21768110.1614   21768107.387
        51.0004         47.0004
  -5429236.88147  -4201769.75146  23928203.3194   23928212.7064   23928202.249
        43.0004         38.0004
  -2216040.28646  -1686340.75946  24529403.6874   24529407.9924   24529404.972
        41.0004         36.0004
 -18731670.90948 -14544696.04247  22037900.5494   22037905.9864   22037899.910
        48.0004         44.0004
 -20198205.82248 -15700909.68547  21889791.6654   21889794.7844   21889791.486
        51.0004         47.0004
 -16229810.51148 -12613635.49047  21183915.1194   21183918.6174   21183915.018
        51.0004         46.0004
 -26887546.41248 -20945339.70248  20395765.5904   20395770.7604   20395766.455
        53.0004         49.0004
  -7279108.18247  -5624404.98546  23902433.7104   23902440.2684   23902433.842
        46.0004         41.0004
 14  5 28  2  5 30.0000000  0 10G30G26G02G24G08G04G05G28G10G17
   9662427.64547   7538463.51946  24173214.0514   24173219.1614   24173212.925
        43.0004         38.0004
   1073990.78747    850389.33846  24514100.9914   24514104.4134   24514101.001
        43.0004         39.0004
 -12467233.17548  -9659768.49747  21773944.6754   21773947.3504   21773944.991
        51.0004         47.0004
  -5471868.36947  -4234988.94146  23920090.8564   23920100.5854   23920089.601
        43.0004         39.0004
  -2113518.17046  -1606453.44646  24548913.4564   24548918.4564   24548914.133
        41.0004         36.0004
 -18659536.75248 -14488487.68947  22051626.7594   22051633.7044   22051626.119
        49.0004         44.0004
 -20282417.73948 -15766529.33947  21873766.2854   21873769.7084   21873765.983
        51.0004         47.0004
 -16204414.82448 -12593846.62347  21188746.9404   21188751.5444   21188747.664
        51.0004         46.0004
 -26891878.48948 -20948715.37148  20394941.5474   20394946.3444   20394941.897
        53.0004         49.0004
  -7293799.79447  -5635853.00846  23899638.3394   23899643.7994   23899637.688
        46.0004         41.0004
 14  5 28  2  6  0.0000000  0 10G30G26G02G24G08G04G05G28G10G17
   9751817.39947   7608117.85246  24190223.8204   24190229.7494   24190223.983
        43.0004         38.0004
   1061088.77547    840335.85546  24511647.3034   24511650.3754   24511645.606
        43.0004         38.0004
 -12436325.14648  -9635684.33747  21779826.1354   21779829.3474   21779826.511
        51.0004         46.0004
  -5514141.97047  -4267929.24746  23912045.7994   23912055.9894   23912045.279
        43.0004         39.0004
  -2011139.36846  -1526677.79446  24568396.3454   24568402.1124   24568396.552
        41.0004         37.0004
 -18587320.38548 -14432215.29347  22065368.3954   22065376.5964   22065368.716
        48.0004         44.0004
 -20366382.98648 -15831956.79147  21857789.0774   21857792.0054   21857788.651
        51.0004         47.0004
 -16178457.34048 -12573619.99847  21193686.4434   21193690.0434   21193687.354
        51.0004         46.0004
 -26895650.49848 -20951654.62448  20394223.8154   20394228.6794   20394224.360
        53.0004         49.0004
  -7308624.29547  -5647404.57346  23896816.9704   23896823.5344   23896816.620
        46.0004         41.0004
