     2.11           OBSERVATION DATA    G (GPS)             RINEX VERSION / TYPE
teqc  2008Oct2      gpsops              20090114 00:09:30UTCPGM / RUN BY / DATE
    30.0000                                                 INTERVAL
     1     1                                                WAVELENGTH FACT L1/2
     7    L1    L2    P1    P2    C1    S1    S2            # / TYPES OF OBSERV
Linux 2.4.20-8|Pentium IV|gcc -static|Linux|486/DX+         COMMENT
     2.10           OBSERVATION DATA    GPS                 COMMENT
soc2rnx ver 1.20    gpsops              14-Jan-2009 00:09:27COMMENT
S1, if present, is the SNR for the C/A data stream on L1.   COMMENT
 SNR is mapped to RINEX snr flag value [1,4-9]              COMMENT
    SNR:   >316  >100  >31.6  >10  >3.2    >0 bad=0         COMMENT
L1 & L2:      9     8     7     6     5     4     1         COMMENT
                                                            COMMENT
This data is provided as a public service by NASA/JPL.      COMMENT
No warranty is expressed or implied regarding suitability   COMMENT
for use.  For further information, contact:                 COMMENT
Dave Stowers, NASA/JPL m/s 238-600                          COMMENT
4800 Oak Grove Drive, Pasadena CA 91109 USA                 COMMENT
                                                            COMMENT
Forced Modulo Decimation to 30 seconds                      COMMENT
  2009     1    13     0     0    0.0000000     GPS         TIME OF FIRST OBS
GGN                 JPL                                     OBSERVER / AGENCY
CR519992104         ASH701945B_M    SCIT                    ANT # / TYPE
   -33801.4662 -6377516.5323   -82154.3508                  APPROX POSITION XYZ
        0.0083        0.0000        0.0000                  ANTENNA: DELTA H/E/N
ZR220013847         ASHTECH UZ-12       CQ00                REC # / TYPE / VERS
GLPS                                                        MARKER NAME
42005M002                                                   MARKER NUMBER
                                                            END OF HEADER
 09  1 13  0  0  0.0000000  0 12G30G18G 6G14G 9G22G21G 5G24G12G29G31
 123305035.28947  96081825.14847  23464184.2604   23464189.2854   23464184.0954
        47.000          41.000
 124312765.63547  96867088.50047  23655931.3704   23655936.4734   23655932.9484
        46.000          39.000
 131471827.06747 102445556.14847  25018272.0344   25018279.1954   25018272.0494
        40.000          35.000
 115183179.65347  89753115.24147  21918639.2964   21918643.0154   21918638.9954
        51.000          45.000
 115088491.17447  89679314.56047  21900635.0054   21900639.2354   21900635.3454
        51.000          45.000
 127672650.77547  99485168.32647  24295306.0584   24295310.0854   24295306.8694
        45.000          39.000
 108512106.76247  84554883.89247  20649170.8694   20649173.1744   20649171.2784
        55.000          48.000
 124970065.84047  97379239.77147  23781036.8124   23781043.7194   23781037.5814
        44.000          39.000
 112587403.44047  87730420.27047  21424688.0094   21424693.6384   21424688.1204
        53.000          47.000
 128167681.41947  99870894.64247  24389519.1934   24389524.0244   24389519.8914
        43.000          38.000
 115404500.63747  89925561.90547  21960763.8384   21960767.0584   21960763.2274
        51.000          46.000
 126880268.35547  98867725.67247  24144522.6294   24144527.7774   24144521.8734
        44.000          39.000
 09  1 13  0  0 30.0000000  0 12G30G18G 6G14G 9G22G21G 5G24G12G29G31
 123287340.76247  96068037.20647  23460817.4214   23460822.1184   23460816.6414
        47.000          41.000
 124296355.25947  96854301.24547  23652809.7414   23652813.0514   23652810.1254
        46.000          39.000
 131410896.77147 102398077.99947  25006677.9934   25006685.0384   25006677.6344
        41.000          35.000
 115178831.59947  89749727.17547  21917811.1494   21917815.4294   21917811.4304
        50.000          45.000
 115139485.73847  89719050.60547  21910339.2254   21910343.1964   21910339.3874
        51.000          45.000
 127658092.70047  99473824.49247  24292535.4854   24292540.2114   24292536.0334
        44.000          38.000
 108451804.69447  84507895.28147  20637695.6254   20637698.0254   20637696.0324
        55.000          49.000
 124956883.03547  97368967.45947  23778528.4894   23778534.4674   23778528.6694
        44.000          39.000
 112606651.17547  87745418.51047  21428351.0034   21428356.1684   21428351.0794
        53.000          47.000
 128169338.86947  99872186.19247  24389835.0074   24389840.2534   24389834.9104
        43.000          38.000
 115477213.35247  89982221.15347  21974600.3214   21974604.3074   21974599.7544
        51.000          46.000
 126776468.91047  98786843.11947  24124770.0724   24124774.8624   24124768.9364
        44.000          39.000
 09  1 13  0  1  0.0000000  0 12G30G18G 6G14G 9G22G21G 5G24G12G29G31
 123269474.33047  96054115.31447  23457417.1244   23457422.4024   23457417.1144
        47.000          41.000
 124279727.83347  96841344.84947  23649645.4304   23649648.8294   23649645.9974
        46.000          39.000
 131350258.30447 102350827.25747  24995138.7264   24995145.8884   24995138.8384
        41.000          35.000
 115174922.92647  89746681.48647  21917067.6064   21917071.5834   21917067.7454
        50.000          45.000
 115190991.28447  89759184.82447  21920140.5754   21920144.2824   21920140.5424
        51.000          44.000
 127643326.36247  99462318.35347  24289725.1664   24289729.1944   24289725.6144
        45.000          38.000
 108391902.22147  84461218.04647  20626296.5474   20626299.0734   20626296.9514
        55.000          49.000
 124943641.74847  97358649.57847  23776008.8034   23776014.6794   23776009.3744
        45.000          39.000
 112626369.07747  87760783.11447  21432103.1544   21432108.1204   21432103.1714
        53.000          47.000
 128170942.16047  99873435.49447  24390140.3444   24390144.7844   24390140.0054
        43.000          38.000
 115550048.90547  90038976.11447  21988460.3414   21988464.5404   21988460.1144
        51.000          46.000
 126672659.42447  98705952.74647  24105015.5794   24105020.2764   24105014.2484
        43.000          39.000
 09  1 13  0  1 30.0000000  0 12G30G18G 6G14G 9G22G21G 5G24G12G29G31
 123251436.02547  96040059.48247  23453984.5744   23453989.8184   23453984.7044
        47.000          41.000
 124262883.31747  96828219.29247  23646440.2614   23646443.1714   23646440.4524
        47.000          39.000
 131289911.65747 102303803.93547  24983655.4384   24983662.7014   24983654.9134
        40.000          36.000
 115171451.99047  89743976.88647  21916406.9474   21916411.2334   21916406.9964
        51.000          45.000
 115243005.88547  89799715.69547  21930038.2844   21930042.2354   21930038.4624
        50.000          44.000
 127628351.13747  99450649.45947  24286876.3124   24286879.1404   24286876.2034
        44.000          38.000
 108332401.52147  84414853.87247  20614974.1014   20614976.3944   20614974.5604
        55.000          49.000
 124930342.93147  97348286.86347  23773478.4764   23773484.3854   23773478.9254
        45.000          39.000
 112646556.68747  87776513.72047  21435944.6214   21435950.0084   21435944.6714
        53.000          47.000
 128172492.38047  99874643.48347  24390435.0964   24390439.8904   24390434.9634
        43.000          38.000
 115623003.84747  90095824.11047  22002343.2474   22002347.5684   22002343.2174
        51.000          46.000
 126568841.97247  98625056.17147  24085259.9424   24085264.1894   24085258.8804
        44.000          39.000
 09  1 13  0  2  0.0000000  0 12G30G18G 6G14G 9G22G21G 5G24G12G29G31
 123233230.05147  96025873.02947  23450519.6694   23450525.0374   23450519.3024
        46.000          40.000
 124245824.38547  96814926.68347  23643193.9884   23643197.0114   23643194.5444
        47.000          39.000
 131229859.79447 102257010.29047  24972227.5984   24972234.4354   24972227.0654
        40.000          36.000
 115168419.73447  89741614.12747  21915829.8974   21915834.1454   21915830.3334
        51.000          45.000
 115295531.03147  89840644.40447  21940033.6464   21940037.7594   21940033.7334
        50.000          44.000
 127613168.32047  99438818.82747  24283986.8694   24283989.7134   24283986.4914
        44.000          38.000
 108273308.34847  84368807.25947  20603728.8524   20603731.2854   20603729.2304
        55.000          49.000
 124916990.89847  97337882.70247  23770937.7364   23770943.8214   23770938.3864
        45.000          39.000
 112667216.88847  87792612.58847  21439876.3354   21439881.4394   21439876.4574
        53.000          46.000
 128173993.76347  99875813.41547  24390720.8414   24390725.8584   24390720.4114
        42.000          38.000
 115696077.75747  90152764.81247  22016248.7604   22016253.1004   22016248.6204
        50.000          46.000
 126465021.90947  98544157.57547  24065503.6274   24065507.9034   24065503.4064
        44.000          38.000
 09  1 13  0  2 30.0000000  0 12G30G18G 6G14G 9G22G21G 5G24G12G29G31
 123214854.05247  96011554.07447  23447022.5414   23447027.9894   23447022.2724
        47.000          41.000
 124228548.13947  96801464.72247  23639906.1994   23639909.6034   23639906.6664
        46.000          39.000
 131170100.14747 102210444.33847  24960855.3824   24960862.5784   24960855.4024
        40.000          36.000
 115165821.34447  89739589.42647  21915335.4474   21915339.7564   21915335.6424
        51.000          45.000
 115348562.46047  89881967.61947  21950124.9974   21950129.3334   21950125.0194
        50.000          44.000
 127597773.93147  99426823.31447  24281057.5934   24281060.6934   24281057.6574
        45.000          38.000
 108214621.71447  84323077.43847  20592560.8914   20592563.8004   20592561.3274
        55.000          49.000
 124903584.06447  97327435.83247  23768386.0414   23768392.4724   23768386.9204
        45.000          39.000
 112688346.66647  87809077.35847  21443897.2104   21443902.1194   21443897.4484
        53.000          46.000
 128175444.96847  99876944.24447  24390997.2934   24391002.3504   24390996.5344
        43.000          38.000
 115769264.95847  90209793.78947  22030175.6614   22030180.1014   22030175.4654
        50.000          45.000
 126361197.92547  98463255.92747  24045746.5184   24045750.6194   24045746.9214
        44.000          39.000
 09  1 13  0  3  0.0000000  0 12G30G18G 6G14G 9G22G21G 5G24G12G29G31
 123196310.17847  95997104.29847  23443494.2924   23443499.1414   23443493.9394
        47.000          41.000
 124211056.30347  96787834.76447  23636577.7664   23636581.1334   23636578.1484
        46.000          39.000
 131110634.19747 102164107.28047  24949539.4044   24949547.3314   24949539.0434
        40.000          36.000
 115163656.54847  89737902.59447  21914923.5214   21914927.2554   21914923.6564
        51.000          45.000
 115402099.85747  89923685.08447  21960312.7094   21960316.9994   21960312.5844
        50.000          44.000
 127582169.05547  99414663.77547  24278087.8114   24278090.8354   24278087.7504
        45.000          38.000
 108156345.88647  84277667.71947  20581471.6994   20581474.4244   20581472.1964
        55.000          49.000
 124890125.46347  97316948.64347  23765825.2394   23765831.0804   23765825.9964
        45.000          39.000
 112709947.54747  87825909.22047  21448007.4594   21448012.7124   21448007.7524
        53.000          46.000
 128176848.81947  99878038.15847  24391264.4334   24391269.4114   24391264.0344
        42.000          38.000
 115842563.67347  90266909.66647  22044123.8674   22044128.3504   22044123.5314
        50.000          45.000
 126257373.90747  98382354.26047  24025989.2104   24025993.7074   24025990.0424
        44.000          39.000
 09  1 13  0  3 30.0000000  0 12G30G18G 6G14G 9G22G21G 5G24G12G29G31
 123177601.56047  95982526.17347  23439934.2524   23439939.0424   23439934.3624
        47.000          41.000
 124193351.28847  96774038.68647  23633208.8744   23633211.4924   23633209.4724
        47.000          40.000
 131051464.53647 102118001.10147  24938280.1714   24938287.2314   24938279.2004
        38.000          35.000
 115161925.88847  89736554.05247  21914594.1054   21914597.8344   21914594.3854
        51.000          45.000
 115456144.29247  89965797.65747  21970597.0734   21970601.6114   21970597.3154
        50.000          44.000
 127566354.36647  99402340.75047  24275078.5564   24275081.1664   24275078.6464
        45.000          39.000
 108098485.84247  84232581.98447  20570461.1244   20570463.7834   20570461.5014
        54.000          49.000
 124876618.79947  97306423.98847  23763255.0794   23763260.8064   23763255.6604
        45.000          39.000
 112732021.43047  87843109.66447  21452207.8674   21452213.1654   21452207.9934
        53.000          46.000
 128178208.67447  99879097.82847  24391522.3124   24391527.4554   24391522.2034
        43.000          38.000
 115915972.69847  90324111.50047  22058093.2144   22058097.4954   22058092.7354
        51.000          45.000
 126153554.14547  98301455.91347  24006232.9024   24006237.0774   24006232.8624
        44.000          39.000
 09  1 13  0  4  0.0000000  0 12G30G18G 6G14G 9G22G21G 5G24G12G29G31
 123158726.74247  95967818.53847  23436342.4374   23436347.4974   23436342.0754
        47.000          41.000
 124175430.70447  96760074.62547  23629798.3344   23629801.2714   23629798.8794
        46.000          39.000
 130992588.83147 102072123.97547  24927075.9824   24927083.8704   24927075.9334
        38.000          35.000
 115160625.32047  89735540.64547  21914346.7494   21914350.8814   21914346.8104
        51.000          45.000
 115510691.84747  90008302.26247  21980977.2664   21980981.7044   21980977.1644
        50.000          44.000
 127550326.42147  99389851.57247  24272028.3844   24272031.5844   24272028.4734
        45.000          39.000
 108041041.49447  84187820.16747  20559529.9244   20559532.6124   20559530.2124
        55.000          49.000
 124863062.99847  97295861.02747  23760675.9814   23760681.3904   23760676.2974
        45.000          39.000
 112754565.75447  87860676.67347  21456498.0184   21456503.3554   21456498.2464
        52.000          46.000
 128179523.58047  99880122.47947  24391772.7694   24391777.8784   24391772.5864
        43.000          38.000
 115989487.15747  90381395.48747  22072082.7264   22072086.7244   22072082.3914
        50.000          45.000
 126049738.34147  98220560.61847  23986477.4114   23986481.4214   23986476.7754
        44.000          39.000
 09  1 13  0  4 30.0000000  0 12G30G18G 6G14G 9G22G21G 5G24G12G29G31
 123139688.54047  95952983.59547  23432719.5834   23432724.6904   23432719.0724
        47.000          41.000
 124157296.72247  96745944.28847  23626347.2744   23626350.3134   23626347.4494
        46.000          39.000
 130934009.72847 102026477.98047  24915928.5454   24915936.1744   24915929.1274
        39.000          35.000
 115159755.12747  89734862.59847  21914181.2544   21914185.0104   21914181.4474
        51.000          45.000
 115565743.23347  90051199.45247  21991453.0954   21991457.2274   21991453.2124
        50.000          44.000
 127534086.67647  99377197.31147  24268937.7084   24268940.7244   24268937.7074
        44.000          38.000
 107984017.44547  84143385.85947  20548678.5804   20548681.0704   20548679.0074
        55.000          49.000
 124849461.93947  97285262.81447  23758087.6724   23758093.3434   23758088.1924
        45.000          39.000
 112777582.63147  87878611.91147  21460877.8624   21460883.2194   21460877.9184
        53.000          47.000
 128180797.25747  99881114.95847  24392015.5784   24392020.3684   24392015.5134
        43.000          38.000
 116063106.07147  90438760.86147  22086092.0634   22086095.9674   22086091.7294
        50.000          45.000
 125945931.44947  98139672.27647  23966723.2294   23966727.5154   23966723.2514
        45.000          39.000
 09  1 13  0  5  0.0000000  0 12G30G18G 6G14G 9G22G21G 5G24G12G29G31
 123120488.29447  95938022.36247  23429066.1144   23429071.1854   23429065.6624
        47.000          41.000
 124138949.55547  96731647.83747  23622855.7494   23622859.1054   23622856.2784
        46.000          39.000
 130875727.36047 101981063.18147  24904837.3924   24904846.2414   24904838.1704
        40.000          35.000
 115159313.80847  89734518.73447  21914097.0544   21914101.1104   21914097.4344
        51.000          45.000
 115621296.98647  90094488.11347  22002024.7784   22002028.5974   22002024.9604
        51.000          44.000
 127517634.35547  99364377.42647  24265807.1044   24265809.8744   24265807.1264
        44.000          38.000
 107927416.74547  84099281.43547  20537907.5424   20537910.3264   20537907.8404
        55.000          49.000
 124835817.39247  97274630.72647  23755490.8704   23755496.5544   23755491.0724
        45.000          39.000
 112801072.30447  87896915.55747  21465348.1364   21465353.2504   21465348.4984
        53.000          47.000
 128182031.76447  99882076.92147  24392250.2444   24392255.0114   24392249.7704
        43.000          38.000
 116136826.48647  90496205.32847  22100120.7054   22100124.5294   22100120.3574
        50.000          45.000
 125842135.68247  98058792.59247  23946971.0744   23946975.5514   23946971.1944
        45.000          39.000
 09  1 13  0  5 30.0000000  0 12G30G18G 6G14G 9G22G21G 5G24G12G29G31
 123101125.79547  95922934.70947  23425381.2944   23425386.3784   23425381.4724
        47.000          41.000
 124120388.88447  96717185.00847  23619324.0874   23619327.3794   23619324.3494
        46.000          39.000
 130817741.02447 101935879.07047  24893803.3854   24893811.0904   24893803.5704
        41.000          35.000
 115159298.42547  89734506.77347  21914094.0054   21914098.2634   21914094.3994
        51.000          45.000
 115677350.30747  90138166.04947  22012691.2684   22012695.2964   22012691.2654
        51.000          44.000
 127500967.44147  99351390.33447  24262634.8794   24262638.3584   24262635.0034
        43.000          38.000
 107871240.38547  84055507.66047  20527217.7754   20527220.2874   20527218.0974
        55.000          49.000
 124822129.83047  97263965.12147  23752886.4594   23752892.0564   23752886.8094
        45.000          39.000
 112825033.34547  87915586.49847  21469907.7344   21469912.7574   21469907.9004
        53.000          46.000
 128183226.45047  99883007.85347  24392477.5884   24392482.1934   24392477.3204
        44.000          38.000
 116210644.42147  90553725.78647  22114167.5954   22114171.5874   22114167.3294
        50.000          45.000
 125738352.33647  97977922.57047  23927221.7544   23927226.1044   23927220.9234
        44.000          39.000
 09  1 13  0  6  0.0000000  0 12G30G18G 6G14G 9G22G21G 5G24G12G29G31
 123081603.42547  95907722.48447  23421666.1484   23421671.4934   23421665.9004
        47.000          41.000
 124101616.05947  96702556.85347  23615751.9854   23615754.5034   23615752.1624
        47.000          40.000
 130760052.69047 101890927.12147  24882825.9984   24882832.7944   24882826.1614
        40.000          35.000
 115159709.01347  89734826.74847  21914172.2834   21914176.2054   21914172.4334
        51.000          45.000
 115733903.68447  90182233.63247  22023452.9144   22023457.3064   22023453.1804
        51.000          44.000
 127484086.61947  99338236.56647  24259421.8774   24259426.0074   24259421.9884
        43.000          37.000
 107815492.78147  84012067.99147  20516609.2194   20516611.7324   20516609.5434
        55.000          49.000
 124808402.35847  97253268.40847  23750273.8374   23750279.8864   23750274.3484
        45.000          39.000
 112849467.23347  87934625.89847  21474557.2594   21474562.3944   21474557.3934
        53.000          46.000
 128184384.98647  99883910.62547  24392697.9364   24392702.9544   24392697.8044
        44.000          39.000
 116284558.65547  90611321.27847  22128233.0134   22128236.9904   22128232.9024
        50.000          45.000
 125634585.31447  97897065.25947  23907475.1384   23907479.8104   23907474.1964
        45.000          39.000
 09  1 13  0  6 30.0000000  0 12G30G18G 6G14G 9G22G21G 5G24G12G29G31
 123061922.70447  95892386.86747  23417921.1844   23417926.0824   23417920.7044
        46.000          41.000
 124082632.00247  96687764.11547  23612139.0104   23612142.0024   23612139.5894
        47.000          40.000
 130702662.86447 101846207.81447  24871904.2114   24871912.1274   24871904.9934
        41.000          34.000
 115160544.05747  89735477.45647  21914331.2654   21914335.1964   21914331.3734
        51.000          45.000
 115790955.70447  90226689.78447  22034309.8284   22034313.8924   22034310.1034
        51.000          44.000
 127466991.29647  99324915.63247  24256169.1784   24256172.4944   24256169.3374
        43.000          37.000
 107760176.95447  83968964.76147  20506083.1774   20506085.5404   20506083.5914
        55.000          49.000
 124794637.07247  97242542.23747  23747654.4644   23747660.0774   23747655.2104
        45.000          39.000
 112874374.31747  87954034.01747  21479297.0264   21479302.2254   21479297.2664
        53.000          46.000
 128185509.39547  99884786.81347  24392912.2824   24392917.1874   24392912.2204
        45.000          39.000
 116358566.68047  90668989.85547  22142316.3684   22142320.1364   22142316.2124
        50.000          45.000
 125530836.89047  97816222.41847  23887732.8204   23887736.9834   23887732.2654
        45.000          39.000
 09  1 13  0  7  0.0000000  0 12G30G18G 6G14G 9G22G21G 5G24G12G29G31
 123042083.68947  95876927.90047  23414146.2774   23414150.3184   23414145.6754
        47.000          41.000
 124063435.73847  96672806.03147  23608485.7854   23608489.3404   23608486.3364
        47.000          40.000
 130645570.74447 101801720.44347  24861041.2744   24861048.5624   24861040.5654
        41.000          35.000
 115161800.60347  89736456.60547  21914570.0874   21914574.4304   21914570.4224
        51.000          45.000
 115848504.17447  90271532.76247  22045260.7544   22045264.8824   22045260.9464
        51.000          44.000
 127449679.95247  99311426.36247  24252874.8794   24252878.0404   24252874.4534
        43.000          37.000
 107705294.17647  83926198.97847  20495639.2594   20495641.7534   20495639.6364
        55.000          49.000
 124780834.48847  97231786.99147  23745027.7294   23745033.6044   23745027.8584
        45.000          39.000
 112899753.61047  87973810.09147  21484126.3934   21484131.6254   21484126.5634
        53.000          46.000
 128186600.14147  99885636.78047  24393120.0734   24393124.0014   24393119.8434
        44.000          38.000
 116432664.39747  90726728.33847  22156416.4484   22156420.4854   22156415.9114
        50.000          45.000
 125427109.19247  97735395.72947  23867994.0804   23867998.0084   23867994.1204
        45.000          39.000
 09  1 13  0  7 30.0000000  0 12G30G18G 6G14G 9G22G21G 5G24G12G29G31
 123022088.46247  95861347.21747  23410341.1024   23410345.3764   23410341.3394
        47.000          41.000
 124044029.13547  96657684.02347  23604793.3954   23604796.4574   23604793.2664
        46.000          40.000
 130588777.63647 101757466.10247  24850233.9534   24850241.0274   24850233.2864
        42.000          35.000
 115163477.76047  89737763.49847  21914889.3344   21914893.4984   21914889.4494
        51.000          45.000
 115906548.61847  90316762.21547  22056306.3394   22056310.2274   22056306.5494
        51.000          44.000
 127432153.09247  99297769.17047  24249539.3304   24249543.4474   24249539.3164
        43.000          38.000
 107650848.38247  83883773.70847  20485278.5274   20485281.0684   20485278.8954
        55.000          49.000
 124766997.61247  97221005.03547  23742394.9804   23742400.3744   23742395.6374
        45.000          39.000
 112925606.13047  87993954.91847  21489045.9964   21489051.3594   21489046.1874
        53.000          46.000
 128187659.79147  99886462.48247  24393321.5004   24393325.4294   24393321.5674
        44.000          38.000
 116506850.31147  90784535.53947  22170533.5774   22170537.8904   22170533.1934
        50.000          45.000
 125323405.59847  97654587.79747  23848259.7754   23848264.2394   23848259.8494
        46.000          39.000
 09  1 13  0  8  0.0000000  0 12G30G18G 6G14G 9G22G21G 5G24G12G29G31
 123001938.42347  95845645.89747  23406506.9254   23406511.0884   23406506.2934
        47.000          41.000
 124024412.60247  96642398.44247  23601060.5014   23601063.4684   23601060.8074
        46.000          39.000
 130532284.09047 101713445.17847  24839483.0534   24839490.6324   24839483.2044
        42.000          35.000
 115165574.69647  89739397.49447  21915288.4724   21915292.4874   21915288.7234
        51.000          45.000
 115965087.52747  90362376.98347  22067445.8714   22067449.6784   22067445.9214
        51.000          44.000
 127414410.01447  99283943.49847  24246162.8824   24246166.5614   24246162.7624
        42.000          37.000
 107596842.40347  83841691.13647  20475001.6554   20475003.9494   20475002.0754
        55.000          49.000
 124753128.20047  97210197.72747  23739755.6914   23739761.0284   23739756.0194
        45.000          39.000
 112951931.86947  88014468.48247  21494055.5014   21494060.7914   21494055.7224
        53.000          46.000
 128188690.14247  99887265.38147  24393517.4704   24393522.1354   24393517.2984
        44.000          38.000
 116581121.86647  90842409.46547  22184667.2024   22184671.2854   22184666.8494
        50.000          45.000
 125219728.82147  97573800.76247  23828531.0404   23828535.2114   23828530.3914
        46.000          40.000
 09  1 13  0  8 30.0000000  0 12G30G18G 6G14G 9G22G21G 5G24G12G29G31
 122981635.30747  95829825.29747  23402643.2344   23402648.0084   23402642.6814
        47.000          41.000
 124004586.52547  96626949.58347  23597287.4534   23597290.4124   23597288.2354
        46.000          39.000
 130476090.76547 101669658.18947  24828790.8234   24828796.6864   24828789.9844
        40.000          35.000
 115168089.72647  89741357.27747  21915767.0184   21915771.1024   21915767.3074
        51.000          45.000
 116024119.77447  90408376.15347  22078679.2344   22078682.9874   22078679.3124
        50.000          44.000
 127396450.48547  99269949.15747  24242745.2374   24242748.6814   24242745.2474
        44.000          37.000
 107543279.12647  83799953.53647  20464808.5894   20464811.1934   20464808.9234
        54.000          49.000
 124739228.48347  97199366.81847  23737110.5964   23737116.4594   23737111.0774
        45.000          39.000
 112978731.20347  88035351.07747  21499155.2314   21499160.4954   21499155.3294
        53.000          46.000
 128189693.62647  99888047.32947  24393708.3994   24393712.5724   24393708.2824
        44.000          39.000
 116655476.87047  90900348.42447  22198816.4664   22198820.4404   22198816.1354
        50.000          45.000
 125116081.74047  97493036.85747  23808807.3754   23808811.9804   23808807.0294
        45.000          40.000
 09  1 13  0  9  0.0000000  0 12G30G18G 6G14G 9G22G21G 5G24G12G29G31
 122961179.08547  95813885.39247  23398750.2114   23398755.0984   23398750.0194
        47.000          41.000
 123984551.01147  96611337.52347  23593474.8334   23593477.8624   23593475.4024
        47.000          39.000
 130420197.02847 101626104.65747  24818153.4374   24818161.0664   24818153.3624
        43.000          36.000
 115171020.28547  89743640.84947  21916324.4584   21916328.6564   21916324.6454
        51.000          45.000
 116083643.06047  90454757.96447  22090006.0504   22090009.9894   22090006.1794
        50.000          44.000
 127378272.77847  99255784.82847  24239286.5214   24239289.4284   24239287.0504
        44.000          38.000
 107490160.46147  83758562.38647  20454700.4124   20454703.1494   20454700.7584
        54.000          49.000
 124725299.34547  97188512.96147  23734460.0914   23734465.7684   23734460.7484
        45.000          39.000
 113006002.87347  88056601.72647  21504345.0234   21504350.2084   21504345.2554
        53.000          46.000
 128190670.58047  99888808.62947  24393894.4634   24393898.6354   24393893.7824
        44.000          39.000
 116729910.98447  90958349.02547  22212980.8604   22212984.8154   22212980.3404
        50.000          45.000
 125012465.54447  97412297.01647  23789089.5204   23789094.4574   23789089.2794
        45.000          40.000
 09  1 13  0  9 30.0000000  0 12G30G18G 6G14G 9G22G21G 5G24G12G29G31
 122940571.61447  95797827.62747  23394828.8604   23394833.6214   23394828.8204
        47.000          41.000
 123964306.89047  96595562.91647  23589622.4574   23589625.6524   23589622.9414
        46.000          40.000
 130364603.86447 101582785.31947  24807575.1074   24807582.1534   24807574.8544
        41.000          36.000
 115174365.43347  89746247.47547  21916961.0334   21916965.2314   21916961.3834
        51.000          45.000
 116143656.38847  90501521.61247  22101426.0484   22101430.4154   22101426.0704
        50.000          44.000
 127359877.07347  99241450.61247  24235785.5284   24235788.8474   24235785.9484
        44.000          38.000
 107437489.37647  83717520.00047  20444677.4134   20444680.0084   20444677.7804
        54.000          49.000
 124711343.19847  97177638.07947  23731803.9364   23731809.6834   23731804.6814
        45.000          39.000
 113033747.37347  88078220.81747  21509624.6244   21509629.5624   21509624.7394
        53.000          46.000
 128191623.44247  99889551.16747  24394074.9624   24394080.3094   24394074.7124
        43.000          38.000
 116804422.24247  91016409.73847  22227159.7834   22227163.6564   22227159.8424
        50.000          45.000
 124908883.80747  97331584.02147  23769378.2454   23769383.5644   23769377.7204
        45.000          40.000
 09  1 13  0 10  0.0000000  0 12G30G18G 6G14G 9G22G21G 5G24G12G29G31
 122919814.67947  95781653.40247  23390878.9024   23390883.6994   23390878.4234
        47.000          41.000
 123943855.22047  96579626.58647  23585730.7024   23585733.6834   23585731.1494
        47.000          40.000
 130309312.10547 101539700.87447  24797052.1334   24797060.1274   24797052.8144
        41.000          36.000
 115178123.93147  89749176.18447  21917676.3364   21917680.4284   21917676.6754
        51.000          45.000
 116204158.98947  90548666.51147  22112939.3374   22112943.9594   22112939.3964
        50.000          44.000
 127341263.77047  99226946.83247  24232243.6994   24232246.3174   24232243.6714
        44.000          38.000
 107385269.31147  83676829.05947  20434740.1844   20434742.8614   20434740.4794
        54.000          49.000
 124697362.35747  97166743.94447  23729143.3934   23729149.1194   23729143.5954
        45.000          39.000
 113061965.45447  88100208.92847  21514994.1914   21514999.4274   21514994.2214
        52.000          46.000
 128192554.40347  99890276.59647  24394252.4024   24394257.2474   24394251.7454
        44.000          38.000
 116879008.74647  91074529.08047  22241353.1284   22241356.8674   22241353.0704
        50.000          45.000
 124805339.66547  97250900.32447  23749674.5074   23749679.8794   23749673.6864
        44.000          40.000
 09  1 13  0 10 30.0000000  0 12G30G18G 6G14G 9G22G21G 5G24G12G29G31
 122898909.37347  95765363.54647  23386900.5784   23386905.4304   23386900.0204
        47.000          41.000
 123923196.31047  96563528.76747  23581799.4704   23581802.2104   23581799.8264
        46.000          40.000
 130254321.64947 101496851.22147  24786588.0314   24786595.4554   24786588.1344
        41.000          35.000
 115182293.53947  89752425.24847  21918469.8864   21918474.0904   21918470.0904
        51.000          45.000
 116265148.90847  90596191.15047  22124545.5644   22124549.5674   22124545.6814
        50.000          44.000
 127322431.21347  99212272.24047  24228659.1084   24228663.0184   24228659.3504
        43.000          38.000
 107333502.33447  83636491.17447  20424889.4304   20424891.9974   20424889.8744
        55.000          49.000
 124683358.36147  97155831.74647  23726478.5704   23726484.8584   23726479.3594
        45.000          39.000
 113090656.31447  88122565.43547  21520453.8764   21520459.1644   21520454.0424
        53.000          46.000
 128193465.03747  99890986.19447  24394426.2754   24394430.2344   24394425.9134
        44.000          39.000
 116953667.53047  91132704.74847  22255560.5544   22255563.9164   22255560.1554
        50.000          45.000
 124701835.33147  97170247.64547  23729978.3504   23729983.3124   23729978.1674
        44.000          40.000
 09  1 13  0 11  0.0000000  0 12G30G18G 6G14G 9G22G21G 5G24G12G29G31
 122877856.54547  95748958.72747  23382894.5874   23382899.2874   23382894.1484
        48.000          41.000
 123902330.39047  96547269.64447  23577828.8444   23577831.8764   23577829.1004
        47.000          40.000
 130199632.49247 101454236.33547  24776181.3744   24776188.1834   24776181.1764
        41.000          36.000
 115186871.92947  89755992.83547  21919340.9374   21919345.0704   21919341.2704
        51.000          45.000
 116326624.40647  90644094.15547  22136243.5404   22136247.7684   22136243.5924
        49.000          44.000
 127303379.52547  99197426.88347  24225033.7864   24225037.3344   24225033.7704
        43.000          38.000
 107282190.84447  83596508.21547  20415125.1534   20415127.5704   20415125.5454
        54.000          49.000
 124669332.74947  97144902.70147  23723809.9794   23723815.6454   23723810.0354
        45.000          39.000
 113119819.52947  88145290.01347  21526003.7154   21526008.5374   21526003.8204
        52.000          46.000
 128194356.78947  99891681.07947  24394596.1034   24394600.1364   24394595.8754
        44.000          39.000
 117028395.54847  91190934.35847  22269780.8514   22269784.4424   22269780.5394
        50.000          45.000
 124598373.09447  97089627.78447  23710290.0264   23710295.1834   23710290.2074
        45.000          40.000
 09  1 13  0 11 30.0000000  0 12G30G18G 6G14G 9G22G21G 5G24G12G29G31
 122856658.90747  95732441.08647  23378860.7994   23378865.5744   23378860.9314
        47.000          41.000
 123881259.27347  96530850.63247  23573818.8524   23573822.0424   23573819.2674
        46.000          39.000
 130145246.04047 101411857.29647  24765832.2024   24765839.5934   24765831.8574
        41.000          36.000
 115191859.00447  89759878.88447  21920289.8394   21920294.0574   21920290.1524
        51.000          45.000
 116388585.03847  90692375.17947  22148034.4734   22148038.4644   22148034.4554
        50.000          43.000
 127284107.87647  99182410.12147  24221367.1654   24221370.3874   24221367.0814
        44.000          38.000
 107231338.48247  83556883.01447  20405448.2034   20405450.7564   20405448.4794
        54.000          49.000
 124655288.67947  97133959.29847  23721136.8354   23721143.2654   23721137.6454
        45.000          39.000
 113149456.37547  88168383.65247  21531643.3724   21531648.3034   21531643.5724
        53.000          46.000
 128195232.48847  99892363.48347  24394762.1654   24394766.8394   24394762.1374
        44.000          39.000
 117103191.47647  91249216.88547  22284014.0174   22284017.8394   22284013.4934
        50.000          45.000
 124494957.04847  97009043.89647  23690611.0544   23690615.6544   23690610.3754
        45.000          40.000
 09  1 13  0 12  0.0000000  0 12G30G18G 6G14G 9G22G21G 5G24G12G29G31
 122835307.98847  95715804.01247  23374797.5414   23374802.5674   23374796.9994
        47.000          41.000
 123859973.91447  96514264.68447  23569768.2004   23569771.2864   23569768.5954
        47.000          40.000
 130091153.14147 101369707.05147  24755537.5994   24755546.1934   24755538.5244
        41.000          36.000
 115197243.32047  89764074.47347  21921314.5644   21921318.6914   21921314.6074
        50.000          45.000
 116451019.57147  90741025.48447  22159915.5004   22159919.6054   22159915.5984
        50.000          44.000
 127264607.22647  99167214.94047  24217656.7144   24217659.1044   24217656.2654
        43.000          38.000
 107180938.70547  83517610.47947  20395857.3874   20395859.9024   20395857.7854
        54.000          49.000
 124641218.44847  97122995.50847  23718459.6094   23718465.7794   23718460.1124
        46.000          39.000
 113179556.79447  88191838.52247  21537371.2974   21537376.3114   21537371.5484
        53.000          46.000
 128196084.40747  99893027.32547  24394924.7374   24394929.1464   24394924.4964
        45.000          39.000
 117178042.79147  91307542.57747  22298257.8104   22298261.4444   22298257.6594
        50.000          45.000
 124391579.74047  96928490.19247  23670938.9464   23670943.1604   23670938.5044
        46.000          40.000
 09  1 13  0 12 30.0000000  0 12G30G18G 6G14G 9G22G21G 5G24G12G29G31
 122813822.48047  95699062.04747  23370709.4944   23370713.5894   23370708.9484
        47.000          41.000
 123838492.21947  96497525.74847  23565680.8064   23565683.0204   23565681.3504
        48.000          40.000
 130037371.37247 101327799.24747  24745304.2534   24745311.1714   24745304.4534
        42.000          36.000
 115203040.39747  89768591.70247  21922417.5524   21922421.7554   21922417.8634
        51.000          45.000
 116513943.96247  90790057.48447  22171889.4264   22171893.9224   22171889.5294
        50.000          43.000
 127244894.55147  99151854.52347  24213904.6554   24213907.7404   24213904.8854
        43.000          38.000
 107131010.93047  83478705.74147  20386356.4454   20386358.8744   20386356.7414
        55.000          49.000
 124627141.28347  97112026.33447  23715780.8364   23715786.5924   23715781.6304
        45.000          39.000
 113210138.11647  88215668.11547  21543190.5484   21543195.9594   21543190.8204
        53.000          46.000
 128196931.74247  99893687.62847  24395085.7424   24395090.0424   24395085.3224
        44.000          39.000
 117252964.48447  91365923.10247  22312515.0024   22312518.8264   22312515.1134
        50.000          45.000
 124288261.61247  96847982.60747  23651278.0934   23651282.2694   23651277.5944
        46.000          40.000
 09  1 13  0 13  0.0000000  0 12G30G18G 6G14G 9G22G21G 5G24G12G29G31
 122792196.23347  95682210.43347  23366594.0404   23366598.4524   23366593.6624
        47.000          40.000
 123816807.39847  96480628.52947  23561554.4414   23561557.0974   23561554.8784
        47.000          40.000
 129983893.27047 101286128.03447  24735127.8584   24735134.2614   24735128.1794
        42.000          36.000
 115209240.92447  89773423.31447  21923597.4804   21923601.8444   21923597.5504
        51.000          45.000
 116577348.83147  90839463.88947  22183955.0464   22183958.8084   22183955.1544
        50.000          43.000
 127224961.52947  99136322.43547  24210111.1954   24210113.8294   24210111.4824
        43.000          37.000
 107081550.48447  83440165.15647  20376944.4484   20376946.8454   20376944.8984
        54.000          49.000
 124613051.48147  97101047.28947  23713099.9234   23713105.2694   23713100.3214
        46.000          39.000
 113241192.71247  88239866.49447  21549100.0964   21549105.2164   21549100.2794
        52.000          46.000
 128197768.34347  99894339.52447  24395245.0944   24395249.5984   24395244.5664
        44.000          39.000
 117327946.15347  91424350.36647  22326783.4304   22326787.4114   22326783.0494
        50.000          45.000
 124184997.37647  96767517.01747  23631627.5374   23631631.6334   23631627.3694
        46.000          40.000
 09  1 13  0 13 30.0000000  0 12G30G18G 6G14G 9G22G21G 5G24G12G29G31
 122770428.64247  95665248.70447  23362451.9934   23362456.2424   23362451.4934
        48.000          41.000
 123794918.41847  96463572.22847  23557388.7564   23557391.7024   23557389.2064
        47.000          40.000
 129930717.43747 101244692.40947  24725007.7684   24725015.4794   24725008.0804
        42.000          36.000
 115215841.60847  89778566.74247  21924853.6174   21924857.4194   21924853.9784
        51.000          45.000
 116641231.02147  90889242.24147  22196111.2134   22196115.1434   22196111.2314
        50.000          43.000
 127204805.84647  99120616.85847  24206275.7264   24206278.8394   24206275.7814
        43.000          37.000
 107032558.31647  83401989.46047  20367621.4284   20367623.9784   20367621.7014
        54.000          49.000
 124598949.39847  97090058.68347  23710416.7364   23710421.8014   23710417.3454
        46.000          40.000
 113272718.54647  88264432.07447  21555099.2084   21555104.5124   21555099.4544
        52.000          46.000
 128198594.53547  99894983.32247  24395402.2894   24395406.6654   24395402.0754
        43.000          39.000
 117402983.63147  91482821.12447  22341062.6034   22341066.5024   22341062.3374
        50.000          45.000
 124081788.80347  96687094.80347  23611987.3484   23611991.4804   23611987.2674
        46.000          40.000
 09  1 13  0 14  0.0000000  0 12G30G18G 6G14G 9G22G21G 5G24G12G29G31
 122748524.35447  95648180.44447  23358283.7634   23358288.0754   23358283.3494
        48.000          41.000
 123772829.18647  96446359.88647  23553185.3394   23553188.2424   23553185.8694
        47.000          40.000
 129877847.41747 101203495.02847  24714947.2764   24714955.1824   24714947.6634
        42.000          36.000
 115222843.36747  89784022.68547  21926185.9594   21926189.8734   21926186.1184
        51.000          45.000
 116705591.85547  90939393.55347  22208358.7614   22208362.8294   22208358.8824
        50.000          43.000
 127184430.44447  99104740.01547  24202398.3574   24202401.5314   24202398.3334
        44.000          37.000
 106984040.05447  83364183.03747  20358388.8804   20358391.2454   20358389.2264
        55.000          49.000
 124584840.02847  97079064.42047  23707731.1094   23707736.9934   23707732.1384
        46.000          39.000
 113304718.52147  88289367.11447  21561188.7034   21561194.0084   21561188.9054
        53.000          46.000
 128199415.65347  99895623.16747  24395558.5524   24395563.2094   24395558.0924
        43.000          39.000
 117478077.22347  91541335.60447  22355352.5004   22355356.6844   22355352.2354
        50.000          45.000
 123978641.14447  96606720.06247  23592358.9184   23592362.9384   23592358.3544
        45.000          40.000
 09  1 13  0 14 30.0000000  0 12G30G18G 6G14G 9G22G21G 5G24G12G29G31
 122726480.27347  95631003.26247  23354089.0804   23354093.1914   23354088.6284
        48.000          41.000
 123750535.63747  96428988.32947  23548942.8794   23548945.5624   23548943.3574
        48.000          40.000
 129825278.65747 101162532.40947  24704944.0974   24704951.5024   24704943.8694
        41.000          36.000
 115230239.91847  89789786.27647  21927593.3804   21927597.1924   21927593.5764
        51.000          45.000
 116770425.16047  90989913.02547  22220696.2524   22220699.9764   22220696.4864
        49.000          43.000
 127163830.41747  99088688.14147  24198478.0014   24198481.0734   24198478.7464
        43.000          37.000
 106935993.25047  83326743.98947  20349245.8834   20349248.3084   20349246.3154
        55.000          49.000
 124570720.66147  97068062.35647  23705044.0974   23705050.3714   23705044.6694
        45.000          39.000
 113337187.82547  88314667.87147  21567367.6384   21567372.5974   21567367.8254
        52.000          46.000
 128200228.25547  99896256.39247  24395713.4224   24395718.2264   24395713.1154
        44.000          39.000
 117553219.88847  91599888.31947  22369651.7374   22369655.6204   22369651.6074
        50.000          45.000
 123875552.53247  96526391.32647  23572741.2124   23572745.6774   23572740.1544
        45.000          40.000
 09  1 13  0 15  0.0000000  0 12G30G18G 6G14G 9G22G21G 5G24G12G29G31
 122704300.88547  95613720.63247  23349868.4444   23349872.6124   23349867.8654
        48.000          41.000
 123728041.50547  96411460.45847  23544662.2724   23544665.0894   23544662.5424
        47.000          40.000
 129773014.46147 101121807.12947  24694998.6644   24695005.2964   24694998.2104
        42.000          36.000
 115238032.59147  89795858.53047  21929076.1134   21929080.2034   21929076.3474
        50.000          45.000
 116835732.66947  91040802.01247  22233123.6794   22233127.4064   22233123.6564
        49.000          43.000
 127143008.03247  99072463.01347  24194515.8294   24194518.4454   24194515.4904
        44.000          37.000
 106888424.03447  83289677.08847  20340193.7584   20340196.1504   20340194.1154
        55.000          49.000
 124556596.34047  97057056.43547  23702356.7364   23702362.0544   23702357.0454
        45.000          39.000
 113370129.14447  88340336.42347  21573635.8644   21573641.1434   21573636.0844
        53.000          46.000
 128201037.73247  99896887.20047  24395867.7994   24395871.4864   24395867.4514
        44.000          39.000
 117628412.35147  91658479.84547  22383960.6624   22383964.0324   22383960.3454
        50.000          44.000
 123772528.69247  96446113.07347  23553136.6234   23553140.9524   23553135.3214
        45.000          40.000
 09  1 13  0 15 30.0000000  0 12G30G18G 6G14G 9G22G21G 5G24G12G29G31
 122681987.68447  95596333.75547  23345621.9554   23345626.8774   23345621.6074
        47.000          41.000
 123705347.91647  96393777.18647  23540344.0344   23540347.1794   23540344.4204
        47.000          40.000
 129721055.37747 101081319.60947  24685110.7524   24685118.3904   24685110.8034
        43.000          37.000
 115246219.72147  89802238.15847  21930633.9594   21930638.2024   21930634.0074
        50.000          45.000
 116901512.66347  91092059.17347  22245641.5914   22245645.1544   22245641.5934
        50.000          43.000
 127121963.63647  99056064.86647  24190511.1114   24190513.5204   24190510.4114
        43.000          37.000
 106841335.07547  83252984.40847  20331233.0694   20331235.3924   20331233.4504
        54.000          49.000
 124542469.37847  97046048.44047  23699668.0424   23699673.9774   23699668.3374
        45.000          39.000
 113403542.48447  88366372.79347  21579994.5054   21579999.4564   21579994.7234
        52.000          46.000
 128201845.99647  99897517.05547  24396020.8004   24396025.5754   24396020.6204
        44.000          38.000
 117703652.45547  91717108.47747  22398277.9094   22398281.7364   22398277.4454
        50.000          44.000
 123669572.94547  96365887.88047  23533544.9114   23533549.2074   23533544.1304
        45.000          40.000
 09  1 13  0 16  0.0000000  0 12G30G18G 6G14G 9G22G21G 5G24G12G29G31
 122659542.04047  95578843.67647  23341350.6594   23341355.4774   23341349.9784
        48.000          41.000
 123682455.20747  96375938.73747  23535987.6024   23535990.6324   23535988.1104
        47.000          40.000
 129669401.23647 101041069.69947  24675281.3404   24675288.5254   24675281.2924
        41.000          36.000
 115254799.12847  89808923.44747  21932266.7254   21932270.9904   21932266.9304
        51.000          45.000
 116967763.20947  91143683.01147  22258248.6414   22258252.4464   22258248.7134
        49.000          43.000
 127100696.14947  99039492.87747  24186464.0784   24186466.8114   24186463.6464
        43.000          38.000
 106794728.54247  83216667.64747  20322364.0214   20322366.4124   20322364.3954
        55.000          49.000
 124528341.52047  97035039.76847  23696979.6614   23696985.3924   23696980.5044
        45.000          39.000
 113437427.42847  88392776.64747  21586442.4644   21586447.3594   21586442.6054
        53.000          46.000
 128202654.75147  99898147.29647  24396174.3984   24396179.3024   24396174.6834
        44.000          38.000
 117778937.07247  91775771.80547  22412604.1944   22412608.0164   22412604.0474
        49.000          44.000
 123566687.61547  96285717.57147  23513966.3144   23513970.8234   23513965.9144
        45.000          40.000
 09  1 13  0 16 30.0000000  0 12G30G18G 6G14G 9G22G21G 5G24G12G29G31
 122636963.35547  95561249.92747  23337053.9194   23337058.9044   23337054.0444
        48.000          41.000
 123659362.11947  96357944.15547  23531592.9014   23531595.7584   23531593.1994
        47.000          39.000
 129618050.32947 101001056.06647  24665509.6024   24665516.5704   24665509.5284
        42.000          37.000
 115263767.09747  89815911.52147  21933973.2704   21933977.4484   21933973.5324
        51.000          45.000
 117034480.67047  91195670.67347  22270944.1184   22270948.5544   22270943.9334
        50.000          43.000
 127079203.37547  99022745.37547  24182373.8814   24182376.7314   24182373.9164
        44.000          38.000
 106748604.80247  83180727.09147  20313586.7954   20313589.3024   20313587.1444
        54.000          49.000
 124514212.66747  97024030.34147  23694290.5514   23694296.4104   23694291.0654
        45.000          39.000
 113471781.38347  88419545.95647  21592979.5884   21592984.8954   21592979.7114
        52.000          46.000
 128203463.53547  99898777.57247  24396328.4664   24396333.4444   24396328.6314
        44.000          38.000
 117854261.74647  91834466.34947  22426937.7794   22426941.6134   22426937.4324
        49.000          44.000
 123463873.56447  96205602.81047  23494401.3224   23494405.5834   23494401.0444
        45.000          41.000
 09  1 13  0 17  0.0000000  0 12G30G18G 6G14G 9G22G21G 5G24G12G29G31
 122614256.40547  95543556.22947  23332733.1434   23332737.5854   23332732.9124
        47.000          41.000
 123636072.99047  96339796.82647  23527160.9794   23527164.2384   23527161.8414
        47.000          39.000
 129567005.92747 100961281.26447  24655796.2954   24655803.6324   24655796.0374
        43.000          37.000
 115273124.85147  89823203.32447  21935754.1734   21935758.0834   21935754.5684
        51.000          45.000
 117101666.66647  91248023.43547  22283729.6094   22283733.3804   22283729.5854
        50.000          43.000
 127057488.23147  99005824.60647  24178241.6044   24178244.5724   24178242.4044
        44.000          38.000
 106702969.95447  83145167.48847  20304902.7824   20304905.4304   20304903.2004
        55.000          49.000
 124500088.10047  97013024.26347  23691602.8314   23691608.9294   23691603.7394
        44.000          39.000
 113506607.35047  88446683.07047  21599606.9864   21599612.1634   21599607.0434
        52.000          46.000
 128204277.97547  99899412.23147  24396483.1784   24396488.1364   24396482.8144
        43.000          38.000
 117929627.24047  91893192.69647  22441279.2164   22441283.0874   22441279.1094
        50.000          44.000
 123361136.55847  96125548.07947  23474851.4754   23474855.4144   23474850.9294
        46.000          41.000
 09  1 13  0 17 30.0000000  0 12G30G18G 6G14G 9G22G21G 5G24G12G29G31
 122591420.46047  95525762.02447  23328387.2654   23328392.0644   23328386.8474
        48.000          41.000
 123612586.09447  96321495.39547  23522691.8054   23522694.7374   23522692.3744
        47.000          39.000
 129516266.23647 100921743.89747  24646141.0724   24646148.1104   24646140.7714
        42.000          37.000
 115282868.53947  89830795.84247  21937608.3244   21937612.3204   21937608.5434
        51.000          45.000
 117169316.90047  91300737.93447  22296602.5094   22296607.1754   22296602.7904
        49.000          43.000
 127035548.23747  98988728.59747  24174067.1884   24174069.4384   24174066.9474
        44.000          38.000
 106657824.23747  83109989.02447  20296312.0024   20296314.4174   20296312.2764
        55.000          49.000
 124485967.52147  97002021.29347  23688915.6834   23688921.7484   23688916.1784
        45.000          39.000
 113541902.93647  88474186.12847  21606323.6044   21606328.4334   21606323.7034
        53.000          46.000
 128205097.07247  99900050.54447  24396639.1384   24396643.5104   24396638.3824
        43.000          38.000
 118005028.89947  91951947.21347  22455627.8484   22455631.4024   22455628.1254
        49.000          44.000
 123258477.04347  96045553.74747  23455316.0534   23455319.9414   23455316.0564
        46.000          41.000
 09  1 13  0 18  0.0000000  0 12G30G18G 6G14G 9G22G21G 5G24G12G29G31
 122568457.24147  95507868.66047  23324017.4694   23324022.3634   23324016.9244
        48.000          41.000
 123588902.42647  96303040.64147  23518184.8254   23518187.8694   23518185.2414
        47.000          39.000
 129465831.26947 100882443.99647  24636542.9794   24636550.2194   24636542.9654
        41.000          37.000
 115292995.97947  89838687.39147  21939535.6004   21939539.2144   21939535.7374
        51.000          45.000
 117237429.77447  91353812.92547  22309563.9774   22309568.4514   22309564.1964
        50.000          43.000
 127013383.22847  98971457.25347  24169848.2764   24169850.6214   24169848.3444
        44.000          37.000
 106613169.83047  83075193.40147  20287814.6084   20287816.9694   20287815.0614
        55.000          49.000
 124471853.05847  96991023.06747  23686229.6324   23686235.3934   23686230.2824
        45.000          39.000
 113577667.60347  88502054.71047  21613129.1774   21613134.3224   21613129.3314
        53.000          46.000
 128205922.85247  99900694.07647  24396795.9864   24396801.0894   24396795.5414
        44.000          38.000
 118080463.93747  92010727.76247  22469983.0584   22469986.2184   22469982.8124
        49.000          44.000
 123155897.99047  95965622.10547  23435795.7734   23435799.7954   23435795.8644
        47.000          41.000
 09  1 13  0 18 30.0000000  0 12G30G18G 6G14G 9G22G21G 5G24G12G29G31
 122545369.41347  95489878.19847  23319624.1934   23319629.0314   23319624.4984
        48.000          41.000
 123565024.50847  96284434.51547  23513641.3364   23513643.8284   23513641.5804
        47.000          40.000
 129415702.74347 100843382.86547  24627003.3244   24627011.0944   24627003.3424
        41.000          36.000
 115303507.16947  89846877.96247  21941535.7144   21941539.6214   21941535.7664
        51.000          45.000
 117306005.35647  91407248.48147  22322613.9364   22322617.7934   22322614.1654
        50.000          43.000
 126990994.51747  98954011.62347  24165588.5504   24165590.8704   24165588.3694
        44.000          38.000
 106569010.95647  83040783.90347  20279411.3424   20279413.7664   20279411.6844
        55.000          49.000
 124457748.35147  96980032.46147  23683546.0104   23683551.0684   23683546.5674
        46.000          39.000
 113613902.65947  88530289.82247  21620024.5994   21620029.9734   21620024.7084
        52.000          46.000
 128206759.31147  99901345.92347  24396955.1604   24396959.7124   24396954.9234
        44.000          38.000
 118155931.74247  92069533.83947  22484343.8324   22484347.6574   22484343.4614
        49.000          44.000
 123053404.18647  95885756.89547  23416291.8854   23416295.6504   23416291.9344
        47.000          41.000
 09  1 13  0 19  0.0000000  0 12G30G18G 6G14G 9G22G21G 5G24G12G29G31
 122522156.88347  95471790.56547  23315207.1514   23315211.5774   23315206.9284
        47.000          41.000
 123540950.98747  96265675.97347  23509060.2004   23509062.8434   23509060.4484
        47.000          40.000
 129365879.02647 100804559.22347  24617522.3934   24617528.9134   24617522.7064
        42.000          36.000
 115314398.24447  89855364.54747  21943608.0464   21943611.9594   21943608.2214
        51.000          45.000
 117375039.98647  91461041.74547  22335750.3144   22335754.3144   22335750.7124
        50.000          43.000
 126968379.94847  98936390.00947  24161284.6064   24161286.8924   24161284.6204
        44.000          37.000
 106525348.36647  83006761.12147  20271102.5754   20271105.0644   20271102.9954
        54.000          49.000
 124443653.65747  96969049.66947  23680863.8574   23680869.3064   23680864.7164
        46.000          39.000
 113650605.80747  88558889.68347  21627008.8234   21627014.2684   21627009.0024
        52.000          46.000
 128207606.12247  99902005.84247  24397116.5764   24397120.6544   24397116.2584
        43.000          38.000
 118231428.15747  92128362.20047  22498709.9914   22498714.4094   22498709.4654
        49.000          44.000
 122950996.21447  95805958.56947  23396804.3314   23396808.2344   23396804.1244
        46.000          41.000
 09  1 13  0 19 30.0000000  0 12G30G18G 6G14G 9G22G21G 5G24G12G29G31
 122498822.84547  95453608.24247  23310766.9894   23310770.7614   23310766.4054
        48.000          41.000
 123516684.75247  96246767.26047  23504442.2714   23504445.3064   23504442.7794
        48.000          40.000
 129316361.78047 100765974.43647  24608100.1274   24608107.4644   24608100.3124
        41.000          36.000
 115325668.56147  89864146.63847  21945752.6804   21945756.5324   21945752.9094
        51.000          45.000
 117444533.31147  91515192.43247  22348974.6164   22348978.5694   22348974.7574
        50.000          43.000
 126945540.94947  98918593.46447  24156938.2384   24156940.6374   24156938.4214
        44.000          38.000
 106482185.83047  82973127.99747  20262889.0004   20262891.5004   20262889.3654
        55.000          49.000
 124429572.52947  96958077.43247  23678184.4434   23678189.9494   23678184.8304
        46.000          39.000
 113687778.37347  88587855.32247  21634082.6364   21634088.0764   21634082.7494
        52.000          46.000
 128208466.93547  99902676.66147  24397280.9044   24397284.7674   24397280.1254
        44.000          38.000
 118306952.15647  92187212.06147  22513082.0224   22513085.9334   22513081.8164
        49.000          44.000
 122848678.69447  95726230.72047  23377333.7134   23377337.8604   23377333.3334
        46.000          41.000
 09  1 13  0 20  0.0000000  0 12G30G18G 6G14G 9G22G21G 5G24G12G29G31
 122475366.15347  95435330.34047  23306303.1004   23306307.0674   23306302.7564
        48.000          41.000
 123492223.86547  96227706.87747  23499787.4294   23499790.2874   23499787.6024
        47.000          40.000
 129267148.35947 100727626.39947  24598733.9794   24598741.6454   24598734.2624
        41.000          36.000
 115337313.96447  89873221.00447  21947968.4584   21947972.7174   21947968.4694
        51.000          45.000
 117514480.91247  91569697.09447  22362285.1364   22362289.1434   22362285.4214
        49.000          43.000
 126922474.19247  98900619.45347  24152549.0544   24152551.4564   24152549.3264
        44.000          38.000
 106439523.07347  82939884.30647  20254770.5444   20254772.9454   20254770.9124
        54.000          49.000
 124415504.22647  96947115.20547  23675507.4504   23675512.4504   23675507.6634
        46.000          39.000
 113725416.94347  88617184.07947  21641245.0004   21641250.2094   21641245.1124
        52.000          46.000
 128209340.74147  99903357.62447  24397446.4854   24397450.7984   24397446.6094
        42.000          38.000
 118382498.54047  92246079.36247  22527458.1854   22527462.1004   22527458.0294
        49.000          44.000
 122746451.63247  95646573.36447  23357880.2634   23357884.7064   23357879.8904
        46.000          41.000
 09  1 13  0 20 30.0000000  0 12G30G18G 6G14G 9G22G21G 5G24G12G29G31
 122451792.24847  95416961.11347  23301817.2984   23301821.3894   23301816.9534
        47.000          41.000
 123467573.02447  96208498.47947  23495096.7624   23495099.0984   23495097.0784
        48.000          40.000
 129218243.04647 100689518.43947  24589428.1344   24589435.7464   24589428.6704
        42.000          37.000
 115349336.00447  89882588.85147  21950256.2644   21950260.2794   21950256.5354
        51.000          45.000
 117584884.73447  91624557.24647  22375682.3254   22375686.5344   22375682.2354
        49.000          43.000
 126899183.64647  98882471.07047  24148116.8874   24148119.1354   24148116.9044
        44.000          38.000
 106397366.56747  82907035.09547  20246748.3334   20246750.8624   20246748.6574
        55.000          49.000
 124401454.88147  96936167.72147  23672833.2914   23672839.0494   23672833.9254
        45.000          39.000
 113763525.10847  88646878.75947  21648496.6524   21648501.7514   21648496.6974
        52.000          46.000
 128210233.43647  99904053.30747  24397616.2044   24397621.0804   24397615.8084
        43.000          38.000
 118458069.06247  92304965.46947  22541838.9794   22541842.6934   22541838.7724
        49.000          44.000
 122644321.87847  95566991.82947  23338445.6354   23338450.1264   23338445.3244
        46.000          41.000
 09  1 13  0 21  0.0000000  0 12G30G18G 6G14G 9G22G21G 5G24G12G29G31
 122428100.07847  95398499.73847  23297308.3584   23297313.0834   23297307.6734
        47.000          41.000
 123442730.68347  96189140.86247  23490369.1834   23490371.5034   23490369.4824
        47.000          40.000
 129169643.01447 100651648.33847  24580179.8084   24580186.8064   24580180.2644
        42.000          37.000
 115361730.35647  89892246.80447  21952614.8774   21952618.9484   21952615.0724
        51.000          45.000
 117655740.25347  91679769.37647  22389165.6674   22389169.6594   22389165.5774
        49.000          43.000
 126875666.31847  98864145.98747  24143641.5044   24143644.4444   24143641.4054
        45.000          38.000
 106355716.11447  82874580.21347  20238822.5964   20238825.1524   20238822.9634
        54.000          49.000
 124387423.77547  96925234.42747  23670163.4944   23670168.7044   23670163.8904
        45.000          39.000
 113802099.62447  88676936.83047  21655837.1724   21655842.3574   21655837.3554
        52.000          46.000
 128211144.28747  99904763.14147  24397789.4304   24397794.4644   24397789.3244
        43.000          38.000
 118533658.42347  92363866.26747  22556223.1154   22556226.8824   22556222.8644
        49.000          44.000
 122542289.55747  95487486.21847  23319029.4184   23319033.8384   23319028.9484
        46.000          41.000
 09  1 13  0 21 30.0000000  0 12G30G18G 6G14G 9G22G21G 5G24G12G29G31
 122404290.95147  95379947.21747  23292777.1944   23292781.9934   23292776.7924
        47.000          41.000
 123417697.33047  96169634.38547  23485605.7784   23485608.2414   23485606.1234
        47.000          40.000
 129121348.19847 100614016.09647  24570989.1534   24570997.2614   24570989.4514
        42.000          37.000
 115374494.41447  89902192.84447  21955043.8844   21955047.6594   21955044.1484
        50.000          44.000
 117727045.57247  91735332.01447  22402735.0154   22402738.7184   22402735.0824
        50.000          43.000
 126851921.95247  98845643.99447  24139123.3034   24139125.7544   24139123.5874
        44.000          38.000
 106314573.61847  82842521.14547  20230993.2244   20230995.8254   20230993.5864
        55.000          49.000
 124373412.76347  96914316.77147  23667497.4674   23667502.3774   23667497.5444
        46.000          39.000
 113841139.75647  88707357.71747  21663266.2774   21663271.4114   21663266.3594
        52.000          46.000
 128212075.24847  99905488.64547  24397966.6154   24397971.0814   24397966.3024
        44.000          38.000
 118609263.80747  92422779.53447  22570610.3984   22570614.2914   22570610.2554
        49.000          44.000
 122440357.07547  95408058.38947  23299632.4644   23299636.7434   23299631.8694
        47.000          41.000
 09  1 13  0 22  0.0000000  0 12G30G18G 6G14G 9G22G21G 5G24G12G29G31
 122380368.28047  95361306.21547  23288224.7454   23288229.9764   23288224.7504
        47.000          41.000
 123392475.80747  96149981.30647  23480805.6474   23480808.5924   23480806.2184
        47.000          40.000
 129073360.55047 100576623.17247  24561857.6474   24561865.3224   24561858.3594
        42.000          37.000
 115387628.74747  89912427.40547  21957542.9194   21957546.8834   21957543.0864
        51.000          44.000
 117798800.61447  91791245.07147  22416389.3144   22416393.0884   22416389.4614
        50.000          43.000
 126827952.45347  98826966.54147  24134561.6764   24134564.8694   24134561.4274
        44.000          38.000
 106273943.35447  82810861.21647  20223261.8174   20223264.0034   20223262.1724
        54.000          49.000
 124359425.84447  96903417.91447  23664835.7534   23664840.7114   23664836.0414
        45.000          39.000
 113880646.88647  88738142.50147  21670784.3264   21670789.2064   21670784.4604
        52.000          46.000
 128213029.69047  99906232.44247  24398148.4764   24398152.7754   24398147.8804
        44.000          38.000
 118684884.97247  92481705.09347  22585000.8074   22585004.6844   22585000.5354
        49.000          44.000
 122338529.47847  95328712.29447  23280255.2534   23280259.3564   23280254.7534
        46.000          41.000
 09  1 13  0 22 30.0000000  0 12G30G18G 6G14G 9G22G21G 5G24G12G29G31
 122356332.22147  95342576.84247  23283651.4814   23283655.9114   23283650.7134
        47.000          41.000
 123367065.30947  96130180.96847  23475969.9604   23475973.0184   23475970.6494
        47.000          39.000
 129025678.38747 100539468.31647  24552784.4104   24552792.0864   24552784.5134
        43.000          37.000
 115401129.23447  89922947.27547  21960112.2714   21960115.9724   21960112.6364
        51.000          45.000
 117871001.56547  91847505.58947  22430128.6114   22430132.4644   22430128.8654
        49.000          43.000
 126803755.60947  98808111.94647  24129956.8354   24129959.4114   24129956.5544
        44.000          38.000
 106233825.90647  82779600.88547  20215627.5474   20215629.9614   20215627.9854
        54.000          49.000
 124345463.48647  96892538.19047  23662178.5714   23662184.1284   23662179.0844
        46.000          40.000
 113920618.73147  88769289.39847  21678390.8634   21678395.6014   21678390.7884
        52.000          46.000
 128214007.99147  99906994.84547  24398334.2984   24398338.6404   24398334.2164
        43.000          38.000
 118760517.75547  92540639.71547  22599393.0634   22599397.0264   22599392.9564
        49.000          44.000
 122236807.52647  95249448.50647  23260898.3664   23260902.2794   23260898.2324
        47.000          42.000
 09  1 13  0 23  0.0000000  0 12G30G18G 6G14G 9G22G21G 5G24G12G29G31
 122332185.01047  95323760.86747  23279056.3104   23279060.8204   23279056.2844
        47.000          41.000
 123341467.59847  96110234.75147  23471099.1004   23471101.7594   23471099.8554
        47.000          39.000
 128978302.46347 100502552.08247  24543769.1504   24543776.5344   24543769.3094
        42.000          37.000
 115414994.51547  89933751.40247  21962750.7774   21962754.6444   21962751.1434
        51.000          45.000
 117943647.44647  91904112.79647  22443952.4804   22443956.5844   22443952.3944
        49.000          42.000
 126779332.21747  98789080.82847  24125309.8414   24125311.9044   24125309.5304
        45.000          39.000
 106194224.18347  82748742.41647  20208091.6014   20208093.8754   20208092.0174
        55.000          49.000
 124331528.48547  96881679.82147  23659527.1804   23659532.2474   23659527.7084
        46.000          40.000
 113961055.69947  88800798.72547  21686085.4624   21686090.5084   21686085.5584
        52.000          45.000
 128215013.10547  99907778.11847  24398525.5634   24398530.1294   24398524.6584
        43.000          38.000
 118836160.63247  92599582.20347  22613787.1534   22613791.1364   22613786.9864
        49.000          44.000
 122135195.33047  95170270.24147  23241562.2484   23241565.9074   23241562.0464
        47.000          42.000
 09  1 13  0 23 30.0000000  0 12G30G18G 6G14G 9G22G21G 5G24G12G29G31
 122307928.57347  95304859.79047  23274440.2494   23274444.7884   23274439.9244
        47.000          41.000
 123315684.01847  96090143.69847  23466192.5914   23466195.3984   23466192.9404
        47.000          40.000
 128931232.98047 100465874.61947  24534811.8584   24534819.0144   24534811.7214
        42.000          37.000
 115429222.74947  89944838.35547  21965458.0854   21965462.1424   21965458.1464
        51.000          45.000
 118016736.67147  91961065.46347  22457860.7774   22457864.9304   22457860.7514
        49.000          42.000
 126754682.31747  98769873.20647  24120618.9684   24120621.6994   24120619.3844
        45.000          39.000
 106155140.96647  82718287.97947  20200654.3164   20200656.8204   20200654.7164
        54.000          49.000
 124317623.00747  96870844.44847  23656880.6414   23656886.1104   23656881.2404
        46.000          39.000
 114001957.31147  88832670.11247  21693868.9254   21693873.8454   21693869.1384
        52.000          46.000
 128216046.60847  99908583.53047  24398722.3934   24398726.2054   24398722.3294
        43.000          38.000
 118911811.18147  92658530.66547  22628182.9844   22628187.0314   22628182.5784
        49.000          44.000
 122033695.68347  95091179.67347  23222247.3724   23222251.0914   23222246.6824
        47.000          42.000
 09  1 13  0 24  0.0000000  0 12G30G18G 6G14G 9G22G21G 5G24G12G29G31
 122283562.56147  95285873.33647  23269803.5644   23269808.1634   23269802.8854
        48.000          41.000
 123289713.67947  96069907.12047  23461250.9454   23461253.0364   23461251.3224
        48.000          40.000
 128884468.00347 100429434.44547  24525912.5734   24525919.9194   24525912.9874
        43.000          37.000
 115443810.14647  89956205.16947  21968234.2614   21968237.9744   21968234.4734
        51.000          45.000
 118090265.23947  92018360.48647  22471852.9064   22471856.9624   22471853.0844
        49.000          42.000
 126729803.39847  98750487.12347  24115884.5324   24115887.0624   24115884.6974
        45.000          38.000
 106116576.57647  82688237.81847  20193315.9244   20193318.0264   20193316.2264
        55.000          49.000
 124303747.26447  96860032.25747  23654240.0624   23654245.2024   23654240.3574
        45.000          39.000
 114043321.00447  88864901.56347  21701740.1634   21701745.0864   21701740.4004
        52.000          45.000
 128217108.63847  99909411.16747  24398924.8344   24398928.6524   24398924.2234
        43.000          38.000
 118987465.44547  92717482.01347  22642579.4934   22642583.6024   22642579.0994
        49.000          43.000
 121932309.55047  95012177.56747  23202954.1064   23202958.0504   23202953.5314
        47.000          42.000
 09  1 13  0 24 30.0000000  0 12G30G18G 6G14G 9G22G21G 5G24G12G29G31
 122259091.18247  95266804.76347  23265146.8824   23265151.5924   23265146.6394
        47.000          41.000
 123263559.91547  96049527.60547  23456274.0554   23456275.9644   23456274.2754
        47.000          40.000
 128838010.08747 100393233.52247  24517072.1834   24517078.7554   24517072.1324
        42.000          37.000
 115458757.02947  89967852.11247  21971078.6414   21971082.3574   21971078.6874
        51.000          45.000
 118164233.71047  92075998.30147  22485928.8594   22485932.5094   22485928.9144
        49.000          42.000
 126704698.29847  98730924.81547  24111106.5504   24111109.5034   24111106.8734
        44.000          38.000
 106078535.56847  82658595.48747  20186076.9344   20186079.1584   20186077.4154
        54.000          49.000
 124289905.94747  96849246.88247  23651605.5464   23651611.2534   23651606.3114
        45.000          39.000
 114085148.51847  88897494.43347  21709699.5184   21709704.5674   21709699.6634
        52.000          45.000
 128218203.84947  99910264.65147  24399133.1654   24399136.6614   24399133.2814
        43.000          38.000
 119063123.43147  92776436.27747  22656976.7194   22656980.9164   22656976.6254
        49.000          44.000
 121831042.50447  94933268.25747  23183683.4384   23183687.3324   23183683.4074
        47.000          42.000
 09  1 13  0 25  0.0000000  0 12G30G18G 6G14G 9G22G21G 5G24G12G29G31
 122234516.34847  95247655.57847  23260470.2214   23260474.7594   23260470.0674
        47.000          41.000
 123237223.60247  96029005.84247  23451262.3254   23451264.4314   23451262.5614
        48.000          40.000
 128791859.33647 100357271.97947  24508289.4374   24508296.3804   24508289.1074
        42.000          37.000
 115474061.39847  89979777.60947  21973990.6524   21973994.7014   21973990.8744
        51.000          45.000
 118238640.16847  92133977.39047  22500087.4264   22500091.8264   22500087.6694
        48.000          42.000
 126679367.34447  98711186.49247  24106286.1344   24106289.1524   24106285.8694
        45.000          38.000
 106041020.32147  82629362.84847  20178937.8084   20178940.2594   20178938.1984
        55.000          49.000
 124276101.23547  96838490.03947  23648978.7974   23648984.4994   23648979.1354
        45.000          39.000
 114127439.32847  88930448.31547  21717747.5304   21717752.2924   21717747.6834
        52.000          45.000
 128219334.26347  99911145.57847  24399348.1554   24399351.6394   24399347.6494
        44.000          38.000
 119138782.57147  92835391.44047  22671374.2264   22671378.2224   22671374.1744
        48.000          43.000
 121729897.46547  94854454.02147  23164435.8024   23164440.1244   23164435.7114
        46.000          42.000
 09  1 13  0 25 30.0000000  0 12G30G18G 6G14G 9G22G21G 5G24G12G29G31
 122209836.40747  95228424.49247  23255773.8054   23255778.2684   23255773.4164
        47.000          41.000
 123210702.50447  96008340.09147  23446215.4434   23446217.8074   23446215.8444
        47.000          40.000
 128746012.15947 100321546.96147  24499565.7084   24499572.0954   24499565.5084
        42.000          37.000
 115489717.74847  89991977.37247  21976970.1624   21976974.1774   21976970.3264
        51.000          45.000
 118313478.95747  92192293.36747  22514329.0764   22514333.0134   22514329.0834
        49.000          42.000
 126653806.42847  98691268.99547  24101422.2484   24101424.8184   24101422.2544
        45.000          39.000
 106004029.95847  82600539.19747  20171899.0534   20171901.1384   20171899.4334
        54.000          49.000
 124262331.77347  96827760.68247  23646358.5614   23646363.9554   23646359.5524
        45.000          39.000
 114170189.68947  88963760.28447  21725882.3294   21725887.3054   21725882.4424
        52.000          45.000
 128220498.67747  99912052.99047  24399569.3324   24399573.8294   24399569.3404
        43.000          39.000
 119214437.52847  92894343.31547  22685770.6474   22685775.1904   22685770.3414
        48.000          43.000
 121628873.82147  94775734.37247  23145211.5234   23145215.7054   23145210.8364
        47.000          42.000
 09  1 13  0 26  0.0000000  0 12G30G18G 6G14G 9G22G21G 5G24G12G29G31
 122185057.14947  95209116.03147  23251058.3794   23251062.9414   23251058.0044
        48.000          41.000
 123184002.39647  95987534.85247  23441134.4114   23441136.8494   23441134.8084
        47.000          40.000
 128700473.09047 100286062.03447  24490899.7764   24490906.1534   24490899.0054
        43.000          37.000
 115505728.51247  90004453.31147  21980016.8614   21980020.6184   21980016.9254
        51.000          45.000
 118388752.76147  92250948.31747  22528653.2744   22528657.1824   22528653.3304
        48.000          42.000
 126628020.08147  98671175.85247  24096515.4614   24096517.5434   24096515.3964
        45.000          39.000
 105967570.84447  82572129.51347  20164960.8194   20164963.0704   20164961.2204
        54.000          49.000
 124248604.17147  96817063.91547  23643746.1424   23643751.6224   23643746.3164
        45.000          39.000
 114213403.24447  88997433.18047  21734105.5534   21734110.7314   21734105.5544
        52.000          45.000
 128221703.12647  99912991.58247  24399798.8664   24399802.2524   24399798.6654
        44.000          39.000
 119290090.56147  92953293.70647  22700167.2104   22700171.1904   22700166.8114
        49.000          43.000
 121527979.15647  94697115.21147  23126012.0264   23126015.8374   23126011.6204
        47.000          42.000
 09  1 13  0 26 30.0000000  0 12G30G18G 6G14G 9G22G21G 5G24G12G29G31
 122160177.41447  95189729.26847  23246323.9084   23246328.7364   23246323.7074
        47.000          41.000
 123157120.93447  95966588.30547  23436019.1724   23436021.4824   23436019.5024
        47.000          40.000
 128655238.86847 100250814.63447  24482292.5414   24482298.7674   24482292.4434
        42.000          37.000
 115522088.54947  90017201.40847  21983129.6534   21983133.6604   21983129.8514
        50.000          44.000
 118464456.23147  92309938.06147  22543058.7804   22543062.8794   22543058.9634
        48.000          42.000
 126602004.97547  98650904.45847  24091564.5324   24091567.0814   24091564.6714
        44.000          39.000
 105931642.08247  82544133.08947  20158123.9344   20158126.0884   20158124.3794
        55.000          49.000
 124234917.34847  96806398.91947  23641141.9284   23641147.4894   23641142.2974
        45.000          39.000
 114257075.96947  89031463.87947  21742416.0564   21742421.4124   21742416.3004
        52.000          45.000
 128222946.53147  99913960.52247  24400035.2854   24400039.1844   24400035.4984
        44.000          39.000
 119365735.98847  93012238.17447  22714562.0264   22714566.2734   22714561.8974
        48.000          43.000
 121427212.88247  94618596.10647  23106836.9334   23106840.3314   23106836.8144
        48.000          42.000
 09  1 13  0 27  0.0000000  0 12G30G18G 6G14G 9G22G21G 5G24G12G29G31
 122135200.17447  95170266.51847  23241570.9074   23241575.7014   23241570.6224
        47.000          41.000
 123130060.77747  95945502.50747  23430869.8434   23430871.9014   23430870.0954
        47.000          39.000
 128610310.86147 100215805.86047  24473742.1714   24473749.3434   24473741.7974
        41.000          37.000
 115538797.07547  90030221.05647  21986309.0634   21986313.1624   21986309.4374
        50.000          44.000
 118540588.79847  92369262.18847  22557546.3724   22557550.1694   22557546.4754
        48.000          42.000
 126575762.47847  98630455.86247  24086570.8134   24086573.5094   24086570.6354
        45.000          39.000
 105896246.98647  82516552.51147  20151388.2974   20151390.7104   20151388.6554
        54.000          49.000
 124221274.89647  96795768.48047  23638545.8444   23638550.9614   23638546.0974
        46.000          39.000
 114301208.55047  89065852.90547  21750814.5894   21750819.4374   21750814.6894
        52.000          45.000
 128224231.67447  99914961.95347  24400280.0254   24400283.8244   24400279.8124
        44.000          38.000
 119441372.94147  93071176.04347  22728955.2544   22728959.6464   22728955.0474
        48.000          43.000
 121326579.58147  94540180.60247  23087687.2224   23087690.4894   23087686.8604
        48.000          42.000
 09  1 13  0 27 30.0000000  0 12G30G18G 6G14G 9G22G21G 5G24G12G29G31
 122110124.71747  95150727.23647  23236799.0844   23236803.7074   23236798.8154
        47.000          41.000
 123102820.74847  95924276.55147  23425685.8744   23425688.4754   23425686.0864
        47.000          39.000
 128565686.66447 100181033.80647  24465250.1994   24465256.9244   24465250.5404
        41.000          37.000
 115555849.54447  90043508.71947  21989554.1554   21989558.0704   21989554.2254
        51.000          44.000
 118617146.26747  92428917.40547  22572114.8514   22572118.5014   22572114.6404
        48.000          42.000
 126549291.17547  98609828.98847  24081533.6134   24081535.8984   24081533.6564
        45.000          39.000
 105861385.42047  82489387.66447  20144754.4244   20144756.7534   20144754.7914
        54.000          49.000
 124207676.63847  96785172.50447  23635958.4884   23635963.1414   23635959.0484
        46.000          39.000
 114345798.00447  89100597.93647  21759299.4534   21759304.3154   21759299.6044
        52.000          45.000
 128225558.46647  99915995.86647  24400531.3174   24400536.0474   24400531.5784
        43.000          38.000
 119516996.64847  93130103.58547  22743345.9154   22743350.5594   22743345.9514
        49.000          43.000
 121226079.71147  94461869.06447  23068562.8234   23068565.9394   23068562.0714
        49.000          42.000
 09  1 13  0 28  0.0000000  0 12G30G18G 6G14G 9G22G21G 5G24G12G29G31
 122084955.21547  95131114.66247  23232009.3244   23232014.0164   23232008.9694
        47.000          41.000
 123075404.17647  95902913.02247  23420468.9264   23420471.5594   23420469.2304
        47.000          40.000
 128521368.41947 100146500.18547  24456816.8774   24456824.3214   24456816.9844
        42.000          37.000
 115573246.47447  90057064.78647  21992864.6314   21992868.6554   21992865.0114
        51.000          45.000
 118694128.92647  92488903.92347  22586763.6674   22586767.8364   22586763.8084
        48.000          42.000
 126522592.64947  98589025.05547  24076452.9534   24076455.2164   24076452.8674
        44.000          39.000
 105827061.96347  82462642.12947  20138222.6194   20138225.4204   20138222.9624
        54.000          49.000
 124194127.05747  96774614.43947  23633379.7554   23633384.9804   23633380.1154
        46.000          40.000
 114390845.85447  89135700.15847  21767871.8294   21767876.6604   21767872.0984
        52.000          45.000
 128226931.68647  99917065.92947  24400792.6474   24400797.4134   24400792.8274
        43.000          38.000
 119592607.37547  93189021.01347  22757734.2414   22757738.4264   22757734.1884
        48.000          43.000
 121125718.75747  94383665.78647  23049464.5474   23049467.8114   23049464.5424
        48.000          42.000
 09  1 13  0 28 30.0000000  0 12G30G18G 6G14G 9G22G21G 5G24G12G29G31
 122059694.71647  95111431.18847  23227202.8824   23227207.0394   23227202.5524
        48.000          41.000
 123047813.00547  95881413.42747  23415218.0304   23415220.9694   23415218.3544
        48.000          40.000
 128477357.06947 100112205.70547  24448441.7254   24448448.5774   24448442.2894
        42.000          37.000
 115590986.33147  90070888.07647  21996240.6444   21996244.5144   21996240.9524
        50.000          44.000
 118771535.30747  92549220.61447  22601493.7074   22601498.1724   22601493.6204
        48.000          42.000
 126495667.51647  98568044.54447  24071329.1114   24071331.4314   24071329.3794
        45.000          39.000
 105793279.69447  82436318.29647  20131794.2924   20131796.8344   20131794.6294
        54.000          49.000
 124180629.23147  96764096.70147  23630811.1814   23630816.2474   23630811.6224
        46.000          39.000
 114436352.22447  89171159.67347  21776531.5504   21776536.3094   21776531.6704
        52.000          45.000
 128228354.27547  99918174.47147  24401063.9054   24401068.2124   24401063.6654
        43.000          38.000
 119668204.01247  93247927.46247  22772119.9014   22772124.0074   22772119.2744
        48.000          43.000
 121025500.55947  94305573.75147  23030393.5844   23030396.6464   23030393.6624
        48.000          42.000
 09  1 13  0 29  0.0000000  0 12G30G18G 6G14G 9G22G21G 5G24G12G29G31
 122034342.28747  95091676.07547  23222378.3644   23222382.7434   23222377.9864
        48.000          41.000
 123020046.07347  95859776.88647  23409934.8494   23409936.7104   23409935.1364
        48.000          40.000
 128433649.71047 100078148.06447  24440124.8044   24440131.0194   24440124.3254
        41.000          37.000
 115609064.46547  90084974.95747  21999680.6854   21999684.7824   21999680.8544
        50.000          45.000
 118849360.74547  92609863.85047  22616303.7374   22616307.7474   22616303.8924
        47.000          42.000
 126468513.21047  98546885.45147  24066161.9114   24066164.1194   24066162.0114
        44.000          39.000
 105760037.83547  82410415.56247  20125468.5274   20125470.9984   20125468.8644
        54.000          49.000
 124167182.61447  96753618.87947  23628251.7924   23628257.2644   23628252.0034
        45.000          39.000
 114482313.81347  89206973.90047  21785277.6374   21785282.5514   21785277.9074
        51.000          45.000
 128229824.82847  99919320.39647  24401343.4854   24401347.4224   24401343.4114
        43.000          38.000
 119743781.46447  93306818.96147  22786501.9524   22786505.6954   22786501.8994
        48.000          43.000
 120925425.19247  94227592.99847  23011349.5684   23011352.9994   23011348.6724
        47.000          42.000
 09  1 13  0 29 30.0000000  0 12G30G18G 6G14G 9G22G21G 5G24G12G29G31
 122008899.79047  95071850.80047  23217536.5744   23217540.9214   23217536.3014
        47.000          41.000
 122992104.38447  95838004.16247  23404617.4234   23404619.8394   23404617.7554
        48.000          40.000
 128390246.38947 100044327.33447  24431864.9584   24431872.7104   24431865.4034
        42.000          37.000
 115627478.81447  90099323.82747  22003185.0004   22003188.9574   22003185.3394
        50.000          44.000
 118927603.42247  92670832.20447  22631192.9244   22631196.7244   22631193.0814
        48.000          42.000
 126441130.33747  98525548.24247  24060950.7364   24060953.0154   24060950.4384
        45.000          39.000
 105727338.89447  82384935.88347  20119246.0864   20119248.6854   20119246.4744
        54.000          50.000
 124153789.50547  96743182.77247  23625703.5114   23625708.4304   23625704.2314
        45.000          39.000
 114528729.73047  89243142.14647  21794110.3364   21794115.3994   21794110.4134
        51.000          45.000
 128231345.98247  99920505.73647  24401632.7584   24401637.5644   24401632.6234
        43.000          38.000
 119819337.83947  93365694.03347  22800879.9424   22800883.8454   22800879.6184
        48.000          43.000
 120825495.80947  94149726.01747  22992333.7074   22992337.0624   22992333.1984
        48.000          42.000
 09  1 13  0 30  0.0000000  0 12G30G18G 6G14G 9G22G21G 5G24G12G29G31
 121983371.02347  95051958.27547  23212678.2244   23212682.9014   23212677.9704
        47.000          41.000
 122963990.95447  95816097.61047  23399267.4734   23399269.8284   23399267.7894
        48.000          40.000
 128347148.84547 100010744.86447  24423663.9094   24423670.6154   24423664.1364
        43.000          37.000
 115646229.14347  90113934.49847  22006752.8984   22006756.7614   22006753.2184
        50.000          44.000
 119006263.02047  92732125.45147  22646161.4364   22646164.8674   22646161.3644
        48.000          42.000
 126413520.46347  98504034.15347  24055697.2124   24055698.7954   24055697.3244
        46.000          39.000
 105695186.52347  82359882.09747  20113127.9314   20113130.1134   20113128.3224
        54.000          49.000
 124140454.02047  96732791.56547  23623165.5014   23623171.0174   23623166.0164
        46.000          39.000
 114575601.45647  89279665.56947  21803029.6864   21803034.8804   21803029.8744
        51.000          45.000
 128232921.59747  99921733.55347  24401932.7364   24401936.5964   24401932.8804
        43.000          38.000
 119894872.31947  93424552.04847  22815253.6794   22815257.6614   22815253.4274
        48.000          43.000
 120725717.40347  94071976.67547  22973346.6044   22973349.8474   22973346.2664
        48.000          42.000
 09  1 13  0 30 30.0000000  0 12G30G18G 6G14G 9G22G21G 5G24G12G29G31
 121957755.55947  95031998.21247  23207804.0604   23207808.8374   23207804.0634
        48.000          41.000
 122935705.18247  95794056.76847  23393884.6684   23393887.5074   23393885.3064
        47.000          40.000
 128304355.02347  99977399.08147  24415520.2934   24415527.1154   24415519.9974
        42.000          37.000
 115665311.33647  90128803.75547  22010384.1374   22010387.9104   22010384.3134
        50.000          45.000
 119085335.29347  92793740.24947  22661208.2254   22661211.6994   22661208.1664
        48.000          41.000
 126385681.83947  98482341.83147  24050399.7404   24050401.2104   24050399.8574
        46.000          39.000
 105663580.83147  82335254.30047  20107113.3564   20107115.6924   20107113.7484
        54.000          49.000
 124127176.24147  96722445.32447  23620639.0514   23620644.1664   23620639.4694
        46.000          39.000
 114622925.88847  89316541.75647  21812034.9344   21812040.5334   21812035.0414
        51.000          45.000
 128234551.58047  99923003.72447  24402243.4644   24402247.1584   24402242.8704
        43.000          38.000
 119970381.06547  93483390.02147  22829622.5874   22829626.5364   22829622.2414
        48.000          43.000
 120626091.01647  93994345.79347  22954388.2294   22954391.7924   22954387.8644
        49.000          43.000
 09  1 13  0 31  0.0000000  0 12G30G18G 6G14G 9G22G21G 5G24G12G29G31
 121932056.31247  95011972.86347  23202913.6144   23202917.6104   23202913.3374
        48.000          41.000
 122907249.83847  95771883.80247  23388469.5334   23388472.5304   23388470.4874
        47.000          40.000
 128261866.05647  99944290.83747  24407434.8684   24407441.4424   24407434.9744
        43.000          37.000
 115684724.41847  90143930.85447  22014078.4724   22014082.1894   22014078.4304
        50.000          45.000
 119164819.43047  92855675.97247  22676333.2964   22676337.0124   22676333.5314
        47.000          41.000
 126357615.96747  98460472.42147  24045058.5924   24045060.3524   24045058.6504
        46.000          39.000
 105632525.00747  82311054.96647  20101203.7864   20101205.8534   20101204.1964
        54.000          49.000
 124113959.78647  96712146.83147  23618124.2854   23618129.2464   23618124.9334
        45.000          39.000
 114670703.31647  89353770.92947  21821126.8024   21821132.0444   21821127.0434
        52.000          45.000
 128236239.24247  99924318.83047  24402563.6974   24402568.0024   24402563.1854
        41.000          37.000
 120045862.94547  93542207.05347  22843986.3484   22843990.4014   22843985.6734
        48.000          43.000
 120526620.93847  93916836.70247  22935459.9484   22935463.2064   22935459.6594
        48.000          43.000
 09  1 13  0 31 30.0000000  0 12G30G18G 6G14G 9G22G21G 5G24G12G29G31
 121906275.11147  94991883.64847  23198007.7144   23198011.8124   23198007.3014
        47.000          41.000
 122878625.24747  95749578.93647  23383023.1984   23383025.3444   23383023.5504
        47.000          40.000
 128219681.42447  99911419.73947  24399407.8284   24399414.1264   24399408.0144
        43.000          37.000
 115704465.77447  90159313.74847  22017834.8584   22017839.1454   22017835.1834
        50.000          45.000
 119244713.30847  92917930.95947  22691536.4074   22691540.6854   22691536.5364
        47.000          41.000
 126329322.39447  98438425.56747  24039674.1944   24039676.3294   24039673.9644
        45.000          39.000
 105602020.95947  82287285.59347  20095398.8584   20095401.1374   20095399.2074
        54.000          49.000
 124100806.44247  96701897.51247  23615620.9284   23615626.3964   23615621.4664
        45.000          39.000
 114718932.73347  89391352.31147  21830304.5494   21830309.8204   21830304.5464
        51.000          45.000
 128237986.33047  99925680.23247  24402895.7724   24402900.8304   24402896.1614
        43.000          38.000
 120121315.77547  93601001.45447  22858344.5654   22858348.4524   22858344.2984
        48.000          43.000
 120427309.43847  93839451.18547  22916561.4324   22916564.7234   22916560.8364
        48.000          43.000
 09  1 13  0 32  0.0000000  0 12G30G18G 6G14G 9G22G21G 5G24G12G29G31
 121880412.80447  94971731.22047  23193086.4804   23193090.5064   23193085.8854
        48.000          41.000
 122849831.81747  95727142.51847  23377543.7584   23377546.0364   23377544.2414
        47.000          40.000
 128177799.68047  99878784.66347  24391437.4594   24391444.6314   24391436.9824
        43.000          37.000
 115724532.09647  90174949.86147  22021653.4694   22021657.4624   22021653.6364
        51.000          45.000
 119325013.24247  92980502.36747  22706817.0164   22706820.9124   22706817.0244
        47.000          41.000
 126300800.31447  98416200.66847  24034247.0684   24034248.5074   24034247.1064
        46.000          39.000
 105572069.07547  82263946.47447  20089699.2524   20089701.6894   20089699.6614
        54.000          49.000
 124087717.23647  96691698.16647  23613130.4204   23613135.6684   23613131.0864
        46.000          39.000
 114767612.22547  89429284.38847  21839567.8504   21839573.2524   21839567.9704
        51.000          45.000
 128239793.56647  99927088.52447  24403240.7394   24403244.6484   24403240.3694
        44.000          38.000
 120196736.09947  93659770.51647  22872696.6454   22872700.6264   22872696.5114
        49.000          43.000
 120328158.60047  93762190.86547  22897693.6504   22897696.7584   22897693.5254
        49.000          43.000
 09  1 13  0 32 30.0000000  0 12G30G18G 6G14G 9G22G21G 5G24G12G29G31
 121854471.78947  94951517.48147  23188149.8704   23188153.9504   23188150.0214
        48.000          41.000
 122820871.84847  95704576.33347  23372032.7914   23372034.8764   23372032.9894
        47.000          40.000
 128136221.79147  99846386.32547  24383526.3984   24383532.3254   24383526.2414
        43.000          37.000
 115744922.31947  90190838.37047  22025533.5064   22025537.4424   22025533.8294
        50.000          45.000
 119405717.99147  93043389.24047  22722174.6674   22722178.4384   22722174.8784
        47.000          41.000
 126272050.87847  98393798.60447  24028775.7094   24028777.6364   24028775.9324
        46.000          40.000
 105542672.43347  82241040.01547  20084105.0664   20084107.7094   20084105.4644
        54.000          49.000
 124074695.24547  96681551.17547  23610651.8874   23610657.3374   23610652.5434
        45.000          39.000
 114816741.74147  89467567.14347  21848916.9914   21848922.1724   21848917.0864
        51.000          45.000
 128241663.65247  99928545.80047  24403596.3624   24403600.3404   24403596.2354
        42.000          38.000
 120272122.72747  93718513.32647  22887042.1214   22887046.1034   22887042.0794
        48.000          43.000
 120229172.22847  93685058.69947  22878856.7724   22878860.2894   22878856.0384
        48.000          43.000
 09  1 13  0 33  0.0000000  0 12G30G18G 6G14G 9G22G21G 5G24G12G29G31
 121828455.05447  94931244.73147  23183199.1774   23183203.3584   23183198.8544
        48.000          41.000
 122791746.58347  95681881.32547  23366490.5764   23366492.7534   23366490.8444
        48.000          40.000
 128094947.98247  99814224.94647  24375672.1924   24375678.0374   24375671.2194
        42.000          37.000
 115765634.77747  90206977.96447  22029474.7504   22029478.9234   22029474.8814
        50.000          45.000
 119486825.97847  93106590.29647  22737608.9934   22737612.6794   22737608.9714
        46.000          41.000
 126243074.30847  98371219.55047  24023261.8034   24023263.5894   24023262.0454
        47.000          40.000
 105513834.07547  82218568.57547  20078617.4924   20078619.8594   20078617.9334
        54.000          49.000
 124061743.43447  96671458.89647  23608187.5424   23608192.4604   23608188.0234
        46.000          39.000
 114866320.86347  89506200.23447  21858351.6104   21858356.8364   21858351.8234
        51.000          45.000
 128243599.68147  99930054.44647  24403964.3944   24403968.4054   24403964.6194
        44.000          38.000
 120347474.38047  93777228.87847  22901380.8214   22901385.2034   22901380.5394
        48.000          43.000
 120130354.09347  93608057.62747  22860052.4704   22860055.5174   22860052.0364
        49.000          43.000
 09  1 13  0 33 30.0000000  0 12G30G18G 6G14G 9G22G21G 5G24G12G29G31
 121802363.11347  94910913.37947  23178233.9694   23178237.8844   23178233.4864
        48.000          41.000
 122762457.18547  95659058.43047  23360917.1514   23360919.6304   23360917.6554
        48.000          41.000
 128053977.14647  99782299.66647  24367875.0634   24367882.1964   24367875.1204
        42.000          37.000
 115786666.40347  90223366.26147  22033477.1814   22033481.0054   22033477.4364
        51.000          45.000
 119568334.30047  93170103.29547  22753119.4664   22753123.1834   22753119.0394
        46.000          41.000
 126213870.42047  98348463.37247  24017704.6774   24017706.1764   24017704.5284
        46.000          40.000
 105485554.50747  82196532.56547  20073235.8574   20073238.3684   20073236.2674
        54.000          49.000
 124048863.12547  96661422.31647  23605736.6444   23605741.5914   23605736.8254
        45.000          39.000
 114916347.85347  89545182.31247  21867871.2794   21867876.5404   21867871.3514
        52.000          45.000
 128245602.54647  99931615.18347  24404345.6354   24404348.8234   24404345.3824
        44.000          38.000
 120422787.75747  93835914.61147  22915712.4664   22915716.5464   22915711.9104
        47.000          43.000
 120031706.33947  93531189.32647  22841280.5404   22841283.3804   22841280.5824
        49.000          43.000
 09  1 13  0 34  0.0000000  0 12G30G18G 6G14G 9G22G21G 5G24G12G29G31
 121776196.61647  94890523.93347  23173254.5554   23173258.8294   23173254.4034
        48.000          41.000
 122733003.26047  95636107.33247  23355312.1594   23355314.6914   23355312.7094
        48.000          41.000
 128013307.42047  99750609.01247  24360135.4384   24360142.3074   24360135.8014
        42.000          37.000
 115808013.26247  90240000.19547  22037539.3014   22037543.2454   22037539.5994
        51.000          45.000
 119650239.20247  93233925.33347  22768705.4204   22768709.4014   22768705.1434
        47.000          41.000
 126184437.73147  98325528.90447  24012103.1874   24012104.8754   24012103.2664
        45.000          39.000
 105457833.84647  82174932.05847  20067960.9534   20067963.4044   20067961.2734
        54.000          49.000
 124036054.80447  96651441.84447  23603298.8574   23603304.0544   23603299.4224
        45.000          39.000
 114966820.17147  89584511.40747  21877476.0764   21877481.0444   21877476.3534
        51.000          45.000
 128247672.59647  99933228.27247  24404739.5204   24404743.2494   24404739.5484
        44.000          38.000
 120498059.26747  93894567.71947  22930036.2434   22930040.5144   22930035.6214
        48.000          42.000
 119933230.27347  93454454.80747  22822541.6044   22822543.8834   22822541.0144
        50.000          43.000
 09  1 13  0 34 30.0000000  0 12G30G18G 6G14G 9G22G21G 5G24G12G29G31
 121749960.75347  94870080.43147  23168261.9144   23168266.1264   23168261.7224
        47.000          41.000
 122703389.20947  95613031.46447  23349676.8814   23349678.7014   23349677.3494
        48.000          40.000
 127972941.91847  99719155.41847  24352453.9074   24352460.8734   24352454.2044
        42.000          37.000
 115829676.52047  90256880.67147  22041661.7724   22041665.4204   22041662.0154
        50.000          45.000
 119732541.67847  93298057.17847  22784367.1814   22784370.8824   22784367.3244
        47.000          41.000
 126154779.35447  98302418.58347  24006459.2594   24006461.1964   24006459.2084
        45.000          39.000
 105430677.28847  82153771.11747  20062793.1474   20062795.4874   20062793.5764
        54.000          49.000
 124023324.11947  96641521.84547  23600876.2494   23600881.7074   23600876.7144
        46.000          39.000
 115017740.18647  89624189.34947  21887165.6004   21887170.9614   21887165.8174
        51.000          45.000
 128249815.15247  99934897.87247  24405147.2924   24405150.8264   24405146.8994
        43.000          38.000
 120573290.14747  93953189.17647  22944352.2784   22944356.0584   22944351.8974
        48.000          43.000
 119834932.25747  93377859.02747  22803835.8174   22803838.4384   22803835.4944
        49.000          43.000
 09  1 13  0 35  0.0000000  0 12G30G18G 6G14G 9G22G21G 5G24G12G29G31
 121723653.67947  94849581.42647  23163255.5274   23163260.2224   23163255.1864
        48.000          41.000
 122673612.60647  95589828.93747  23344010.7754   23344012.7164   23344011.1934
        47.000          41.000
 127932876.55347  99687935.68047  24344830.5144   24344837.0754   24344830.4144
        42.000          37.000
 115851649.98447  90274002.86047  22045843.1474   22045847.1564   22045843.5904
        50.000          45.000
 119815235.68047  93362494.10147  22800103.0914   22800107.0404   22800103.1354
        47.000          41.000
 126124892.23447  98279130.01747  24000772.2404   24000773.9864   24000772.4584
        46.000          39.000
 105404083.20147  82133048.46447  20057732.5334   20057734.8744   20057732.9024
        54.000          49.000
 124010669.46247  96631661.10147  23598468.2084   23598473.3774   23598468.8874
        46.000          39.000
 115069103.19747  89664212.48147  21896939.8884   21896944.7444   21896940.2514
        52.000          45.000
 128252028.55247  99936622.68547  24405568.6534   24405572.1274   24405568.5894
        44.000          38.000
 120648474.44747  94011774.33547  22958659.3434   22958663.5984   22958658.9484
        47.000          42.000
 119736811.50547  93301401.36947  22785164.0514   22785166.7874   22785163.2674
        49.000          43.000
 09  1 13  0 35 30.0000000  0 12G30G18G 6G14G 9G22G21G 5G24G12G29G31
 121697280.13447  94829030.63947  23158237.1244   23158241.8194   23158236.7454
        48.000          41.000
 122643677.62747  95566503.00347  23338313.9594   23338316.5204   23338314.0834
        48.000          40.000
 127893113.98747  99656951.89447  24337263.3964   24337270.0944   24337263.1174
        43.000          37.000
 115873934.49747  90291367.42947  22050083.5864   22050087.5904   22050083.7714
        50.000          44.000
 119898321.67247  93427236.46747  22815913.7964   22815917.8524   22815913.6324
        47.000          41.000
 126094779.73947  98255665.83047  23995042.1374   23995043.6064   23995041.8404
        45.000          39.000
 105378056.06147  82112767.58747  20052779.6614   20052782.0844   20052780.0114
        54.000          49.000
 123998095.99747  96621863.62847  23596075.6624   23596080.0764   23596075.8144
        45.000          39.000
 115120910.92647  89704582.15247  21906798.7004   21906803.4064   21906799.0084
        51.000          45.000
 128254318.10647  99938406.81447  24406004.0974   24406007.8894   24406003.8664
        44.000          38.000
 120723613.01947  94070323.86847  22972957.7484   22972961.8014   22972957.5984
        48.000          42.000
 119638874.27747  93225086.70947  22766527.1014   22766529.6604   22766526.6204
        49.000          43.000
 09  1 13  0 36  0.0000000  0 12G30G18G 6G14G 9G22G21G 5G24G12G29G31
 121670840.39447  94808428.26547  23153205.4494   23153210.5984   23153205.0894
        47.000          41.000
 122613583.77947  95543053.27047  23332587.3824   23332589.5914   23332587.7274
        47.000          40.000
 127853652.17047  99626202.43647  24329754.1184   24329760.7784   24329754.9384
        42.000          37.000
 115896525.91647  90308971.14547  22054382.4324   22054386.6044   22054382.7644
        50.000          44.000
 119981795.67847  93492281.18647  22831798.4124   22831802.5444   22831798.6734
        47.000          41.000
 126064439.54447  98232024.21547  23989267.9124   23989269.6484   23989267.9824
        45.000          39.000
 105352595.85647  82092928.47447  20047934.7584   20047937.1454   20047935.0584
        54.000          50.000
 123985603.89147  96612129.54947  23593698.5584   23593703.3894   23593698.9534
        46.000          39.000
 115173160.47447  89745296.09047  21916741.2764   21916746.2174   21916741.4044
        51.000          45.000
 128256682.98947  99940249.67247  24406453.8964   24406457.7734   24406453.7804
        44.000          38.000
 120798701.91447  94128834.68347  22987246.5474   22987250.7804   22987246.5984
        47.000          42.000
 119541121.40847  93148915.71947  22747924.8554   22747927.9454   22747924.3484
        49.000          43.000
 09  1 13  0 36 30.0000000  0 12G30G18G 6G14G 9G22G21G 5G24G12G29G31
 121644337.31847  94787776.54547  23148162.6194   23148166.8064   23148162.3314
        48.000          42.000
 122583333.57847  95519481.70847  23326830.8454   23326833.1894   23326831.4834
        48.000          40.000
 127814491.77847  99595687.89547  24322301.3544   24322309.0074   24322301.9304
        42.000          37.000
 115919423.00547  90326813.04547  22058739.6744   22058743.8454   22058740.0324
        50.000          44.000
 120065656.54147  93557627.36347  22847756.7694   22847760.3684   22847757.0884
        48.000          41.000
 126033872.90547  98208206.16347  23983451.0274   23983452.8104   23983451.4434
        45.000          39.000
 105327705.47047  82073533.38447  20043198.2224   20043200.7924   20043198.5094
        54.000          50.000
 123973196.66747  96602461.59747  23591337.7994   23591342.1894   23591338.4824
        46.000          39.000
 115225852.04547  89786354.46147  21926768.1254   21926773.2774   21926768.1844
        51.000          45.000
 128259126.89547  99942154.10547  24406918.9484   24406922.9834   24406918.9504
        44.000          38.000
 120873740.47347  94187306.27247  23001526.0384   23001529.9194   23001525.9344
        47.000          42.000
 119443557.09247  93072891.65847  22729358.7684   22729362.0114   22729358.1954
        48.000          43.000
 09  1 13  0 37  0.0000000  0 12G30G18G 6G14G 9G22G21G 5G24G12G29G31
 121617772.23147  94767076.50947  23143107.4574   23143111.3864   23143107.2384
        48.000          42.000
 122552927.95647  95495789.03747  23321044.6184   23321047.1944   23321044.9064
        48.000          40.000
 127775631.91447  99565407.49447  24314907.4804   24314913.6224   24314907.0954
        41.000          36.000
 115942622.97147  90344890.95747  22063154.6684   22063158.2274   22063154.8734
        50.000          44.000
 120149901.18947  93623272.58047  22863788.1734   22863791.7614   22863788.2694
        47.000          41.000
 126003079.67547  98184211.53647  23977591.4834   23977593.0414   23977591.5914
        45.000          39.000
 105303386.11547  82054583.24747  20038570.4864   20038572.8774   20038570.8374
        54.000          49.000
 123960875.97047  96592861.09747  23588993.1904   23588997.7274   23588993.7674
        45.000          39.000
 115278983.91447  89827755.91647  21936878.9204   21936883.8824   21936878.9544
        51.000          45.000
 128261651.21847  99944121.19847  24407399.5894   24407403.3604   24407399.4294
        43.000          38.000
 120948725.63147  94245736.24747  23015795.3634   23015799.5974   23015795.1214
        47.000          42.000
 119346183.62347  92997016.30247  22710829.0804   22710832.1044   22710828.7394
        48.000          43.000
 09  1 13  0 37 30.0000000  0 12G30G18G 6G14G 9G22G21G 5G24G12G29G31
 121591146.35247  94746329.08447  23138040.5434   23138044.7234   23138040.1054
        48.000          42.000
 122522367.25647  95471975.51247  23315229.2314   23315231.3054   23315229.7824
        47.000          40.000
 127737071.37747  99535360.34447  24307569.1744   24307575.8774   24307568.7144
        41.000          37.000
 115966122.48947  90363202.28147  22067626.5854   22067630.3304   22067626.7854
        51.000          44.000
 120234526.39747  93689214.32947  22879891.6964   22879895.4754   22879891.8184
        47.000          41.000
 125972059.38247  98160039.98447  23971688.1374   23971690.0354   23971688.0844
        45.000          38.000
 105279638.31347  82036078.48047  20034051.2894   20034053.6854   20034051.7794
        54.000          50.000
 123948642.95847  96583328.92747  23586665.0784   23586669.9624   23586665.3604
        46.000          39.000
 115332554.09947  89869498.92847  21947072.8834   21947078.1404   21947072.9344
        52.000          45.000
 128264256.99547  99946151.76947  24407894.8654   24407899.1724   24407894.7264
        43.000          38.000
 121023654.67947  94304122.51047  23030053.7494   23030058.2204   23030053.3584
        47.000          42.000
 119249003.27747  92921291.43447  22692336.4494   22692339.5244   22692336.3874
        49.000          43.000
 09  1 13  0 38  0.0000000  0 12G30G18G 6G14G 9G22G21G 5G24G12G29G31
 121564463.18347  94725537.03747  23132963.2944   23132967.2894   23132962.8854
        48.000          42.000
 122491654.34647  95448043.38447  23309384.7884   23309387.0104   23309384.9994
        47.000          40.000
 127698811.27647  99505547.31147  24300289.2054   24300295.0074   24300288.8164
        42.000          37.000
 115989920.94947  90381746.54347  22072155.1534   22072158.9834   22072155.1264
        50.000          44.000
 120319531.64347  93755452.22247  22896067.3674   22896071.4224   22896067.6554
        47.000          41.000
 125940813.78847  98135692.85647  23965742.2514   23965743.8684   23965741.9094
        45.000          38.000
 105256465.32047  82018021.61647  20029641.6544   20029644.0604   20029642.0024
        54.000          50.000
 123936501.51247  96573868.11747  23584354.5104   23584359.5694   23584355.1064
        45.000          39.000
 115386562.88847  89911583.70447  21957350.4834   21957355.5934   21957350.5284
        51.000          45.000
 128266947.75247  99948248.57947  24408406.6494   24408410.8314   24408406.4084
        43.000          38.000
 121098526.95047  94362464.52447  23044301.4634   23044305.8394   23044301.0314
        47.000          42.000
 119152020.46147  92845720.47547  22673881.0274   22673884.3364   22673880.5394
        49.000          44.000
 09  1 13  0 38 30.0000000  0 12G30G18G 6G14G 9G22G21G 5G24G12G29G31
 121537723.45047  94704700.89847  23127874.5804   23127878.7144   23127874.5544
        48.000          41.000
 122460789.48547  95423992.87247  23303511.0924   23303513.7044   23303511.7844
        47.000          40.000
 127660849.86147  99475967.04247  24293065.1764   24293072.0484   24293065.0884
        43.000          37.000
 116014014.76047  90400520.94747  22076740.2554   22076744.0084   22076740.6514
        51.000          45.000
 120404913.45547  93821983.54647  22912314.9164   22912318.4494   22912314.8524
        47.000          40.000
 125909341.77447  98111169.30847  23959753.6174   23959754.6344   23959753.4924
        45.000          39.000
 105233867.57347  82000412.99547  20025341.4454   20025343.7464   20025341.7804
        54.000          50.000
 123924452.52147  96564479.34347  23582061.2754   23582066.6314   23582061.7504
        45.000          39.000
 115441008.00747  89954008.47147  21967711.0884   21967716.1244   21967711.1134
        51.000          45.000
 128269723.97947  99950411.96147  24408935.3534   24408939.4254   24408935.0794
        44.000          38.000
 121173339.34247  94420759.88747  23058538.0124   23058542.3794   23058537.8204
        47.000          42.000
 119055237.16947  92770304.99647  22655463.6994   22655467.1714   22655463.2714
        49.000          43.000
 09  1 13  0 39  0.0000000  0 12G30G18G 6G14G 9G22G21G 5G24G12G29G31
 121510930.10647  94683822.98647  23122776.1784   23122779.8524   23122775.8034
        48.000          41.000
 122429775.08747  95399825.81847  23297609.4644   23297611.7384   23297610.1544
        46.000          40.000
 127623188.06047  99446620.21347  24285898.2554   24285904.4334   24285898.2614
        42.000          37.000
 116038402.68747  90419524.53047  22081381.1154   22081384.7424   22081381.5264
        51.000          44.000
 120490670.26547  93888807.08047  22928633.8154   22928637.8444   22928634.0654
        46.000          40.000
 125877645.01547  98086470.62047  23953721.7214   23953722.8474   23953721.6774
        45.000          38.000
 105211847.86947  81983254.79747  20021151.5094   20021153.6374   20021151.9694
        54.000          50.000
 123912499.26847  96555165.17047  23579787.0264   23579791.9344   23579787.3774
        45.000          39.000
 115495889.43847  89996773.22647  21978154.5354   21978159.4244   21978154.6354
        51.000          44.000
 128272589.14947  99952644.65447  24409480.5584   24409484.5624   24409480.2184
        43.000          38.000
 121248090.91047  94479007.84647  23072762.8654   23072766.9504   23072762.8204
        47.000          42.000
 118958657.14247  92695047.90747  22637085.0254   22637088.3844   22637084.7214
        49.000          43.000
 09  1 13  0 39 30.0000000  0 12G30G18G 6G14G 9G22G21G 5G24G12G29G31
 121484083.44747  94662903.52347  23117667.4324   23117671.0714   23117667.0604
        48.000          42.000
 122398610.85147  95375542.03147  23291678.9044   23291681.4214   23291679.0944
        47.000          40.000
 127585823.63047  99417505.12347  24278787.9874   24278794.2174   24278788.2264
        42.000          37.000
 116063080.46247  90438753.97747  22086077.0794   22086080.8664   22086077.2364
        51.000          44.000
 120576798.13547  93955919.74947  22945023.3824   22945027.3114   22945023.7694
        47.000          40.000
 125845721.82747  98061595.49547  23947646.9754   23947648.1764   23947646.9574
        45.000          39.000
 105190405.96347  81966546.83147  20017070.9634   20017073.4474   20017071.2674
        54.000          50.000
 123900642.39847  96545926.13447  23577530.4784   23577535.6074   23577531.0114
        46.000          40.000
 115551204.09447  90039875.55147  21988680.4144   21988685.6234   21988680.4504
        51.000          44.000
 128275543.69947  99954946.99947  24410042.7884   24410046.8834   24410041.9244
        44.000          38.000
 121322777.91747  94537205.49847  23086975.4774   23086979.4354   23086975.1574
        47.000          42.000
 118862282.03047  92619950.49547  22618745.4054   22618748.6244   22618744.9784
        49.000          44.000
 09  1 13  0 40  0.0000000  0 12G30G18G 6G14G 9G22G21G 5G24G12G29G31
 121457186.90747  94641945.18647  23112548.9104   23112552.9434   23112548.8914
        48.000          41.000
 122367299.64947  95351143.72547  23285720.6494   23285722.9174   23285721.2444
        47.000          40.000
 127548757.60747  99388622.54347  24271733.8904   24271740.7524   24271734.1984
        41.000          36.000
 116088047.27747  90458208.64947  22090828.0044   22090831.8054   22090828.2694
        51.000          44.000
 120663295.92947  94023320.66847  22961483.6264   22961487.6944   22961483.5354
        47.000          41.000
 125813573.85247  98036545.21247  23941529.2784   23941531.3664   23941529.5474
        45.000          39.000
 105169544.67447  81950291.29347  20013101.2104   20013103.5904   20013101.4834
        54.000          50.000
 123888885.40847  96536764.91247  23575293.4734   23575298.1024   23575293.6334
        46.000          39.000
 115606952.15947  90083315.59747  21999289.0054   21999294.1554   21999289.2854
        51.000          44.000
 128278590.67347  99957321.35847  24410622.1894   24410626.3684   24410621.8554
        44.000          38.000
 121397399.58447  94595352.23047  23101175.5124   23101179.5024   23101174.9964
        47.000          42.000
 118766116.05847  92545016.05047  22600445.6734   22600448.9044   22600444.8594
        49.000          44.000
 09  1 13  0 40 30.0000000  0 12G30G18G 6G14G 9G22G21G 5G24G12G29G31
 121430241.31647  94620948.64047  23107421.1804   23107425.3954   23107420.9334
        48.000          41.000
 122335841.55847  95326630.96747  23279733.9154   23279736.6784   23279734.5164
        47.000          40.000
 127511988.36247  99359971.22547  24264737.0994   24264743.3664   24264737.0544
        42.000          37.000
 116113299.49747  90477885.71547  22095633.4104   22095636.9164   22095633.7464
        51.000          44.000
 120750159.82147  94091006.84147  22978013.3644   22978017.1614   22978013.5114
        46.000          40.000
 125781200.51447  98011319.31947  23935368.4164   23935370.1714   23935368.4624
        45.000          39.000
 105149264.27347  81934488.40047  20009241.7964   20009244.3784   20009242.1274
        54.000          50.000
 123877229.15947  96527682.19247  23573075.3874   23573080.2944   23573075.8744
        46.000          39.000
 115663131.34747  90127091.59647  22009979.6544   22009984.7014   22009979.6254
        51.000          44.000
 128281730.69147  99959768.17347  24411220.2124   24411223.5804   24411219.9714
        44.000          39.000
 121471952.94547  94653445.74447  23115362.3864   23115366.3044   23115361.9184
        47.000          42.000
 118670160.89447  92470245.85947  22582185.9034   22582188.9734   22582185.3164
        49.000          44.000
 09  1 13  0 41  0.0000000  0 12G30G18G 6G14G 9G22G21G 5G24G12G29G31
 121403249.77847  94599916.29847  23102284.8334   23102288.8784   23102284.8584
        48.000          41.000
 122304239.20247  95302005.78647  23273720.5774   23273723.1604   23273720.6464
        47.000          41.000
 127475516.24447  99331551.44947  24257796.4944   24257804.0324   24257796.6384
        42.000          37.000
 116138835.58447  90497783.96647  22100492.8524   22100496.4774   22100493.2524
        51.000          45.000
 120837388.47847  94158977.27147  22994612.3514   22994615.8134   22994612.2254
        46.000          40.000
 125748602.73047  97985918.52247  23929165.5964   23929167.1034   23929165.5744
        46.000          39.000
 105129567.31747  81919140.13347  20005493.7194   20005496.0214   20005494.0534
        54.000          50.000
 123865677.00247  96518680.58547  23570876.5164   23570881.5334   23570877.2664
        45.000          40.000
 115719741.57847  90171203.46547  22020752.2214   22020757.2884   22020752.3764
        51.000          44.000
 128284967.24947  99962290.24947  24411835.3654   24411838.8604   24411835.2184
        43.000          38.000
 121546436.99047  94711485.24047  23129536.1724   23129540.0314   23129536.0254
        47.000          42.000
 118574420.81047  92395643.27447  22563966.9844   22563970.1724   22563966.7884
        49.000          44.000
 09  1 13  0 41 30.0000000  0 12G30G18G 6G14G 9G22G21G 5G24G12G29G31
 121376213.13847  94578848.78847  23097139.8904   23097144.1074   23097139.1664
        48.000          41.000
 122272493.44147  95277268.86647  23267679.2724   23267682.1214   23267679.7644
        47.000          41.000
 127439339.98847  99303362.18747  24250912.4884   24250919.2634   24250912.5644
        42.000          37.000
 116164652.67147  90517901.18647  22105405.6144   22105409.3174   22105405.6454
        51.000          44.000
 120924978.72547  94227229.44747  23011280.1644   23011283.6884   23011280.0594
        47.000          40.000
 125715779.99247  97960342.44347  23922920.1534   23922921.4354   23922920.2214
        47.000          39.000
 105110454.50347  81904247.04347  20001856.8014   20001858.9834   20001857.2024
        54.000          50.000
 123854230.19147  96509761.05547  23568698.2134   23568703.5954   23568698.8504
        45.000          39.000
 115776780.63447  90215649.48847  22031606.4594   22031611.6284   22031606.6984
        51.000          44.000
 128288300.97447  99964888.03247  24412469.8764   24412473.6314   24412469.3514
        44.000          39.000
 121620848.78247  94769468.42447  23143696.3904   23143700.2364   23143696.3074
        48.000          42.000
 118478897.99747  92321209.99447  22545789.4794   22545792.7474   22545789.2104
        49.000          44.000
 09  1 13  0 42  0.0000000  0 12G30G18G 6G14G 9G22G21G 5G24G12G29G31
 121349134.13147  94557748.26447  23091986.9804   23091990.9774   23091986.5254
        48.000          41.000
 122240605.74747  95252421.35647  23261611.6534   23261614.2914   23261612.0594
        48.000          41.000
 127403459.82547  99275403.66247  24244084.7884   24244091.7044   24244084.2254
        40.000          37.000
 116190748.93547  90538235.94847  22110371.7234   22110375.1954   22110371.9044
        51.000          44.000
 121012928.94947  94295762.14547  23028016.2554   23028020.0294   23028016.3444
        46.000          40.000
 125682733.61947  97934592.10547  23916631.2334   23916632.9704   23916631.6664
        45.000          39.000
 105091927.85547  81889810.70447  19998331.4204   19998333.4574   19998331.7784
        54.000          50.000
 123842891.69847  96500925.92547  23566540.3374   23566545.9694   23566540.8904
        45.000          39.000
 115834247.56647  90260428.91847  22042542.0584   22042547.0884   22042542.2194
        51.000          44.000
 128291734.22947  99967563.37047  24413123.0984   24413126.8504   24413122.7204
        43.000          38.000
 121695187.07447  94827394.35047  23157842.8344   23157845.9854   23157842.9034
        48.000          42.000
 118383595.80947  92246948.63247  22527654.0214   22527657.3714   22527653.4154
        49.000          44.000
 09  1 13  0 42 30.0000000  0 12G30G18G 6G14G 9G22G21G 5G24G12G29G31
 121322015.11247  94536616.57447  23086826.2814   23086830.3144   23086826.0454
        48.000          41.000
 122208578.18847  95227464.86647  23255516.8644   23255519.4724   23255517.3024
        47.000          41.000
 127367875.46347  99247675.64247  24237313.8194   24237320.0654   24237313.9084
        42.000          37.000
 116217122.09547  90558786.47547  22115390.0154   22115393.9014   22115390.2874
        50.000          44.000
 121101236.96047  94364573.63847  23044820.6964   23044824.6034   23044820.7584
        46.000          40.000
 125649464.14147  97908667.91347  23910300.0714   23910301.5274   23910300.1364
        46.000          39.000
 105073989.08847  81875832.45547  19994917.7854   19994919.8064   19994918.1984
        54.000          50.000
 123831663.88147  96492177.05747  23564404.0784   23564408.4154   23564404.3944
        45.000          39.000
 115892141.62047  90305541.16347  22053558.8214   22053563.9274   22053558.9414
        51.000          44.000
 128295269.67947  99970318.32947  24413795.7094   24413799.8294   24413795.5104
        44.000          38.000
 121769450.23447  94885261.72047  23171974.4384   23171977.6224   23171974.6214
        47.000          42.000
 118288517.62747  92172861.82347  22509561.1074   22509564.6964   22509560.5244
        50.000          44.000
 09  1 13  0 43  0.0000000  0 12G30G18G 6G14G 9G22G21G 5G24G12G29G31
 121294857.09047  94515454.50247  23081658.1504   23081662.5564   23081657.4304
        48.000          41.000
 122176411.05647  95202399.60647  23249395.7314   23249398.1914   23249396.2064
        47.000          41.000
 127332585.07147  99220176.69747  24230597.5284   24230604.1524   24230597.9754
        41.000          37.000
 116243768.67247  90579550.05547  22120460.7974   22120464.5454   22120461.0754
        50.000          44.000
 121189898.79847  94433660.84947  23061692.6314   23061695.9164   23061692.5274
        46.000          40.000
 125615970.66047  97882569.17447  23903926.7524   23903927.9784   23903926.7934
        46.000          40.000
 105056638.21847  81862312.30947  19991615.8934   19991618.0984   19991616.2854
        54.000          50.000
 123820547.68047  96483515.13347  23562288.6314   23562293.6884   23562289.0884
        45.000          39.000
 115950460.19847  90350984.19947  22064656.7444   22064661.6074   22064656.8374
        51.000          44.000
 128298907.81547  99973153.29847  24414488.2594   24414491.9814   24414487.9234
        44.000          39.000
 121843634.97247  94943067.97547  23186091.2284   23186094.7974   23186091.0844
        47.000          42.000
 118193665.34147  92098951.03747  22491511.3314   22491514.9034   22491511.1004
        49.000          44.000
 09  1 13  0 43 30.0000000  0 12G30G18G 6G14G 9G22G21G 5G24G12G29G31
 121267662.43847  94494263.87147  23076483.2894   23076487.8524   23076483.1104
        48.000          42.000
 122144106.70647  95177227.42647  23243248.0524   23243250.6834   23243248.8114
        47.000          41.000
 127297588.93947  99192907.04947  24223938.2254   24223945.0374   24223938.3004
        43.000          37.000
 116270686.86147  90600525.27947  22125583.1714   22125587.0454   22125583.2984
        50.000          44.000
 121278912.70847  94503022.40247  23078631.2034   23078634.5904   23078631.4664
        46.000          39.000
 125582254.24547  97856296.72947  23897510.5194   23897511.9954   23897510.9124
        45.000          40.000
 105039877.43047  81849251.96547  19988426.2704   19988428.6494   19988426.5974
        54.000          50.000
 123809546.09047  96474942.53247  23560195.3124   23560199.9074   23560195.6274
        45.000          39.000
 116009202.60347  90396757.49847  22075835.0644   22075839.6474   22075835.1564
        51.000          44.000
 128302651.69547  99976070.69447  24415200.9414   24415203.9774   24415200.4684
        44.000          39.000
 121917740.01547  95000812.12747  23200192.7044   23200196.9444   23200192.1434
        47.000          42.000
 118099042.62047  92025219.12347  22473505.3814   22473508.9454   22473504.6274
        50.000          44.000
 09  1 13  0 44  0.0000000  0 12G30G18G 6G14G 9G22G21G 5G24G12G29G31
 121240432.00047  94473045.35847  23071301.5464   23071305.7804   23071301.3904
        48.000          42.000
 122111665.03347  95151948.22547  23237074.6084   23237077.3384   23237074.9694
        47.000          41.000
 127262885.10047  99165865.14047  24217334.9824   24217341.2064   24217334.9634
        42.000          37.000
 116297872.97547  90621709.28547  22130756.5944   22130760.4434   22130756.6664
        50.000          44.000
 121368274.88647  94572655.32447  23095636.2584   23095639.9214   23095636.3894
        46.000          39.000
 125548313.87047  97829849.75347  23891051.8484   23891053.2224   23891051.4794
        45.000          39.000
 105023706.71747  81836651.42347  19985349.0994   19985351.3454   19985349.5774
        54.000          50.000
 123798659.96047  96466459.90347  23558123.6234   23558128.3284   23558123.9914
        45.000          39.000
 116068366.25947  90442859.04247  22087093.3794   22087098.1864   22087093.5754
        51.000          44.000
 128306501.79647  99979070.83447  24415933.2834   24415937.1644   24415932.8144
        44.000          39.000
 121991762.40847  95058491.89947  23214279.0394   23214282.8874   23214278.4214
        46.000          42.000
 118004651.04947  91951667.33047  22455543.0184   22455546.4884   22455542.9894
        50.000          44.000
 09  1 13  0 44 30.0000000  0 12G30G18G 6G14G 9G22G21G 5G24G12G29G31
 121213171.34147  94451803.29247  23066114.0934   23066118.1004   23066113.6264
        48.000          42.000
 122079091.23847  95126566.08947  23230876.1284   23230878.3424   23230876.4534
        48.000          41.000
 127228476.43947  99139053.26947  24210787.1534   24210793.0414   24210786.8844
        42.000          37.000
 116325327.91647  90643102.75447  22135981.1104   22135984.9864   22135981.1054
        50.000          45.000
 121457986.45747  94642560.48247  23112707.6544   23112711.3934   23112707.9364
        46.000          40.000
 125514153.37547  97803231.26147  23884550.9754   23884552.4924   23884550.9994
        45.000          39.000
 105008130.89947  81824514.43147  19982385.3124   19982387.4514   19982385.6724
        54.000          50.000
 123787894.87947  96458071.56147  23556074.9924   23556079.6744   23556075.1624
        45.000          39.000
 116127953.12847  90489290.37247  22098432.2254   22098437.3274   22098432.3934
        51.000          44.000
 128310463.52547  99982157.98547  24416687.2804   24416690.8944   24416687.3114
        43.000          38.000
 122065703.48347  95116108.29047  23228349.7134   23228353.6734   23228349.1664
        47.000          42.000
 117910496.93847  91878300.57047  22437625.9714   22437629.4794   22437625.6944
        50.000          44.000
 09  1 13  0 45  0.0000000  0 12G30G18G 6G14G 9G22G21G 5G24G12G29G31
 121185878.58547  94430536.23947  23060920.4134   23060924.7004   23060920.3884
        48.000          42.000
 122046382.82747  95101079.03947  23224651.8724   23224654.1704   23224652.4244
        48.000          41.000
 127194358.53047  99112467.95347  24204294.1294   24204300.4584   24204294.1024
        42.000          37.000
 116353045.37647  90664700.79047  22141255.3334   22141259.2804   22141255.7404
        50.000          44.000
 121548040.83247  94712732.77247  23129844.5244   23129848.3744   23129844.5354
        45.000          40.000
 125479769.56847  97776438.76047  23878008.2914   23878009.1224   23878008.1404
        46.000          39.000
 104993146.98047  81812838.66047  19979534.0024   19979536.0754   19979534.3954
        54.000          50.000
 123777249.27447  96449776.35147  23554049.3484   23554053.7984   23554049.9604
        46.000          39.000
 116187957.92147  90536047.35447  22109850.6744   22109855.6934   22109850.9244
        51.000          44.000
 128314534.61647  99985330.31447  24417461.8594   24417465.1534   24417461.1174
        43.000          38.000
 122139557.46847  95173656.83847  23242403.3344   23242407.5414   23242403.2944
        47.000          42.000
 117816579.70447  91805118.38147  22419754.2824   22419757.5464   22419753.6424
        50.000          44.000
 09  1 13  0 45 30.0000000  0 12G30G18G 6G14G 9G22G21G 5G24G12G29G31
 121158557.73747  94409247.29447  23055721.7234   23055725.7544   23055721.3094
        49.000          42.000
 122013542.86947  95075489.48747  23218402.3124   23218405.0744   23218402.5844
        48.000          41.000
 127160532.51347  99086110.08447  24197856.8764   24197863.6704   24197856.9814
        41.000          37.000
 116381024.60747  90686502.81547  22146579.3444   22146583.5154   22146579.4864
        50.000          44.000
 121638436.98447  94783171.37847  23147046.4694   23147050.1414   23147046.8264
        45.000          40.000
 125445164.37547  97749473.75247  23871422.5994   23871424.0404   23871422.8334
        46.000          39.000
 104978758.31747  81801626.72747  19976795.8714   19976798.0024   19976796.2964
        54.000          50.000
 123766726.85247  96441577.10547  23552046.7484   23552051.5564   23552047.4184
        45.000          39.000
 116248380.98847  90583130.26847  22121349.0164   22121354.2884   22121348.8764
        51.000          44.000
 128318718.98247  99988590.93347  24418258.0454   24418261.1914   24418258.0614
        43.000          39.000
 122213324.17347  95231137.36047  23256440.5844   23256445.0664   23256440.3984
        47.000          42.000
 117722903.86847  91732124.30247  22401928.2024   22401931.4854   22401928.1394
        50.000          44.000
 09  1 13  0 46  0.0000000  0 12G30G18G 6G14G 9G22G21G 5G24G12G29G31
 121131211.47747  94387938.53347  23050517.4844   23050521.8094   23050516.8984
        48.000          41.000
 121980573.69047  95049799.25147  23212128.8374   23212131.3884   23212129.3144
        48.000          41.000
 127126998.36347  99059979.63447  24191476.0324   24191481.3094   24191475.1274
        42.000          37.000
 116409264.04647  90708507.59047  22151953.4854   22151957.1964   22151953.4724
        50.000          44.000
 121729173.08347  94853874.87247  23164312.9604   23164316.8294   23164312.9034
        45.000          40.000
 125410339.08247  97722337.22447  23864795.4514   23864797.0434   23864795.6594
        46.000          39.000
 104964966.26047  81790879.68347  19974171.2114   19974173.4164   19974171.6284
        54.000          50.000
 123756330.55747  96433476.15747  23550068.1334   23550072.7484   23550068.8154
        45.000          39.000
 116309221.62847  90630538.55947  22132926.6134   22132931.7704   22132926.6504
        51.000          44.000
 128323019.31047  99991941.89747  24419075.8994   24419080.0024   24419075.7484
        43.000          39.000
 122287002.44447  95288548.98447  23270461.2554   23270465.4654   23270461.1304
        47.000          42.000
 117629473.24047  91659321.29547  22384148.9654   22384152.2504   22384148.8294
        50.000          44.000
 09  1 13  0 46 30.0000000  0 12G30G18G 6G14G 9G22G21G 5G24G12G29G31
 121103840.70247  94366610.68447  23045309.0664   23045313.1494   23045309.0594
        49.000          42.000
 121947475.86047  95024008.76647  23205830.2934   23205832.8994   23205830.6694
        47.000          41.000
 127093754.39247  99034075.28647  24185150.0284   24185155.9704   24185149.6984
        43.000          37.000
 116437759.90047  90730712.17347  22157375.9194   22157379.7824   22157376.0124
        50.000          44.000
 121820245.48447  94924840.41347  23181643.3004   23181647.0264   23181643.4844
        46.000          40.000
 125375293.04247  97695028.68747  23858126.5154   23858127.4704   23858126.1914
        45.000          39.000
 104951771.06447  81780597.72147  19971660.2154   19971662.4234   19971660.6024
        54.000          50.000
 123746061.57947  96425474.39147  23548113.8694   23548118.9234   23548114.6204
        46.000          39.000
 116370477.30247  90678270.26047  22144583.5264   22144588.1244   22144583.5104
        51.000          44.000
 128327436.33047  99995383.78147  24419916.6084   24419920.6124   24419916.3914
        43.000          39.000
 122360589.42947  95345889.47347  23284464.1244   23284468.6164   23284463.9094
        46.000          42.000
 117536289.72247  91586710.83247  22366416.3774   22366419.5564   22366415.9674
        50.000          44.000
 09  1 13  0 47  0.0000000  0 12G30G18G 6G14G 9G22G21G 5G24G12G29G31
 121076446.11447  94345264.28547  23040096.0524   23040100.4764   23040095.5764
        49.000          42.000
 121914249.74047  94998118.31747  23199507.6374   23199510.0924   23199508.1324
        47.000          41.000
 127060798.57847  99008395.51147  24178878.2664   24178884.6784   24178877.9484
        44.000          37.000
 116466508.39147  90753113.62347  22162846.6734   22162850.6184   22162846.7854
        50.000          44.000
 121911650.38047  94996065.05347  23199037.1094   23199040.6584   23199037.3454
        45.000          40.000
 125340025.16547  97667547.28247  23851415.3294   23851416.3874   23851415.2484
        46.000          39.000
 104939172.53047  81770780.69547  19969262.7144   19969264.8584   19969263.0214
        54.000          50.000
 123735920.62147  96417572.38947  23546184.5444   23546188.9834   23546185.1284
        45.000          39.000
 116432145.27847  90726323.22647  22156318.2894   22156322.9704   22156318.5594
        51.000          44.000
 128331970.78647  99998917.18247  24420778.7444   24420783.1484   24420779.1494
        42.000          39.000
 122434081.77747  95403156.21347  23298449.1484   23298453.7094   23298449.1494
        47.000          41.000
 117443354.61547  91514293.94447  22348731.3134   22348734.4424   22348730.7784
        50.000          44.000
 09  1 13  0 47 30.0000000  0 12G30G18G 6G14G 9G22G21G 5G24G12G29G31
 121049031.88247  94323902.59547  23034879.4994   23034883.4594   23034879.0174
        49.000          42.000
 121880899.11247  94972130.83747  23193161.3654   23193163.6204   23193161.9064
        48.000          40.000
 127028132.49247  98982941.46347  24172662.1394   24172668.0834   24172662.1414
        42.000          37.000
 116495509.32847  90775711.78847  22168365.2424   22168368.9494   22168365.2304
        50.000          44.000
 122003387.43847  95067548.52147  23216493.8484   23216497.1414   23216494.0104
        46.000          40.000
 125304538.18747  97639895.17447  23844661.8464   23844663.5424   23844662.0914
        45.000          39.000
 104927174.14547  81761431.31847  19966979.6074   19966981.8044   19966979.9854
        54.000          50.000
 123725912.09747  96409773.59447  23544279.9224   23544284.7614   23544280.3194
        46.000          39.000
 116494226.03247  90774697.84947  22168131.7784   22168136.8204   22168132.0864
        51.000          44.000
 128336626.67347 100002545.21747  24421665.4194   24421668.9784   24421665.2904
        43.000          39.000
 122507479.84547  95460349.48947  23312416.5604   23312421.1874   23312416.5744
        46.000          41.000
 117350672.80147  91442074.41947  22331094.8264   22331097.9124   22331094.5494
        50.000          45.000
 09  1 13  0 48  0.0000000  0 12G30G18G 6G14G 9G22G21G 5G24G12G29G31
 121021598.97247  94302526.33747  23029659.1824   23029663.2014   23029658.6294
        48.000          42.000
 121847424.20447  94946046.53247  23186791.1044   23186793.5174   23186791.7154
        48.000          40.000
 126995754.08847  98957711.61747  24166500.5754   24166507.1254   24166501.1224
        43.000          37.000
 116524758.84047  90798503.64347  22173931.0384   22173934.7404   22173931.3594
        50.000          44.000
 122095452.73647  95139287.75047  23234013.2224   23234016.5014   23234013.5954
        45.000          39.000
 125268831.81347  97612072.07747  23837867.2464   23837868.8474   23837867.4284
        46.000          39.000
 104915775.57647  81752549.32847  19964810.5314   19964812.7524   19964810.9684
        54.000          50.000
 123716036.90447  96402078.67647  23542400.5174   23542405.5304   23542401.0064
        45.000          39.000
 116556716.98947  90823392.10847  22180023.4654   22180028.3904   22180023.8704
        51.000          44.000
 128341404.38247 100006268.16947  24422574.3334   24422578.1244   24422574.2734
        44.000          39.000
 122580780.41947  95517466.80447  23326365.3674   23326369.6844   23326365.3924
        46.000          41.000
 117258246.89147  91370054.28947  22313506.7694   22313509.4194   22313506.2084
        50.000          45.000
 09  1 13  0 48 30.0000000  0 12G30G18G 6G14G 9G22G21G 5G24G12G29G31
 120994151.14347  94281138.46447  23024435.6124   23024439.9634   23024435.4324
        49.000          42.000
 121813827.74147  94919867.47747  23180397.7734   23180400.2184   23180398.3494
        48.000          40.000
 126963664.03447  98932706.43947  24160394.3824   24160400.4784   24160394.6244
        43.000          38.000
 116554255.89347  90821488.39547  22179544.0684   22179548.0724   22179544.4314
        50.000          44.000
 122187845.20147  95211281.92447  23251595.1534   23251598.2834   23251595.1974
        46.000          39.000
 125232907.06747  97584078.81747  23831031.5584   23831032.3524   23831031.4874
        46.000          39.000
 104904979.31347  81744136.66947  19962755.9824   19962758.2164   19962756.3794
        54.000          50.000
 123706298.71047  96394490.49647  23540547.5894   23540552.2064   23540547.7564
        46.000          39.000
 116619618.02047  90872405.89447  22191993.2424   22191998.2234   22191993.4774
        51.000          44.000
 128346307.68247 100010088.99147  24423507.4614   24423511.0294   24423507.5144
        44.000          39.000
 122653983.19347  95574507.91447  23340295.5344   23340299.5944   23340295.8094
        46.000          41.000
 117166080.89047  91298236.69447  22295968.1474   22295970.8434   22295968.0184
        50.000          45.000
 09  1 13  0 49  0.0000000  0 12G30G18G 6G14G 9G22G21G 5G24G12G29G31
 120966688.67847  94259739.18847  23019209.4494   23019213.5944   23019209.0374
        48.000          42.000
 121780110.10947  94893594.02647  23173981.5934   23173983.6624   23173981.9314
        47.000          40.000
 126931860.36747  98907924.43147  24154342.1004   24154348.1874   24154341.7444
        43.000          38.000
 116583996.46147  90844662.89447  22185203.4274   22185207.3484   22185203.6254
        50.000          44.000
 122280560.62247  95283527.74547  23269238.3034   23269241.2904   23269238.4084
        45.000          39.000
 125196763.30047  97555914.90647  23824153.4724   23824154.2834   23824153.8574
        46.000          39.000
 104894784.88147  81736192.96847  19960816.0564   19960818.2074   19960816.4034
        54.000          50.000
 123696698.12247  96387009.55947  23538720.6994   23538725.1024   23538721.7634
        45.000          39.000
 116682925.84147  90921736.66147  22204040.1324   22204045.2704   22204040.4464
        50.000          44.000
 128351336.50147 100014007.62747  24424464.1054   24424468.0174   24424463.7634
        44.000          39.000
 122727084.94547  95631470.30147  23354206.3994   23354210.5894   23354206.2144
        46.000          41.000
 117074176.33147  91226622.81447  22278479.0954   22278482.1564   22278478.6664
        50.000          45.000
 09  1 13  0 49 30.0000000  0 12G30G18G 6G14G 9G22G21G 5G24G12G29G31
 120939214.89147  94238331.09047  23013981.6794   23013985.7204   23013981.3714
        48.000          42.000
 121746274.08847  94867228.31447  23167542.9174   23167544.9984   23167543.6454
        48.000          41.000
 126900343.46747  98883365.85347  24148344.0714   24148351.3034   24148344.2934
        42.000          38.000
 116613979.28747  90868026.16447  22190909.2434   22190912.6704   22190909.3694
        50.000          44.000
 122373597.83547  95356024.31147  23286942.5524   23286945.4644   23286942.8344
        46.000          39.000
 125160402.35447  97527581.73847  23817234.0944   23817234.8944   23817234.3164
        46.000          39.000
 104885194.55647  81728720.00647  19958991.0724   19958993.2334   19958991.4294
        54.000          50.000
 123687238.57847  96379638.50647  23536920.4734   23536924.8914   23536920.8134
        45.000          40.000
 116746640.30047  90971384.29047  22216164.9274   22216169.7074   22216164.9724
        51.000          44.000
 128356494.29147 100018026.76747  24425445.0074   24425449.0554   24425444.7664
        43.000          39.000
 122800085.09547  95688353.51247  23368097.8814   23368102.2174   23368098.0034
        46.000          41.000
 116982537.15447  91155215.72347  22261040.8874   22261043.6524   22261040.1784
        51.000          45.000
 09  1 13  0 50  0.0000000  0 12G30G18G 6G14G 9G22G21G 5G24G12G29G31
 120911730.56247  94216914.75847  23008751.5224   23008755.7884   23008750.8034
        48.000          42.000
 121712319.76347  94840770.41747  23161081.9104   23161083.6384   23161082.5944
        48.000          41.000
 126869110.79747  98859028.78047  24142401.0014   24142407.1194   24142400.6114
        43.000          37.000
 116644200.20247  90891574.95847  22196660.2104   22196663.5814   22196660.3154
        50.000          44.000
 122466952.01847  95428767.87147  23304707.2804   23304710.4354   23304707.2924
        45.000          39.000
 125123823.26847  97499078.59247  23810273.7424   23810274.1644   23810273.5554
        46.000          39.000
 104876207.50647  81721717.12947  19957280.9254   19957282.9034   19957281.3644
        54.000          50.000
 123677920.53247  96372377.76547  23535146.7984   23535152.2794   23535147.2454
        45.000          39.000
 116810758.07047  91021346.19347  22228365.8444   22228370.9684   22228366.0244
        50.000          44.000
 128361781.37047 100022146.61447  24426451.3814   24426455.0354   24426450.9744
        44.000          39.000
 122872979.81147  95745154.59247  23381969.3654   23381973.0784   23381969.3414
        46.000          41.000
 116891164.92947  91084016.64847  22243653.5684   22243656.2314   22243653.2184
        51.000          45.000
 09  1 13  0 50 30.0000000  0 12G30G18G 6G14G 9G22G21G 5G24G12G29G31
 120884238.96247  94195492.78647  23003520.0454   23003524.1334   23003519.7034
        48.000          42.000
 121678250.08947  94814222.62547  23154598.7764   23154600.4304   23154599.2474
        48.000          41.000
 126838163.29747  98834913.89747  24136511.8104   24136518.4614   24136512.1414
        42.000          37.000
 116674658.18947  90915308.48247  22202455.9554   22202459.4314   22202456.2904
        50.000          44.000
 122560622.03047  95501757.55647  23322532.1254   23322535.2074   23322532.3504
        46.000          40.000
 125087027.80047  97470406.84047  23803271.2844   23803272.2474   23803270.8834
        46.000          39.000
 104867826.30047  81715186.33947  19955685.9824   19955688.2324   19955686.3744
        54.000          50.000
 123668747.61047  96365230.08047  23533401.0324   23533406.2314   23533401.3714
        45.000          39.000
 116875278.84747  91071622.12247  22240643.6404   22240648.5124   22240643.9494
        50.000          43.000
 128367200.93947 100026369.72347  24427482.8194   24427486.2814   24427482.7814
        44.000          39.000
 122945769.08747  95801873.50947  23395820.7624   23395824.2664   23395820.4704
        46.000          41.000
 116800063.91047  91013028.90747  22226317.3744   22226320.2644   22226317.5004
        51.000          45.000
 09  1 13  0 51  0.0000000  0 12G30G18G 6G14G 9G22G21G 5G24G12G29G31
 120856741.60847  94174066.32147  22998287.4534   22998291.7874   22998287.1414
        49.000          42.000
 121644066.15947  94787585.81347  23148093.1344   23148095.7644   23148093.6514
        47.000          41.000
 126807499.43247  98811020.05047  24130676.3624   24130683.1404   24130675.9024
        42.000          37.000
 116705350.21647  90939224.37247  22208296.3264   22208300.0334   22208296.6254
        50.000          44.000
 122654605.33147  95574991.35447  23340416.9484   23340419.9684   23340416.9564
        46.000          40.000
 125050016.00147  97441566.52447  23796227.5434   23796229.2564   23796227.3854
        45.000          39.000
 104860050.72747  81709127.47047  19954206.3564   19954208.5274   19954206.7374
        54.000          50.000
 123659721.39147  96358196.71847  23531683.6564   23531688.2084   23531684.2154
        45.000          39.000
 116940200.78747  91122210.64547  22252998.0834   22253002.5084   22252998.2524
        50.000          43.000
 128372754.40947 100030697.16347  24428539.6984   24428543.1994   24428539.2694
        44.000          39.000
 123018450.36647  95858508.27547  23409651.7164   23409655.3074   23409651.5944
        47.000          41.000
 116709236.41647  90942254.28847  22209033.4624   22209036.2884   22209032.9584
        51.000          45.000
 09  1 13  0 51 30.0000000  0 12G30G18G 6G14G 9G22G21G 5G24G12G29G31
 120829239.86247  94152636.43147  22993054.3254   22993058.1994   22993053.8114
        49.000          42.000
 121609768.76447  94760860.59047  23141566.8224   23141569.3234   23141567.1894
        48.000          41.000
 126777117.70347  98787346.03547  24124894.8914   24124901.3334   24124895.6924
        43.000          37.000
 116736272.78547  90963319.89947  22214180.8634   22214184.6424   22214181.0584
        50.000          44.000
 122748897.92147  95648466.16347  23358360.0934   23358363.1234   23358360.6284
        46.000          40.000
 125012787.43947  97412557.30247  23789143.4374   23789144.6564   23789143.5204
        45.000          39.000
 104852881.28647  81703540.91047  19952841.9384   19952844.2114   19952842.3604
        54.000          50.000
 123650843.22747  96351278.69747  23529994.3374   23529998.9774   23529994.6094
        46.000          39.000
 117005521.52347  91173109.92147  22265428.2244   22265432.9534   22265428.3754
        50.000          43.000
 128378442.61947 100035129.62347  24429621.9314   24429625.9934   24429621.5684
        44.000          39.000
 123091021.23547  95915057.00747  23423461.6514   23423464.6204   23423461.5274
        47.000          41.000
 116618684.75647  90871694.61547  22191801.9084   22191804.7904   22191801.5924
        51.000          45.000
 09  1 13  0 52  0.0000000  0 12G30G18G 6G14G 9G22G21G 5G24G12G29G31
 120801737.09347  94131205.75047  22987820.4144   22987824.6724   22987820.1004
        49.000          42.000
 121575361.19147  94734049.50747  23135019.3824   23135021.6074   23135019.7034
        48.000          41.000
 126747018.63547  98763892.26047  24119167.2764   24119173.6524   24119167.1054
        41.000          37.000
 116767424.55247  90987594.02847  22220108.7734   22220112.2824   22220108.9014
        50.000          44.000
 122843498.63547  95722181.06047  23376361.9464   23376365.1134   23376362.0924
        45.000          40.000
 124975343.86147  97383380.55547  23782018.1994   23782019.3814   23782018.3994
        46.000          39.000
 104846319.84147  81698428.11547  19951593.5014   19951595.6134   19951593.8854
        54.000          50.000
 123642116.39647  96344478.61147  23528333.9034   23528338.2954   23528334.4364
        46.000          40.000
 117071240.35447  91224319.39847  22277934.1884   22277938.9424   22277934.3894
        50.000          43.000
 128384268.79547 100039669.58647  24430730.8654   24430734.1974   24430730.3284
        44.000          39.000
 123163481.21247  95971519.33247  23437250.2174   23437253.3334   23437250.1554
        46.000          41.000
 116528413.09547  90801353.11147  22174623.6824   22174626.7174   22174623.2674
        51.000          45.000
 09  1 13  0 52 30.0000000  0 12G30G18G 6G14G 9G22G21G 5G24G12G29G31
 120774235.62147  94109776.07947  22982586.8174   22982591.3214   22982586.4094
        48.000          42.000
 121540844.87547  94707153.70347  23128451.0624   23128453.3234   23128451.6474
        48.000          41.000
 126717201.39347  98740658.11847  24113493.0784   24113498.8324   24113493.3094
        43.000          37.000
 116798803.53247  91012045.20447  22226079.8974   22226083.6944   22226080.1384
        50.000          44.000
 122938404.86047  95796134.01547  23394421.5104   23394425.0724   23394421.6634
        44.000          39.000
 124937686.41947  97354037.14447  23774852.3294   23774853.3824   23774852.2254
        45.000          39.000
 104840367.26447  81693789.76247  19950460.7344   19950462.6984   19950461.1244
        54.000          50.000
 123633543.36247  96337798.37547  23526702.4754   23526707.2774   23526703.0754
        45.000          40.000
 117137355.81347  91275837.93647  22290515.1884   22290520.3264   22290515.3154
        50.000          43.000
 128390235.08547 100044318.71147  24431866.4844   24431869.7194   24431866.1834
        43.000          39.000
 123235829.03147  96027894.25147  23451017.4934   23451020.8584   23451017.0234
        46.000          41.000
 116438424.59247  90731232.25447  22157499.3754   22157502.1164   22157498.8744
        51.000          45.000
 09  1 13  0 53  0.0000000  0 12G30G18G 6G14G 9G22G21G 5G24G12G29G31
 120746736.09247  94088347.91847  22977353.5894   22977358.3854   22977353.4304
        49.000          42.000
 121506219.92247  94680173.23547  23121862.2124   23121864.5774   23121862.6954
        48.000          41.000
 126687663.60147  98717641.69747  24107872.4884   24107878.5674   24107872.3114
        43.000          37.000
 116830405.04447  91036669.78147  22232093.2404   22232097.2484   22232093.5414
        50.000          44.000
 123033612.23347  95870321.64247  23412539.0284   23412542.6124   23412538.9284
        45.000          39.000
 124899813.76947  97324526.02847  23767645.1364   23767646.3344   23767645.0504
        46.000          39.000
 104835022.77047  81689625.23847  19949443.7324   19949445.6994   19949444.1214
        54.000          50.000
 123625124.45047  96331238.22747  23525100.4014   23525104.5684   23525100.9154
        46.000          40.000
 117203864.75547  91327663.07847  22303171.4534   22303176.3024   22303171.8474
        49.000          43.000
 128396341.92347 100049077.36047  24433027.7904   24433031.6374   24433027.6394
        43.000          39.000
 123308060.61447  96084178.61147  23464762.2924   23464766.2114   23464762.1044
        46.000          41.000
 116348720.36147  90661332.91247  22140429.0904   22140431.7394   22140428.6374
        51.000          45.000
 09  1 13  0 53 30.0000000  0 12G30G18G 6G14G 9G22G21G 5G24G12G29G31
 120719242.37847  94066924.29147  22972121.8504   22972126.2094   22972121.5624
        48.000          42.000
 121471489.97447  94653110.96347  23115253.0084   23115255.5664   23115253.2644
        48.000          41.000
 126658405.96647  98694843.59947  24102304.7484   24102311.5234   24102304.8974
        43.000          37.000
 116862228.55447  91061467.34747  22238149.2134   22238153.0154   22238149.4214
        50.000          44.000
 123129119.85347  95944743.23347  23430713.3004   23430716.6294   23430713.1664
        44.000          39.000
 124861728.31747  97294849.11047  23760397.7674   23760398.9094   23760397.8274
        46.000          40.000
 104830288.98247  81685936.59147  19948542.7864   19948545.0004   19948543.1924
        54.000          50.000
 123616863.72947  96324801.33947  23523528.5644   23523532.4904   23523529.2074
        46.000          40.000
 117270767.26347  91379794.89947  22315902.1044   22315907.5754   22315902.0644
        49.000          43.000
 128402592.61647 100053948.12247  24434217.3854   24434221.2444   24434217.1204
        43.000          39.000
 123380176.16247  96140372.54647  23478485.2714   23478489.4104   23478484.5774
        45.000          41.000
 116259305.23447  90591658.84547  22123413.7584   22123416.4844   22123413.2324
        51.000          45.000
 09  1 13  0 54  0.0000000  0 12G30G18G 6G14G 9G22G21G 5G24G12G29G31
 120691757.05447  94045507.19447  22966891.8574   22966895.9134   22966891.6274
        49.000          42.000
 121436656.84047  94625968.28847  23108624.3864   23108626.7544   23108624.8204
        48.000          41.000
 126629428.37947  98672263.68647  24096790.7594   24096796.4684   24096790.7624
        42.000          37.000
 116894271.88547  91086436.21247  22244247.1264   22244250.8684   22244247.4334
        50.000          44.000
 123224925.09847  96019396.72347  23448944.0984   23448948.1314   23448944.1704
        45.000          39.000
 124823431.01147  97265007.11847  23753110.2764   23753111.2504   23753110.4674
        45.000          39.000
 104826167.00047  81682724.67547  19947758.5074   19947760.4814   19947758.8814
        54.000          50.000
 123608763.54247  96318489.55347  23521986.4484   23521991.2244   23521987.0224
        46.000          40.000
 117338061.73547  91432232.14447  22328708.0654   22328713.1624   22328708.2024
        50.000          43.000
 128408989.11147 100058932.47147  24435434.3464   24435438.1454   24435433.9854
        43.000          39.000
 123452174.25847  96196474.95947  23492185.7754   23492190.5414   23492185.3094
        45.000          41.000
 116170182.38747  90522212.52947  22106454.2444   22106456.9474   22106453.8174
        51.000          45.000
 09  1 13  0 54 30.0000000  0 12G30G18G 6G14G 9G22G21G 5G24G12G29G31
 120664279.23347  94024095.95747  22961662.8794   22961666.7484   22961662.4604
        48.000          42.000
 121401719.39247  94598744.32647  23101976.0954   23101978.3194   23101976.7844
        48.000          41.000
 126600726.79447  98649898.88147  24091328.2914   24091335.6664   24091327.9994
        44.000          37.000
 116926529.20247  91111571.81547  22250385.3874   22250389.1404   22250385.6114
        50.000          44.000
 123321022.64247  96094278.00247  23467231.0184   23467234.2894   23467231.2424
        45.000          39.000
 124784919.51147  97234998.22647  23745781.1684   23745782.2314   23745781.1064
        45.000          39.000
 104822654.34347  81679987.55747  19947089.8814   19947092.1194   19947090.2364
        54.000          50.000
 123600823.20847  96312302.32747  23520475.5084   23520480.3134   23520476.2354
        46.000          40.000
 117405743.53947  91484971.21347  22341587.6114   22341592.6904   22341587.5514
        49.000          43.000
 128415530.55447 100064029.78147  24436678.9404   24436682.7604   24436678.7334
        43.000          38.000
 123524050.57147  96252482.49447  23505863.4974   23505867.9334   23505863.1984
        45.000          41.000
 116081351.69047  90452993.86747  22089550.2324   22089552.7964   22089549.8244
        51.000          45.000
 09  1 13  0 55  0.0000000  0 12G30G18G 6G14G 9G22G21G 5G24G12G29G31
 120636812.73747  94002693.54247  22956435.9664   22956439.9394   22956435.5574
        49.000          42.000
 121366681.10547  94571441.78847  23095308.7054   23095310.9164   23095309.0544
        48.000          41.000
 126572302.06347  98627749.75147  24085920.0994   24085925.8054   24085920.1924
        42.000          37.000
 116958999.99947  91136873.78247  22256564.2094   22256567.6584   22256564.4044
        49.000          44.000
 123417411.41147  96169386.20747  23485572.8664   23485576.3094   23485573.2814
        45.000          39.000
 124746196.20547  97204824.28147  23738412.3404   23738413.7224   23738412.1564
        46.000          40.000
 104819753.31947  81677727.03847  19946537.9094   19946540.0474   19946538.2424
        54.000          50.000
 123593046.54247  96306242.63747  23518995.9164   23519000.5264   23518996.0864
        46.000          40.000
 117473812.90747  91538012.27847  22354540.9494   22354545.9434   22354541.3084
        50.000          43.000
 128422220.86147 100069243.05047  24437952.4404   24437955.4474   24437952.0344
        44.000          39.000
 123595804.81047  96308394.88747  23519517.5864   23519522.6454   23519517.6464
        45.000          41.000
 115992817.95247  90384006.59447  22072702.7864   22072705.5504   22072702.5164
        51.000          45.000
 09  1 13  0 55 30.0000000  0 12G30G18G 6G14G 9G22G21G 5G24G12G29G31
 120609360.76947  93981302.42047  22951212.2904   22951216.2514   22951212.0434
        49.000          42.000
 121331544.85347  94544062.92247  23088622.1664   23088624.4424   23088622.4914
        48.000          41.000
 126544154.32447  98605816.50547  24080563.0814   24080569.7714   24080563.1404
        43.000          38.000
 116991682.79947  91162340.93447  22262783.7134   22262787.3474   22262783.8404
        50.000          44.000
 123514089.28847  96244719.67847  23503970.4864   23503973.6714   23503970.5834
        45.000          39.000
 124707263.21747  97174486.94647  23731003.9104   23731004.9684   23731003.8894
        47.000          40.000
 104817465.66647  81675944.46847  19946102.5484   19946104.7004   19946102.9744
        54.000          50.000
 123585436.64447  96300312.89447  23517547.8514   23517552.3234   23517548.2184
        46.000          40.000
 117542268.80347  91591354.52347  22367567.9404   22367572.6934   22367568.0634
        50.000          43.000
 128429062.47547 100074574.24147  24439255.0444   24439257.3364   24439254.5204
        44.000          39.000
 123667436.66347  96364211.91247  23533148.7444   23533153.8354   23533148.8484
        44.000          40.000
 115904585.01647  90315253.71347  22055912.7084   22055915.2794   22055912.1214
        51.000          45.000
 09  1 13  0 56  0.0000000  0 12G30G18G 6G14G 9G22G21G 5G24G12G29G31
 120581925.14647  93959924.04847  22945991.2944   22945995.2684   22945991.0734
        49.000          42.000
 121296311.80347  94516608.62847  23081917.3384   23081920.1944   23081917.7854
        48.000          41.000
 126516282.20747  98584098.00647  24075259.5634   24075265.7964   24075259.6564
        42.000          38.000
 117024574.32347  91187970.73247  22269042.8674   22269046.2884   22269043.1704
        50.000          44.000
 123611053.39247  96320276.19747  23522422.1664   23522425.2904   23522422.0924
        45.000          39.000
 124668120.06247  97143985.83947  23723555.3384   23723556.0594   23723555.7264
        46.000          40.000
 104815791.35247  81674639.82547  19945784.0184   19945786.1384   19945784.4574
        54.000          50.000
 123577995.17747  96294514.38847  23516131.6984   23516135.9864   23516132.3434
        46.000          40.000
 117611109.24247  91644996.42047  22380667.6474   22380672.4674   22380667.9634
        50.000          43.000
 128436056.91347 100080024.50747  24440585.3584   24440588.3044   24440585.4014
        43.000          38.000
 123738943.82347  96419931.78147  23546755.8894   23546761.1024   23546755.5664
        44.000          40.000
 115816655.26447  90246737.07647  22039180.2674   22039182.8184   22039179.9274
        51.000          46.000
 09  1 13  0 56 30.0000000  0 12G30G18G 6G14G 9G22G21G 5G24G12G29G31
 120554507.07547  93938559.35147  22940774.0294   22940777.9744   22940773.7644
        49.000          42.000
 121260982.59547  94489079.39947  23075194.4454   23075197.1544   23075194.9084
        48.000          41.000
 126488683.55447  98562592.60547  24070007.4154   24070013.8884   24070007.7334
        43.000          38.000
 117057671.00347  91213760.39747  22275340.7894   22275344.1754   22275340.9964
        50.000          44.000
 123708300.07147  96396052.89947  23540927.2104   23540930.2064   23540927.3194
        44.000          39.000
 124628766.59947  97113320.86447  23716066.2194   23716067.4414   23716066.3634
        46.000          40.000
 104814730.03147  81673812.83747  19945581.9104   19945583.9834   19945582.2664
        54.000          50.000
 123570723.06547  96288847.84247  23514747.7234   23514752.2304   23514748.0614
        46.000          40.000
 117680331.29147  91698935.67747  22393840.2644   22393845.1754   22393840.5474
        50.000          43.000
 128443204.89147 100085594.40247  24441945.5814   24441948.3514   24441945.4904
        43.000          38.000
 123810323.45347  96475552.27047  23560339.0924   23560344.2084   23560338.6334
        45.000          40.000
 115729030.65247  90178458.20847  22022505.7494   22022508.3534   22022505.4434
        52.000          46.000
 09  1 13  0 57  0.0000000  0 12G30G18G 6G14G 9G22G21G 5G24G12G29G31
 120527109.70747  93917210.79547  22935560.0284   22935563.9774   22935559.7714
        49.000          42.000
 121225560.18347  94461477.53747  23068453.8804   23068456.3604   23068454.1464
        47.000          41.000
 126461358.81647  98541300.64547  24064808.0784   24064814.2444   24064808.3394
        43.000          38.000
 117090971.31547  91239708.74447  22281677.1774   22281680.8744   22281677.2654
        50.000          44.000
 123805827.51847  96472048.36047  23559486.1764   23559489.4634   23559485.9424
        44.000          38.000
 124589204.68047  97082493.44247  23708538.0214   23708539.1334   23708538.2584
        47.000          40.000
 104814283.69647  81673465.05647  19945497.0194   19945499.0374   19945497.4394
        54.000          50.000
 123563623.74947  96283315.94247  23513396.8244   23513401.5044   23513397.1524
        46.000          40.000
 117749934.46747  91753171.90747  22407085.1494   22407090.2264   22407085.4024
        50.000          43.000
 128450509.39047 100091286.27447  24443335.7114   24443338.9554   24443335.7074
        44.000          39.000
 123881575.02647  96531072.97547  23573898.3114   23573902.9744   23573897.7124
        45.000          41.000
 115641715.16847  90110420.21447  22005890.1144   22005893.0844   22005889.5714
        51.000          46.000
 09  1 13  0 57 30.0000000  0 12G30G18G 6G14G 9G22G21G 5G24G12G29G31
 120499733.51347  93895878.72447  22930350.5184   22930354.5034   22930350.0104
        49.000          42.000
 121190044.44847  94433802.95647  23061695.5054   23061697.7884   23061696.0414
        47.000          41.000
 126434304.83647  98520219.65947  24059659.8304   24059665.4864   24059659.8524
        44.000          38.000
 117124470.52747  91265812.06947  22288052.4454   22288055.5764   22288052.6284
        50.000          44.000
 123903631.39247  96548259.20347  23578097.3344   23578100.7744   23578097.5554
        44.000          38.000
 124549433.22447  97051502.75047  23700969.9364   23700971.0144   23700969.8294
        47.000          40.000
 104814450.31247  81673594.89947  19945528.7134   19945530.7684   19945529.1114
        54.000          50.000
 123556697.35547  96277918.77647  23512078.7854   23512083.2224   23512079.3464
        45.000          39.000
 117819914.80547  91807702.03747  22420402.2764   22420407.2854   22420402.2734
        50.000          43.000
 128457970.29247 100097099.99347  24444755.1584   24444758.6554   24444754.7774
        43.000          39.000
 123952695.32847  96586491.40047  23587431.8154   23587436.7624   23587431.3994
        45.000          41.000
 115554709.95147  90042623.99147  21989333.7094   21989336.5824   21989333.0864
        51.000          46.000
 09  1 13  0 58  0.0000000  0 12G30G18G 6G14G 9G22G21G 5G24G12G29G31
 120472385.08147  93874568.29647  22925146.7734   22925150.4834   22925146.5134
        49.000          42.000
 121154441.88047  94406060.71647  23054920.1764   23054923.1324   23054920.7114
        47.000          41.000
 126407525.83047  98499352.94047  24054564.0264   24054570.1934   24054563.8994
        43.000          38.000
 117158171.45547  91292072.57047  22294465.2034   22294468.7124   22294465.5124
        50.000          44.000
 124001713.37947  96624686.78747  23596761.1784   23596765.1224   23596761.5084
        43.000          38.000
 124509457.67347  97020353.01847  23693362.3204   23693363.7824   23693362.0594
        46.000          40.000
 104815235.34147  81674206.62147  19945677.9354   19945680.2754   19945678.2124
        54.000          50.000
 123549950.76047  96272661.73847  23510795.0764   23510799.2574   23510795.6704
        46.000          40.000
 117890275.15147  91862528.27247  22433791.1804   22433796.6634   22433791.4304
        49.000          43.000
 128465594.26447 100103040.79147  24446205.5674   24446209.1554   24446205.2794
        43.000          38.000
 124023687.28447  96641809.80647  23600941.3974   23600945.9484   23600940.8304
        45.000          40.000
 115468022.33447  89975075.25647  21972837.5824   21972840.3924   21972837.1244
        52.000          46.000
 09  1 13  0 58 30.0000000  0 12G30G18G 6G14G 9G22G21G 5G24G12G29G31
 120445060.85747  93853276.73647  22919946.5974   22919950.9124   22919946.5254
        49.000          42.000
 121118748.45047  94378247.67547  23048128.0374   23048130.6704   23048128.6984
        47.000          40.000
 126381014.61247  98478694.88347  24049518.6674   24049524.6584   24049519.0224
        43.000          38.000
 117192065.35347  91318483.44347  22300914.9284   22300918.7014   22300915.1704
        49.000          44.000
 124100064.90347  96701324.40647  23615477.1084   23615480.8174   23615477.0634
        44.000          38.000
 124469272.89647  96989040.24847  23685715.6414   23685716.6364   23685715.7004
        47.000          40.000
 104816633.19947  81675295.87247  19945944.0114   19945946.2024   19945944.3554
        54.000          50.000
 123543380.16947  96267541.81547  23509544.2324   23509549.1954   23509544.7054
        45.000          40.000
 117961007.78447  91917644.60047  22447251.2424   22447256.1504   22447251.2294
        50.000          43.000
 128473377.20847 100109105.46847  24447686.6034   24447689.6514   24447686.4574
        43.000          38.000
 124094543.36147  96697022.33147  23614424.5554   23614429.0994   23614424.4894
        45.000          40.000
 115381649.41847  89907771.73047  21956401.4274   21956403.9314   21956400.9874
        52.000          46.000
 09  1 13  0 59  0.0000000  0 12G30G18G 6G14G 9G22G21G 5G24G12G29G31
 120417765.52647  93832007.69447  22914752.3214   22914756.6684   22914752.0914
        49.000          42.000
 121082968.53247  94350367.24647  23041319.8014   23041321.9614   23041320.1554
        48.000          41.000
 126354772.81847  98458246.77847  24044525.0494   24044530.7104   24044525.6924
        43.000          38.000
 117226152.07147  91345044.56947  22307401.2214   22307404.8364   22307401.5534
        50.000          44.000
 124198685.34747  96778171.55847  23634244.2654   23634247.9374   23634244.2314
        44.000          39.000
 124428881.87647  96957566.77147  23678029.6424   23678030.1714   23678030.0574
        47.000          40.000
 104818646.67147  81676864.82447  19946327.2084   19946329.2814   19946327.5944
        54.000          50.000
 123536990.01947  96262562.48347  23508328.5984   23508332.7294   23508328.6804
        45.000          39.000
 118032113.34747  91973051.52547  22460782.1684   22460787.0634   22460782.2904
        50.000          43.000
 128481323.05147 100115297.08247  24449198.7504   24449202.2844   24449198.6374
        44.000          39.000
 124165264.29147  96752129.54047  23627882.6954   23627886.9004   23627882.4914
        46.000          40.000
 115295596.52447  89840717.58147  21940025.9814   21940028.4754   21940025.9684
        52.000          46.000
 09  1 13  0 59 30.0000000  0 12G30G18G 6G14G 9G22G21G 5G24G12G29G31
 120390501.70447  93810763.20447  22909564.4194   22909568.1564   22909564.0304
        49.000          42.000
 121047104.11347  94322420.96147  23034495.0504   23034497.0734   23034495.5224
        48.000          41.000
 126328799.62247  98438007.97047  24039582.6034   24039588.3294   24039582.7844
        44.000          37.000
 117260429.49347  91371754.28847  22313924.4334   22313927.5064   22313924.6474
        50.000          44.000
 124297572.56947  96855226.58547  23653062.2634   23653065.2934   23653061.9014
        44.000          38.000
 124388285.77047  96925933.49447  23670304.4524   23670305.4074   23670304.3404
        47.000          40.000
 104821276.57847  81678914.11347  19946827.5744   19946829.6854   19946827.9794
        54.000          49.000
 123530782.80047  96257725.70547  23507147.2124   23507151.4304   23507147.5914
        46.000          39.000
 118103590.39447  92028747.92247  22474383.6364   22474389.0064   22474383.5944
        49.000          43.000
 128489434.38647 100121617.65047  24450742.6524   24450745.2684   24450742.5144
        43.000          39.000
 124235848.81647  96807130.45547  23641314.5544   23641318.5474   23641314.5694
        45.000          40.000
 115209866.77647  89773915.22547  21923712.0634   21923714.6624   21923711.5024
        51.000          46.000
 09  1 13  1  0  0.0000000  0 12G30G18G 6G14G 9G22G21G 5G24G12G29G31
 120363272.14047  93789545.40247  22904382.8624   22904386.7114   22904382.7554
        49.000          42.000
 121011157.41247  94294410.56347  23027654.5644   23027656.8424   23027654.9634
        47.000          41.000
 126303094.40147  98417977.97047  24034690.9394   24034696.5214   24034691.2674
        44.000          38.000
 117294895.18447  91398610.72347  22320482.7354   22320486.2144   22320482.9714
        49.000          44.000
 124396723.89847  96932487.39747  23671929.4014   23671932.9824   23671929.5494
        44.000          38.000
 124347485.80447  96894141.36047  23662540.3444   23662541.2574   23662540.1474
        47.000          40.000
 104824523.75747  81681444.39447  19947445.3924   19947447.5824   19947445.6654
        54.000          50.000
 123524761.03047  96253033.42347  23506000.8724   23506005.4064   23506001.2364
        45.000          39.000
 118175437.47947  92084732.65347  22488055.3634   22488060.9674   22488055.7714
        49.000          43.000
 128497713.13947 100128068.67747  24452317.7424   24452321.4304   24452317.6254
        44.000          39.000
 124306296.14447  96862024.47347  23654720.0004   23654724.5554   23654719.8234
        45.000          40.000
 115124463.44247  89707367.22547  21907460.2054   21907463.0724   21907459.6244
        52.000          46.000
 09  1 13  1  0 30.0000000  0 12G30G18G 6G14G 9G22G21G 5G24G12G29G31
 120336077.82247  93768355.08147  22899208.1334   22899211.6754   22899207.6624
        48.000          42.000
 120975129.28547  94266336.70247  23020798.7344   23020800.5694   23020799.3304
        48.000          41.000
 126277655.12147  98398155.19947  24029849.8134   24029855.8254   24029849.6464
        42.000          38.000
 117329545.42547  91425610.96147  22327076.3594   22327079.9454   22327076.3644
        50.000          44.000
 124496135.89047  97009951.33247  23690847.0514   23690850.0674   23690847.0754
        44.000          38.000
 124306481.68147  96862190.14347  23654737.4284   23654738.4574   23654737.5974
        46.000          39.000
 104828387.53647  81684455.13647  19948180.7374   19948182.8884   19948181.1374
        54.000          50.000
 123518925.85447  96248486.55847  23504890.6714   23504895.2054   23504890.9744
        46.000          40.000
 118247651.59447  92141003.38047  22501797.4384   22501802.8934   22501797.3874
        49.000          43.000
 128506160.30347 100134650.94747  24453925.5974   24453928.6244   24453925.4624
        43.000          39.000
 124376603.35047  96916809.29647  23668098.8794   23668103.4084   23668098.7024
        45.000          40.000
 115039388.25847  89641074.92547  21891270.7404   21891273.6434   21891270.6144
        52.000          46.000
 09  1 13  1  1  0.0000000  0 12G30G18G 6G14G 9G22G21G 5G24G12G29G31
 120308922.39047  93747195.05347  22894040.2924   22894044.2384   22894039.8214
        49.000          43.000
 120939023.23347  94238202.14047  23013927.7714   23013930.0194   23013928.1354
        48.000          41.000
 126252482.28247  98378540.03247  24025059.7474   24025066.0094   24025059.6824
        44.000          38.000
 117364379.08947  91452754.12747  22333704.8894   22333708.4884   22333705.1574
        50.000          44.000
 124595807.16447  97087617.31747  23709813.5304   23709817.0574   23709813.8924
        44.000          38.000
 124265275.64647  96830081.59647  23646895.6424   23646896.6924   23646895.6864
        46.000          39.000
 104832869.23947  81687947.38047  19949033.6754   19949035.6274   19949034.0324
        54.000          49.000
 123513280.61147  96244087.69647  23503816.8324   23503821.2814   23503817.2664
        46.000          40.000
 118320232.26447  92197559.73647  22515608.8604   22515614.3754   22515608.8914
        49.000          43.000
 128514778.81147 100141366.73647  24455565.3774   24455568.7364   24455565.2474
        44.000          39.000
 124446770.40847  96971484.91247  23681451.4434   23681455.8864   23681450.7514
        45.000          40.000
 114954645.78047  89575041.87547  21875144.7364   21875147.6234   21875144.1784
        52.000          46.000
 09  1 13  1  1 30.0000000  0 12G30G18G 6G14G 9G22G21G 5G24G12G29G31
 120281806.30547  93726065.67047  22888880.4594   22888884.1794   22888879.8904
        50.000          42.000
 120902838.62247  94210006.36847  23007041.8114   23007044.2144   23007042.1044
        48.000          41.000
 126227572.76047  98359130.05347  24020320.0594   24020325.6714   24020319.7784
        43.000          38.000
 117399391.87147  91480036.85347  22340367.5714   22340371.2494   22340367.7714
        49.000          44.000
 124695732.75447  97165481.46147  23728828.7684   23728831.9474   23728828.8934
        44.000          38.000
 124223866.51847  96797814.79347  23639016.3844   23639016.9024   23639016.2214
        47.000          40.000
 104837967.20147  81691919.83047  19950003.7134   19950005.8184   19950004.1244
        54.000          50.000
 123507825.38747  96239836.89147  23502778.9214   23502782.6804   23502779.3114
        47.000          40.000
 118393175.54447  92254398.64847  22529489.6244   22529494.9784   22529489.8404
        48.000          42.000
 128523568.61747 100148216.00147  24457237.9204   24457241.4374   24457237.3694
        44.000          38.000
 124516793.66947  97026048.48047  23694776.2374   23694780.9524   23694775.7374
        44.000          40.000
 114870236.98347  89509268.84147  21859082.2304   21859085.0714   21859081.8104
        52.000          46.000
 09  1 13  1  2  0.0000000  0 12G30G18G 6G14G 9G22G21G 5G24G12G29G31
 120254733.69947  93704970.18247  22883728.7094   22883731.9624   22883728.3774
        49.000          42.000
 120866579.65447  94181752.63547  23000141.9164   23000144.2204   23000142.2164
        48.000          41.000
 126202927.47147  98339925.99447  24015629.8834   24015636.1484   24015629.9974
        44.000          38.000
 117434582.99147  91507458.55847  22347064.2314   22347067.8094   22347064.3044
        49.000          44.000
 124795911.60647  97243542.94347  23747891.9514   23747895.5734   23747891.9224
        44.000          38.000
 124182257.07447  96765391.91047  23631098.1224   23631098.8954   23631098.2044
        47.000          40.000
 104843683.49247  81696374.08747  19951091.3734   19951093.7234   19951091.7914
        54.000          49.000
 123502564.18747  96235737.28447  23501777.4664   23501781.8314   23501778.0324
        46.000          40.000
 118466481.50347  92311520.15847  22543439.0674   22543444.7804   22543439.1054
        49.000          42.000
 128532533.21247 100155201.45947  24458943.6224   24458946.5774   24458943.3084
        43.000          38.000
 124586673.62947  97080500.38647  23708074.0644   23708078.7584   23708073.6984
        45.000          40.000
 114786166.36047  89443759.32347  21843084.0164   21843087.1854   21843083.7574
        52.000          46.000
 09  1 13  1  2 30.0000000  0 12G30G18G 6G14G 9G22G21G 5G24G12G29G31
 120227704.65947  93683908.64447  22878585.2054   22878588.8404   22878584.6364
        49.000          42.000
 120830245.93547  94153440.68447  22993227.9304   22993230.4254   22993228.4854
        48.000          41.000
 126178543.32347  98320925.41447  24010989.6424   24010996.2014   24010990.0344
        43.000          38.000
 117469947.58447  91535015.42647  22353793.7614   22353797.7204   22353793.9784
        50.000          44.000
 124896339.19747  97321798.25847  23767002.7414   23767006.1394   23767003.0864
        45.000          38.000
 124140445.95147  96732811.86547  23623141.6874   23623142.5734   23623141.5414
        46.000          40.000
 104850016.64647  81701309.02147  19952296.5444   19952298.7894   19952296.8814
        54.000          50.000
 123497497.04847  96231788.90047  23500813.3374   23500817.3204   23500813.8524
        47.000          40.000
 118540145.95547  92368921.01647  22557457.2204   22557462.3044   22557457.9564
        49.000          42.000
 128541672.47447 100162323.03947  24460682.5014   24460685.6344   24460682.1554
        43.000          38.000
 124656406.78947  97134837.90547  23721344.1524   23721348.2234   23721343.9654
        45.000          40.000
 114702434.70347  89378513.93047  21827150.5574   21827153.5854   21827150.2014
        52.000          46.000
 09  1 13  1  3  0.0000000  0 12G30G18G 6G14G 9G22G21G 5G24G12G29G31
 120200723.37047  93662884.30647  22873450.5084   22873454.5254   22873450.0894
        49.000          42.000
 120793841.32247  94125073.46647  22986300.4724   22986302.5484   22986300.7164
        49.000          42.000
 126154420.95247  98302128.82247  24006398.9014   24006405.3534   24006399.1824
        43.000          38.000
 117505485.09847  91562707.04147  22360556.5924   22360559.8744   22360556.6584
        50.000          44.000
 124997014.27747  97400246.42647  23786161.3064   23786164.6114   23786160.8544
        44.000          38.000
 124098435.82947  96700076.73847  23615147.2514   23615148.3694   23615147.0034
        47.000          40.000
 104856968.39547  81706725.97847  19953619.5504   19953621.6284   19953619.9714
        54.000          49.000
 123492627.91747  96227994.80547  23499886.7134   23499890.7024   23499887.0614
        46.000          40.000
 118614168.80147  92426601.14847  22571543.6634   22571548.6194   22571543.7294
        48.000          42.000
 128550989.98147 100169583.52047  24462455.8194   24462458.5604   24462455.6474
        43.000          38.000
 124725993.24647  97189061.10647  23734586.2394   23734590.2054   23734586.0944
        45.000          40.000
 114619046.56647  89313536.21747  21811282.4124   21811285.2494   21811282.0034
        52.000          47.000
 09  1 13  1  3 30.0000000  0 12G30G18G 6G14G 9G22G21G 5G24G12G29G31
 120173791.44547  93641898.43047  22868325.5954   22868329.1684   22868325.3864
        49.000          42.000
 120757367.18447  94096652.08747  22979359.9604   22979361.8974   22979360.3384
        48.000          42.000
 126130558.53047  98283534.77847  24001858.4594   24001864.4794   24001858.4994
        45.000          38.000
 117541192.17747  91590530.79047  22367351.3024   22367354.4934   22367351.5474
        49.000          44.000
 125097933.48947  97478884.82747  23805365.0774   23805368.3334   23805365.4224
        44.000          38.000
 124056226.64347  96667186.49947  23607115.2524   23607116.2324   23607115.3754
        47.000          40.000
 104864537.93047  81712624.32247  19955060.0124   19955061.9444   19955060.4124
        54.000          49.000
 123487958.11847  96224356.07047  23498997.8204   23499002.1004   23498998.1614
        46.000          40.000
 118688547.58347  92484558.62547  22585697.1134   22585702.3314   22585697.3294
        48.000          42.000
 128560486.85847 100176983.75647  24464263.0854   24464266.0524   24464262.6434
        43.000          38.000
 124795431.01247  97243168.44747  23747799.8604   23747803.7984   23747799.4764
        45.000          40.000
 114536003.83047  89248827.64847  21795480.1624   21795482.5984   21795479.7784
        52.000          47.000
 09  1 13  1  4  0.0000000  0 12G30G18G 6G14G 9G22G21G 5G24G12G29G31
 120146910.94847  93620952.63047  22863210.4864   22863213.7284   22863210.1604
        49.000          42.000
 120720825.46647  94068178.04747  22972405.9984   22972408.1244   22972406.3324
        49.000          42.000
 126106955.07547  98265142.54747  23997367.2264   23997373.0594   23997366.9604
        44.000          39.000
 117577066.30347  91618484.69847  22374177.8754   22374181.2814   22374177.9894
        50.000          44.000
 125199093.92247  97557711.20647  23824614.9434   23824618.7844   23824615.4864
        45.000          37.000
 124013819.92447  96634142.36547  23599045.4174   23599046.4894   23599045.4574
        47.000          40.000
 104872725.46447  81719004.23047  19956617.9964   19956620.0104   19956618.3474
        54.000          50.000
 123483489.70547  96220874.23947  23498147.5024   23498151.6064   23498147.9854
        46.000          40.000
 118763280.09447  92542791.73447  22599918.3304   22599923.3834   22599918.7484
        48.000          42.000
 128570164.59747 100184524.93647  24466104.0984   24466107.8644   24466104.4844
        44.000          38.000
 124864718.65147  97297158.81247  23760984.5534   23760988.7944   23760984.2474
        45.000          40.000
 114453309.47147  89184390.54947  21779743.7544   21779746.3204   21779743.5074
        52.000          46.000
 09  1 13  1  4 30.0000000  0 12G30G18G 6G14G 9G22G21G 5G24G12G29G31
 120120084.86747  93600049.23947  22858105.4924   22858109.0944   22858105.2664
        48.000          42.000
 120684218.36847  94039653.06347  22965439.8784   22965442.1344   22965440.2034
        49.000          42.000
 126083610.06447  98246951.69747  23992924.2694   23992930.3764   23992924.1094
        44.000          38.000
 117613105.34947  91646567.12447  22381035.6544   22381039.4814   22381036.0444
        50.000          44.000
 125300493.40047  97636723.83747  23843911.0194   23843914.2164   23843911.0244
        44.000          37.000
 123971216.74247  96600945.12147  23590938.3474   23590938.9184   23590938.2784
        47.000          40.000
 104881531.53747  81725866.11347  19958293.7344   19958295.7784   19958294.1984
        54.000          49.000
 123479225.16047  96217551.26347  23497336.1064   23497340.8314   23497336.2554
        46.000          40.000
 118838365.03347  92601299.46347  22614206.5384   22614211.7304   22614206.6074
        49.000          42.000
 128580025.65147 100192208.96047  24467980.5324   24467983.8074   24467980.2854
        43.000          38.000
 124933855.11247  97351031.39747  23774140.9024   23774144.7064   23774140.4094
        45.000          40.000
 114370967.30947  89120227.89747  21764074.3024   21764076.8744   21764074.0604
        52.000          46.000
 09  1 13  1  5  0.0000000  0 12G30G18G 6G14G 9G22G21G 5G24G12G29G31
 120093313.99547  93579188.87247  22853011.0954   22853014.9034   22853010.8454
        49.000          42.000
 120647546.42447  94011077.55547  22958461.5174   22958463.4514   22958462.0364
        48.000          42.000
 126060520.66947  98228960.01847  23988530.5564   23988536.0524   23988530.7554
        44.000          38.000
 117649305.15547  91674774.81247  22387924.4314   22387927.7624   22387924.7294
        49.000          44.000
 125402127.69347  97715919.48047  23863251.4634   23863254.6304   23863251.5264
        44.000          37.000
 123928416.41047  96567594.25847  23582793.2834   23582794.2204   23582793.2284
        47.000          40.000
 104890955.01547  81733209.09047  19960086.8904   19960089.0394   19960087.3574
        54.000          49.000
 123475165.14947  96214387.68447  23496563.2504   23496567.9394   23496563.8424
        45.000          40.000
 118913798.92647  92660079.10547  22628561.3724   22628566.2684   22628561.3524
        48.000          42.000
 128590070.49447 100200036.17347  24469893.0044   24469895.3974   24469892.4154
        44.000          38.000
 125002837.49747  97404783.93047  23787267.8344   23787271.6214   23787267.6524
        45.000          40.000
 114288978.13847  89056340.29447  21748472.3114   21748474.8544   21748471.6384
        52.000          46.000
 09  1 13  1  5 30.0000000  0 12G30G18G 6G14G 9G22G21G 5G24G12G29G31
 120066602.40147  93558374.68347  22847928.1134   22847931.7184   22847927.9324
        49.000          42.000
 120610813.63847  93982454.62647  22951471.1914   22951473.4304   22951471.6994
        49.000          42.000
 126037687.97547  98211168.38347  23984185.6904   23984191.5994   23984185.8224
        44.000          38.000
 117685665.14647  91703107.31647  22394843.1364   22394847.0714   22394843.5464
        49.000          44.000
 125503996.10847  97795297.53047  23882636.1844   23882639.4664   23882636.4814
        43.000          37.000
 123885421.72347  96534091.96947  23574611.7564   23574613.0584   23574611.8034
        47.000          40.000
 104900997.77147  81741034.62447  19961997.9234   19962000.1094   19961998.2864
        54.000          49.000
 123471313.74247  96211386.64347  23495830.1124   23495834.9794   23495830.5084
        46.000          40.000
 118989581.89947  92719130.75047  22642982.1654   22642987.4134   22642982.5284
        48.000          42.000
 128600302.43747 100208009.20947  24471839.5304   24471842.1884   24471839.6864
        44.000          39.000
 125071666.59847  97458417.02147  23800365.7164   23800368.8254   23800365.3274
        45.000          40.000
 114207347.00147  88992731.68647  21732938.4014   21732940.7764   21732938.0154
        52.000          46.000
 09  1 13  1  6  0.0000000  0 12G30G18G 6G14G 9G22G21G 5G24G12G29G31
 120039951.36647  93537607.68447  22842856.9174   22842860.0814   22842856.5424
        49.000          42.000
 120574020.47047  93953784.67547  22944469.9694   22944471.9514   22944470.3584
        49.000          42.000
 126015109.30247  98193574.67047  23979888.5664   23979894.9854   23979888.5324
        43.000          38.000
 117722181.51447  91731561.68047  22401792.0774   22401795.6314   22401792.2464
        49.000          44.000
 125606093.84047  97874854.27847  23902064.8374   23902067.6454   23902064.7874
        43.000          37.000
 123842232.29247  96500437.91747  23566393.1124   23566394.0864   23566393.1994
        47.000          40.000
 104911658.11947  81749341.39647  19964026.4994   19964028.7114   19964026.8624
        54.000          49.000
 123467671.53847  96208548.62047  23495136.9584   23495141.6924   23495137.6294
        45.000          40.000
 119065710.17447  92778451.48947  22657468.8014   22657474.2014   22657469.0904
        48.000          42.000
 128610721.72947 100216128.20047  24473822.1494   24473824.8084   24473821.7624
        44.000          38.000
 125140339.24847  97511928.19547  23813433.1714   23813437.2284   23813432.8084
        44.000          40.000
 114126075.30247  88929403.15547  21717472.4734   21717475.2644   21717472.1634
        52.000          46.000
 09  1 13  1  6 30.0000000  0 12G30G18G 6G14G 9G22G21G 5G24G12G29G31
 120013363.24947  93516889.72347  22837796.9074   22837800.7164   22837796.6384
        49.000          42.000
 120537169.50547  93925069.66047  22937457.3394   22937459.4444   22937457.8614
        49.000          42.000
 125992783.74947  98176178.18747  23975640.7644   23975646.4414   23975640.7344
        44.000          38.000
 117758851.87747  91760136.03247  22408770.3734   22408773.7874   22408770.3754
        50.000          44.000
 125708418.65247  97954587.94447  23921535.8314   23921539.4124   23921536.8784
        43.000          37.000
 123798849.24147  96466633.00047  23558137.5824   23558138.4974   23558137.6144
        47.000          40.000
 104922936.24947  81758129.56447  19966172.7364   19966174.8254   19966173.1364
        54.000          49.000
 123464240.78547  96205875.35047  23494484.0964   23494489.0904   23494484.6874
        45.000          40.000
 119142182.23047  92838040.08447  22672020.9144   22672026.2224   22672021.1134
        48.000          42.000
 128621330.58947 100224394.92147  24475840.8094   24475843.7644   24475840.6904
        43.000          38.000
 125208854.49247  97565316.71947  23826470.9784   23826475.5824   23826470.8214
        45.000          39.000
 114045165.76047  88866356.82647  21702075.9634   21702078.5954   21702075.6254
        52.000          47.000
 09  1 13  1  7  0.0000000  0 12G30G18G 6G14G 9G22G21G 5G24G12G29G31
 119986839.39247  93496221.82147  22832749.6944   22832753.2204   22832749.3994
        49.000          42.000
 120500261.39647  93896310.12447  22930433.7734   22930436.2204   22930434.1084
        48.000          42.000
 125970709.06747  98158977.21647  23971439.6224   23971445.6584   23971439.8804
        43.000          38.000
 117795672.60747  91788827.55047  22415777.1094   22415780.5304   22415777.4754
        50.000          44.000
 125810966.79447  98034495.62447  23941050.1804   23941054.0274   23941051.0224
        42.000          37.000
 123755273.02047  96432677.56647  23549845.3054   23549846.2014   23549844.8974
        47.000          40.000
 104934831.16747  81767398.34047  19968436.2804   19968438.0984   19968436.6394
        54.000          49.000
 123461022.51247  96203367.65247  23493871.8304   23493876.6744   23493872.2844
        46.000          40.000
 119218994.86847  92897894.07947  22686637.9434   22686643.2484   22686638.2084
        48.000          42.000
 128632129.89947 100232810.04647  24477895.5044   24477898.0214   24477894.7674
        42.000          38.000
 125277209.87247  97618580.66147  23839478.8644   23839482.6864   23839478.8434
        44.000          39.000
 113964620.45547  88803594.30647  21686748.8054   21686751.3414   21686748.4074
        52.000          46.000
 09  1 13  1  7 30.0000000  0 12G30G18G 6G14G 9G22G21G 5G24G12G29G31
 119960384.65847  93475607.78447  22827715.2824   22827719.0974   22827714.8834
        49.000          42.000
 120463301.08047  93867509.91847  22923400.6314   22923403.0794   22923400.9314
        49.000          42.000
 125948887.20247  98141973.22347  23967286.5984   23967292.7974   23967286.6244
        42.000          38.000
 117832643.83947  91817636.35647  22422812.3984   22422815.8424   22422812.6294
        50.000          44.000
 125913738.26947  98114577.33847  23960607.0604   23960610.5544   23960606.9724
        41.000          37.000
 123711507.04947  96398574.28247  23541516.6864   23541517.6974   23541517.1254
        47.000          40.000
 104947345.82247  81777150.02847  19970817.7124   19970819.8064   19970818.0914
        54.000          49.000
 123458021.52347  96201029.26947  23493300.5224   23493305.3744   23493300.9914
        45.000          40.000
 119296149.08747  92958014.24247  22701319.8784   22701325.3634   22701320.0534
        49.000          42.000
 128643123.95547 100241376.92147  24479987.6474   24479990.6094   24479986.9944
        44.000          38.000
 125345406.80247  97671721.14947  23852456.0794   23852459.6324   23852455.7604
        44.000          39.000
 113884444.85447  88741119.87047  21671491.8044   21671494.2974   21671491.1694
        52.000          47.000
 09  1 13  1  8  0.0000000  0 12G30G18G 6G14G 9G22G21G 5G24G12G29G31
 119933999.71447  93455048.11647  22822694.7524   22822698.1524   22822694.1494
        49.000          42.000
 120426288.34547  93838668.84547  22916357.4064   22916359.5974   22916357.8574
        49.000          42.000
 125927314.81447  98125163.63847  23963182.1614   23963188.0694   23963182.2434
        44.000          38.000
 117869761.08247  91846558.92547  22429875.4854   22429878.5964   22429875.7604
        50.000          44.000
 126016728.17047  98194829.24447  23980205.3004   23980208.1654   23980205.1054
        42.000          37.000
 123667550.32147  96364322.35247  23533152.1364   23533153.1024   23533152.1544
        47.000          40.000
 104960477.77647  81787382.73047  19973316.5754   19973318.5454   19973316.8894
        54.000          49.000
 123455237.95747  96198860.28947  23492770.6984   23492775.6314   23492771.3934
        45.000          40.000
 119373640.57747  93018397.21747  22716066.4414   22716071.3554   22716066.8104
        48.000          42.000
 128654312.52747 100250095.37147  24482116.9194   24482119.5864   24482116.6184
        44.000          38.000
 125413441.85747  97724735.49247  23865402.9674   23865406.5974   23865402.3244
        44.000          39.000
 113804639.64647  88678934.05947  21656305.3394   21656307.8714   21656305.3364
        52.000          47.000
 09  1 13  1  8 30.0000000  0 12G30G18G 6G14G 9G22G21G 5G24G12G29G31
 119907686.48547  93434544.32547  22817687.4434   22817690.6674   22817686.9344
        49.000          42.000
 120389225.37447  93809788.62747  22909304.3384   22909306.8514   22909304.7724
        49.000          42.000
 125905990.56947  98108547.39447  23959124.0084   23959129.7614   23959124.2274
        44.000          38.000
 117907021.70647  91875593.22947  22436965.9984   22436969.2624   22436966.1344
        49.000          44.000
 126119933.75447  98275249.24247  23999844.7554   23999848.0744   23999844.5824
        42.000          37.000
 123623403.82947  96329922.54747  23524751.4564   23524752.0514   23524751.5544
        47.000          41.000
 104974226.81747  81798096.28147  19975933.0164   19975934.9334   19975933.3564
        54.000          49.000
 123452673.64747  96196862.18547  23492283.0444   23492287.4654   23492283.5854
        46.000          40.000
 119451467.34247  93079041.43847  22730876.0554   22730881.3924   22730876.0114
        48.000          42.000
 128665697.36247 100258966.76847  24484283.5074   24484285.8414   24484283.0874
        44.000          38.000
 125481313.73947  97777622.68547  23878318.2104   23878322.0394   23878318.1654
        44.000          39.000
 113725207.55847  88617038.97747  21641189.8244   21641192.3824   21641189.2424
        52.000          47.000
 09  1 13  1  9  0.0000000  0 12G30G18G 6G14G 9G22G21G 5G24G12G29G31
 119881445.93147  93414097.17347  22812693.4994   22812697.5684   22812693.3374
        49.000          43.000
 120352112.59947  93780869.61247  22902241.9804   22902244.1814   22902242.5354
        48.000          42.000
 125884911.95947  98092122.54847  23955112.6674   23955118.8004   23955112.8644
        43.000          38.000
 117944421.79447  91904736.19447  22444082.7784   22444086.2784   22444083.0714
        50.000          43.000
 126223350.49447  98355833.73647  24019523.9954   24019527.2264   24019524.3794
        43.000          37.000
 123579067.08047  96295374.48447  23516314.7384   23516315.3554   23516314.5154
        47.000          41.000
 104988591.54047  81809289.58147  19978666.3634   19978668.5634   19978666.7994
        54.000          49.000
 123450329.20547  96195035.39847  23491836.9424   23491841.2414   23491837.5304
        46.000          40.000
 119529625.85647  93139944.16547  22745749.1114   22745754.2384   22745749.3234
        48.000          42.000
 128677278.54547 100267991.11447  24486487.0084   24486489.4834   24486486.7154
        44.000          38.000
 125549019.77847  97830380.64147  23891202.3814   23891206.4354   23891202.0954
        44.000          39.000
 113646149.89647  88555435.66147  21626145.6264   21626147.9534   21626145.4394
        52.000          47.000
 09  1 13  1  9 30.0000000  0 12G30G18G 6G14G 9G22G21G 5G24G12G29G31
 119855284.03847  93393711.32147  22807715.4184   22807719.0504   22807715.1864
        49.000          43.000
 120314955.85647  93751916.32147  22895171.1874   22895173.8094   22895171.5504
        48.000          41.000
 125864081.14347  98075890.78047  23951148.8824   23951154.9924   23951148.8004
        43.000          38.000
 117981962.07147  91933988.41747  22451226.6404   22451229.5104   22451226.8704
        49.000          43.000
 126326979.20547  98436583.42647  24039244.4184   24039247.4154   24039244.1874
        42.000          38.000
 123534544.53647  96260681.65047  23507841.8704   23507842.4914   23507842.1604
        47.000          40.000
 105003574.96347  81820964.98847  19981517.6604   19981519.7414   19981518.0514
        54.000          49.000
 123448210.20547  96193384.27347  23491434.0604   23491437.6464   23491434.2994
        45.000          40.000
 119608117.63647  93201106.58547  22760686.1934   22760691.0394   22760686.4214
        49.000          42.000
 128689061.19347 100277172.48947  24488728.7774   24488731.8954   24488728.8244
        42.000          38.000
 125616561.95347  97883010.89347  23904055.0044   23904059.1804   23904054.5784
        44.000          39.000
 113567473.02447  88494129.05847  21611173.8174   21611176.0674   21611173.4574
        52.000          47.000
 09  1 13  1 10  0.0000000  0 12G30G18G 6G14G 9G22G21G 5G24G12G29G31
 119829200.90647  93373386.83247  22802751.4044   22802755.4564   22802750.8844
        49.000          42.000
 120277754.81547  93722928.52247  22888092.1774   22888094.6644   22888092.5474
        48.000          41.000
 125843494.78047  98059849.49947  23947231.0454   23947237.3144   23947231.4654
        42.000          38.000
 118019637.70447  91963346.10347  22458396.0174   22458399.0014   22458396.2824
        49.000          43.000
 126430814.68347  98517494.22647  24059003.6174   24059006.6824   24059003.6264
        42.000          38.000
 123489835.41347  96225843.42947  23499333.8404   23499334.3264   23499334.0954
        47.000          40.000
 105019174.68447  81833120.62547  19984486.2254   19984488.2004   19984486.6004
        54.000          49.000
 123446316.22547  96191908.48147  23491073.2324   23491077.2754   23491073.5244
        45.000          39.000
 119686938.20647  93262525.21547  22775685.2294   22775689.9134   22775685.2134
        48.000          42.000
 128701044.98247 100286510.55647  24491009.0474   24491012.3624   24491008.0784
        42.000          38.000
 125683936.91547  97935510.84447  23916876.0784   23916880.3584   23916875.5574
        44.000          39.000
 113489177.21747  88433119.38447  21596274.7874   21596276.8504   21596274.2534
        53.000          47.000
 09  1 13  1 10 30.0000000  0 12G30G18G 6G14G 9G22G21G 5G24G12G29G31
 119803198.29547  93353125.10547  22797803.5274   22797807.3904   22797803.6824
        49.000          43.000
 120240511.10247  93693907.48147  22881004.6494   22881007.1394   22881005.1064
        47.000          41.000
 125823151.32547  98043997.49547  23943359.8404   23943366.0924   23943359.5814
        43.000          38.000
 118057445.98447  91992807.14747  22465590.4294   22465593.9314   22465590.6844
        49.000          43.000
 126534854.04747  98598563.88547  24078801.8664   24078804.2974   24078801.8874
        43.000          38.000
 123444939.96247  96190860.02547  23490790.4654   23490791.2124   23490790.4224
        47.000          41.000
 105035390.10047  81845756.02747  19987572.0504   19987573.8304   19987572.4344
        54.000          49.000
 123444649.14647  96190609.50947  23490756.0524   23490760.1444   23490756.5314
        45.000          40.000
 119766085.30347  93324198.26547  22790746.3894   22790751.1884   22790746.8524
        49.000          42.000
 128713231.31247 100296006.49047  24493328.0434   24493331.3154   24493327.6264
        42.000          38.000
 125751143.08047  97987879.26147  23929664.8314   23929668.8074   23929664.9244
        44.000          39.000
 113411264.88647  88372408.52347  21581448.5414   21581450.5264   21581448.3064
        53.000          47.000
 09  1 13  1 11  0.0000000  0 12G30G18G 6G14G 9G22G21G 5G24G12G29G31
 119777280.85647  93332929.72547  22792871.5134   22792875.1674   22792870.9914
        49.000          43.000
 120203229.10147  93664856.59147  22873910.2054   22873912.6234   22873910.5694
        48.000          41.000
 125803051.71847  98028335.49747  23939535.1244   23939541.1794   23939535.6774
        42.000          37.000
 118095386.53747  92022371.27647  22472810.4174   22472813.6294   22472810.6754
        49.000          43.000
 126639096.49947  98679791.79747  24098638.2864   24098641.2054   24098638.2914
        43.000          38.000
 123399862.13447  96155734.48847  23482212.9324   23482213.6004   23482212.9234
        47.000          40.000
 105052223.00347  81858872.58347  19990775.2684   19990777.0624   19990775.6744
        54.000          49.000
 123443213.02747  96189490.50447  23490482.3564   23490487.0254   23490482.7354
        45.000          39.000
 119845558.83447  93386125.68747  22805870.0054   22805874.6834   22805870.2974
        48.000          42.000
 128725623.72447 100305662.97047  24495686.2394   24495689.8704   24495685.5684
        43.000          38.000
 125818181.17047  98040116.73047  23942422.2304   23942426.2174   23942421.9374
        44.000          39.000
 113333740.97247  88312000.31747  21566696.1364   21566698.2934   21566695.6714
        53.000          47.000
 09  1 13  1 11 30.0000000  0 12G30G18G 6G14G 9G22G21G 5G24G12G29G31
 119751449.05747  93312801.08047  22787956.3814   22787959.6704   22787956.1514
        50.000          43.000
 120165909.17047  93635776.15447  22866808.4454   22866810.7854   22866809.2164
        48.000          41.000
 125783192.80947  98012861.07047  23935756.2624   23935762.3984   23935756.2884
        42.000          38.000
 118133454.94947  92052035.02947  22480054.5464   22480057.9104   22480054.5974
        49.000          43.000
 126743537.17247  98761174.19247  24118512.4584   24118515.5374   24118512.7674
        44.000          38.000
 123354600.31147  96120465.56847  23473599.4954   23473600.1174   23473599.9144
        47.000          41.000
 105069671.14747  81872468.55247  19994095.3854   19994097.2734   19994095.8084
        54.000          49.000
 123442008.10647  96188551.63247  23490253.0194   23490257.4054   23490253.1804
        45.000          39.000
 119925354.77047  93448304.33647  22821054.3624   22821059.5124   22821054.5914
        49.000          42.000
 128738222.20647 100315480.04947  24498084.2204   24498087.0354   24498083.9724
        43.000          38.000
 125885048.34547  98092221.02347  23955146.4164   23955150.8364   23955146.3774
        45.000          39.000
 113256606.36847  88251895.47347  21552017.7594   21552020.1874   21552017.5054
        52.000          47.000
 09  1 13  1 12  0.0000000  0 12G30G18G 6G14G 9G22G21G 5G24G12G29G31
 119725704.88547  93292740.73047  22783057.2314   22783060.6644   22783056.8894
        49.000          42.000
 120128552.88647  93606667.37947  22859700.1334   22859701.9004   22859700.4694
        48.000          41.000
 125763572.97947  97997572.94347  23932022.3004   23932028.3624   23932022.5264
        43.000          38.000
 118171648.23547  92081796.08447  22487322.5564   22487325.5984   22487322.7084
        49.000          43.000
 126848173.22247  98842708.80247  24138424.0634   24138427.2804   24138424.2944
        43.000          38.000
 123309155.40147  96085054.00347  23464951.6234   23464952.2344   23464951.6394
        47.000          41.000
 105087733.68347  81886543.26747  19997532.4264   19997534.5354   19997532.7974
        54.000          49.000
 123441035.82547  96187794.06147  23490068.2874   23490072.0044   23490068.5604
        45.000          39.000
 120005470.64947  93510732.29147  22836300.1954   22836304.9244   22836300.2814
        48.000          42.000
 128751027.95347 100325458.61447  24500521.0074   24500523.3024   24500520.7934
        42.000          38.000
 125951742.48647  98144190.50047  23967838.5324   23967841.9084   23967838.1474
        44.000          39.000
 113179863.16747  88192095.61647  21537413.9074   21537416.4914   21537413.0694
        52.000          47.000
 09  1 13  1 12 30.0000000  0 12G30G18G 6G14G 9G22G21G 5G24G12G29G31
 119700051.89047  93272751.43447  22778175.2394   22778179.1864   22778174.9284
        49.000          42.000
 120091163.49447  93577532.81247  22852585.0334   22852586.9674   22852585.4454
        48.000          42.000
 125744192.06547  97982470.96147  23928334.3724   23928340.3224   23928334.6814
        42.000          38.000
 118209964.97147  92111653.35347  22494613.8514   22494616.7834   22494614.1514
        49.000          43.000
 126953002.78847  98924394.21847  24158372.4354   24158375.5364   24158372.8614
        43.000          38.000
 123263529.52647  96049501.41447  23456268.9604   23456270.2214   23456268.8094
        47.000          41.000
 105106411.62547  81901097.51747  20001086.9104   20001088.9234   20001087.3244
        54.000          49.000
 123440299.30747  96187220.20247  23489928.1114   23489932.2414   23489928.5374
        45.000          39.000
 120085905.73447  93573408.97547  22851606.1314   22851611.3954   22851606.1624
        48.000          42.000
 128764043.68247 100335600.83247  24502997.7454   24503000.0884   24502997.1094
        43.000          38.000
 126018263.78347  98196025.28347  23980496.8794   23980500.8324   23980496.7454
        45.000          39.000
 113103515.27947  88132603.80647  21522885.4304   21522887.9064   21522885.3934
        53.000          47.000
 09  1 13  1 13  0.0000000  0 12G30G18G 6G14G 9G22G21G 5G24G12G29G31
 119674495.01047  93252837.04247  22773312.1554   22773315.0824   22773311.7974
        49.000          42.000
 120053745.55647  93548376.00847  22845464.5024   22845466.7584   22845464.9164
        49.000          42.000
 125725051.43347  97967556.22947  23924691.6804   23924698.2474   23924691.7394
        43.000          38.000
 118248404.97047  92141606.65747  22501928.6974   22501932.0794   22501928.8284
        49.000          43.000
 127058025.58447  99006230.21647  24178357.3994   24178360.1744   24178357.8474
        43.000          37.000
 123217726.79247  96013811.02247  23447553.0034   23447553.9314   23447553.3274
        47.000          41.000
 105125706.90547  81916132.81547  20004758.5854   20004760.5244   20004759.0324
        54.000          49.000
 123439803.17247  96186833.64047  23489833.4574   23489837.9334   23489834.0114
        45.000          40.000
 120166660.25947  93636334.58347  22866973.1804   22866978.2224   22866973.4244
        48.000          41.000
 128777273.52947 100345909.86547  24505515.2364   24505518.3264   24505515.3144
        43.000          38.000
 126084613.70447  98247726.50347  23993122.7154   23993126.8534   23993121.6914
        44.000          39.000
 113027568.22247  88073424.32647  21508433.1834   21508435.6174   21508432.7154
        53.000          47.000
 09  1 13  1 13 30.0000000  0 12G30G18G 6G14G 9G22G21G 5G24G12G29G31
 119649029.75047  93232994.01947  22768466.1564   22768469.5544   22768465.8524
        49.000          42.000
 120016294.48547  93519193.38847  22838337.6444   22838340.0184   22838338.0294
        49.000          42.000
 125706142.89247  97952822.32647  23921094.0274   23921099.8634   23921094.2384
        43.000          38.000
 118286959.04347  92171648.85847  22509265.2074   22509268.3664   22509265.1594
        49.000          43.000
 127163231.97047  99088209.25847  24198377.5694   24198380.5584   24198377.8084
        42.000          37.000
 123171741.68047  95977978.50447  23438802.3704   23438803.3974   23438802.3234
        47.000          41.000
 105145612.20347  81931643.44747  20008546.4384   20008548.4784   20008546.8444
        54.000          49.000
 123439542.44047  96186630.50847  23489783.5084   23489788.0684   23489783.9794
        45.000          40.000
 120247725.01947  93699501.92547  22882399.3064   22882404.4524   22882399.3524
        48.000          41.000
 128790712.52747 100356381.85747  24508072.6384   24508075.3004   24508072.1954
        43.000          38.000
 126150784.02547  98299287.79747  24005714.4614   24005718.9174   24005714.0764
        43.000          39.000
 112952017.46347  88014553.64747  21494056.5034   21494058.6374   21494056.0704
        53.000          47.000
 09  1 13  1 14  0.0000000  0 12G30G18G 6G14G 9G22G21G 5G24G12G29G31
 119623662.49947  93213227.37747  22763639.1664   22763642.4054   22763638.8284
        49.000          43.000
 119978816.29947  93489989.63547  22831206.1894   22831208.1194   22831206.7304
        49.000          42.000
 125687469.13347  97938271.38747  23917539.8364   23917546.2654   23917539.7054
        43.000          38.000
 118325628.51247  92201780.98547  22516623.7354   22516626.5734   22516623.8784
        49.000          43.000
 127268623.04747  99170332.22147  24218433.1044   24218435.7764   24218432.9724
        42.000          36.000
 123125578.65947  95942007.34247  23430017.7684   23430018.8214   23430017.4524
        47.000          41.000
 105166130.80847  81947631.97847  20012450.9014   20012453.0664   20012451.3484
        54.000          49.000
 123439522.91647  96186615.34247  23489780.0044   23489784.6434   23489780.3964
        45.000          39.000
 120329102.02947  93762912.58947  22897884.6264   22897890.0034   22897884.7914
        47.000          41.000
 128804366.03247 100367021.03347  24510670.4114   24510673.8744   24510670.1304
        43.000          38.000
 126216777.48147  98350711.27847  24018272.5264   24018277.2594   24018272.1534
        44.000          39.000
 112876869.53847  87955996.86947  21479756.1464   21479758.3434   21479755.9384
        52.000          47.000
 09  1 13  1 14 30.0000000  0 12G30G18G 6G14G 9G22G21G 5G24G12G29G31
 119598395.98047  93193539.24147  22758830.6874   22758834.0004   22758830.6164
        49.000          42.000
 119941313.53447  93460766.73647  22824069.5094   22824071.2904   22824070.0674
        49.000          42.000
 125669029.18247  97923902.63147  23914030.7374   23914037.4504   23914031.1884
        42.000          37.000
 118364411.12347  92232001.26947  22524003.6564   22524006.7724   22524003.8584
        49.000          43.000
 127374196.28647  99252597.11047  24238523.0394   24238525.4184   24238522.8854
        41.000          36.000
 123079239.36147  95905898.84347  23421199.7954   23421200.7674   23421199.6964
        48.000          41.000
 105187262.57947  81964098.30947  20016472.2624   20016474.2694   20016472.7044
        54.000          49.000
 123439747.00047  96186789.98047  23489822.2034   23489827.1454   23489823.0834
        45.000          39.000
 120410789.32647  93826565.02947  22913428.9284   22913434.3174   22913429.2544
        47.000          41.000
 128818236.24747 100377829.06347  24513310.1184   24513312.7644   24513309.6184
        43.000          38.000
 126282593.30447  98401996.34447  24030796.8114   24030801.1264   24030796.7194
        44.000          39.000
 112802127.51847  87897756.38547  21465533.1324   21465535.3204   21465532.5264
        53.000          47.000
 09  1 13  1 15  0.0000000  0 12G30G18G 6G14G 9G22G21G 5G24G12G29G31
 119573232.86747  93173931.67547  22754042.7834   22754045.8204   22754042.2554
        49.000          42.000
 119903788.75047  93431526.66747  22816928.9294   22816930.1924   22816929.1594
        50.000          42.000
 125650821.85747  97909715.14947  23910565.9294   23910571.5544   23910566.1694
        42.000          37.000
 118403304.86247  92262308.13547  22531404.9474   22531408.0374   22531405.0964
        49.000          43.000
 127479949.26047  99335002.05247  24258647.1144   24258649.3914   24258647.0874
        41.000          36.000
 123032725.30447  95869654.14547  23412348.7744   23412349.3524   23412349.2794
        48.000          41.000
 105209007.42147  81981042.34947  20020610.1434   20020612.2864   20020610.5854
        54.000          49.000
 123440216.86347  96187156.15947  23489911.8014   23489916.3144   23489912.1374
        45.000          40.000
 120492785.18347  93890457.90847  22929032.3584   22929037.6044   22929032.1324
        47.000          41.000
 128832324.86747 100388807.26947  24515991.1864   24515992.9894   24515990.7534
        43.000          38.000
 126348230.47047  98453142.19347  24043287.1324   24043291.4224   24043287.2464
        44.000          39.000
 112727794.33247  87839834.47447  21451387.9174   21451390.0314   21451387.4374
        53.000          47.000
 09  1 13  1 15 30.0000000  0 12G30G18G 6G14G 9G22G21G 5G24G12G29G31
 119548173.27847  93154404.76647  22749273.8504   22749277.2014   22749273.6804
        49.000          43.000
 119866242.43447  93402269.81947  22809783.8604   22809785.5184   22809784.3004
        50.000          42.000
 125632844.27847  97895706.67847  23907145.3324   23907151.3224   23907145.4934
        43.000          37.000
 118442305.10747  92292697.99347  22538826.2944   22538829.2614   22538826.4694
        49.000          43.000
 127585877.25747  99417543.36147  24278804.4614   24278807.4774   24278804.7404
        39.000          35.000
 122986036.46847  95833273.27147  23403463.9744   23403464.6174   23403463.8284
        47.000          41.000
 105231363.04947  81998462.33147  20024863.9944   20024866.3754   20024864.2604
        54.000          49.000
 123440932.74347  96187714.01447  23490048.0074   23490052.5114   23490048.5824
        45.000          40.000
 120575085.59547  93954588.08547  22944693.3754   22944698.5944   22944693.2654
        47.000          41.000
 128846631.74847 100399955.55247  24518712.5214   24518715.5044   24518711.9904
        42.000          38.000
 126413686.35347  98504146.77647  24055743.1904   24055746.7494   24055742.9604
        44.000          39.000
 112653870.81347  87782231.77947  21437320.7044   21437322.8964   21437320.1914
        53.000          47.000
 09  1 13  1 16  0.0000000  0 12G30G18G 6G14G 9G22G21G 5G24G12G29G31
 119523221.14147  93134961.59147  22744525.0404   22744529.2264   22744524.7934
        49.000          43.000
 119828677.69447  93372998.62247  22802635.3504   22802637.2714   22802635.8454
        49.000          42.000
 125615096.20847  97881877.04647  23903767.9204   23903773.4744   23903768.0674
        43.000          37.000
 118481410.59847  92323169.87047  22546267.6464   22546270.8244   22546267.8094
        49.000          43.000
 127691978.34447  99500219.52947  24298994.4074   24298997.3694   24298994.0564
        40.000          35.000
 122939174.70447  95796757.65847  23394546.2084   23394546.8724   23394546.2424
        47.000          41.000
 105254329.57247  82016358.33447  20029234.3594   20029236.8614   20029234.7164
        54.000          49.000
 123441897.46047  96188465.78447  23490231.8544   23490235.8704   23490232.4494
        45.000          39.000
 120657689.41047  94018954.69447  22960412.5954   22960417.3734   22960412.7434
        47.000          41.000
 128861159.34947 100411275.82947  24521477.6624   24521480.5774   24521477.4514
        43.000          38.000
 126478960.47147  98555009.73347  24068164.6284   24068168.6954   24068164.1294
        44.000          39.000
 112580360.79447  87724951.30247  21423332.0364   21423334.5954   21423331.7054
        53.000          47.000
 09  1 13  1 16 30.0000000  0 12G30G18G 6G14G 9G22G21G 5G24G12G29G31
 119498377.61747  93115603.04447  22739797.6154   22739801.4834   22739797.0014
        49.000          43.000
 119791095.47947  93343713.81747  22795483.7444   22795485.8354   22795484.2144
        49.000          42.000
 125597575.30247  97868224.43847  23900433.7994   23900439.3254   23900433.7674
        43.000          37.000
 118520617.83047  92353721.02647  22553728.3994   22553731.5944   22553728.6004
        49.000          43.000
 127798248.91247  99583027.80247  24319216.8944   24319219.3924   24319216.2454
        39.000          35.000
 122892139.58547  95760106.94647  23385595.9694   23385596.4574   23385596.0494
        48.000          41.000
 105277905.70347  82034729.35347  20033720.8564   20033723.0864   20033721.2144
        54.000          49.000
 123443112.13047  96189412.30247  23490463.0094   23490467.2734   23490463.1954
        45.000          39.000
 120740593.46047  94083555.24747  22976188.7774   22976193.6154   22976188.5534
        48.000          41.000
 128875908.35947 100422768.64347  24524283.7664   24524286.3104   24524283.7254
        43.000          37.000
 126544050.88347  98605729.54047  24080550.9104   24080554.8334   24080550.5234
        45.000          39.000
 112507265.66747  87667994.11047  21409422.5644   21409425.0444   21409422.1374
        53.000          47.000
 09  1 13  1 17  0.0000000  0 12G30G18G 6G14G 9G22G21G 5G24G12G29G31
 119473646.83647  93096332.34747  22735091.2414   22735095.3544   22735090.6234
        49.000          43.000
 119753499.82447  93314418.52047  22788329.1874   22788331.8904   22788329.7214
        48.000          42.000
 125580281.88147  97854749.07647  23897143.0744   23897148.5084   23897143.6354
        43.000          38.000
 118559925.86647  92384350.71647  22561208.7064   22561211.8034   22561209.0414
        49.000          43.000
 127904687.90047  99665967.24747  24339472.0954   24339475.6914   24339472.1664
        40.000          35.000
 122844935.14547  95723324.31747  23376613.3174   23376613.5654   23376613.3504
        48.000          42.000
 105302092.33947  82053576.09547  20038323.4934   20038325.5674   20038323.8264
        54.000          49.000
 123444580.26247  96190556.33547  23490742.4534   23490746.4544   23490743.1044
        46.000          39.000
 120823797.19647  94148389.33447  22992022.0564   22992026.7774   22992022.1554
        47.000          41.000
 128890882.40547 100434436.78147  24527134.3634   24527136.0744   24527133.9054
        43.000          37.000
 126608958.58547  98656306.95447  24092902.1614   24092906.3894   24092902.2294
        45.000          39.000
 112434589.81747  87611363.62247  21395592.7514   21395594.9414   21395592.2694
        53.000          47.000
 09  1 13  1 17 30.0000000  0 12G30G18G 6G14G 9G22G21G 5G24G12G29G31
 119449030.82947  93077151.07747  22730407.0974   22730410.9174   22730406.8034
        49.000          43.000
 119715892.53047  93285114.15947  22781172.9944   22781175.4434   22781173.3344
        49.000          42.000
 125563213.88647  97841449.39847  23893895.1124   23893900.5464   23893895.6484
        44.000          38.000
 118599331.59147  92415056.52447  22568707.1304   22568710.2194   22568707.5864
        49.000          43.000
 128011291.95747  99749035.38447  24359757.4084   24359761.1424   24359758.3654
        40.000          35.000
 122797561.65547  95686409.95447  23367598.3684   23367598.7654   23367598.4114
        48.000          42.000
 105326888.11647  82072897.48847  20043041.9944   20043044.0054   20043042.3854
        54.000          49.000
 123446303.24347  96191898.95247  23491070.4064   23491074.0414   23491070.6044
        46.000          39.000
 120907297.78747  94213454.73147  23007911.3524   23007916.4494   23007911.5074
        47.000          40.000
 128906082.34047 100446280.95047  24530026.6514   24530028.6774   24530026.6674
        43.000          37.000
 126673681.50347  98706740.40447  24105218.8274   24105222.7004   24105219.0164
        44.000          39.000
 112362334.94547  87555061.16647  21381843.1914   21381845.3884   21381842.8184
        53.000          47.000
 09  1 13  1 18  0.0000000  0 12G30G18G 6G14G 9G22G21G 5G24G12G29G31
 119424529.78647  93058059.38847  22725744.4794   22725748.5804   22725744.4794
        49.000          43.000
 119678273.33647  93255800.52747  22774014.3764   22774016.3834   22774014.6194
        48.000          42.000
 125546367.74547  97828322.56947  23890689.4454   23890695.0224   23890689.5924
        43.000          38.000
 118638830.28547  92445834.77647  22576223.6104   22576226.6214   22576223.7474
        48.000          43.000
 128118055.67547  99832227.86347  24380074.5884   24380077.7474   24380074.1614
        39.000          35.000
 122750017.61547  95649362.68847  23358551.3794   23358551.3214   23358551.5644
        49.000          42.000
 105352289.68347  82092690.92347  20047875.8604   20047877.7234   20047876.3024
        54.000          49.000
 123448280.55647  96193439.75047  23491446.8344   23491450.5614   23491447.4394
        46.000          39.000
 120991090.72247  94278747.92347  23023856.8954   23023861.7074   23023856.8824
        47.000          41.000
 128921507.29747 100458300.45647  24532961.7614   24532963.9044   24532961.2524
        43.000          37.000
 126738216.19347  98757027.16847  24117499.1904   24117503.1034   24117498.9904
        44.000          39.000
 112290501.56247  87499087.14747  21368173.7604   21368175.9004   21368173.3184
        53.000          47.000
 09  1 13  1 18 30.0000000  0 12G30G18G 6G14G 9G22G21G 5G24G12G29G31
 119400148.22747  93039060.80547  22721105.3234   22721108.9024   22721104.8214
        50.000          43.000
 119640647.02047  93226481.33447  22766854.2754   22766856.4904   22766854.5994
        49.000          42.000
 125529744.59147  97815369.50047  23887526.2324   23887531.7684   23887526.0274
        42.000          38.000
 118678421.95647  92476685.49647  22583757.2424   22583760.6464   22583757.6544
        48.000          43.000
 128224978.92347  99915544.71847  24400421.2194   24400424.7944   24400420.6264
        40.000          35.000
 122702307.35947  95612185.90547  23349472.1674   23349472.7574   23349472.3314
        48.000          42.000
 105378299.20347  82112958.09447  20052825.2034   20052827.1384   20052825.5154
        54.000          49.000
 123450516.71147  96195182.25947  23491872.2214   23491875.5384   23491872.7494
        46.000          39.000
 121075176.05247  94344268.95547  23039857.6764   23039862.5454   23039857.7924
        47.000          41.000
 128937161.28747 100470498.43647  24535940.4574   24535942.7014   24535940.4594
        43.000          38.000
 126802564.43147  98807168.64747  24129744.3004   24129748.1614   24129743.9644
        43.000          39.000
 112219094.50547  87443445.33047  21354585.3624   21354587.4084   21354585.2804
        53.000          47.000
 09  1 13  1 19  0.0000000  0 12G30G18G 6G14G 9G22G21G 5G24G12G29G31
 119375888.62247  93020157.26147  22716488.9264   22716492.1824   22716488.6854
        50.000          43.000
 119603015.97447  93197158.46947  22759693.4854   22759695.5054   22759693.8924
        49.000          42.000
 125513343.18447  97802589.22147  23884404.9504   23884410.0814   23884405.1914
        42.000          38.000
 118718104.32147  92507606.85847  22591308.5844   22591311.9504   22591308.9114
        48.000          43.000
 128332059.03547  99998983.79647  24420797.8734   24420800.6634   24420797.7094
        40.000          35.000
 122654432.01747  95574880.47847  23340361.8764   23340362.2054   23340361.9514
        48.000          42.000
 105404916.09247  82133698.54047  20057890.1914   20057892.1844   20057890.5064
        54.000          49.000
 123453013.53147  96197127.87347  23492346.7884   23492351.2334   23492346.9894
        45.000          39.000
 121159551.97747  94410016.42647  23055914.2194   23055918.9854   23055914.4524
        47.000          41.000
 128953045.86447 100482876.09647  24538962.3664   24538964.8784   24538962.3534
        43.000          37.000
 126866725.07947  98857163.94547  24141953.8544   24141957.2854   24141953.7414
        44.000          39.000
 112148116.53047  87388137.85147  21341078.8184   21341080.7534   21341078.1464
        53.000          48.000
 09  1 13  1 19 30.0000000  0 12G30G18G 6G14G 9G22G21G 5G24G12G29G31
 119351750.72547  93001348.54647  22711895.7044   22711899.1674   22711895.3984
        50.000          43.000
 119565379.81147  93167831.59747  22752531.2464   22752533.5254   22752531.7244
        49.000          42.000
 125497159.56547  97789978.65447  23881325.0764   23881330.7394   23881324.8784
        42.000          38.000
 118757871.76447  92538594.52147  22598876.4104   22598879.4834   22598876.6374
        48.000          43.000
 128439290.24547 100082540.50747  24441203.6124   24441205.9504   24441203.6474
        40.000          35.000
 122606390.37847  95537445.47847  23331219.7074   23331220.1234   23331219.6684
        48.000          42.000
 105432136.36247  82154909.15047  20063070.1144   20063072.0314   20063070.5614
        54.000          49.000
 123455770.27147  96199276.02847  23492871.2404   23492875.6774   23492871.6944
        45.000          39.000
 121244213.52147  94475986.46047  23072024.9114   23072029.6714   23072025.1274
        48.000          41.000
 128969159.99347 100495432.61147  24542029.3794   24542031.7014   24542029.1514
        43.000          37.000
 126930694.22047  98907010.01747  24154127.1024   24154130.4894   24154126.8414
        45.000          39.000
 112077567.69347  87333164.77447  21327653.7684   21327655.7294   21327653.5254
        53.000          48.000
 09  1 13  1 20  0.0000000  0 12G30G18G 6G14G 9G22G21G 5G24G12G29G31
 119327741.19247  92982639.87447  22707326.9214   22707329.5994   22707326.6154
        50.000          43.000
 119527744.67947  93138505.52247  22745369.7324   22745371.6474   22745370.1354
        49.000          42.000
 125481196.40247  97777539.85647  23878287.4394   23878293.0024   23878287.8754
        43.000          38.000
 118797726.30047  92569650.05547  22606460.3034   22606463.2684   22606460.3874
        48.000          43.000
 128546674.49247 100166216.58947  24461637.6764   24461640.5104   24461638.2964
        41.000          34.000
 122558187.58347  95499884.90447  23322046.8184   23322047.2134   23322046.8884
        48.000          42.000
 105459963.86647  82176592.93547  20068365.3404   20068367.4764   20068365.7314
        54.000          49.000
 123458793.02047  96201631.45847  23493446.5404   23493451.2104   23493447.1944
        46.000          39.000
 121329162.54347  94542180.50347  23088190.1324   23088194.7784   23088190.5914
        47.000          41.000
 128985509.29847 100508172.40147  24545140.5614   24545142.3684   24545140.6114
        44.000          38.000
 126994475.07047  98956709.37147  24166264.3334   24166267.7104   24166263.8504
        45.000          39.000
 112007454.43647  87278531.11247  21314311.3914   21314313.6604   21314311.0404
        53.000          48.000
 09  1 13  1 20 30.0000000  0 12G30G18G 6G14G 9G22G21G 5G24G12G29G31
 119303857.61747  92964029.34047  22702781.7344   22702784.8404   22702781.5814
        50.000          43.000
 119490108.28747  93109178.48347  22738207.6604   22738209.8254   22738208.0394
        48.000          42.000
 125465447.20047  97765267.80547  23875290.2694   23875296.6224   23875290.0704
        43.000          38.000
 118837660.31447  92600767.50847  22614059.2244   22614062.4274   22614059.3264
        48.000          43.000
 128654203.82247 100250005.75847  24482099.9334   24482103.5224   24482099.8274
        40.000          34.000
 122509819.86547  95462195.81347  23312842.7004   23312842.9774   23312842.6184
        48.000          41.000
 105488392.33047  82198744.99847  20073775.0814   20073777.3254   20073775.4724
        54.000          49.000
 123462078.55447  96204191.65347  23494072.0424   23494076.2884   23494072.6504
        46.000          40.000
 121414391.97647  94608593.04847  23104408.6274   23104413.6444   23104408.5604
        47.000          41.000
 129002090.25647 100521092.67847  24548296.0264   24548297.9214   24548295.9854
        43.000          37.000
 127058061.92447  99006257.57447  24178363.8894   24178367.5144   24178363.7944
        44.000          38.000
 111937774.16847  87224234.83047  21301051.7624   21301054.0314   21301051.2814
        53.000          48.000
 09  1 13  1 21  0.0000000  0 12G30G18G 6G14G 9G22G21G 5G24G12G29G31
 119280107.55447  92945522.84047  22698262.4774   22698265.6844   22698262.2764
        50.000          43.000
 119452477.76947  93079856.01047  22731046.6534   22731049.0474   22731046.9944
        48.000          42.000
 125449915.83247  97753165.46147  23872334.6834   23872340.2494   23872335.2014
        43.000          38.000
 118877676.76247  92631949.20747  22621674.5644   22621677.5234   22621674.7524
        49.000          43.000
 138761900.97057  90333931.30157  24502589.1895   24502592.9085   24502589.4125
        39.000          33.000
 122461294.27647  95424383.69447  23303608.2634   23303609.0354   23303608.2434
        47.000          41.000
 105517426.39747  82221368.95547  20079300.2344   20079302.2644   20079300.5514
        54.000          49.000
 123465633.81747  96206962.02747  23494748.0854   23494752.3144   23494748.6584
        45.000          40.000
 121499904.39747  94675226.09247  23120681.1264   23120686.0524   23120681.1114
        47.000          41.000
 129018909.72447 100534198.84447  24551496.2874   24551498.9024   24551495.8144
        43.000          37.000
 127121458.52847  99055657.52647  24190427.8054   24190431.3554   24190427.4624
        44.000          38.000
 111868534.67347  87170282.02347  21287875.7644   21287878.2674   21287875.7734
        53.000          48.000
 09  1 13  1 21 30.0000000  0 11G30G18G 6G14G22G21G 5G24G12G29G31
 119256488.72147  92927118.61247  22693767.6394   22693771.0514   22693767.5834
        50.000          43.000
 119414850.88847  93050536.35647  22723886.5364   22723888.8864   22723886.7784
        49.000          42.000
 125434596.43647  97741228.31147  23869419.4264   23869425.7894   23869419.5474
        43.000          38.000
 118917768.63247  92663189.67747  22629303.7234   22629306.6104   22629303.9854
        49.000          43.000
 122412607.86347  95386446.26347  23294343.7764   23294344.3014   23294343.7024
        48.000          41.000
 105547060.83247  82244460.73447  20084939.6174   20084941.4334   20084940.0704
        54.000          49.000
 123469456.19247  96209940.54047  23495475.8574   23495480.0184   23495476.4634
        46.000          40.000
 121585693.33647  94742074.61447  23137005.8434   23137011.1284   23137006.0764
        47.000          41.000
 129035965.00247 100547488.74447  24554741.5524   24554743.8694   24554741.0494
        43.000          37.000
 127184659.43747  99104904.99447  24202454.6344   24202457.7284   24202453.9414
        43.000          38.000
 111799733.91247  87116671.08347  21274783.3824   21274785.7524   21274782.7824
        53.000          48.000
 09  1 13  1 22  0.0000000  0 11G30G18G 6G14G22G21G 5G24G12G29G31
 119233006.40247  92908820.76947  22689298.9714   22689302.4234   22689298.8554
        49.000          43.000
 119377233.16347  93021223.85547  22716728.2874   22716730.0344   22716728.8464
        49.000          42.000
 125419490.68047  97729457.62447  23866545.4634   23866550.6264   23866545.6944
        43.000          38.000
 118957936.42147  92694489.30247  22636947.2064   22636950.2724   22636947.3984
        48.000          43.000
 122363764.45147  95348386.49447  23285049.1054   23285049.7654   23285049.0844
        47.000          41.000
 105577297.07347  82268021.45347  20090693.4404   20090695.1254   20090693.8824
        54.000          49.000
 123473550.66247  96213131.08647  23496255.2624   23496258.8534   23496255.4924
        46.000          40.000
 121671759.48447  94809139.13447  23153383.8334   23153389.0314   23153384.0224
        47.000          41.000
 129053260.12347 100560965.51047  24558032.9714   24558035.2884   24558032.3834
        43.000          37.000
 127247667.12447  99154001.90247  24214444.2164   24214448.0674   24214444.0584
        44.000          38.000
 111731377.44947  87063406.35347  21261775.6594   21261777.7964   21261775.5444
        53.000          48.000
 09  1 13  1 22 30.0000000  0 11G30G18G 6G14G22G21G 5G24G12G29G31
 119209659.93047  92890628.77547  22684856.1174   22684859.7804   22684855.9244
        50.000          43.000
 119339623.67847  92991917.77147  22709571.5104   22709573.4064   22709572.0394
        49.000          42.000
 125404594.00747  97717849.85947  23863710.7304   23863715.7274   23863710.7094
        44.000          38.000
 118998174.03547  92725843.34047  22644603.9374   22644606.8564   22644604.1594
        48.000          42.000
 122314762.47147  95310203.16947  23275724.1664   23275724.8334   23275724.0754
        48.000          42.000
 105608131.33347  82292048.16047  20096560.8494   20096562.6314   20096561.2404
        54.000          49.000
 123477915.89647  96216532.57847  23497085.6844   23497089.7984   23497085.8454
        46.000          40.000
 121758097.43247  94876415.46847  23169813.2024   23169818.6214   23169813.4354
        46.000          40.000
 129070793.24547 100574627.74047  24561369.0334   24561371.7394   24561368.8204
        42.000          37.000
 127310477.40747  99202944.99247  24226396.5364   24226400.3784   24226396.2524
        43.000          38.000
 111663464.32947  87010487.08247  21248852.0324   21248854.2394   21248851.5054
        53.000          48.000
 09  1 13  1 23  0.0000000  0 11G30G18G 6G14G22G21G 5G24G12G29G31
 119186455.98647  92872547.83347  22680440.7464   22680444.1154   22680440.2824
        50.000          43.000
 119302029.31147  92962623.46447  22702417.5224   22702419.3814   22702417.7284
        48.000          42.000
 125389909.22847  97706407.20447  23860915.8924   23860921.7534   23860915.9824
        43.000          38.000
 119038483.92947  92757253.71147  22652274.5834   22652277.6744   22652275.0664
        49.000          42.000
 122265607.89847  95271900.93047  23266370.6414   23266371.0044   23266370.6034
        48.000          41.000
 105639566.45447  82316543.07047  20102542.6894   20102544.4404   20102543.1024
        54.000          49.000
 123482557.99747  96220149.83547  23497968.7724   23497973.0754   23497969.3284
        46.000          40.000
 121844709.20547  94943905.14247  23186294.9524   23186300.5524   23186295.1824
        47.000          40.000
 129088570.45847 100588480.18047  24564751.5094   24564754.2424   24564751.5204
        41.000          37.000
 127373093.67247  99251736.92547  24238312.2524   24238316.3104   24238312.2424
        44.000          38.000
 111596001.63747  86957918.80147  21236014.3804   21236016.4724   21236013.9724
        53.000          48.000
 09  1 13  1 23 30.0000000  0 11G30G18G 6G14G22G21G 5G24G12G29G31
 119163392.02947  92854575.99547  22676051.7414   22676055.0814   22676051.6164
        49.000          43.000
 119264446.79147  92933338.38847  22695265.7304   22695267.4444   22695266.1164
        49.000          42.000
 125375429.71547  97695124.48747  23858161.1344   23858166.2004   23858161.0774
        43.000          38.000
 119078858.22347  92788714.24547  22659957.6724   22659960.6304   22659958.0734
        48.000          43.000
 122216296.51547  95233476.51747  23256986.7454   23256987.1684   23256986.7834
        48.000          41.000
 105671596.58247  82341501.62247  20108637.6394   20108639.7414   20108637.9994
        54.000          49.000
 123487473.48947  96223980.11447  23498904.4294   23498908.8684   23498904.6104
        46.000          40.000
 121931587.38547  95011602.41047  23202827.3314   23202832.9214   23202827.6404
        47.000          40.000
 129106588.31547 100602520.10547  24568180.0604   24568183.2104   24568179.5544
        42.000          37.000
 127435509.54347  99300372.67047  24250189.5454   24250193.5184   24250189.0524
        44.000          38.000
 111528986.44247  86905699.21747  21223261.6644   21223263.7904   21223261.3674
        53.000          48.000
 09  1 13  1 24  0.0000000  0 11G30G18G 6G14G22G21G 5G24G12G29G31
 119140473.78347  92836717.68747  22671690.2974   22671693.5284   22671689.9154
        50.000          43.000
 119226881.74347  92904066.93047  22688117.3884   22688119.0034   22688118.1154
        50.000          42.000
 125361157.39547  97684003.21847  23855444.5494   23855450.4124   23855444.4574
        43.000          38.000
 119119297.75847  92820225.63547  22667653.1864   22667656.0924   22667653.4144
        49.000          43.000
 122166833.29547  95194933.76647  23247574.1764   23247574.8894   23247574.0784
        48.000          41.000
 105704223.95847  82366925.56447  20114846.2994   20114848.4524   20114846.6664
        54.000          49.000
 123492667.50747  96228027.41947  23499892.9324   23499896.8984   23499893.2724
        45.000          40.000
 122018732.70947  95079507.85447  23219410.6994   23219415.9604   23219410.7894
        47.000          40.000
 129124851.35247 100616751.11447  24571656.4624   24571658.4354   24571655.6334
        42.000          37.000
 127497727.54047  99348854.24247  24262029.7214   24262033.3874   24262029.7634
        44.000          38.000
 111462424.33547  86853832.68647  21210595.2984   21210597.4684   21210594.6994
        53.000          48.000
 09  1 13  1 24 30.0000000  0 11G30G18G 6G14G22G21G 5G24G12G29G31
 119117702.98847  92818974.27147  22667357.6094   22667360.4454   22667357.1824
        49.000          43.000
 119189336.32047  92874810.75747  22680972.8714   22680974.5314   22680973.1954
        49.000          42.000
 125347089.96647  97673041.60247  23852767.7644   23852773.3314   23852767.9744
        43.000          38.000
 119159799.26947  92851785.31547  22675360.1524   22675363.1994   22675360.2704
        48.000          43.000
 122117219.02047  95156273.32047  23238132.9544   23238133.3854   23238133.1504
        48.000          41.000
 105737446.79347  82392813.49447  20121168.4774   20121170.6524   20121168.8304
        54.000          49.000
 123498141.19147  96232292.65947  23500934.1314   23500938.7504   23500934.4214
        45.000          40.000
 122106142.40747  95147619.29247  23236044.6054   23236049.6134   23236044.5114
        46.000          40.000
 129143360.19347 100631173.60547  24575178.1714   24575180.1084   24575177.8644
        43.000          37.000
 127559745.86247  99397180.23747  24273830.7454   24273834.8574   24273830.5484
        42.000          38.000
 111396317.05047  86802320.56147  21198015.6144   21198017.7284   21198015.2594
        53.000          48.000
 09  1 13  1 25  0.0000000  0 11G30G18G 6G14G22G21G 5G24G12G29G31
 119095082.08147  92801347.64047  22663052.6434   22663056.1174   22663052.3714
        49.000          43.000
 119151812.25347  92845571.22847  22673831.9224   22673834.2194   22673832.3554
        49.000          42.000
 125333226.10547  97662238.62547  23850129.5504   23850134.9974   23850129.6884
        43.000          38.000
 119200360.74547  92883391.71947  22683078.8384   22683081.8544   22683078.9714
        49.000          43.000
 122067454.85847  95117496.09447  23228663.4124   23228663.2594   23228663.3644
        48.000          41.000
 105771264.21147  82419164.74247  20127603.7464   20127605.7564   20127604.2834
        54.000          49.000
 123503896.19547  96236777.10147  23502029.2754   23502033.8304   23502029.8224
        45.000          40.000
 122193814.16947  95215934.94947  23252727.4304   23252733.1474   23252727.5014
        46.000          40.000
 129162116.20647 100645788.74847  24578747.3324   24578749.3694   24578747.0494
        43.000          37.000
 127621564.16147  99445350.38447  24285594.6854   24285598.3724   24285594.0324
        44.000          38.000
 111330666.97047  86751164.71147  21185523.0734   21185524.9404   21185522.7964
        54.000          48.000
 09  1 13  1 25 30.0000000  0 11G30G18G 6G14G22G21G 5G24G12G29G31
 119072611.88247  92783838.45747  22658776.1454   22658779.8174   22658775.7914
        49.000          43.000
 119114310.89447  92816349.39747  22666695.6334   22666698.1424   22666696.2224
        50.000          43.000
 125319562.89547  97651591.99647  23847529.4694   23847535.1784   23847529.6914
        43.000          38.000
 119240978.13747  92915041.69447  22690807.9324   22690810.7704   22690808.2294
        48.000          43.000
 122017540.95947  95078602.18247  23219165.0624   23219165.0274   23219165.2934
        48.000          41.000
 105805673.36747  82445977.08047  20134151.7374   20134153.6224   20134152.1364
        54.000          49.000
 123509933.00747  96241481.12147  23503178.5494   23503182.4964   23503178.8604
        46.000          40.000
 122281744.42347  95284452.02947  23269459.7504   23269465.4234   23269459.8144
        46.000          40.000
 129181119.72447 100660596.73247  24582362.7934   24582365.6154   24582362.5374
        43.000          37.000
 127683179.77647  99493362.58847  24297319.6774   24297323.5384   24297318.8364
        44.000          38.000
 111265475.27047  86700366.03247  21173117.3504   21173119.4324   21173116.8344
        54.000          48.000
 09  1 13  1 26  0.0000000  0 11G30G18G 6G14G22G21G 5G24G12G29G31
 119050297.38647  92766450.58747  22654530.2794   22654533.2824   22654529.8354
        50.000          43.000
 119076836.82247  92787148.81547  22659564.9064   22659566.9494   22659565.7464
        50.000          42.000
 125306101.28947  97641102.44147  23844968.1474   23844973.2964   23844968.0834
        42.000          37.000
 119281651.25947  92946735.10347  22698547.8004   22698550.4994   22698548.1034
        49.000          43.000
 121967481.23247  95039594.63347  23209639.0834   23209639.1024   23209639.0274
        48.000          41.000
 105840675.44647  82473251.43247  20140812.2734   20140814.3554   20140812.6334
        54.000          49.000
 123516255.70647  96246407.93647  23504381.3054   23504384.9444   23504381.9194
        45.000          39.000
 122369933.34747  95353170.65947  23286241.8734   23286247.3114   23286241.8784
        46.000          40.000
 129200374.22447 100675600.29747  24586027.7964   24586030.2244   24586026.9544
        43.000          37.000
 127744594.25847  99541218.05047  24309006.6624   24309009.8204   24309006.3434
        44.000          38.000
 111200746.42147  86649928.02547  21160799.8954   21160801.8284   21160799.7264
        54.000          48.000
 09  1 13  1 26 30.0000000  0 11G30G18G 6G14G22G21G 5G24G12G29G31
 119028140.35947  92749185.41147  22650313.8304   22650316.5374   22650313.4724
        50.000          43.000
 119039391.69147  92757970.79147  22652439.5084   22652441.3024   22652439.8604
        49.000          43.000
 125292838.99247  97630768.21647  23842444.0104   23842449.6784   23842443.9414
        43.000          37.000
 119322376.92947  92978469.45047  22706297.3684   22706300.6884   22706297.4934
        48.000          43.000
 121917276.45847  95000474.06447  23200084.8634   23200085.4284   23200085.0154
        47.000          41.000
 105876268.75047  82500986.47747  20147585.6204   20147587.4234   20147586.0204
        54.000          49.000
 123522865.31147  96251558.29747  23505639.2844   23505643.1154   23505639.7414
        45.000          39.000
 122458377.69547  95422088.32747  23303072.2084   23303077.5914   23303072.2584
        46.000          40.000
 129219880.57547 100690800.10947  24589739.2664   24589741.4304   24589739.5194
        43.000          37.000
 127805806.05747  99588915.59547  24320654.7614   24320658.4204   24320654.7774
        44.000          38.000
 111136481.57947  86599851.57347  21148570.5314   21148572.5744   21148569.9344
        54.000          48.000
 09  1 13  1 27  0.0000000  0 11G30G18G 6G14G22G21G 5G24G12G29G31
 119006140.44447  92732042.65147  22646127.4034   22646130.4894   22646127.2104
        50.000          43.000
 119001975.41647  92728815.26147  22645319.6204   22645321.1454   22645319.9084
        49.000          42.000
 125279772.10547  97620586.23947  23839957.0254   23839963.0874   23839957.4994
        43.000          37.000
 119363150.45947  93010241.09447  22714056.2874   22714059.6714   22714056.5904
        48.000          43.000
 121866925.85547  94961239.86247  23190503.2594   23190503.7724   23190503.0764
        47.000          41.000
 105912449.30147  82529179.11847  20154470.3984   20154472.4334   20154470.7434
        54.000          49.000
 123529760.94547  96256931.55447  23506950.9404   23506955.1134   23506951.5134
        45.000          39.000
 122547072.54947  95491201.18747  23319950.5234   23319955.5494   23319950.3784
        46.000          40.000
 129239637.43047 100706195.11247  24593499.1014   24593500.6464   24593498.8114
        43.000          37.000
 127866811.76647  99636452.55847  24332263.6684   24332267.6524   24332263.4724
        43.000          38.000
 111072681.28447  86550137.11347  21136429.8084   21136431.8004   21136429.5034
        54.000          48.000
 09  1 13  1 27 30.0000000  0 11G30G18G 6G14G22G21G 5G24G12G29G31
 118984301.80847  92715025.57947  22641972.0474   22641974.5204   22641971.5884
        50.000          43.000
 118964591.95747  92699685.29347  22638205.2554   22638207.4574   22638205.7774
        49.000          42.000
 125266900.65447  97610556.56347  23837507.8414   23837513.4424   23837508.4204
        44.000          38.000
 119403971.02047  93042049.38947  22721823.9474   22721827.1034   22721824.0014
        48.000          42.000
 121816432.21547  94921894.18547  23180895.0654   23180895.0364   23180895.3114
        48.000          41.000
 105949217.42947  82557829.61247  20161467.1864   20161469.1644   20161467.6494
        54.000          49.000
 123536945.94747  96262530.28947  23508318.3144   23508322.2464   23508318.7054
        46.000          39.000
 122636017.26547  95560508.73447  23336875.9304   23336881.1824   23336876.2284
        46.000          40.000
 129259647.86547 100721787.70947  24597307.2634   24597308.3294   24597306.9294
        43.000          37.000
 127927612.33747  99683829.67847  24343833.5824   24343837.9994   24343833.7294
        44.000          38.000
 111009348.89847  86500787.25247  21124378.0404   21124379.9374   21124377.6304
        54.000          48.000
 09  1 13  1 28  0.0000000  0 11G30G18G 6G14G22G21G 5G24G12G29G31
 118962629.49247  92698138.09947  22637847.5574   22637850.6934   22637847.3394
        50.000          43.000
 118927246.18147  92670584.70047  22631098.6494   22631100.7104   22631099.1594
        49.000          42.000
 125254226.02647  97600680.24347  23835096.3664   23835101.4664   23835096.3114
        43.000          38.000
 119444838.93347  93073894.57947  22729600.7554   22729604.0264   22729600.9864
        48.000          42.000
 121765799.76747  94882440.36747  23171259.5814   23171260.1674   23171260.0484
        47.000          41.000
 105986574.65247  82586939.13947  20168576.0394   20168578.0214   20168576.3754
        55.000          49.000
 123544424.87047  96268358.04347  23509741.4254   23509745.8534   23509742.0304
        45.000          39.000
 122725212.39147  95630011.39947  23353849.2924   23353854.5054   23353849.5174
        46.000          40.000
 129279916.18247 100737581.25947  24601163.8644   24601165.7154   24601163.3634
        42.000          37.000
 127988209.76947  99731048.51847  24355365.0634   24355368.5644   24355364.9964
        44.000          38.000
 110946489.74147  86451806.13747  21112416.3004   21112418.0174   21112415.8954
        54.000          48.000
 09  1 13  1 28 30.0000000  0 11G30G18G 6G14G22G21G 5G24G12G29G31
 118941120.74147  92681378.07447  22633754.4754   22633757.5774   22633754.4634
        50.000          43.000
 118889935.68547  92641511.59747  22623998.6364   22624000.2924   22623998.7524
        49.000          42.000
 125241741.39447  97590951.96647  23832720.7744   23832726.0044   23832720.6844
        44.000          38.000
 119485746.50647  93105770.67447  22737385.1254   22737388.4944   22737385.6024
        48.000          42.000
 121715025.02847  94842875.67047  23161597.6304   23161598.2134   23161597.6454
        47.000          41.000
 106024514.39047  82616502.57547  20175795.8764   20175797.6444   20175796.3744
        54.000          49.000
 123552194.22147  96274412.12247  23511220.1524   23511223.9464   23511220.4624
        46.000          39.000
 122814650.20247  95699703.19747  23370868.9704   23370873.8694   23370869.0434
        46.000          40.000
 129300438.22947 100753572.51647  24605068.6094   24605071.1904   24605068.4704
        42.000          37.000
 128048597.90747  99778104.28247  24366855.8424   24366859.7284   24366855.8414
        42.000          37.000
 110884100.84147  86403191.46347  21100543.7734   21100545.7104   21100543.4654
        54.000          48.000
 09  1 13  1 29  0.0000000  0 11G30G18G 6G14G22G21G 5G24G12G29G31
 118919782.26947  92664750.73147  22629693.8674   22629696.7784   22629693.4994
        50.000          43.000
 118852667.02947  92612471.10947  22616906.5174   22616908.8704   22616907.0544
        49.000          42.000
 125229449.41147  97581373.82847  23830381.4864   23830386.9714   23830381.2714
        44.000          38.000
 119526695.50847  93137679.05047  22745177.7194   22745180.6514   22745178.0584
        48.000          42.000
 121664113.86247  94803204.64847  23151909.8144   23151909.8244   23151909.6424
        47.000          41.000
 106063039.39247  82646522.06047  20183126.7464   20183128.8544   20183127.1194
        55.000          49.000
 123560259.78047  96280697.00547  23512754.8174   23512758.8804   23512755.4064
        46.000          39.000
 122904332.67047  95769585.63547  23387934.9674   23387939.8624   23387934.9674
        46.000          40.000
 129321219.78447 100769765.97947  24609023.2244   24609025.3244   24609023.1294
        42.000          37.000
 128108780.10647  99824999.56547  24378308.2984   24378311.8644   24378308.1634
        43.000          37.000
 110822188.25447  86354947.93247  21088762.2644   21088764.2844   21088761.8614
        54.000          48.000
 09  1 13  1 29 30.0000000  0 11G30G18G 6G14G22G21G 5G24G12G29G31
 118898613.03047  92648255.25047  22625665.2774   22625668.6214   22625665.3074
        50.000          43.000
 118815439.38047  92583462.56347  22609822.4394   22609824.4144   22609822.9744
        49.000          42.000
 125217345.45447  97571942.20247  23828078.0484   23828082.8944   23828078.0744
        44.000          38.000
 119567680.51047  93169615.47947  22752977.1064   22752979.7424   22752977.1134
        49.000          42.000
 121613064.43347  94763425.89247  23142195.2044   23142195.2294   23142195.4834
        47.000          41.000
 106102145.77447  82676994.56347  20190568.5604   20190570.6074   20190569.0254
        54.000          49.000
 123568620.07047  96287211.56447  23514345.7054   23514349.6364   23514346.5594
        46.000          39.000
 122994254.03947  95839654.20847  23405046.4014   23405051.3844   23405047.0474
        47.000          40.000
 129342259.01047 100786160.21147  24613027.3084   24613028.7984   24613027.1874
        41.000          37.000
 128168752.46847  99871731.34047  24389720.7384   24389724.7594   24389720.4914
        43.000          37.000
 110760751.47247  86307075.16547  21077071.1234   21077073.2104   21077070.6824
        54.000          48.000
 09  1 13  1 30  0.0000000  0 11G30G18G 6G14G22G21G 5G24G12G29G31
 118877617.98547  92631895.49947  22621670.1474   22621673.1974   22621669.6684
        50.000          43.000
 118778257.69647  92554489.83847  22602747.0024   22602749.1864   22602747.5774
        49.000          42.000
 125205430.60147  97562657.93247  23825810.2264   23825816.2024   23825810.5854
        43.000          38.000
 119608701.72047  93201580.11247  22760782.8264   22760785.6384   22760783.0354
        48.000          42.000
 121561880.56147  94723542.38447  23132454.8314   23132455.5304   23132454.6404
        47.000          41.000
 106141834.15147  82707920.56847  20198120.9654   20198122.9534   20198121.2754
        55.000          49.000
 123577279.38747  96293959.14447  23515993.4484   23515997.5684   23515993.8674
        46.000          39.000
 123084414.59147  95909909.15347  23422203.2704   23422208.6814   23422203.2064
        46.000          39.000
 129363559.53747 100802758.06547  24617080.8504   24617082.0304   24617080.8444
        42.000          37.000
 128228517.01947  99918301.16947  24401093.6584   24401097.2574   24401093.3284
        43.000          37.000
 110699795.07547  86259576.72247  21065471.4504   21065473.3694   21065471.0794
        54.000          48.000
 09  1 13  1 30 30.0000000  0 11G30G18G 6G14G22G21G 5G24G12G29G31
 118856797.22947  92615671.55147  22617708.0394   22617711.2874   22617707.6264
        50.000          43.000
 118741121.91147  92525552.88347  22595680.2404   22595682.6044   22595680.7584
        49.000          43.000
 125193700.78447  97553517.84847  23823578.5814   23823584.2404   23823578.5694
        43.000          38.000
 119649754.11947  93233569.04747  22768594.5184   22768597.3534   22768594.6424
        48.000          42.000
 121510561.92147  94683553.86647  23122689.7724   23122689.9754   23122689.7564
        48.000          41.000
 106182100.64447  82739297.05847  20205783.4324   20205785.3474   20205783.8154
        54.000          49.000
 123586236.70147  96300938.91647  23517697.7544   23517702.4024   23517698.5214
        46.000          39.000
 123174809.60547  95980346.81947  23439404.5654   23439410.3474   23439404.5464
        46.000          40.000
 129385120.34247 100819558.72447  24621182.8914   24621185.5864   24621182.9714
        41.000          37.000
 128288070.13147  99964706.24047  24412426.3344   24412429.9784   24412425.8774
        42.000          38.000
 110639318.67647  86212452.30547  21053963.2894   21053965.1104   21053962.8324
        54.000          48.000
 09  1 13  1 31  0.0000000  0 11G30G18G 6G14G22G21G 5G24G12G29G31
 118836156.11947  92599587.60347  22613780.5224   22613783.5984   22613780.2094
        50.000          43.000
 118704036.63947  92496655.28147  22588623.1844   22588625.4614   22588623.6244
        49.000          42.000
 125182156.71847  97544522.50247  23821381.6674   23821387.2004   23821381.5464
        44.000          38.000
 119690837.63647  93265582.24247  22776412.7814   22776415.2944   22776412.7304
        49.000          43.000
 121459112.24947  94643463.22947  23112899.1444   23112899.3554   23112899.3374
        48.000          41.000
 106222946.14647  82771124.71547  20213556.0174   20213557.8264   20213556.4174
        55.000          49.000
 123595496.11647  96308154.10447  23519459.6304   23519464.0194   23519460.0664
        46.000          39.000
 123265438.95447  96050967.06647  23456650.7874   23456656.7204   23456650.8254
        44.000          39.000
 129406945.10147 100836565.05447  24625336.4754   24625338.5824   24625336.4964
        42.000          37.000
 128347413.61547 100010947.97647  24423718.5994   24423722.9054   24423718.3174
        41.000          38.000
 110579326.77247  86165705.41547  21042547.0934   21042548.8214   21042546.7274
        54.000          48.000
 09  1 13  1 31 30.0000000  0 11G30G18G 6G14G22G21G 5G24G12G29G31
 118815694.75247  92583643.72147  22609886.7754   22609889.9764   22609886.3084
        50.000          43.000
 118667003.06347  92467797.94747  22581575.9714   22581577.9854   22581576.4234
        49.000          42.000
 125170795.56647  97535669.69447  23819219.6984   23819225.2414   23819220.0644
        43.000          38.000
 119731948.58847  93297616.78947  22784236.2544   22784238.6804   22784236.2084
        48.000          42.000
 121407532.07747  94603270.90547  23103083.8614   23103084.0444   23103083.6524
        48.000          42.000
 106264367.72447  82803401.26947  20221438.2204   20221440.2804   20221438.4994
        54.000          49.000
 123605057.88247  96315604.88647  23521278.9704   23521283.4304   23521279.2924
        46.000          39.000
 123356299.05947  96121767.12547  23473940.8614   23473946.5024   23473941.2174
        45.000          39.000
 129429033.70247 100853776.99047  24629539.4784   24629541.9674   24629539.2474
        41.000          37.000
 128406545.33647 100057024.68947  24434971.0454   24434975.2324   24434970.6964
        42.000          37.000
 110519820.20947  86119336.71347  21031223.3714   21031225.1294   21031223.0174
        54.000          48.000
 09  1 13  1 32  0.0000000  0 11G30G18G 6G14G22G21G 5G24G12G29G31
 118795415.12547  92567841.45347  22606027.6004   22606030.5014   22606027.3084
        50.000          43.000
 118630022.92747  92438982.24947  22574538.9144   22574540.7014   22574539.5654
        50.000          43.000
 125159614.90347  97526957.52547  23817091.8214   23817098.2014   23817091.7714
        44.000          38.000
 119773083.82047  93329670.25647  22792063.9414   22792066.4814   22792064.1594
        49.000          42.000
 121355821.67747  94562977.08647  23093243.5814   23093244.0594   23093243.5874
        47.000          41.000
 106306363.24347  82836125.04147  20229429.8924   20229431.8774   20229430.3964
        55.000          49.000
 123614922.77147  96323291.86747  23523156.5564   23523160.6234   23523157.0094
        46.000          39.000
 123447386.82647  96192744.59347  23491274.4824   23491279.9314   23491274.6514
        46.000          39.000
 129451386.37647 100871194.68347  24633792.3864   24633795.1384   24633792.6484
        40.000          36.000
 128465463.91447 100102935.32047  24446182.6904   24446186.8974   24446182.9494
        42.000          38.000
 110460800.33947  86073347.25447  21019992.3014   21019993.9814   21019992.0634
        54.000          48.000
 09  1 13  1 32 30.0000000  0 11G30G18G 6G14G22G21G 5G24G12G29G31
 118775321.18747  92552183.88347  22602203.7274   22602206.6434   22602203.2934
        50.000          43.000
 118593100.24047  92410211.32647  22567512.8224   22567514.4514   22567513.4024
        50.000          42.000
 125148614.93247  97518386.14047  23814998.9014   23815004.1914   23814999.0794
        43.000          38.000
 119814242.57747  93361742.06347  22799895.9104   22799898.5364   22799896.2114
        48.000          42.000
 121303984.45947  94522584.45347  23083378.9674   23083379.8124   23083379.1114
        47.000          41.000
 106348932.76347  82869296.09747  20237530.4754   20237532.5534   20237530.7864
        54.000          49.000
 123625093.99047  96331217.53947  23525091.6754   23525095.8284   23525092.6834
        46.000          39.000
 123538701.40947  96263898.79747  23508651.2194   23508656.6574   23508651.2564
        46.000          39.000
 129474006.18447 100888820.54847  24638096.3144   24638099.4934   24638096.1174
        39.000          36.000
 128524170.19347 100148680.49947  24457354.4544   24457358.1214   24457354.4204
        42.000          38.000
 110402270.91747  86027739.95847  21008854.2484   21008856.2304   21008853.8964
        54.000          48.000
 09  1 13  1 33  0.0000000  0 11G30G18G 6G14G22G21G 5G24G12G29G31
 118755413.45847  92536671.41947  22598415.7644   22598418.3674   22598415.4524
        50.000          43.000
 118556235.59047  92381485.63247  22560497.4894   22560499.4104   22560498.0644
        49.000          42.000
 125137791.99447  97509952.72847  23812939.4794   23812944.6724   23812939.4324
        44.000          38.000
 119855421.00547  93393829.20147  22807732.0004   22807734.3564   22807732.0914
        48.000          42.000
 121252020.25047  94482092.88047  23073490.5934   23073491.0194   23073490.7234
        48.000          41.000
 106392072.86447  82902911.75947  20245739.8344   20245741.7574   20245740.2494
        54.000          49.000
 123635571.35047  96339381.75547  23527085.7134   23527089.6574   23527086.6014
        45.000          39.000
 123630238.40447  96335226.29247  23526070.4304   23526075.6264   23526070.5324
        45.000          39.000
 129496892.34847 100906653.93447  24642451.8704   24642454.6434   24642451.3534
        40.000          36.000
 128582661.64247 100194258.30047  24468484.4624   24468488.7924   24468484.0884
        43.000          37.000
 110344231.91247  85982514.80747  20997809.8724   20997811.7314   20997809.4684
        54.000          48.000
 09  1 13  1 33 30.0000000  0 11G30G18G 6G14G22G21G 5G24G12G29G31
 118735696.55747  92521307.65947  22594663.3744   22594666.4134   22594663.0954
        50.000          43.000
 118519433.78547  92352808.92347  22553493.7494   22553496.4044   22553494.3554
        49.000          42.000
 125127147.08447  97501658.02247  23810913.8724   23810919.4254   23810914.3044
        44.000          39.000
 119896618.81647  93425931.43847  22815571.8414   22815574.0634   22815572.1294
        48.000          42.000
 121199933.12347  94441505.53947  23063578.8354   23063579.2214   23063578.9184
        48.000          42.000
 106435784.24947  82936972.57647  20254057.8354   20254059.8124   20254058.2714
        54.000          49.000
 123646358.65647  96347787.48047  23529138.3594   23529142.6484   23529138.8904
        45.000          39.000
 123721997.63247  96406726.97847  23543531.7384   23543536.7394   23543531.6444
        45.000          39.000
 129520048.96247 100924698.09447  24646858.9684   24646861.0674   24646858.4974
        42.000          36.000
 128640939.71047 100239669.83047  24479573.6884   24479578.4744   24479573.4634
        42.000          37.000
 110286687.80647  85937675.29547  20986859.3844   20986861.3894   20986858.9764
        54.000          48.000
 09  1 13  1 34  0.0000000  0 11G30G18G 6G14G22G21G 5G24G12G29G31
 118716171.67347  92506093.50647  22590947.7444   22590951.3194   22590947.2894
        50.000          43.000
 118482695.53247  92324181.71947  22546503.1094   22546505.3114   22546503.7124
        49.000          42.000
 125116677.09447  97493499.64147  23808921.1804   23808927.0494   23808921.0784
        44.000          38.000
 119937832.42247  93458045.98147  22823414.2154   22823417.0804   22823414.6534
        48.000          42.000
 121147723.32547  94400822.59747  23053643.6804   23053644.1214   23053643.7024
        48.000          42.000
 106480064.09847  82971476.35047  20262483.7764   20262486.0724   20262484.1034
        54.000          49.000
 123657456.19247  96356434.94447  23531250.4304   23531254.3644   23531251.0474
        45.000          40.000
 123813975.72847  96478398.20147  23561034.3324   23561039.7224   23561034.0654
        46.000          39.000
 129543475.56447 100942952.65947  24651317.4214   24651319.1724   24651316.6524
        41.000          36.000
 128699002.88647 100284913.87147  24490623.3594   24490627.3244   24490623.2004
        42.000          37.000
 110229639.50447  85893222.11947  20976003.3404   20976005.4424   20976002.9204
        54.000          48.000
 09  1 13  1 34 30.0000000  0 11G30G18G 6G14G22G21G 5G24G12G29G31
 118696841.25947  92491030.88747  22587269.4114   22587272.5694   22587268.9324
        50.000          43.000
 118446023.79547  92295606.33547  22539525.2384   22539526.8884   22539525.6204
        50.000          42.000
 125106380.58747  97485476.41647  23806961.6814   23806966.9604   23806962.0644
        43.000          38.000
 119979059.16847  93490170.77747  22831259.3204   22831261.9974   22831259.7394
        49.000          42.000
 121095392.70747  94360045.50347  23043685.7784   23043685.7694   23043685.9244
        48.000          42.000
 106524910.69947  83006421.75447  20271017.8234   20271020.0324   20271018.2774
        54.000          49.000
 123668865.44947  96365325.29747  23533421.4424   23533425.6384   23533421.7974
        46.000          40.000
 123906170.27747  96550238.08047  23578578.3954   23578583.9744   23578578.4954
        46.000          39.000
 129567173.30947 100961418.49947  24655826.5624   24655827.7584   24655825.9494
        41.000          36.000
 128756850.31447 100329989.82947  24501631.6054   24501635.1904   24501631.2884
        42.000          37.000
 110173088.75647  85849156.64247  20965242.2144   20965243.9384   20965241.8554
        54.000          48.000
 09  1 13  1 35  0.0000000  0 11G30G18G 6G14G22G21G 5G24G12G29G31
 118677706.49647  92476120.72847  22583628.0784   22583631.2444   22583627.4514
        50.000          43.000
 118409419.82347  92267083.75047  22532559.4844   22532561.1544   22532560.0424
        49.000          42.000
 125096254.76647  97477586.21647  23805034.7354   23805040.4704   23805034.7604
        44.000          39.000
 120020295.92747  93522303.35847  22839106.4264   22839109.1214   22839106.6064
        48.000          43.000
 121042941.40347  94319174.36847  23033704.2054   23033704.5024   23033704.1554
        49.000          42.000
 106570321.30047  83041806.63747  20279659.1494   20279661.4254   20279659.4914
        54.000          49.000
 123680586.90047  96374458.93447  23535651.9274   23535656.3034   23535652.5204
        45.000          40.000
 123998577.49447  96622243.68847  23596163.1114   23596168.0764   23596163.1124
        45.000          39.000
 129591142.30947 100980095.69647  24660387.7944   24660389.6144   24660387.2104
        42.000          36.000
 128814480.24047 100374896.29347  24512597.7954   24512601.2814   24512597.1104
        42.000          37.000
 110117036.70247  85805479.75747  20954575.9234   20954577.6104   20954575.5124
        54.000          48.000
 09  1 13  1 35 30.0000000  0 11G30G18G 6G14G22G21G 5G24G12G29G31
 118658771.46347  92461366.20847  22580024.8794   22580027.8764   22580024.5904
        50.000          43.000
 118372888.01947  92238617.41747  22525607.5764   22525609.7494   22525607.8504
        49.000          42.000
 125086300.21347  97469829.46347  23803140.6284   23803146.0944   23803141.1284
        44.000          39.000
 120061542.37347  93554443.48147  22846955.4614   22846958.3974   22846955.3474
        48.000          43.000
 120990373.67447  94278212.51847  23023700.6964   23023701.1474   23023700.7824
        48.000          42.000
 106616296.27247  83077631.29147  20288407.9764   20288409.9614   20288408.3664
        54.000          49.000
 123692624.06547  96383838.57647  23537942.5724   23537946.6264   23537942.7434
        45.000          39.000
 124091196.94147  96694414.67147  23613787.8464   23613792.7354   23613787.8194
        45.000          39.000
 129615385.72147 100998986.72047  24665000.7284   24665003.1994   24665000.7544
        41.000          36.000
 128871894.01647 100419634.31247  24523523.4364   24523527.5944   24523523.4054
        42.000          37.000
 110061487.31847  85762194.56447  20944005.1434   20944006.8714   20944004.6984
        54.000          48.000
 09  1 13  1 36  0.0000000  0 11G30G18G 6G14G22G21G 5G24G12G29G31
 118640037.40847  92446768.29347  22576459.6874   22576463.2284   22576459.1534
        50.000          43.000
 118336429.25847  92210207.99847  22518669.6614   22518671.8524   22518669.8294
        49.000          43.000
 125076513.43647  97462203.44247  23801278.1354   23801283.5444   23801278.4594
        44.000          38.000
 120102794.67147  93586588.18347  22854805.3774   22854808.2434   22854805.7634
        48.000          42.000
 120937689.39947  94237159.85447  23013675.2674   23013675.8014   23013675.4654
        49.000          43.000
 106662832.21447  83113893.06347  20297263.4654   20297265.5564   20297263.8904
        54.000          49.000
 123704976.88347  96393464.17447  23540292.9414   23540297.6264   23540293.3284
        45.000          39.000
 124184025.03047  96766748.23747  23631452.5624   23631457.5844   23631452.7984
        46.000          39.000
 129639903.29647 101018091.36847  24669666.4424   24669668.6964   24669666.0404
        41.000          36.000
 128929089.33847 100464202.12647  24534407.2764   24534410.9644   24534407.1824
        41.000          37.000
 110006440.75747  85719301.17747  20933530.0644   20933531.8964   20933529.6734
        54.000          49.000
 09  1 13  1 36 30.0000000  0 11G30G18G 6G14G22G21G 5G24G12G29G31
 118621505.19747  92432327.66447  22572933.1774   22572936.1384   22572933.0414
        50.000          43.000
 118300044.47247  92181856.20547  22511746.2704   22511747.9884   22511746.8514
        50.000          43.000
 125066891.41947  97454705.79447  23799447.3824   23799452.8654   23799447.4954
        43.000          38.000
 120144048.79047  93618734.31347  22862655.8664   22862658.1964   22862656.1354
        48.000          42.000
 120884888.69847  94196016.45747  23003627.8864   23003628.2254   23003627.9494
        49.000          43.000
 106709925.86947  83150589.41847  20306225.0274   20306227.3474   20306225.4084
        54.000          49.000
 123717645.17047  96403335.57247  23542703.4354   23542707.7094   23542704.3054
        44.000          39.000
 124277057.92147  96839241.39647  23649156.0334   23649161.1724   23649156.6474
        45.000          39.000
 129664694.37347 101037409.13747  24674384.8534   24674385.3454   24674384.3824
        41.000          36.000
 128986064.26347 100508598.18247  24545249.7694   24545253.1134   24545249.5504
        42.000          37.000
 109951897.34347  85676799.85347  20923150.8714   20923152.8224   20923150.4074
        54.000          49.000
 09  1 13  1 37  0.0000000  0 11G30G18G 6G14G22G21G 5G24G12G29G31
 118603181.27647  92418049.34147  22569446.1864   22569449.1574   22569445.8524
        50.000          43.000
 118263740.82647  92153567.65647  22504837.7024   22504839.6764   22504838.1754
        49.000          43.000
 125057437.21147  97447338.92547  23797648.1764   23797653.1714   23797647.8464
        44.000          38.000
 120185307.09947  93650883.67347  22870506.7274   22870509.4554   22870506.9424
        48.000          42.000
 120831977.98347  94154787.35047  22993559.4624   22993559.7474   22993559.6144
        49.000          43.000
 106757580.08847  83187722.57447  20315293.3144   20315295.6494   20315293.7624
        54.000          49.000
 123730634.98647  96413457.53047  23545175.6164   23545179.2294   23545176.0494
        45.000          39.000
 124370297.72747  96911895.76447  23666898.5824   23666904.4694   23666899.0074
        44.000          39.000
 129689764.75647 101056944.56747  24679154.3844   24679156.8814   24679154.8574
        39.000          35.000
 129042822.60447 100552825.47947  24556050.3994   24556054.0684   24556051.1644
        43.000          37.000
 109897863.81247  85634695.83547  20912868.5974   20912870.5114   20912868.1634
        54.000          49.000
 09  1 13  1 37 30.0000000  0 11G30G18G 6G14G22G21G 5G24G12G29G31
 118585063.85547  92403931.92347  22565998.5694   22566001.4374   22565998.2604
        50.000          43.000
 118227516.39747  92125340.82647  22497944.2974   22497946.3814   22497944.8574
        50.000          43.000
 125048144.60647  97440097.98647  23795879.7304   23795885.0654   23795879.9874
        44.000          38.000
 120226562.90647  93683031.10947  22878357.7414   22878360.2594   22878357.8444
        48.000          42.000
 120778954.28947  94113470.19647  22983469.3874   22983469.5254   22983469.5724
        49.000          43.000
 106805788.18247  83225287.32247  20324467.1204   20324469.4614   20324467.5044
        54.000          49.000
 123743943.40347  96423827.74047  23547708.2254   23547712.1534   23547708.9644
        45.000          39.000
 124463737.06447  96984705.61847  23684679.5544   23684685.2984   23684679.6984
        43.000          39.000
 129715111.06747 101076694.97247  24683978.2234   24683980.6044   24683977.8504
        40.000          35.000
 129099359.56047 100596880.23947  24566808.8414   24566812.2124   24566808.6124
        42.000          37.000
 109844337.44247  85592987.00347  20902682.9014   20902684.7784   20902682.5654
        54.000          49.000
 09  1 13  1 38  0.0000000  0 11G30G18G 6G14G22G21G 5G24G12G29G31
 118567159.18047  92389980.27447  22562591.1724   22562594.7034   22562590.9664
        50.000          43.000
 118191377.25147  92097180.45347  22491067.5284   22491069.4024   22491067.8564
        50.000          43.000
 125039015.75247  97432984.63247  23794142.7844   23794147.8884   23794143.3874
        44.000          38.000
 120267817.72247  93715177.77247  22886208.2104   22886210.5294   22886208.3274
        48.000          42.000
 120725823.38547  94072069.50747  22973358.6124   22973358.8534   22973358.7754
        49.000          43.000
 106854552.91747  83263285.81747  20333746.8604   20333748.9304   20333747.2844
        54.000          49.000
 123757575.66447  96434450.31547  23550302.3804   23550306.0974   23550303.1834
        45.000          39.000
 124557377.48447  97057672.16347  23702498.5624   23702504.7774   23702498.4514
        44.000          38.000
 129740738.40547 101096664.38647  24688855.4464   24688855.6264   24688854.5674
        40.000          35.000
 129155677.92647 100640764.69947  24577526.1894   24577529.5354   24577525.6514
        42.000          37.000
 109791324.12247  85551677.94947  20892594.6494   20892596.4694   20892594.1804
        54.000          49.000
 09  1 13  1 38 30.0000000  0 11G30G18G 6G14G22G21G 5G24G12G29G31
 118549464.60447  92376192.34147  22559223.9814   22559227.2584   22559223.7254
        50.000          43.000
 118155320.90047  92069084.59347  22484205.8504   22484208.0104   22484206.5324
        50.000          43.000
 125030044.18047  97425993.84647  23792434.7234   23792440.4914   23792434.7934
        43.000          38.000
 120309064.11247  93747317.86447  22894056.6694   22894059.1964   22894056.9834
        48.000          42.000
 120672581.91047  94030582.65747  22963227.0634   22963227.5804   22963227.0854
        49.000          43.000
 106903867.23947  83301712.56047  20343130.9974   20343132.9704   20343131.3754
        55.000          48.000
 123771528.12347  96445322.40747  23552957.0164   23552961.3764   23552957.6514
        45.000          39.000
 124651211.77547  97130789.79147  23720354.7354   23720360.4844   23720354.7044
        44.000          38.000
 129766642.67147 101116849.57647  24693783.6254   24693786.2034   24693783.4014
        41.000          35.000
 129211772.49347 100684474.74847  24588200.4084   24588203.7354   24588200.2754
        42.000          37.000
 109738820.35347  85510765.94647  20882603.4934   20882605.4594   20882603.2174
        54.000          49.000
 09  1 13  1 39  0.0000000  0 11G30G18G 6G14G22G21G 5G24G12G29G31
 118531987.42547  92362573.81147  22555897.9954   22555901.4224   22555897.6824
        50.000          43.000
 118119355.26547  92041059.42747  22477361.9204   22477364.0144   22477362.4424
        50.000          43.000
 125021233.34347  97419128.30547  23790758.2224   23790764.2194   23790758.1524
        44.000          39.000
 120350305.27247  93779453.87947  22901904.7524   22901907.5594   22901905.2704
        48.000          42.000
 120619236.93747  93989015.16147  22953075.8254   22953076.1084   22953076.0664
        49.000          42.000
 106953734.28747  83340569.99247  20352620.3744   20352622.5124   20352620.8634
        55.000          49.000
 123785807.63147  96456449.32347  23555674.8014   23555678.5074   23555675.2184
        45.000          39.000
 124745242.82447  97204060.74147  23738248.6074   23738253.7324   23738248.4124
        44.000          39.000
 129792830.18247 101137255.48347  24698767.3424   24698768.9924   24698767.6504
        40.000          35.000
 129267647.96447 100728014.06847  24598833.0884   24598836.6834   24598833.1164
        42.000          37.000
 109686833.28747  85470256.57147  20872710.6534   20872712.7114   20872710.2334
        54.000          49.000
 09  1 13  1 39 30.0000000  0 11G30G18G 6G14G22G21G 5G24G12G29G31
 118514726.68347  92349123.92447  22552613.6584   22552616.5164   22552613.2644
        50.000          43.000
 118083479.36947  92013104.17247  22470535.2444   22470537.3284   22470535.7924
        50.000          43.000
 125012578.07747  97412383.99547  23789111.5424   23789116.8314   23789111.5884
        44.000          38.000
 120391535.45447  93811581.33947  22909750.8014   22909753.2344   22909751.1494
        48.000          42.000
 120565786.89147  93947365.78947  22942904.7674   22942904.8424   22942904.8094
        49.000          42.000
 107004148.96047  83379854.14847  20362214.1844   20362216.0124   20362214.5564
        55.000          48.000
 123800412.04747  96467829.45147  23558453.6854   23558457.3144   23558454.2444
        45.000          39.000
 124839464.61947  97277480.34547  23756178.1624   23756183.6294   23756178.3104
        44.000          38.000
 129819298.71047 101157880.37447  24703803.5824   24703805.8854   24703803.0994
        40.000          35.000
 129323300.53347 100771379.67747  24609423.5334   24609427.4414   24609422.9294
        41.000          37.000
 109635361.48247  85430148.69747  20862915.8214   20862917.8364   20862915.5254
        54.000          49.000
 09  1 13  1 40  0.0000000  0 11G30G18G 6G14G22G21G 5G24G12G29G31
 118497689.39547  92335848.16247  22549371.5724   22549374.5044   22549371.2614
        50.000          43.000
 118047700.28247  91985224.34547  22463726.7574   22463728.6634   22463727.3034
        50.000          43.000
 125004081.48747  97405763.32947  23787495.0984   23787499.5464   23787495.0684
        44.000          38.000
 120432757.04047  93843702.11047  22917594.7564   22917597.4264   22917594.8334
        47.000          42.000
 120512238.16247  93905639.53047  22932714.5164   22932714.8974   22932714.5724
        49.000          42.000
 107055114.03047  83419567.18747  20371912.3684   20371914.3544   20371912.8004
        54.000          48.000
 123815347.36847  96479467.39347  23561295.5644   23561299.7014   23561295.8224
        45.000          39.000
 124933879.47447  97351050.38647  23774144.6564   23774150.7724   23774144.7964
        44.000          38.000
 129846053.64647 101178728.43947  24708894.6904   24708897.4484   24708894.2544
        40.000          36.000
 129378734.03547 100814574.58947  24619971.6144   24619975.7544   24619971.8844
        41.000          37.000
 109584411.33947  85390447.30647  20853220.5284   20853222.3254   20853219.9174
        54.000          49.000
 09  1 13  1 40 30.0000000  0 11G30G18G 6G14G22G21G 5G24G12G29G31
 118480869.88447  92322742.08447  22546170.9464   22546173.6354   22546170.8524
        50.000          43.000
 118012012.67847  91957415.82147  22456935.2024   22456937.6994   22456935.3644
        50.000          43.000
 124995734.24447  97399259.03247  23785906.0384   23785911.1714   23785906.1104
        44.000          38.000
 120473959.88647  93875808.25247  22925435.2984   22925437.9474   22925435.3664
        47.000          42.000
 120458584.97747  93863831.87147  22922505.1884   22922505.2264   22922504.9494
        49.000          42.000
 107106619.77147  83459701.52547  20381713.6354   20381715.6024   20381714.0334
        54.000          48.000
 123830607.23547  96491358.25247  23564199.5614   23564203.2794   23564199.9824
        44.000          39.000
 125028477.22247  97424762.93947  23792146.3234   23792151.6274   23792146.4354
        44.000          38.000
 129873088.43247 101199794.55747  24714038.5314   24714042.0644   24714038.5154
        40.000          36.000
 129433940.35947 100857592.48247  24630476.8384   24630481.8394   24630477.4744
        41.000          37.000
 109533976.81547  85351147.70747  20843622.9484   20843624.9894   20843622.8044
        54.000          49.000
 09  1 13  1 41  0.0000000  0 11G30G18G 6G14G22G21G 5G24G12G29G31
 118464274.71647  92309810.80547  22543012.9054   22543015.7984   22543012.5974
        50.000          43.000
 117976422.72947  91929683.38347  22450162.5584   22450165.1444   22450163.0724
        50.000          43.000
 124987538.40447  97392872.69447  23784346.2534   23784352.0064   23784345.9964
        43.000          38.000
 120515145.54947  93907901.02947  22933272.6534   22933275.3844   22933272.8194
        47.000          42.000
 120404832.39247  93821946.75747  22912276.1654   22912276.3244   22912276.2204
        49.000          42.000
 107158667.61347  83500258.28547  20391617.9104   20391619.9674   20391618.2914
        54.000          48.000
 123846196.85747  96503506.05447  23567165.6074   23567169.4314   23567165.8654
        44.000          39.000
 125123259.15447  97498619.00847  23810182.0554   23810187.7144   23810182.2184
        44.000          38.000
 129900407.83147 101221082.44847  24719237.1944   24719240.5704   24719237.7804
        41.000          36.000
 129488922.70147 100900435.82947  24640939.7364   24640944.2604   24640939.3924
        40.000          37.000
 109484063.27647  85312254.06447  20834124.6444   20834126.6744   20834124.1404
        54.000          49.000
 09  1 13  1 41 30.0000000  0 11G30G18G 6G14G22G21G 5G24G12G29G31
 118447906.54847  92297056.41647  22539898.2344   22539900.9404   22539897.8654
        50.000          43.000
 117940934.12547  91902029.90847  22443409.4274   22443411.4814   22443409.9704
        50.000          43.000
 124979492.90647  97386603.51947  23782815.5244   23782820.7624   23782815.9914
        44.000          38.000
 120556312.57347  93939979.27847  22941106.2734   22941109.2124   22941106.4504
        47.000          42.000
 120350983.15847  93779986.33347  22902029.0884   22902029.2114   22902029.0074
        49.000          42.000
 107211256.76347  83541236.83247  20401625.2884   20401627.4524   20401625.6094
        54.000          48.000
 123862118.10847  96515912.28047  23570195.8894   23570199.6954   23570196.2874
        45.000          39.000
 125218223.48047  97572617.22247  23828253.5734   23828258.8794   23828253.3824
        44.000          38.000
 129928013.79947 101242593.59747  24724490.4584   24724493.3334   24724490.2754
        40.000          36.000
 129543681.62147 100943105.11647  24651361.5624   24651364.2344   24651361.6184
        42.000          37.000
 109434673.26547  85273768.37047  20824726.0054   20824727.8704   20824725.6524
        54.000          49.000
 09  1 13  1 42  0.0000000  0 11G30G18G 6G14G22G21G 5G24G12G29G31
 118431767.62347  92284480.67147  22536826.8054   22536829.8194   22536826.3194
        50.000          43.000
 117905549.10247  91874457.14447  22436676.5124   22436678.1444   22436676.9244
        50.000          43.000
 124971595.95547  97380450.08747  23781312.9614   23781317.8434   23781313.1424
        44.000          38.000
 120597458.54647  93972041.12647  22948936.2534   22948938.6324   22948936.3734
        47.000          41.000
 120297039.60647  93737952.41147  22891763.9564   22891763.6684   22891764.0624
        48.000          42.000
 107264384.68647  83582635.20847  20411735.2534   20411737.2724   20411735.5654
        54.000          48.000
 123878372.12347  96528577.80247  23573289.0154   23573292.5294   23573289.1954
        45.000          39.000
 125313367.55847  97646755.47747  23846358.7164   23846364.2724   23846359.2444
        43.000          38.000
 129955906.93747 101264328.53747  24729799.4874   24729801.6964   24729799.4894
        40.000          36.000
 129598216.22347 100985599.60747  24661737.9654   24661742.6574   24661738.2814
        40.000          37.000
 109385808.40747  85235691.89047  20815427.4074   20815429.3474   20815427.0754
        54.000          49.000
 09  1 13  1 42 30.0000000  0 11G30G18G 6G14G22G21G 5G24G12G29G31
 118415859.94947  92272085.08747  22533799.7364   22533802.7634   22533799.5204
        50.000          43.000
 117870269.91247  91846966.86347  22429962.3824   22429964.8314   22429962.7554
        50.000          43.000
 124963845.73047  97374410.99047  23779837.6684   23779843.1904   23779837.9484
        44.000          38.000
 120638581.40947  94004084.95547  22956761.6934   22956764.1764   22956761.6384
        48.000          42.000
 120243002.71347  93695845.76047  22881480.9754   22881480.9214   22881481.1304
        48.000          42.000
 107318049.43647  83624451.88947  20421947.3824   20421949.3574   20421947.8454
        54.000          48.000
 123894960.13947  96541503.60447  23576445.6254   23576448.9144   23576445.5214
        45.000          39.000
 125408688.70847  97721031.73147  23864497.6304   23864502.8164   23864497.2244
        43.000          38.000
 129984088.10447 101286287.91647  24735161.9144   24735163.9324   24735161.6614
        40.000          35.000
 129652525.64547 101027918.61347  24672072.5264   24672076.3114   24672071.7574
        40.000          36.000
 109337469.97947  85198025.60947  20806228.8604   20806230.8034   20806228.4284
        54.000          49.000
 09  1 13  1 43  0.0000000  0 11G30G18G 6G14G22G21G 5G24G12G29G31
 118400184.99647  92259870.85247  22530816.7574   22530819.6014   22530816.5664
        50.000          43.000
 117835097.88947  91819560.09547  22423269.1464   22423271.9464   22423269.6644
        50.000          43.000
 124956239.46647  97368484.05147  23778390.8164   23778395.3464   23778390.8364
        43.000          38.000
 120679677.43047  94036107.86847  22964581.8404   22964584.5404   22964582.0624
        47.000          42.000
 120188873.44747  93653667.13947  22871179.9524   22871180.8534   22871180.2954
        48.000          42.000
 107372248.00447  83666684.53947  20432260.9584   20432263.0874   20432261.2544
        54.000          48.000
 123911882.43947  96554689.87047  23579665.6284   23579669.0624   23579666.3404
        45.000          39.000
 125504183.46447  97795443.26747  23882669.6814   23882675.2594   23882669.7714
        44.000          38.000
 130012557.29747 101308471.72147  24740579.3424   24740581.0224   24740579.0474
        40.000          35.000
 129706608.67147 101070061.22847  24682364.5944   24682368.2884   24682364.4294
        41.000          37.000
 109289658.74447  85160770.13047  20797130.7774   20797132.5944   20797130.5244
        54.000          49.000
 09  1 13  1 43 30.0000000  0 11G30G18G 6G14G22G21G 5G24G12G29G31
 118384746.51747  92247840.87947  22527879.2704   22527882.3424   22527879.2124
        50.000          43.000
 117800037.10247  91792240.00647  22416597.5614   22416599.9274   22416598.0764
        50.000          43.000
 124948776.78047  97362669.01447  23776970.3514   23776975.4064   23776970.0984
        44.000          38.000
 120720745.84147  94068109.27747  22972397.2824   22972399.5364   22972397.3914
        48.000          42.000
 120134655.22847  93611419.20347  22860862.7204   22860863.2674   22860862.9204
        48.000          42.000
 107426979.49247  83709332.44447  20442675.9784   20442678.0204   20442676.5414
        54.000          48.000
 123929141.52447  96568138.57547  23582950.0534   23582953.3154   23582950.8334
        45.000          39.000
 125599850.73347  97869989.21947  23900875.0134   23900879.7604   23900875.4964
        44.000          38.000
 130041316.61647 101330881.58747  24746051.8284   24746053.4464   24746051.1604
        40.000          35.000
 129760466.27347 101112028.18547  24692613.3024   24692617.4464   24692613.5014
        41.000          36.000
 109242377.57847  85123927.69447  20788133.3904   20788135.2884   20788132.9814
        54.000          49.000
 09  1 13  1 44  0.0000000  0 11G30G18G 6G14G22G21G 5G24G12G29G31
 118369547.04047  92235997.14647  22524986.8214   22524989.5364   22524986.3274
        50.000          43.000
 117765090.23547  91765008.67547  22409947.6074   22409949.6354   22409947.9394
        50.000          43.000
 124941456.27447  97356964.75847  23775577.6074   23775582.5324   23775578.1034
        43.000          38.000
 120761785.16747  94100088.02447  22980206.3984   22980208.6454   22980206.7314
        47.000          41.000
 120080349.74147  93569103.26247  22850529.1454   22850529.0994   22850529.0324
        49.000          42.000
 107482242.40347  83752394.44847  20453192.1424   20453194.1854   20453192.5224
        54.000          48.000
 123946739.10047  96581851.03447  23586298.6174   23586302.3194   23586299.1534
        45.000          39.000
 125695688.42547  97944667.97647  23919112.2554   23919117.0934   23919112.5754
        43.000          38.000
 130070367.88347 101353518.96947  24751580.5054   24751581.4084   24751579.9994
        42.000          36.000
 129814098.40847 101153819.42647  24702819.1634   24702823.2624   24702818.4664
        40.000          36.000
 109195628.58147  85087499.93247  20779237.4084   20779239.1054   20779237.0574
        54.000          49.000
 09  1 13  1 44 30.0000000  0 11G30G18G 6G14G22G21G 5G24G12G29G31
 118354586.01847  92224339.22947  22522139.6244   22522142.5764   22522139.3714
        50.000          43.000
 117730257.32647  91737866.12847  22403319.6044   22403321.2154   22403319.8414
        50.000          43.000
 124934273.98747  97351368.21847  23774210.4284   23774216.0824   23774210.0764
        44.000          38.000
 120802790.32147  94132040.12747  22988009.6744   22988011.8434   22988009.7874
        48.000          42.000
 120025956.73047  93526719.12147  22840178.3854   22840178.4304   22840178.5364
        49.000          42.000
 107538031.93647  83795866.80847  20463808.6424   20463810.5794   20463809.0614
        55.000          48.000
 123964673.91247  96595826.24747  23589711.2714   23589715.0344   23589711.9664
        45.000          39.000
 125791691.73347  98019475.79247  23937380.9234   23937386.0304   23937380.7814
        43.000          38.000
 130099709.18047 101376382.33747  24757164.0884   24757165.4614   24757163.4384
        41.000          35.000
 129867502.04847 101195432.65147  24712981.6694   24712986.0494   24712981.2914
        41.000          37.000
 109149410.71047  85051486.03247  20770442.4674   20770444.0774   20770441.9944
        54.000          49.000
 09  1 13  1 45  0.0000000  0 11G30G18G 6G14G22G21G 5G24G12G29G31
 118339870.26047  92212872.42547  22519339.2064   22519342.2664   22519338.8924
        49.000          43.000
 117695545.44347  91710817.89747  22396713.8394   22396715.7114   22396714.3364
        50.000          43.000
 124927232.25347  97345881.17447  23772871.0144   23772875.4074   23772870.7334
        44.000          38.000
 120843763.30247  94163967.15847  22995806.7524   22995808.7074   22995806.6274
        47.000          42.000
 119971482.27547  93484271.50247  22829812.2514   22829812.4494   22829812.2624
        49.000          42.000
 107594349.98247  83839750.99447  20474525.6824   20474527.6054   20474526.0564
        55.000          48.000
 123982951.42847  96610068.51847  23593188.8634   23593192.8314   23593189.3534
        44.000          39.000
 125887862.44547  98094414.04147  23955681.6604   23955686.8034   23955681.3884
        43.000          38.000
 130129345.35647 101399475.46347  24762802.9394   24762805.0584   24762802.7324
        40.000          35.000
 129920681.11247 101236870.85747  24723101.1744   24723105.4444   24723101.1324
        41.000          36.000
 109103729.64047  85015890.42847  20761749.4244   20761751.3684   20761749.1814
        54.000          49.000
 09  1 13  1 45 30.0000000  0 11G30G18G 6G14G22G21G 5G24G12G29G31
 118325397.41747  92201594.89647  22516585.2494   22516588.0584   22516584.8784
        50.000          43.000
 117660952.46847  91683862.32947  22390130.8404   22390132.7654   22390131.3414
        49.000          43.000
 124920325.13147  97340499.04147  23771556.3754   23771560.9754   23771556.2364
        44.000          38.000
 120884697.56147  94195864.03147  23003595.7094   23003598.2434   23003595.9514
        47.000          41.000
 119916923.59947  93441758.27047  22819430.0624   22819430.2094   22819430.0804
        49.000          42.000
 107651190.22447  83884042.09147  20485342.0374   20485343.9814   20485342.4434
        54.000          48.000
 124001568.41147  96624575.29847  23596731.8994   23596735.6774   23596732.3184
        45.000          39.000
 125984193.66647  98169477.36347  23974012.7044   23974018.3504   23974013.5754
        44.000          38.000
 130159273.02447 101422795.73647  24768498.1984   24768499.8634   24768497.6644
        41.000          35.000
 129973630.72747 101278130.30647  24733176.9764   24733181.2204   24733176.9204
        40.000          37.000
 109058582.27847  84980710.70447  20753158.3084   20753160.0504   20753158.0264
        55.000          49.000
 09  1 13  1 46  0.0000000  0 11G30G18G 6G14G22G21G 5G24G12G29G31
 118311169.95447  92190508.56947  22513877.6434   22513880.4104   22513877.2884
        50.000          43.000
 117626480.86247  91657001.34147  22383570.9624   22383572.9864   22383571.4114
        50.000          43.000
 124913550.75947  97335220.34247  23770267.2064   23770271.9694   23770267.0134
        44.000          38.000
 120925591.35847  94227729.38247  23011377.3724   23011379.8964   23011377.3714
        47.000          41.000
 119862283.26747  93399181.39047  22809032.3914   22809032.3274   22809032.2794
        49.000          43.000
 107708550.78947  83928738.63247  20496257.3274   20496259.3484   20496257.7644
        54.000          48.000
 124020526.15247  96639347.60647  23600339.3604   23600343.1324   23600339.8544
        45.000          39.000
 126080682.77547  98244663.71547  23992374.2574   23992378.7864   23992374.6094
        44.000          38.000
 130189493.06447 101446343.85947  24774249.7124   24774250.5304   24774248.9414
        41.000          35.000
 130026350.58747 101319210.75747  24743209.5274   24743213.3324   24743208.9394
        41.000          36.000
 109013970.54547  84945948.33947  20744668.9554   20744670.8324   20744668.2954
        55.000          49.000
 09  1 13  1 46 30.0000000  0 11G30G18G 6G14G22G21G 5G24G12G29G31
 118297193.16947  92179617.58547  22511218.2424   22511220.5794   22511217.7364
        50.000          43.000
 117592136.36947  91630239.38447  22377035.4894   22377037.7464   22377036.1234
        50.000          43.000
 124906910.36847  97330046.04447  23769003.5324   23769008.2944   23769003.6764
        43.000          38.000
 120966445.06647  94259563.46947  23019151.9264   23019154.2244   23019152.0564
        47.000          41.000
 119807565.59147  93356544.24447  22798619.8134   22798619.7994   22798620.0084
        49.000          43.000
 107766431.89047  83973840.78747  20507271.4644   20507273.6444   20507271.8264
        54.000          48.000
 124039828.67247  96654388.56947  23604012.4484   23604015.7794   23604013.0254
        45.000          39.000
 126177330.36947  98319973.55547  24010765.9254   24010770.4114   24010766.0604
        44.000          38.000
 130220009.38247 101470122.83247  24780056.6534   24780058.1654   24780055.8594
        42.000          35.000
 130078843.24847 101360114.11147  24753198.6104   24753202.0854   24753198.4894
        41.000          36.000
 108969898.83747  84911606.78247  20736282.2894   20736284.0554   20736282.0994
        54.000          49.000
 09  1 13  1 47  0.0000000  0 11G30G18G 6G14G22G21G 5G24G12G29G31
 118283467.28947  92168922.11647  22508605.7804   22508609.0844   22508605.6284
        50.000          43.000
 117557919.18747  91603576.64947  22370524.1204   22370526.1734   22370524.5804
        50.000          43.000
 124900400.32047  97324973.29947  23767764.5454   23767770.0504   23767763.8544
        44.000          38.000
 121007254.77247  94291363.28547  23026917.7214   23026920.0214   23026917.9284
        47.000          41.000
 119752770.59747  93313846.85347  22788192.7684   22788192.9034   22788192.8954
        49.000          43.000
 107824829.42947  84019345.36147  20518384.1284   20518386.3734   20518384.4764
        54.000          48.000
 124059475.24047  96669697.61847  23607751.4674   23607754.7344   23607751.9764
        45.000          39.000
 126274132.15747  98395403.55347  24029186.2814   24029191.4874   24029186.4384
        43.000          38.000
 130250820.96747 101494131.88947  24785919.9114   24785921.4424   24785919.0354
        42.000          35.000
 130131106.32247 101400838.58247  24763144.0664   24763147.6114   24763143.8474
        41.000          37.000
 108926366.52847  84877685.53947  20727998.2984   20728000.1374   20727997.8144
        54.000          49.000
 09  1 13  1 47 30.0000000  0 11G30G18G 6G14G22G21G 5G24G12G29G31
 118269993.21747  92158422.85447  22506042.3244   22506044.7374   22506042.0444
        50.000          43.000
 117523831.15347  91577014.54047  22364037.4294   22364039.3634   22364038.2344
        50.000          43.000
 124894017.90047  97320000.02347  23766549.9084   23766554.8654   23766550.8614
        44.000          38.000
 121048016.92847  94323126.04047  23034674.1774   23034676.6024   23034674.5914
        46.000          41.000
 119697899.39947  93271090.08547  22777750.9114   22777751.3064   22777750.9384
        49.000          43.000
 107883740.07347  84065249.75947  20529594.7234   20529596.6274   20529595.1134
        55.000          48.000
 124079465.94547  96685274.79947  23611555.5874   23611559.2264   23611555.8954
        45.000          39.000
 126371084.52947  98470950.87647  24047635.7684   24047640.6534   24047635.6274
        43.000          37.000
 130281927.60347 101518370.86247  24791838.0714   24791841.1564   24791838.2344
        40.000          35.000
 130183138.45947 101441383.08847  24773045.0344   24773049.2744   24773044.8224
        41.000          36.000
 108883373.78847  84844184.73547  20719816.9974   20719818.6524   20719816.5824
        55.000          49.000
 09  1 13  1 48  0.0000000  0 11G30G18G 6G14G22G21G 5G24G12G29G31
 118256776.80547  92148124.35747  22503527.1734   22503529.9254   22503526.7884
        50.000          43.000
 117489878.34447  91550557.81647  22357576.3904   22357578.3954   22357577.0484
        50.000          43.000
 124887764.99747  97315127.67447  23765359.8814   23765365.0804   23765359.7174
        44.000          38.000
 121088733.62347  94354853.37347  23042422.3424   23042424.5974   23042422.6904
        47.000          41.000
 119642957.63347  93228278.32447  22767296.0414   22767296.4304   22767296.0054
        49.000          43.000
 107943165.65647  84111555.40047  20540903.1284   20540904.9344   20540903.5254
        54.000          48.000
 124099805.63847  96701123.94047  23615425.7194   23615429.1794   23615426.5604
        45.000          39.000
 126468188.58747  98546616.39247  24066113.9334   24066119.4194   24066114.1434
        43.000          37.000
 130313333.18547 101542842.76947  24797815.0654   24797816.8284   24797814.6814
        40.000          35.000
 130234943.23547 101481750.48847  24782903.2834   24782907.8904   24782903.2164
        41.000          36.000
 108840925.97847  84811108.55747  20711739.4874   20711741.1094   20711739.1884
        54.000          49.000
