     2.11           OBSERVATION DATA    G (GPS)             RINEX VERSION / TYPE
teqc  2008Oct2      gpsops              20090125 00:09:57UTCPGM / RUN BY / DATE
    30.0000                                                 INTERVAL
     1     1                                                WAVELENGTH FACT L1/2
     7    L1    L2    P1    P2    C1    S1    S2            # / TYPES OF OBSERV
Linux 2.4.20-8|Pentium IV|gcc -static|Linux|486/DX+         COMMENT
     2.10           OBSERVATION DATA    GPS                 COMMENT
soc2rnx ver 1.20    gpsops              25-Jan-2009 00:09:49COMMENT
S1, if present, is the SNR for the C/A data stream on L1.   COMMENT
 SNR is mapped to RINEX snr flag value [1,4-9]              COMMENT
    SNR:   >316  >100  >31.6  >10  >3.2    >0 bad=0         COMMENT
L1 & L2:      9     8     7     6     5     4     1         COMMENT
                                                            COMMENT
This data is provided as a public service by NASA/JPL.      COMMENT
No warranty is expressed or implied regarding suitability   COMMENT
for use.  For further information, contact:                 COMMENT
Dave Stowers, NASA/JPL m/s 238-600                          COMMENT
4800 Oak Grove Drive, Pasadena CA 91109 USA                 COMMENT
                                                            COMMENT
Forced Modulo Decimation to 30 seconds                      COMMENT
  2009     1    24     0     0    0.0000000     GPS         TIME OF FIRST OBS
GGN                 JPL                                     OBSERVER / AGENCY
CR519992104         ASH701945B_M    SCIT                    ANT # / TYPE
   -33801.4662 -6377516.5323   -82154.3508                  APPROX POSITION XYZ
        0.0083        0.0000        0.0000                  ANTENNA: DELTA H/E/N
ZR220013847         ASHTECH UZ-12       CQ00                REC # / TYPE / VERS
GLPS                                                        MARKER NAME
42005M002                                                   MARKER NUMBER
                                                            END OF HEADER
 09  1 24  0  0  0.0000000  0 12G 5G 6G30G 9G14G24G21G18G29G12G31G22
 123897869.26147  96543768.23747  23576999.0314   23577006.2354   23577000.3954
        45.000          39.000
 127279454.16947  99178771.76147  24220492.4734   24220499.5124   24220493.9294
        42.000          37.000
 121189152.36347  94433096.12947  23061534.8614   23061539.1544   23061534.5064
        48.000          42.000
 121584153.84747  94740882.44947  23136709.8254   23136712.8964   23136709.1604
        46.000          40.000
 116299928.11147  90623318.22147  22131140.8354   22131143.1234   22131141.6274
        51.000          44.000
 116210853.55347  90553892.12247  22114205.0844   22114210.2684   22114204.9244
        50.000          44.000
 104993007.71747  81812727.27247  19979507.0754   19979509.3844   19979507.7124
        54.000          50.000
 122053799.55047  95106843.40047  23226076.4934   23226077.3904   23226075.4854
        48.000          41.000
 122005948.24047  95069560.65547  23216967.1204   23216970.3584   23216966.3354
        47.000          42.000
 128223276.32247  99914217.70847  24400097.7544   24400103.3314   24400096.9454
        44.000          38.000
 117712060.06247  91723678.75047  22399862.8814   22399866.9074   22399863.2664
        50.000          44.000
 125464638.64047  97764647.01047  23875132.1624   23875131.5024   23875131.7644
        45.000          39.000
 09  1 24  0  0 30.0000000  0 12G 5G 6G30G 9G14G24G21G18G29G12G31G22
 123887514.65147  96535699.73347  23575029.2314   23575035.2504   23575029.6784
        45.000          39.000
 127245511.56747  99152322.99347  24214034.9154   24214039.4174   24214034.7544
        42.000          37.000
 121161900.59447  94411861.00347  23056349.0114   23056353.4394   23056348.6514
        48.000          41.000
 121674617.12247  94811373.33447  23153923.6934   23153927.8904   23153923.8884
        46.000          40.000
 116328539.33247  90645612.68347  22136585.9464   22136588.7694   22136586.2274
        51.000          44.000
 116271402.75047  90601073.31247  22125726.9164   22125732.6194   22125726.9584
        50.000          44.000
 104978976.90847  81801794.16347  19976837.2524   19976839.6154   19976837.6084
        54.000          50.000
 122020813.64847  95081140.12047  23219798.1944   23219800.6134   23219798.7084
        48.000          41.000
 122079594.09947  95126947.02347  23230980.7524   23230984.9954   23230980.4744
        47.000          42.000
 128227265.44347  99917326.17247  24400856.7534   24400862.1474   24400856.2974
        44.000          38.000
 117618590.72247  91650845.55347  22382076.4124   22382079.5974   22382076.1644
        50.000          45.000
 125430009.87347  97737663.56847  23868541.7414   23868543.1214   23868541.8724
        45.000          39.000
 09  1 24  0  1  0.0000000  0 12G 5G 6G30G 9G14G24G21G18G29G12G31G22
 123877286.91347  96527730.07147  23573082.9284   23573089.3414   23573083.6684
        45.000          39.000
 127211860.51947  99126101.39347  24207631.1024   24207635.5724   24207630.8784
        43.000          37.000
 121134623.61147  94390606.22547  23051158.2484   23051162.6564   23051158.0674
        48.000          42.000
 121765419.68947  94882128.58447  23171202.6034   23171206.7374   23171202.7024
        47.000          40.000
 116357408.04447  90668107.79147  22142079.6364   22142082.3364   22142079.9304
        50.000          44.000
 116332368.53947  90648579.11047  22137328.2274   22137333.9644   22137328.6564
        51.000          44.000
 104965543.18247  81791326.31647  19974280.8634   19974283.2354   19974281.1914
        54.000          50.000
 121987696.78447  95055334.76947  23213496.5424   23213498.6884   23213496.8744
        47.000          40.000
 122153153.69347  95184266.17047  23244978.6884   23244982.8844   23244978.5794
        47.000          42.000
 128231369.30247  99920524.04047  24401638.4044   24401642.4424   24401638.2894
        44.000          38.000
 117525368.58647  91578204.98047  22364336.7504   22364340.0634   22364335.9764
        50.000          45.000
 125395160.64547  97710508.33347  23861910.5884   23861911.8584   23861910.4714
        46.000          39.000
 09  1 24  0  1 30.0000000  0 12G 5G 6G30G 9G14G24G21G18G29G12G31G22
 123867187.31747  96519860.27847  23571161.3544   23571167.0164   23571161.6934
        46.000          39.000
 127178499.14947  99100105.52447  24201282.3764   24201287.1364   24201282.5634
        42.000          37.000
 121107322.67947  94369332.80947  23045962.8234   23045967.4334   23045962.3794
        48.000          42.000
 121856557.83147  94953145.33147  23188545.9094   23188549.4894   23188546.0074
        46.000          40.000
 116386530.68947  90690800.77247  22147621.2384   22147624.1014   22147621.4144
        50.000          44.000
 116393748.89747  90696407.94647  22149008.6414   22149014.1754   22149008.9434
        50.000          44.000
 104952706.79947  81781323.92847  19971838.2994   19971840.4364   19971838.7494
        54.000          50.000
 121954449.94647  95029428.14047  23207169.6844   23207172.2474   23207170.0004
        48.000          41.000
 122226624.14747  95241515.85847  23258959.5794   23258964.0984   23258959.3094
        47.000          42.000
 128235588.92947  99923812.12147  24402440.7874   24402445.7074   24402440.6164
        43.000          38.000
 117432395.61247  91505758.56847  22346644.3984   22346647.6294   22346643.6224
        50.000          45.000
 125360091.00847  97683181.38047  23855237.1624   23855237.8964   23855236.6704
        45.000          39.000
 09  1 24  0  2  0.0000000  0 12G 5G 6G30G 9G14G24G21G18G29G12G31G22
 123857216.64147  96512090.94647  23569263.6504   23569269.6544   23569264.3794
        45.000          39.000
 127145425.56747  99074333.91247  24194988.5184   24194993.9964   24194988.2424
        42.000          37.000
 121079998.51447  94348041.26847  23040763.5004   23040768.0734   23040763.1574
        49.000          42.000
 121948028.15947  95024420.93747  23205951.9154   23205955.6594   23205952.3424
        46.000          40.000
 116415903.28047  90713688.50947  22153210.6484   22153213.8834   22153210.6374
        50.000          44.000
 116455540.96247  90744557.59647  22160767.3314   22160772.7774   22160767.6154
        51.000          44.000
 104940467.60147  81771786.88247  19969509.0774   19969511.4604   19969509.4444
        54.000          50.000
 121921073.00947  95003420.12447  23200818.2934   23200820.8634   23200818.7644
        48.000          41.000
 122300002.13147  95298693.48447  23272922.9084   23272927.6134   23272922.6534
        47.000          42.000
 128239924.45247  99927190.49947  24403265.9794   24403270.5404   24403265.6314
        43.000          38.000
 117339673.41947  91433507.57547  22328999.4994   22329003.0064   22328999.4534
        50.000          45.000
 125324799.62247  97655681.61347  23848521.0004   23848521.9484   23848520.7944
        46.000          39.000
 09  1 24  0  2 30.0000000  0 12G 5G 6G30G 9G14G24G21G18G29G12G31G22
 123847379.34747  96504425.55847  23567392.0124   23567397.5754   23567392.4744
        45.000          39.000
 127112641.36447  99048787.78947  24188750.0644   24188754.9204   24188750.1574
        42.000          37.000
 121052655.28947  94326734.87847  23035560.3074   23035564.7934   23035559.9394
        48.000          42.000
 122039829.94047  95095954.81147  23223421.3314   23223424.6744   23223421.2814
        45.000          39.000
 116445525.62747  90736770.86147  22158847.6054   22158850.5594   22158847.6704
        50.000          44.000
 116517745.14447  90793028.38047  22172604.6134   22172610.0864   22172604.5704
        50.000          44.000
 104928828.68247  81762717.59047  19967294.4574   19967296.8644   19967294.7834
        54.000          50.000
 121887569.99047  94977313.89247  23194443.1324   23194445.2184   23194443.4504
        48.000          40.000
 122373288.30447  95355799.57447  23286869.1014   23286873.4514   23286868.6904
        46.000          41.000
 128244380.51647  99930662.82147  24404113.7104   24404118.5144   24404113.8364
        43.000          38.000
 117247207.31647  91361456.11647  22311404.0734   22311407.1084   22311403.3294
        50.000          45.000
 125289289.52747  97628011.42247  23841763.5494   23841765.1964   23841763.2774
        46.000          39.000
 09  1 24  0  3  0.0000000  0 12G 5G 6G30G 9G14G24G21G18G29G12G31G22
 123837678.21447  96496866.25747  23565545.8614   23565551.3124   23565546.2994
        45.000          39.000
 127080146.54247  99023467.18347  24182566.5664   24182571.1794   24182566.2964
        43.000          37.000
 121025295.69147  94305415.73047  23030354.1874   23030358.4584   23030353.8204
        49.000          42.000
 122131961.25747  95167745.46647  23240953.2664   23240956.6594   23240953.6544
        45.000          39.000
 116475395.79047  90760046.32347  22164531.5794   22164534.7304   22164531.7174
        50.000          44.000
 116580360.77947  90841819.76247  22184519.8264   22184525.2454   22184519.9454
        50.000          44.000
 104917792.16847  81754117.70447  19965194.2114   19965196.7354   19965194.6834
        54.000          50.000
 121853943.22347  94951111.21247  23188044.1194   23188046.4054   23188044.7084
        48.000          41.000
 122446481.37947  95412833.13047  23300796.8024   23300801.6284   23300796.4804
        46.000          41.000
 128248959.66547  99934231.03947  24404984.9574   24404989.8164   24404984.8484
        43.000          38.000
 117155000.79147  91289606.93347  22293857.7624   22293860.9054   22293857.5774
        50.000          45.000
 125253561.01447  97600171.04847  23834964.7674   23834965.9644   23834964.8434
        46.000          39.000
 09  1 24  0  3 30.0000000  0 12G 5G 6G30G 9G14G24G21G18G29G12G31G22
 123828113.47647  96489413.24147  23563725.9954   23563731.3634   23563726.6804
        45.000          39.000
 127047938.46247  98998369.98447  24176438.1264   24176441.9774   24176438.6254
        43.000          37.000
 120997920.26447  94284084.24947  23025144.7314   23025149.1244   23025144.4524
        49.000          42.000
 122224417.63847  95239789.41547  23258547.3794   23258550.3574   23258547.4894
        45.000          39.000
 116505509.44347  90783511.51347  22170261.9554   22170265.2184   22170262.1834
        50.000          44.000
 116643384.37847  90890929.04747  22196513.2234   22196518.3724   22196513.4124
        51.000          44.000
 104907356.74447  81745986.19847  19963208.3774   19963210.8584   19963208.7924
        54.000          50.000
 121820192.03247  94924811.58547  23181621.3184   23181623.8544   23181622.0604
        48.000          41.000
 122519577.49647  95469791.12247  23314706.5104   23314711.2724   23314706.3094
        46.000          41.000
 128253661.77947  99937895.06647  24405880.2064   24405884.9314   24405879.7204
        43.000          38.000
 117063055.11247  91217961.01147  22276360.9934   22276364.2644   22276360.6124
        50.000          45.000
 125217613.89947  97572160.33347  23828124.1374   23828125.5094   23828124.4434
        46.000          39.000
 09  1 24  0  4  0.0000000  0 12G 5G 6G30G 9G14G24G21G18G29G12G31G22
 123818685.70747  96482066.94547  23561931.3934   23561937.1344   23561931.8684
        45.000          39.000
 127016014.82147  98973494.42947  24170362.3714   24170366.9074   24170362.2534
        43.000          37.000
 120970529.50647  94262740.82247  23019932.1744   23019936.4874   23019931.6344
        49.000          42.000
 122317194.97447  95312083.46347  23276202.5584   23276205.1794   23276202.3484
        45.000          39.000
 116535862.60647  90807163.33447  22176038.0084   22176041.1784   22176038.0454
        50.000          44.000
 116706812.61547  90940353.64147  22208582.9814   22208588.1784   22208583.3134
        51.000          44.000
 104897522.04747  81738322.79747  19961336.8924   19961339.4174   19961337.2454
        54.000          50.000
 121786316.61347  94898415.14647  23175175.2974   23175177.6364   23175175.4214
        48.000          41.000
 122592573.35947  95526670.98947  23328597.2904   23328601.8754   23328596.9504
        46.000          41.000
 128258487.32047  99941655.28447  24406798.0814   24406803.1354   24406798.3324
        43.000          38.000
 116971371.46147  91146519.25847  22258914.2464   22258917.3424   22258913.4634
        50.000          45.000
 125181446.53047  97543977.98747  23821241.9324   23821242.9644   23821242.1004
        46.000          39.000
 09  1 24  0  4 30.0000000  0 12G 5G 6G30G 9G14G24G21G18G29G12G31G22
 123809401.82747  96474832.78647  23560165.0004   23560170.3874   23560165.3094
        46.000          39.000
 126984379.64647  98948843.67247  24164342.5774   24164347.3864   24164342.4484
        42.000          37.000
 120943129.95147  94241390.53947  23014718.2134   23014722.9564   23014717.9874
        48.000          42.000
 122410295.16747  95384629.09047  23293918.4964   23293921.4114   23293918.4614
        45.000          39.000
 116566457.57247  90831003.57347  22181860.2234   22181863.1174   22181860.1894
        50.000          44.000
 116770648.95247  90990096.23347  22220730.7774   22220736.1234   22220730.9824
        50.000          44.000
 104888293.80047  81731131.95647  19959580.8534   19959583.2554   19959581.2414
        54.000          50.000
 121752322.99047  94871926.61147  23168705.8974   23168708.6624   23168706.6794
        47.000          40.000
 122665471.78947  95583474.94647  23342469.4954   23342473.8224   23342469.4104
        46.000          41.000
 128263442.51447  99945516.53247  24407741.0984   24407745.9524   24407740.7084
        42.000          38.000
 116879957.48047  91075287.64147  22241519.0284   22241521.6924   22241518.8644
        51.000          45.000
 125145064.23147  97515628.16847  23814318.5704   23814319.5474   23814318.5054
        46.000          39.000
 09  1 24  0  5  0.0000000  0 12G 5G 6G30G 9G14G24G21G18G29G12G31G22
 123800259.09947  96467708.61747  23558425.0184   23558431.0224   23558425.0554
        45.000          39.000
 126953027.19547  98924413.19747  24158376.0184   24158381.4894   24158375.9084
        43.000          38.000
 120915719.09347  94220031.45847  23009502.1824   23009507.0854   23009501.5554
        49.000          42.000
 122503710.83247  95457420.54747  23311694.5704   23311698.1704   23311694.8174
        45.000          39.000
 116597286.73847  90855026.30647  22187726.7934   22187729.7054   22187726.9744
        50.000          44.000
 116834886.92147  91040151.78547  22232954.6074   22232960.0514   22232954.8764
        50.000          43.000
 104879668.09747  81724410.63347  19957939.4064   19957941.7554   19957939.8144
        54.000          49.000
 121718208.25047  94845343.69947  23162213.9384   23162216.7034   23162214.3584
        48.000          40.000
 122738266.04347  95640197.72547  23356321.9794   23356326.1674   23356322.0064
        47.000          41.000
 128268524.81947  99949476.82147  24408707.6414   24408712.7594   24408707.4564
        42.000          38.000
 116788811.42847  91004264.80247  22224174.3204   22224177.0684   22224174.2464
        51.000          45.000
 125108462.46047  97487107.34447  23807353.3664   23807354.2264   23807353.7254
        46.000          39.000
 09  1 24  0  5 30.0000000  0 12G 5G 6G30G 9G14G24G21G18G29G12G31G22
 123791263.47347  96460699.07247  23556713.6184   23556718.8344   23556714.2074
        45.000          39.000
 126921960.64247  98900205.50847  24152464.9124   24152469.2864   24152464.7734
        43.000          38.000
 120888302.71347  94198668.05847  23004285.1004   23004289.8164   23004284.8934
        49.000          42.000
 122597442.89347  95530458.54247  23329531.3874   23329534.9654   23329531.5334
        46.000          40.000
 116628351.35847  90879232.51347  22193638.2954   22193641.2344   22193638.6204
        50.000          44.000
 116899528.52347  91090521.85047  22245255.8884   22245260.6994   22245255.9114
        50.000          44.000
 104871649.69947  81718162.53647  19956413.4624   19956415.9704   19956413.8574
        54.000          49.000
 121683977.81247  94818670.60247  23155700.8374   23155703.0164   23155701.0734
        48.000          41.000
 122810957.83947  95696840.66947  23370154.7674   23370159.3574   23370154.6634
        46.000          41.000
 128273739.74447  99953540.42347  24409700.5704   24409704.6894   24409700.0494
        43.000          38.000
 116697939.97347  90933455.92547  22206882.0464   22206884.7314   22206881.4124
        51.000          45.000
 125071645.53347  97458418.85147  23800347.4664   23800348.3314   23800347.2484
        45.000          39.000
 09  1 24  0  6  0.0000000  0 12G 5G 6G30G 9G14G24G21G18G29G12G31G22
 123782415.45747  96453804.54947  23555029.5604   23555035.2774   23555029.7744
        45.000          39.000
 126891177.56247  98876218.71947  24146606.6224   24146611.9304   24146606.3554
        42.000          37.000
 120860881.57547  94177300.95747  22999066.9184   22999071.3814   22999066.2344
        48.000          42.000
 122691487.45047  95603740.03647  23347427.9644   23347431.4034   23347428.1004
        45.000          40.000
 116659647.30647  90903618.97747  22199593.6834   22199596.5734   22199593.8864
        50.000          44.000
 116964570.76847  91141204.11247  22257632.6444   22257637.9444   22257632.7454
        50.000          43.000
 104864237.36147  81712386.68747  19955002.9914   19955005.3414   19955003.4004
        54.000          49.000
 121649631.74047  94791907.43847  23149164.4354   23149166.9724   23149165.1524
        47.000          41.000
 122883544.30347  95753401.54847  23383967.5444   23383971.6414   23383967.4744
        46.000          41.000
 128279087.60547  99957707.63147  24410718.6574   24410722.4094   24410718.5704
        43.000          39.000
 116607344.19447  90862861.86647  22189642.1524   22189644.7884   22189641.7844
        51.000          45.000
 125034612.48447  97429561.94147  23793300.0054   23793301.2574   23793299.7834
        46.000          39.000
 09  1 24  0  6 30.0000000  0 12G 5G 6G30G 9G14G24G21G18G29G12G31G22
 123773717.02347  96447026.58047  23553374.2494   23553379.9864   23553374.8434
        45.000          39.000
 126860677.02147  98852452.08147  24140802.4244   24140807.0204   24140802.8894
        43.000          37.000
 120833457.31547  94155931.42547  22993848.2904   22993852.8604   22993847.9854
        49.000          42.000
 122785841.22547  95677262.49447  23365382.5944   23365386.1194   23365382.8904
        46.000          40.000
 116691171.99247  90928183.67247  22205592.4674   22205595.5684   22205592.8624
        50.000          44.000
 117030011.71647  91192197.04647  22270085.4754   22270091.2234   22270085.7144
        50.000          43.000
 104857431.80047  81707083.64947  19953708.1544   19953710.2714   19953708.6054
        54.000          50.000
 121615171.35647  94765055.17547  23142606.8764   23142609.7584   23142607.2974
        47.000          41.000
 122956023.19847  95809878.59747  23397759.9424   23397764.0104   23397759.6594
        47.000          41.000
 128284569.99047  99961979.68147  24411761.2724   24411766.0064   24411760.9664
        43.000          38.000
 116517027.19447  90792485.03947  22172455.1524   22172457.9144   22172454.5944
        50.000          45.000
 124997363.71347  97400536.96047  23786212.0314   23786212.7814   23786211.7354
        46.000          39.000
 09  1 24  0  7  0.0000000  0 12G 5G 6G30G 9G14G24G21G18G29G12G31G22
 123765169.78747  96440366.44347  23551747.6044   23551753.7494   23551748.2154
        45.000          39.000
 126830457.67147  98828904.55847  24135052.9314   24135056.4634   24135052.3904
        42.000          37.000
 120806031.54847  94134560.72347  22988628.8194   22988634.1224   22988628.6604
        49.000          42.000
 122880501.31047  95751023.62147  23383395.7854   23383399.7684   23383395.7714
        44.000          39.000
 116722922.17747  90952924.08447  22211634.3154   22211637.4834   22211634.4424
        50.000          44.000
 117095848.88647  91243498.72847  22282613.8544   22282619.5454   22282614.1074
        50.000          43.000
 104851233.79547  81702254.03447  19952528.5984   19952530.7874   19952529.0124
        54.000          50.000
 121580597.78947  94738114.74247  23136027.6174   23136030.5844   23136028.3274
        47.000          41.000
 123028392.18147  95866269.99347  23411531.1654   23411535.4764   23411531.1144
        47.000          41.000
 128290188.48147  99966357.79647  24412830.7614   24412834.5334   24412830.6354
        43.000          38.000
 116426991.32947  90722327.27647  22155321.7604   22155324.4994   22155321.0474
        51.000          45.000
 124959899.88547  97371344.40247  23779082.9874   23779083.9054   23779083.0504
        46.000          40.000
 09  1 24  0  7 30.0000000  0 12G 5G 6G30G 9G14G24G21G18G29G12G31G22
 123756776.78747  96433826.47147  23550150.5264   23550156.1044   23550151.1214
        46.000          39.000
 126800519.42847  98805576.09847  24129355.3024   24129359.3834   24129354.8574
        42.000          37.000
 120778607.09747  94113191.04247  22983410.4344   22983415.3194   22983410.1214
        49.000          42.000
 122975465.89747  95825022.01047  23401466.7044   23401470.8234   23401466.6744
        44.000          39.000
 116754896.05447  90977838.79347  22217718.9334   22217721.8214   22217718.9164
        50.000          44.000
 117162081.55947  91295108.58847  22295217.5384   22295223.0464   22295217.6114
        50.000          43.000
 104845644.68347  81697898.88347  19951464.9854   19951467.2304   19951465.4204
        54.000          50.000
 121545913.56747  94711088.07547  23129427.5434   23129430.2134   23129427.9124
        48.000          41.000
 123100650.55547  95922575.21847  23425281.3584   23425285.7464   23425281.3114
        46.000          41.000
 128295945.75447  99970844.03347  24413926.3054   24413930.6654   24413925.8214
        44.000          39.000
 116337240.50547  90652391.63347  22138242.7254   22138245.4084   22138242.5214
        51.000          45.000
 124922221.41947  97341984.57247  23771912.8354   23771914.3634   23771912.8964
        45.000          40.000
 09  1 24  0  8  0.0000000  0 12G 5G 6G30G 9G14G24G21G18G29G12G31G22
 123748540.12947  96427408.35447  23548583.5244   23548588.2174   23548584.0784
        46.000          39.000
 126770861.62547  98782466.13447  24123711.6504   24123715.9484   24123711.4684
        43.000          37.000
 120751186.33547  94091824.22647  22978192.3314   22978197.1574   22978192.4834
        49.000          42.000
 123070732.06147  95899255.40747  23419595.5564   23419599.4634   23419595.3434
        44.000          38.000
 116787091.15147  91002925.88647  22223845.2904   22223848.5344   22223845.7894
        50.000          44.000
 117228708.31147  91347025.52947  22307896.2784   22307901.6014   22307896.3974
        49.000          43.000
 104840665.23747  81694018.80147  19950517.3504   19950519.9054   19950517.7154
        54.000          50.000
 121511120.47547  94683976.56247  23122806.9054   23122809.7984   23122807.4984
        48.000          41.000
 123172796.65547  95978792.94047  23439010.3964   23439014.8394   23439010.0904
        46.000          41.000
 128301843.51047  99975439.72947  24415048.3924   24415052.8204   24415048.3354
        43.000          39.000
 116247777.27147  90582680.07847  22121218.4824   22121221.2664   22121218.0384
        51.000          45.000
 124884329.46847  97312458.39747  23764702.0364   23764703.0764   23764701.9254
        46.000          40.000
 09  1 24  0  8 30.0000000  0 12G 5G 6G30G 9G14G24G21G18G29G12G31G22
 123740461.56447  96421113.40347  23547045.6094   23547051.4904   23547046.0994
        45.000          40.000
 126741483.07147  98759573.78847  24118120.4994   24118125.5054   24118120.3264
        43.000          37.000
 120723771.14747  94070461.77147  22972975.4434   22972979.9624   22972975.1024
        49.000          42.000
 123166296.97147  95973721.59647  23437780.4014   23437784.5894   23437780.4854
        44.000          38.000
 116819504.54647  91028183.08547  22230013.4314   22230016.4534   22230013.7114
        50.000          44.000
 117295727.16547  91399247.99547  22320649.3954   22320654.8214   22320649.2894
        50.000          43.000
 104836295.70147  81690613.97347  19949685.7824   19949688.4474   19949686.0974
        54.000          50.000
 121476219.75047  94656781.19347  23116165.6144   23116167.9994   23116166.1464
        48.000          41.000
 123244827.93647  96034921.20647  23452717.2284   23452722.1074   23452716.9174
        46.000          41.000
 128307883.31447  99980146.10947  24416197.9164   24416202.2754   24416197.7694
        43.000          39.000
 116158604.47047  90513194.83147  22104249.5124   22104252.0324   22104249.0284
        51.000          45.000
 124846224.16147  97282765.97547  23757451.1204   23757452.0284   23757450.9414
        46.000          40.000
 09  1 24  0  9  0.0000000  0 12G 5G 6G30G 9G14G24G21G18G29G12G31G22
 123732543.50947  96414943.51747  23545538.8214   23545544.8784   23545539.3494
        45.000          40.000
 126712383.09747  98736898.48147  24112583.2404   24112588.2114   24112584.0284
        43.000          37.000
 120696363.91847  94049105.51347  22967760.2324   22967764.4984   22967759.9594
        49.000          42.000
 123262158.39547  96048418.82447  23456022.4664   23456026.5094   23456022.0084
        44.000          38.000
 116852134.09847  91053608.71947  22236222.4894   22236225.6064   22236223.0334
        50.000          44.000
 117363136.79847  91451774.96047  22333477.3744   22333482.7404   22333477.4954
        50.000          43.000
 104832537.29447  81687685.34647  19948970.6624   19948973.2764   19948971.0944
        54.000          50.000
 121441213.44347  94629503.53947  23109504.3314   23109506.5734   23109504.8384
        48.000          41.000
 123316743.18447  96090959.06147  23466402.3474   23466406.7584   23466401.8284
        46.000          41.000
 128314067.33547  99984964.88947  24417375.3714   24417379.2444   24417375.1254
        44.000          39.000
 116069725.40947  90443938.47847  22087336.5924   22087338.7204   22087336.3384
        51.000          45.000
 124807906.24447  97252907.88447  23750159.2814   23750160.2554   23750159.5794
        45.000          39.000
 09  1 24  0  9 30.0000000  0 12G 5G 6G30G 9G14G24G21G18G29G12G31G22
 123724789.70247  96408901.61047  23544063.3074   23544069.2964   23544063.7464
        45.000          40.000
 126683562.39847  98714440.81347  24107098.4244   24107104.2714   24107098.2064
        43.000          38.000
 120668968.49447  94027758.45747  22962546.8214   22962551.1384   22962546.6514
        49.000          42.000
 123358314.77647  96123345.91447  23474320.0914   23474323.7904   23474320.1954
        45.000          39.000
 116884978.72847  91079201.95247  22242472.5754   22242475.7934   22242472.8474
        50.000          44.000
 117430936.84347  91504606.15947  22346379.1734   22346384.7324   22346379.2054
        50.000          43.000
 104829392.12747  81685234.57247  19948372.1254   19948374.7814   19948372.4364
        54.000          50.000
 121406104.67447  94602146.04547  23102823.1834   23102825.7744   23102823.5364
        48.000          41.000
 123388542.27547  96146906.40447  23480065.1984   23480070.1004   23480064.4064
        46.000          41.000
 128320399.19547  99989898.85047  24418579.4254   24418584.0414   24418579.2204
        45.000          39.000
 115981144.31547  90374914.31447  22070479.9504   22070482.2874   22070479.5864
        51.000          45.000
 124769378.09847  97222885.96447  23742827.4764   23742828.9564   23742827.3324
        45.000          40.000
 09  1 24  0 10  0.0000000  0 12G 5G 6G30G 9G14G24G21G18G29G12G31G22
 123717197.41647  96402985.58247  23542618.9454   23542624.3754   23542619.5084
        44.000          40.000
 126655015.34947  98692196.36747  24101666.9474   24101671.4444   24101666.9684
        44.000          38.000
 120641581.90447  94006418.28347  22957335.2124   22957339.9294   22957334.9234
        49.000          42.000
 123454758.76347  96198497.12047  23492673.1894   23492676.7894   23492672.9484
        45.000          39.000
 116918031.16147  91104957.09847  22248762.5464   22248765.4234   22248762.6924
        50.000          44.000
 117499120.63947  91557736.36847  22359354.1894   22359359.9014   22359354.5774
        50.000          43.000
 104826855.61747  81683258.07247  19947889.5744   19947891.9784   19947889.9824
        54.000          50.000
 121370890.45847  94574706.38047  23096122.0904   23096124.5074   23096122.5284
        48.000          41.000
 123460218.51447  96202758.00847  23493704.8484   23493709.9094   23493704.4114
        46.000          41.000
 128326875.77147  99994945.58347  24419811.5404   24419816.0284   24419811.6244
        43.000          38.000
 115892859.46947  90306120.98547  22053679.8554   22053682.2574   22053679.3494
        51.000          46.000
 124730635.48247  97192696.92747  23735455.3924   23735456.6264   23735455.1834
        46.000          40.000
 09  1 24  0 10 30.0000000  0 12G 5G 6G30G 9G14G24G21G18G29G12G31G22
 123709774.20147  96397201.29547  23541205.8444   23541211.5834   23541206.2344
        46.000          40.000
 126626746.39647  98670168.62947  24096287.0094   24096291.5654   24096286.9824
        44.000          38.000
 120614211.81147  93985090.97247  22952127.1564   22952131.4354   22952126.5774
        49.000          42.000
 123551493.16647  96273874.61747  23511080.7864   23511085.0754   23511081.0254
        46.000          39.000
 116951294.14547  91130876.30847  22255092.0194   22255095.0994   22255092.2844
        50.000          44.000
 117567691.80647  91611168.43847  22372402.9184   22372408.5474   22372402.9164
        49.000          43.000
 104824934.10047  81681760.78547  19947523.7714   19947526.3434   19947524.1714
        54.000          50.000
 121335577.86247  94547190.04247  23089402.4444   23089404.5934   23089403.1424
        48.000          41.000
 123531775.63047  96258516.80847  23507321.7014   23507326.5434   23507321.5444
        46.000          41.000
 128333504.16547 100000110.59547  24421073.1144   24421077.2984   24421072.6984
        44.000          39.000
 115804878.87347  90237564.73047  22036937.7094   22036940.0774   22036937.1224
        51.000          46.000
 124691684.75647  97162345.73047  23728043.5244   23728044.1974   23728043.7374
        47.000          40.000
 09  1 24  0 11  0.0000000  0 12G 5G 6G30G 9G14G24G21G18G29G12G31G22
 123702518.71547  96391547.70347  23539825.4164   23539831.0494   23539825.9874
        45.000          40.000
 126598751.30747  98648354.26347  24090959.6814   24090965.2294   24090960.2964
        43.000          38.000
 120586857.38147  93963775.86747  22946921.5224   22946926.2114   22946921.1014
        50.000          42.000
 123648511.61247  96349473.45147  23529542.9494   23529546.9714   23529543.2564
        45.000          39.000
 116984761.56347  91156954.82847  22261460.4734   22261463.4514   22261460.4284
        50.000          44.000
 117636645.23247  91664898.36647  22385524.2944   22385529.5084   22385524.5124
        50.000          43.000
 104823624.87347  81680740.61347  19947274.5544   19947276.9884   19947274.9644
        54.000          49.000
 121300165.29747  94519595.82747  23082663.4124   23082665.9724   23082663.7954
        48.000          41.000
 123603208.73847  96314178.96347  23520915.0024   23520920.0014   23520915.0274
        46.000          41.000
 128340283.00447 100005392.87647  24422363.2794   24422367.3294   24422362.6074
        44.000          39.000
 115717202.38547  90169245.45447  22020253.2254   22020255.7664   22020252.9044
        52.000          46.000
 124652522.85047  97131829.97647  23720590.9534   23720591.7654   23720590.9274
        46.000          40.000
 09  1 24  0 11 30.0000000  0 12G 5G 6G30G 9G14G24G21G18G29G12G31G22
 123695435.11647  96386028.04547  23538477.4074   23538483.2084   23538477.9174
        46.000          40.000
 126571031.19847  98626754.18047  24085684.7014   24085690.4234   24085684.3834
        43.000          38.000
 120559522.58747  93942476.06447  22941719.8814   22941724.2844   22941719.5074
        49.000          42.000
 123745813.60247  96425293.22647  23548059.1124   23548062.5274   23548059.5884
        44.000          39.000
 117018432.85247  91183192.19747  22267868.0094   22267871.1004   22267868.4524
        50.000          44.000
 117705981.06147  91718926.27047  22398718.4494   22398723.8234   22398718.8004
        49.000          43.000
 104822930.50147  81680199.54447  19947142.5544   19947144.9274   19947142.9444
        54.000          50.000
 121264656.48147  94491926.60947  23075906.4784   23075909.1034   23075906.9074
        48.000          41.000
 123674518.15347  96369744.72847  23534484.6254   23534489.6244   23534484.6794
        45.000          41.000
 128347215.95947 100010795.22047  24423682.5324   24423686.0374   24423682.2904
        44.000          39.000
 115629834.65547  90101166.75547  22003627.6134   22003630.4914   22003626.8574
        51.000          46.000
 124613152.63447  97101151.90147  23713098.6994   23713100.3484   23713098.7244
        46.000          40.000
 09  1 24  0 12  0.0000000  0 12G 5G 6G30G 9G14G24G21G18G29G12G31G22
 123688523.23847  96380642.22647  23537162.2844   23537167.8484   23537162.6024
        45.000          40.000
 126543582.76347  98605365.79847  24080461.7764   24080466.7324   24080462.2964
        43.000          38.000
 120532207.51747  93921191.62347  22936521.8624   22936526.1564   22936521.9064
        50.000          42.000
 123843393.70247  96501329.70147  23566627.4224   23566631.5874   23566627.9304
        44.000          38.000
 117052303.35947  91209584.80447  22274313.3724   22274316.4234   22274313.6714
        49.000          44.000
 117775695.31447  91773249.04547  22411984.3104   22411990.3234   22411984.5224
        49.000          43.000
 104822848.81347  81680135.89547  19947127.0484   19947129.3774   19947127.4064
        54.000          49.000
 121229051.02047  94464182.06847  23069131.0624   23069133.7094   23069131.5164
        48.000          41.000
 123745699.92947  96425211.04747  23548030.0084   23548035.2294   23548029.7904
        45.000          41.000
 128354302.78947 100016317.46447  24425030.5464   24425034.7234   24425030.7154
        44.000          39.000
 115542776.60347  90033329.36847  21987061.0424   21987063.8324   21987060.5274
        52.000          46.000
 124573572.42847  97070310.19647  23705567.1564   23705568.2984   23705567.5144
        47.000          40.000
 09  1 24  0 12 30.0000000  0 12G 5G 6G30G 9G14G24G21G18G29G12G31G22
 123681787.55347  96375393.67647  23535880.5514   23535885.9344   23535881.0524
        45.000          40.000
 126516407.39547  98584190.18547  24075290.7264   24075295.1214   24075290.2204
        44.000          38.000
 120504916.37447  93899925.83447  22931328.6244   22931333.0004   22931328.3234
        49.000          42.000
 123941251.46347  96577582.53847  23585249.2514   23585253.0674   23585249.4634
        44.000          38.000
 117086372.71247  91236132.36547  22280796.4924   22280799.5034   22280796.9084
        50.000          44.000
 117845788.49147  91827867.09447  22425322.7184   22425328.4984   22425323.0104
        49.000          43.000
 104823382.86747  81680552.04147  19947228.6094   19947231.0544   19947228.9284
        54.000          50.000
 121193352.91647  94436365.34047  23062338.0564   23062340.4554   23062338.4064
        48.000          41.000
 123816754.67247  96480578.37047  23561551.3734   23561556.4394   23561550.9474
        46.000          41.000
 128361547.45047 100021962.71947  24426409.2484   24426413.6594   24426409.0444
        44.000          39.000
 115456033.27647  89965737.22247  21970554.3114   21970557.1004   21970553.9584
        52.000          46.000
 124533785.04547  97039307.06147  23697995.8644   23697997.1954   23697996.0844
        47.000          40.000
 09  1 24  0 13  0.0000000  0 12G 5G 6G30G 9G14G24G21G18G29G12G31G22
 123675229.65247  96370283.65347  23534632.6024   23534638.1364   23534633.4814
        45.000          40.000
 126489503.65347  98563226.23347  24070170.5554   24070175.3064   24070170.3024
        44.000          38.000
 120477650.98047  93878680.10447  22926140.3234   22926144.8824   22926139.8484
        49.000          42.000
 124039383.87047  96654049.38347  23603923.3234   23603926.8744   23603923.3714
        44.000          38.000
 117120637.95547  91262832.55647  22287317.0214   22287320.2694   22287317.3824
        51.000          44.000
 117916258.46347  91882778.74947  22438733.1944   22438738.5574   22438733.3394
        49.000          43.000
 104824532.64147  81681447.96747  19947447.4644   19947449.9404   19947447.7994
        54.000          50.000
 121157563.34847  94408477.33347  23055527.0694   23055529.6994   23055527.5264
        48.000          41.000
 123887680.05947  96535844.90147  23575048.1944   23575053.0234   23575047.8064
        46.000          41.000
 128368951.44847 100027732.12347  24427818.2784   24427822.7074   24427817.8594
        44.000          39.000
 115369607.08347  89898392.19247  21954107.9674   21954110.4234   21954107.5774
        52.000          46.000
 124493791.12047  97008142.96747  23690385.1414   23690386.5314   23690384.7024
        46.000          40.000
 09  1 24  0 13 30.0000000  0 12G 5G 6G30G 9G14G24G21G18G29G12G31G22
 123668850.14647  96365312.64047  23533418.2774   23533424.1494   23533418.9384
        45.000          39.000
 126462869.30047  98542472.17647  24065102.6154   24065106.9414   24065102.1114
        44.000          38.000
 120450411.98947  93857454.93247  22920956.7604   22920961.1784   22920956.5044
        49.000          42.000
 124137786.92847  96730727.13347  23622648.7714   23622652.7114   23622648.9244
        45.000          38.000
 117155094.81047  91289682.06547  22293874.1064   22293877.0374   22293874.5724
        50.000          44.000
 117987101.78547  91937981.32647  22452214.1324   22452219.3924   22452214.1614
        49.000          43.000
 104826297.09747  81682822.86547  19947783.3114   19947785.6244   19947783.7934
        54.000          49.000
 121121682.96947  94380518.55747  23048699.1764   23048702.2114   23048699.8124
        48.000          41.000
 123958473.48047  96591008.60947  23588519.9564   23588524.6484   23588519.3684
        46.000          41.000
 128376515.11247 100033625.92947  24429257.4024   24429261.8594   24429256.7614
        44.000          39.000
 115283499.64747  89831295.54947  21937722.3224   21937724.6564   21937722.2404
        52.000          46.000
 124453589.86347  96976817.30947  23682735.3774   23682735.9714   23682735.1964
        47.000          40.000
 09  1 24  0 14  0.0000000  0 12G 5G 6G30G 9G14G24G21G18G29G12G31G22
 123662653.28447  96360483.96447  23532239.3584   23532244.6184   23532239.8944
        45.000          40.000
 126436505.24147  98521928.75347  24060084.9844   24060090.2194   24060085.6154
        44.000          37.000
 120423203.90847  93836253.86047  22915779.5534   22915783.3744   22915779.1774
        49.000          42.000
 124236459.66647  96807615.02247  23641425.8774   23641429.0564   23641425.5834
        44.000          39.000
 117189743.09147  91316680.73547  22300467.4004   22300470.3094   22300467.6504
        50.000          44.000
 118058318.77647  91993475.06747  22465766.4084   22465771.7754   22465766.2134
        49.000          43.000
 104828678.64147  81684678.61347  19948236.4024   19948238.7944   19948236.7734
        54.000          49.000
 121085715.54847  94352491.96947  23041855.0984   23041857.9184   23041855.3624
        48.000          41.000
 124029135.19747  96646069.68447  23601966.2534   23601971.0034   23601965.8834
        46.000          41.000
 128384242.34147 100039647.21447  24430727.3144   24430732.0304   24430727.5024
        44.000          39.000
 115197715.73547  89764450.99047  21921398.1304   21921400.4364   21921397.5754
        52.000          46.000
 124413183.71247  96945331.99947  23675046.3214   23675046.7494   23675046.6304
        48.000          40.000
 09  1 24  0 14 30.0000000  0 12G 5G 6G30G 9G14G24G21G18G29G12G31G22
 123656638.95047  96355797.50647  23531094.3764   23531100.2754   23531095.2274
        46.000          40.000
 126410408.39247  98501593.53847  24055119.3894   24055124.3344   24055119.6984
        42.000          38.000
 120396026.81247  93815076.92547  22910607.3514   22910611.6424   22910607.2964
        49.000          42.000
 124335397.19947  96884709.23247  23660252.5784   23660256.3144   23660252.9234
        44.000          38.000
 117224577.89647  91343824.75247  22307095.9704   22307099.0644   22307096.2494
        50.000          44.000
 118129905.09347  92049256.60447  22479388.1964   22479394.3184   22479388.1424
        49.000          43.000
 104831675.56347  81687013.87747  19948806.5644   19948809.0744   19948806.9034
        54.000          49.000
 121049660.55747  94324397.13147  23034994.0574   23034996.9124   23034994.5984
        48.000          41.000
 124099661.53747  96701025.26947  23615386.9674   23615391.4964   23615386.8584
        46.000          40.000
 128392132.88847 100045795.74247  24432229.5954   24432233.9504   24432228.9794
        45.000          39.000
 115112255.99747  89697859.03447  21905135.5604   21905137.8684   21905135.0724
        52.000          46.000
 124372571.88147  96913686.41947  23667317.8324   23667318.5404   23667317.8224
        47.000          40.000
 09  1 24  0 15  0.0000000  0 12G 5G 6G30G 9G14G24G21G18G29G12G31G22
 123650811.02647  96351256.30747  23529985.8294   23529990.9654   23529985.9684
        46.000          40.000
 126384579.64847  98481467.26247  24050204.1454   24050208.8324   24050204.4784
        44.000          38.000
 120368884.53447  93793927.12347  22905442.7444   22905446.9104   22905442.5964
        49.000          42.000
 124434598.62447  96962009.10147  23679130.3714   23679133.4234   23679130.2294
        45.000          38.000
 117259598.46847  91371113.52147  22313760.2944   22313763.3994   22313760.5044
        50.000          44.000
 118201860.81647  92105325.98047  22493080.8064   22493087.0454   22493081.0014
        48.000          42.000
 104835289.89947  81689830.24447  19949494.4394   19949496.8374   19949494.8134
        54.000          49.000
 121013521.79947  94296237.03147  23028117.2894   23028120.0344   23028117.7494
        48.000          41.000
 124170052.56947  96755875.42647  23628782.1344   23628786.2294   23628781.7494
        45.000          40.000
 128400190.18547 100052074.21647  24433762.7354   24433766.5274   24433762.5884
        44.000          39.000
 115027125.12847  89631523.34647  21888935.6114   21888938.0484   21888935.3664
        52.000          46.000
 124331756.43247  96881882.19747  23659550.9324   23659551.8774   23659550.8344
        46.000          40.000
 09  1 24  0 15 30.0000000  0 12G 5G 6G30G 9G14G24G21G18G29G12G31G22
 123645170.03247  96346860.76847  23528911.8364   23528917.5824   23528912.4354
        45.000          40.000
 126359016.17047  98461547.65547  24045340.2424   24045343.9634   24045339.9354
        44.000          38.000
 120341777.71947  93772804.93847  22900284.2734   22900288.8454   22900283.7644
        49.000          42.000
 124534059.63947  97039511.23847  23698056.5444   23698060.2854   23698056.5284
        44.000          38.000
 117294800.39147  91398543.61147  22320459.0724   22320462.1804   22320459.4164
        50.000          44.000
 118274182.62947  92161680.62547  22506843.3894   22506849.4094   22506843.2224
        48.000          42.000
 104839520.03547  81693126.45347  19950299.5454   19950301.6794   19950299.9124
        54.000          50.000
 120977299.47147  94268011.80847  23021224.3064   23021226.8484   23021224.6034
        48.000          41.000
 124240305.04747  96810617.60747  23642150.6094   23642154.7964   23642150.5114
        45.000          40.000
 128408414.85847 100058483.09247  24435327.8384   24435332.1564   24435327.0604
        44.000          39.000
 114942324.29047  89565444.81447  21872798.5464   21872800.9314   21872797.7244
        52.000          46.000
 124290736.68847  96849918.74947  23651745.1964   23651746.2664   23651745.3564
        46.000          39.000
 09  1 24  0 16  0.0000000  0 12G 5G 6G30G 9G14G24G21G18G29G12G31G22
 123639720.09647  96342614.10447  23527874.8314   23527880.5944   23527875.2644
        45.000          40.000
 126333719.24947  98441835.77847  24040525.8304   24040530.6624   24040525.9334
        42.000          38.000
 120314710.86547  93751713.90447  22895133.7284   22895138.1304   22895133.3184
        49.000          42.000
 124633779.41647  97117215.00447  23717032.6134   23717036.2974   23717032.5614
        44.000          38.000
 117330183.41447  91426114.80747  22327192.2194   22327195.3184   22327192.4134
        49.000          44.000
 118346870.71247  92218320.67047  22520675.4744   22520681.6234   22520675.5344
        48.000          42.000
 104844368.74047  81696904.66147  19951222.3414   19951224.3724   19951222.7464
        54.000          50.000
 120940997.65847  94239724.64647  23014316.4864   23014319.2844   23014316.9834
        47.000          41.000
 124310419.47947  96865252.22747  23655492.8274   23655497.2484   23655492.4364
        45.000          40.000
 128416810.19747 100065024.96047  24436925.2164   24436929.4234   24436925.0734
        45.000          39.000
 114857858.40047  89499627.28647  21856725.2244   21856727.5974   21856724.9034
        52.000          46.000
 124249515.32547  96817798.21447  23643901.1254   23643901.7454   23643901.2734
        47.000          39.000
 09  1 24  0 16 30.0000000  0 12G 5G 6G30G 9G14G24G21G18G29G12G31G22
 123634461.29447  96338516.38147  23526874.4404   23526879.7414   23526875.2144
        46.000          40.000
 126308685.62847  98422329.07247  24035762.1844   24035766.7474   24035762.2394
        43.000          38.000
 120287684.22247  93730654.19347  22889990.6074   22889995.2344   22889990.3704
        49.000          42.000
 124733752.93047  97195116.48047  23736057.0474   23736060.5624   23736057.0094
        44.000          38.000
 117365742.75147  91453823.39047  22333958.8134   22333961.9464   22333959.1094
        50.000          44.000
 118419920.91647  92275242.88747  22534576.4454   22534582.9384   22534576.5144
        48.000          42.000
 104849834.00847  81701163.31247  19952262.1794   19952264.5144   19952262.6474
        54.000          49.000
 120904616.06847  94211375.32847  23007393.0934   23007395.8374   23007393.4334
        48.000          41.000
 124380392.32947  96919776.52147  23668808.1154   23668812.8734   23668807.5174
        44.000          40.000
 128425375.89047 100071699.57447  24438555.3934   24438559.2504   24438555.0104
        45.000          39.000
 114773728.37047  89434071.46847  21840715.6614   21840718.3754   21840715.4004
        52.000          46.000
 124208091.28247  96785519.77047  23636018.1004   23636018.9244   23636018.2714
        46.000          40.000
 09  1 24  0 17  0.0000000  0 12G 5G 6G30G 9G14G24G21G18G29G12G31G22
 123629396.45947  96334569.79047  23525910.3174   23525915.6424   23525911.0294
        46.000          40.000
 126283915.14147  98403027.39647  24031048.3444   24031052.8814   24031048.3044
        43.000          38.000
 120260700.67847  93709628.06647  22884855.6744   22884860.3204   22884855.3694
        48.000          42.000
 124833978.51347  97273214.38747  23755129.1104   23755132.6274   23755129.4404
        44.000          38.000
 117401476.67047  91481668.01147  22340758.9734   22340761.8054   22340759.3614
        50.000          44.000
 118493332.06547  92332446.36247  22548546.1484   22548552.3554   22548546.2864
        48.000          42.000
 104855917.03047  81705903.32447  19953419.6624   19953422.0804   19953420.0034
        54.000          50.000
 120868157.30547  94182965.88247  23000455.6304   23000458.1034   23000455.8524
        48.000          41.000
 124450223.09747  96974190.10547  23682096.3164   23682101.1924   23682095.5574
        44.000          39.000
 128434114.94247 100078509.27947  24440218.2224   24440222.1224   24440217.6034
        45.000          39.000
 114689938.07247  89368780.37947  21824770.8784   21824773.6454   21824770.4634
        52.000          46.000
 124166466.28547  96753084.70347  23628097.2974   23628098.0624   23628097.3024
        46.000          39.000
 09  1 24  0 17 30.0000000  0 12G 5G 6G30G 9G14G24G21G18G29G12G31G22
 123624528.39947  96330776.54747  23524984.2464   23524989.1054   23524984.9504
        45.000          40.000
 126259407.47347  98383930.52847  24026384.7484   24026389.9444   24026384.9944
        44.000          38.000
 120233763.39847  93688637.99247  22879729.7254   22879734.3644   22879729.2004
        49.000          43.000
 124934454.05547  97351507.06247  23774248.8294   23774253.0974   23774249.2964
        44.000          38.000
 117437383.55447  91509647.41247  22347591.9454   22347594.8404   22347592.4364
        50.000          44.000
 118567103.15547  92389930.29547  22562584.8404   22562590.2484   22562585.0654
        48.000          42.000
 104862618.59547  81711125.32347  19954695.1184   19954697.4434   19954695.6484
        54.000          49.000
 120831624.00047  94154498.33647  22993503.5284   22993505.7094   22993503.7834
        48.000          41.000
 124519910.96147  97028492.33147  23695357.3294   23695362.2234   23695356.5914
        45.000          40.000
 128443029.68247 100085455.88547  24441914.3224   24441919.1834   24441913.9644
        44.000          39.000
 114606490.77047  89303756.55447  21808891.3614   21808894.1164   21808890.8884
        52.000          46.000
 124124641.70447  96720494.12647  23620137.8844   23620139.2424   23620137.7404
        45.000          40.000
 09  1 24  0 18  0.0000000  0 12G 5G 6G30G 9G14G24G21G18G29G12G31G22
 123619858.31147  96327137.54447  23524095.3614   23524100.5904   23524095.5474
        46.000          40.000
 126235160.68647  98365036.94247  24021771.0154   24021775.0364   24021771.2814
        43.000          38.000
 120206873.56047  93667684.90647  22874613.1204   22874617.2474   22874612.9124
        49.000          42.000
 125035175.90247  97429991.67247  23793415.9834   23793419.8994   23793415.9344
        44.000          37.000
 117473459.54547  91537758.59847  22354456.6714   22354459.9604   22354457.0394
        50.000          44.000
 118641231.13847  92447692.35647  22576690.9154   22576696.0924   22576690.8594
        49.000          42.000
 104869937.74447  81716828.55347  19956087.8154   19956090.2154   19956088.2484
        54.000          49.000
 120795017.19447  94125973.52747  22986537.4284   22986539.5264   22986537.6174
        48.000          41.000
 124589453.51247  97082681.33547  23708590.7364   23708595.9574   23708590.0084
        44.000          40.000
 128452121.04847 100092540.14047  24443644.2804   24443648.7694   24443644.0664
        45.000          39.000
 114523388.68347  89239001.72547  21793077.7094   21793080.0254   21793077.3644
        52.000          46.000
 124082618.03847  96687748.41147  23612141.1094   23612142.3674   23612140.9154
        47.000          40.000
 09  1 24  0 18 30.0000000  0 12G 5G 6G30G 9G14G24G21G18G29G12G31G22
 123615387.83647  96323654.11047  23523244.7574   23523249.8144   23523245.3374
        46.000          40.000
 126211173.30747  98346345.49947  24017206.4064   24017210.9604   24017206.3284
        45.000          38.000
 120180033.33747  93646770.46847  22869505.3104   22869509.8264   22869505.0034
        49.000          42.000
 125136140.43947  97508665.39247  23812628.7374   23812632.7764   23812629.1994
        44.000          37.000
 117509701.76347  91565999.30347  22361353.3594   22361356.6804   22361353.7404
        49.000          44.000
 118715713.95647  92505730.88647  22590864.5034   22590869.5884   22590865.0274
        49.000          42.000
 104877874.20147  81723012.80647  19957597.9614   19957600.4894   19957598.3134
        54.000          49.000
 120758338.34647  94097392.58947  22979557.8264   22979560.1904   22979558.2224
        48.000          42.000
 124658848.37547  97136755.25747  23721795.9924   23721801.1854   23721795.9204
        45.000          40.000
 128461390.46047 100099763.12147  24445408.1754   24445412.5274   24445408.0844
        44.000          39.000
 114440634.00047  89174517.60447  21777329.8714   21777332.2874   21777329.5344
        52.000          46.000
 124040395.58947  96654847.81547  23604107.0764   23604107.9244   23604107.1234
        47.000          40.000
 09  1 24  0 19  0.0000000  0 12G 5G 6G30G 9G14G24G21G18G29G12G31G22
 123611119.54847  96320328.20547  23522432.0374   23522437.7784   23522432.1694
        45.000          39.000
 126187444.63647  98327855.63047  24012691.0834   24012695.5004   24012691.1624
        43.000          38.000
 120153245.16247  93625896.58847  22864407.8774   22864412.2194   22864407.3724
        48.000          42.000
 125237345.43047  97587526.49847  23831887.8414   23831891.1564   23831887.5354
        44.000          37.000
 117546108.29947  91594368.05547  22368281.3324   22368284.1134   22368281.7734
        49.000          44.000
 118790549.72047  92564044.45047  22605105.6784   22605110.3944   22605105.3074
        48.000          42.000
 104886428.75947  81729678.69047  19959225.9294   19959228.3624   19959226.4054
        54.000          49.000
 120721590.03747  94068757.53647  22972564.8464   22972567.0534   22972565.2264
        49.000          42.000
 124728095.22847  97190713.83747  23734973.6794   23734978.5374   23734973.2434
        44.000          40.000
 128470840.14347 100107126.56347  24447206.6134   24447210.4974   24447206.0634
        45.000          39.000
 114358229.82047  89110306.60547  21761648.7474   21761651.0034   21761648.3244
        52.000          46.000
 123997975.01747  96621792.81847  23596034.7194   23596035.1244   23596034.6044
        47.000          40.000
 09  1 24  0 19 30.0000000  0 12G 5G 6G30G 9G14G24G21G18G29G12G31G22
 123607055.22847  96317161.24947  23521658.7334   23521664.4784   23521659.5254
        45.000          39.000
 126163973.35247  98309566.33947  24008224.6174   24008229.4954   24008224.6004
        43.000          38.000
 120126511.57147  93605065.23247  22859320.2144   22859324.3144   22859319.8804
        49.000          42.000
 125338788.27947  97666572.91947  23851191.1824   23851194.8594   23851191.3284
        44.000          37.000
 117582676.19847  91622862.54847  22375239.7434   22375242.6614   22375240.0834
        49.000          43.000
 118865736.52347  92622631.54647  22619413.0254   22619418.2604   22619413.1664
        48.000          42.000
 104895601.24447  81736826.07647  19960971.3684   19960973.8314   19960971.7254
        54.000          49.000
 120684774.11247  94040069.79247  22965558.7234   22965561.5244   22965559.3284
        48.000          42.000
 124797192.14447  97244555.58547  23748122.4474   23748127.3234   23748121.9284
        45.000          40.000
 128480471.47747 100114631.56447  24449039.4804   24449043.1304   24449039.1474
        44.000          39.000
 114276179.12647  89046371.03547  21746034.9944   21746037.3034   21746034.2584
        52.000          46.000
 123955358.40847  96588585.06547  23587924.8244   23587925.5194   23587925.0084
        47.000          41.000
 09  1 24  0 20  0.0000000  0 12G 5G 6G30G 9G14G24G21G18G29G12G31G22
 123603198.02247  96314155.65947  23520924.2164   23520929.7754   23520924.7094
        45.000          39.000
 126140759.54747  98291477.65947  24003807.1394   24003811.6324   24003807.2284
        44.000          38.000
 120099835.36547  93584278.59547  22854243.9654   22854248.2364   22854243.8124
        49.000          42.000
 125440467.12547  97745803.25647  23870540.2684   23870544.2074   23870540.3064
        44.000          37.000
 117619403.86047  91651481.53647  22382229.0424   22382231.9024   22382229.0444
        49.000          44.000
 118941273.42347  92681491.45447  22633786.9334   22633792.4004   22633787.1254
        49.000          42.000
 104905392.77247  81744455.83647  19962834.6304   19962837.0154   19962835.1384
        54.000          49.000
 120647893.29747  94011331.49047  22958540.5104   22958543.3454   22958540.9454
        48.000          42.000
 124866138.69147  97298280.17047  23761242.6994   23761247.2914   23761242.2474
        46.000          40.000
 128490287.46847 100122280.44647  24450906.9974   24450910.6684   24450906.6634
        43.000          38.000
 114194485.58347  88982713.78147  21730489.2134   21730491.4354   21730489.0774
        52.000          46.000
 123912546.42747  96555225.07847  23579778.1334   23579778.9724   23579778.1224
        47.000          41.000
 09  1 24  0 20 30.0000000  0 12G 5G 6G30G 9G14G24G21G18G29G12G31G22
 123599548.97847  96311312.29847  23520229.7154   23520235.9834   23520230.4944
        45.000          40.000
 126117801.00547  98273587.91147  23999438.4584   23999442.7904   23999438.3254
        43.000          38.000
 120073217.98747  93563537.81047  22849178.8034   22849183.0674   22849178.6774
        49.000          42.000
 125542378.10047  97825214.46847  23889932.5704   23889936.4594   23889933.1564
        43.000          37.000
 117656287.83947  91680222.31647  22389247.4954   22389250.6224   22389247.9554
        50.000          44.000
 119017157.24647  92740621.67447  22648227.3774   22648232.5194   22648227.7204
        48.000          42.000
 104915802.30947  81752567.16047  19964815.4344   19964817.8864   19964815.8344
        54.000          49.000
 120610948.70947  93982543.51647  22951510.3624   22951512.9544   22951510.7214
        49.000          42.000
 124934932.40047  97351885.66947  23774333.5984   23774338.3384   23774333.3644
        45.000          40.000
 128500288.87647 100130073.80247  24452810.0704   24452814.0574   24452809.9594
        44.000          39.000
 114113151.23247  88919336.40647  21715011.8004   21715013.8084   21715011.4244
        52.000          46.000
 123869539.36247  96521713.08747  23571593.9174   23571595.1174   23571593.9644
        46.000          40.000
 09  1 24  0 21  0.0000000  0 12G 5G 6G30G 9G14G24G21G18G29G12G31G22
 123596109.83947  96308632.47147  23519575.6674   23519582.0044   23519576.0704
        45.000          40.000
 126095096.26847  98255895.91647  23995117.4034   23995121.9734   23995117.2314
        43.000          38.000
 120046661.59247  93542844.55247  22844125.2844   22844129.3114   22844125.0424
        49.000          42.000
 125644517.83247  97904803.91047  23909369.7384   23909372.4964   23909370.0844
        42.000          37.000
 117693325.01447  91709082.47047  22396295.7374   22396298.4294   22396295.9974
        50.000          43.000
 119093385.88847  92800020.60047  22662733.0724   22662738.8144   22662733.0394
        49.000          42.000
 104926829.23547  81761159.56647  19966913.9284   19966916.2484   19966914.3724
        54.000          49.000
 120573941.82147  93953706.98047  22944468.2814   22944470.7614   22944468.6974
        48.000          42.000
 125003571.55447  97405370.72947  23787395.5264   23787399.7844   23787395.4534
        45.000          40.000
 128510477.11647 100138012.75047  24454748.8814   24454752.7784   24454748.6214
        44.000          39.000
 114032178.27147  88856240.63547  21699603.2214   21699605.3064   21699602.7004
        52.000          46.000
 123826338.00347  96488049.69047  23563372.8764   23563373.9344   23563372.8174
        47.000          40.000
 09  1 24  0 21 30.0000000  0 12G 5G 6G30G 9G14G24G21G18G29G12G31G22
 123592883.06447  96306118.14247  23518961.8324   23518967.6644   23518962.4114
        45.000          40.000
 126072644.82547  98238401.30747  23990844.9674   23990849.4854   23990845.1464
        43.000          37.000
 120020168.60147  93522200.70947  22839083.3814   22839087.9594   22839083.3344
        49.000          42.000
 125746884.17547  97984569.92947  23928849.8134   23928852.5084   23928849.7574
        43.000          37.000
 117730513.38747  91738060.45647  22403372.4614   22403375.3584   22403372.5334
        49.000          44.000
 119169957.77947  92859686.97647  22677304.5614   22677309.6364   22677304.5544
        48.000          42.000
 104938474.16747  81770233.53747  19969129.8634   19969132.0974   19969130.2804
        54.000          49.000
 120536875.15547  93924823.85347  22937414.7654   22937417.1654   22937415.2794
        49.000          42.000
 125072055.37347  97458734.75447  23800427.2574   23800431.3514   23800427.3154
        46.000          40.000
 128520854.10847 100146098.78747  24456723.6084   24456727.7724   24456723.3484
        45.000          39.000
 113951569.94547  88793428.99347  21684263.9094   21684266.0394   21684263.4524
        52.000          47.000
 123782943.66147  96454235.91147  23555114.9534   23555116.2084   23555114.9874
        46.000          40.000
 09  1 24  0 22  0.0000000  0 12G 5G 6G30G 9G14G24G21G18G29G12G31G22
 123589870.38647  96303770.63947  23518388.7834   23518394.0434   23518388.9954
        46.000          40.000
 126050444.98247  98221102.74747  23986620.8934   23986625.3684   23986621.0824
        43.000          37.000
 119993741.44347  93501608.16947  22834055.2184   22834059.1704   22834054.7214
        49.000          42.000
 125849474.04347  98064510.11247  23948371.1854   23948374.4064   23948371.3904
        41.000          37.000
 117767849.91247  91767153.87747  22410477.3044   22410480.2884   22410477.3984
        49.000          43.000
 119246870.63347  92919619.03847  22691940.3734   22691945.8494   22691940.4024
        48.000          42.000
 104950736.68247  81779788.74247  19971463.4184   19971465.6784   19971463.8164
        54.000          49.000
 120499750.11447  93895895.25347  22930349.8174   22930352.3384   22930350.1654
        48.000          41.000
 125140381.88347  97511976.17447  23813429.8694   23813434.1044   23813429.7584
        46.000          40.000
 128531421.47947 100154333.17247  24458734.7384   24458738.6714   24458734.5094
        44.000          38.000
 113871328.82347  88730903.48547  21668994.4164   21668996.5584   21668993.8424
        52.000          47.000
 123739357.36847  96420272.56247  23546821.2044   23546822.2594   23546821.0304
        47.000          40.000
 09  1 24  0 22 30.0000000  0 12G 5G 6G30G 9G14G24G21G18G29G12G31G22
 123587075.19847  96301592.60747  23517856.6634   23517862.0034   23517857.0444
        45.000          40.000
 126028497.06347  98204000.49447  23982443.9624   23982448.8174   23982444.3544
        43.000          38.000
 119967383.64747  93481069.64047  22829039.2564   22829043.4604   22829038.8694
        49.000          42.000
 125952286.10547  98144623.44047  23967935.9884   23967939.4974   23967936.1534
        41.000          36.000
 117805333.78447  91796362.11547  22417610.0094   22417612.9414   22417610.2524
        49.000          43.000
 119324123.38647  92979815.96647  22706640.9404   22706646.4524   22706641.1484
        49.000          42.000
 104963617.88747  81789826.04347  19973914.5684   19973916.9404   19973914.8844
        54.000          49.000
 120462570.39547  93866924.03847  22923274.8324   22923277.1954   22923275.1934
        48.000          42.000
 125208551.16347  97565095.10147  23826401.6714   23826406.3044   23826401.4264
        45.000          40.000
 128542182.31847 100162718.29147  24460782.2754   24460785.6504   24460781.8484
        44.000          39.000
 113791458.90647  88668667.22747  21653795.5184   21653797.9434   21653795.2754
        52.000          47.000
 123695580.94247  96386161.05747  23538490.9924   23538491.7374   23538490.9814
        47.000          40.000
 09  1 24  0 23  0.0000000  0 12G 5G 6G30G 9G14G24G21G18G29G12G31G22
 123584497.47447  96299584.02847  23517366.5074   23517371.7504   23517367.0934
        46.000          40.000
 126006797.70747  98187091.93047  23978314.7524   23978319.3794   23978314.7304
        44.000          38.000
 119941095.50747  93460585.40747  22824036.5104   22824040.9734   22824036.4164
        49.000          43.000
 126055315.35747  98224906.01347  23987541.6054   23987544.8454   23987541.2044
        42.000          37.000
 117842960.18647  91825681.41347  22424770.0534   22424773.1354   22424770.4244
        49.000          43.000
 119401712.03347  93040274.62847  22721405.8754   22721411.1124   22721406.0234
        48.000          42.000
 104977115.61747  81800343.75047  19976483.1124   19976485.3204   19976483.4864
        54.000          49.000
 120425335.87647  93837910.13647  22916189.2404   22916191.8304   22916189.8614
        48.000          41.000
 125276559.76147  97618088.81647  23839343.7014   23839347.2534   23839343.6574
        46.000          40.000
 128553136.26047 100171253.89247  24462866.9494   24462870.6404   24462866.5694
        44.000          39.000
 113711960.93247  88606720.79447  21638667.3704   21638670.0614   21638666.7764
        52.000          47.000
 123651613.22547  96351900.47747  23530124.1574   23530125.0324   23530124.0224
        46.000          40.000
 09  1 24  0 23 30.0000000  0 12G 5G 6G30G 9G14G24G21G18G29G12G31G22
 123582140.48747  96297747.45747  23516917.6234   23516923.3924   23516918.4214
        45.000          40.000
 125985347.14547  98170377.22247  23974232.6254   23974237.4904   23974233.3724
        42.000          38.000
 119914880.50947  93440158.16947  22819047.8834   22819052.5604   22819047.4934
        49.000          42.000
 126158560.22347  98305356.59847  24007188.4714   24007192.1424   24007187.9584
        41.000          37.000
 117880727.71647  91855110.68947  22431957.1654   22431960.0584   22431957.4604
        49.000          43.000
 119479636.02947  93100994.60447  22736234.1864   22736239.6224   22736234.0734
        48.000          42.000
 104991231.01347  81811342.76047  19979169.1394   19979171.4264   19979169.5074
        54.000          49.000
 120388049.95647  93808856.19247  22909093.7394   22909096.7944   22909094.2764
        47.000          41.000
 125344407.71647  97670957.34947  23852254.7514   23852257.9064   23852254.8684
        45.000          39.000
 128564286.49647 100179942.44047  24464988.5644   24464992.7634   24464987.9894
        43.000          39.000
 113632839.06947  88545067.43247  21623611.0174   21623613.4474   21623610.8254
        53.000          47.000
 123607456.58747  96317492.69247  23521721.2384   23521722.1604   23521721.4534
        46.000          40.000
 09  1 24  0 24  0.0000000  0 12G 5G 6G30G 9G14G24G21G18G29G12G31G22
 123580004.91947  96296083.41847  23516511.6664   23516516.4274   23516512.1544
        46.000          40.000
 125964142.93947  98153854.49047  23970197.3184   23970202.9494   23970197.7194
        43.000          38.000
 119888739.74147  93419788.77447  22814073.8444   22814078.0954   22814073.5264
        49.000          43.000
 126262016.57047  98385971.98447  24026874.9634   24026878.4474   24026875.3924
        42.000          37.000
 117918632.72147  91884647.07147  22439170.4914   22439173.1904   22439170.4674
        49.000          44.000
 119557891.90747  93161973.18547  22751125.5984   22751131.2864   22751125.7714
        48.000          42.000
 105005962.63147  81822821.93847  19981972.4474   19981974.7274   19981972.7764
        54.000          49.000
 120350713.29347  93779762.69747  22901988.9084   22901991.7074   22901989.2464
        48.000          41.000
 125412092.27247  97723698.56847  23865134.8284   23865138.0054   23865134.4824
        45.000          39.000
 128575632.95847 100188783.92147  24467147.4224   24467151.0554   24467147.1504
        44.000          38.000
 113554094.54247  88483708.09647  21608626.4784   21608628.6774   21608625.9804
        52.000          47.000
 123563110.91847  96282937.60747  23513282.7724   23513283.4074   23513282.8964
        46.000          40.000
 09  1 24  0 24 30.0000000  0 12G 5G 6G30G 9G14G24G21G18G29G12G31G22
 123578095.65647  96294595.72847  23516147.9274   23516153.0684   23516148.3504
        45.000          39.000
 125943186.65547  98137524.93547  23966209.5124   23966214.3414   23966209.6134
        43.000          37.000
 119862678.56747  93399481.39647  22809114.1804   22809119.0344   22809114.0144
        48.000          43.000
 126365684.29947  98466752.08847  24046602.4544   24046605.9154   24046603.0954
        43.000          37.000
 117956675.15747  91914290.55247  22446409.2024   22446412.6824   22446409.6064
        50.000          43.000
 119636480.53747  93223211.06547  22766080.8924   22766086.3004   22766081.2104
        48.000          42.000
 105021312.90247  81834783.18447  19984893.5574   19984895.8054   19984893.9384
        54.000          49.000
 120313330.95047  93750633.58747  22894875.4244   22894877.7494   22894875.9994
        48.000          41.000
 125479615.20747  97776313.84547  23877983.9864   23877987.0774   23877983.9374
        45.000          39.000
 128587180.44947 100197782.01647  24469344.7774   24469348.6684   24469344.3814
        44.000          39.000
 113475733.14447  88422647.30747  21593715.0424   21593717.1324   21593714.5774
        53.000          47.000
 123518580.20547  96248238.33947  23504808.6954   23504809.4694   23504808.7554
        47.000          40.000
 09  1 24  0 25  0.0000000  0 12G 5G 6G30G 9G14G24G21G18G29G12G31G22
 123576411.25247  96293283.25247  23515827.2674   23515832.7994   23515827.8214
        45.000          39.000
 125922473.62647  98121384.93247  23962268.1704   23962272.7994   23962268.6334
        42.000          37.000
 119836695.51747  93379234.90247  22804169.9084   22804174.4254   22804169.8954
        49.000          43.000
 126469557.51547  98547692.32047  24066369.6904   24066372.4894   24066369.7614
        42.000          38.000
 117994849.33547  91944036.69547  22453673.7134   22453676.3914   22453674.1444
        49.000          43.000
 119715396.11547  93284703.70147  22781098.0134   22781103.5164   22781097.8884
        48.000          42.000
 105037278.31147  81847223.75647  19987931.7014   19987933.8814   19987932.1104
        54.000          49.000
 120275901.36247  93721467.68147  22887752.9314   22887755.1224   22887753.4784
        48.000          41.000
 125546971.38547  97828799.17247  23890801.3084   23890804.8274   23890800.9724
        45.000          39.000
 128598927.24647 100206935.45147  24471580.1594   24471583.5804   24471580.2464
        44.000          38.000
 113397754.10047  88361884.45547  21578876.0224   21578878.2444   21578875.7604
        53.000          47.000
 123473862.10947  96213393.06047  23496298.9224   23496299.9374   23496298.9844
        46.000          40.000
 09  1 24  0 25 30.0000000  0 12G 5G 6G30G 9G14G24G21G18G29G12G31G22
 123574954.30447  96292147.99247  23515549.7474   23515555.3834   23515550.3134
        44.000          39.000
 125902003.23447  98105433.99847  23958372.8214   23958378.2144   23958372.3874
        42.000          37.000
 119810793.77247  93359051.75347  22799240.8834   22799245.3864   22799240.5274
        49.000          42.000
 126573633.68647  98628790.70547  24086174.3314   24086177.5204   24086174.6454
        43.000          38.000
 118033153.17747  91973883.86547  22460962.7834   22460965.3624   22460962.9784
        49.000          43.000
 119794637.34147  93346450.08247  22796176.8734   22796182.6774   22796177.2044
        48.000          41.000
 105053859.03647  81860143.79347  19991087.0114   19991089.1564   19991087.4254
        54.000          49.000
 120238427.28447  93692267.09647  22880621.6144   22880624.2204   22880622.0794
        48.000          41.000
 125614160.44747  97881154.27347  23903586.4674   23903590.6744   23903586.2894
        44.000          39.000
 128610875.67147 100216245.96547  24473853.6604   24473857.6284   24473852.6594
        43.000          39.000
 113320160.58547  88301422.00847  21564110.4164   21564112.5834   21564110.0274
        53.000          47.000
 123428957.84447  96178402.71247  23487753.7734   23487755.0494   23487753.7024
        46.000          40.000
 09  1 24  0 26  0.0000000  0 12G 5G 6G30G 9G14G24G21G18G29G12G31G22
 123573728.88647  96291193.16547  23515316.0774   23515321.5714   23515316.5464
        45.000          39.000
 125881776.40547  98089672.85947  23954523.5124   23954528.3064   23954524.2514
        43.000          38.000
 119784977.61247  93338935.28847  22794328.1514   22794332.2374   22794327.7894
        49.000          42.000
 126677912.06247  98710046.65247  24106017.7334   24106021.2394   24106017.8514
        43.000          38.000
 118071586.20647  92003831.70147  22468276.2124   22468279.2844   22468276.4224
        49.000          43.000
 119874204.23047  93408450.23447  22811318.1864   22811323.7504   22811318.3044
        48.000          42.000
 105071056.76547  81873544.61947  19994359.6764   19994361.8174   19994360.0414
        54.000          49.000
 120200912.54847  93663034.83447  22873482.8744   22873485.4814   22873483.5384
        48.000          41.000
 125681183.19347  97933379.78947  23916340.4704   23916344.7594   23916339.6734
        43.000          39.000
 128623029.64247 100225716.67547  24476166.5054   24476170.1734   24476166.2664
        44.000          39.000
 113242957.63247  88241263.90247  21549419.0164   21549421.4074   21549418.6764
        53.000          47.000
 123383870.91547  96143270.01347  23479174.4824   23479175.2674   23479174.4284
        46.000          40.000
 09  1 24  0 26 30.0000000  0 12G 5G 6G30G 9G14G24G21G18G29G12G31G22
 123572735.53447  96290419.14447  23515127.5054   23515132.6354   23515127.9244
        45.000          39.000
 125861790.43847  98074099.38447  23950720.7184   23950725.3744   23950720.6494
        42.000          37.000
 119759247.85947  93318886.15947  22789432.0304   22789436.1884   22789432.0714
        49.000          42.000
 126782388.58647  98791457.00047  24125898.5374   24125902.4024   24125899.0394
        43.000          38.000
 118110144.52447  92033877.17047  22475613.7794   22475616.3684   22475613.9594
        49.000          43.000
 119954093.25747  93470701.40247  22826520.2794   22826526.2624   22826520.4124
        48.000          41.000
 105088869.65247  81887424.78947  19997749.2354   19997751.5134   19997749.6354
        54.000          49.000
 120163358.21447  93633771.71647  22866336.6314   22866339.1314   22866337.0204
        48.000          41.000
 125748036.59047  97985473.34047  23929061.8294   23929066.7634   23929061.8084
        44.000          39.000
 128635389.09247 100235347.49047  24478518.5354   24478522.5924   24478517.5684
        44.000          39.000
 113166146.44947  88181411.06647  21534802.3104   21534804.7734   21534801.7724
        52.000          47.000
 123338600.96247  96107994.68747  23470559.8494   23470560.3374   23470559.9934
        47.000          40.000
 09  1 24  0 27  0.0000000  0 12G 5G 6G30G 9G14G24G21G18G29G12G31G22
 123571976.46547  96289827.69547  23514983.3394   23514988.3894   23514983.9224
        45.000          40.000
 125842044.35447  98058712.84847  23946962.9254   23946967.4944   23946962.8134
        44.000          38.000
 119733607.50547  93298906.67747  22784552.7584   22784557.3614   22784552.2754
        49.000          42.000
 126887060.50447  98873019.61447  24145817.5764   24145820.5054   24145817.3834
        44.000          38.000
 118148825.55647  92064018.25547  22482974.2124   22482977.0874   22482974.5664
        49.000          43.000
 120034302.45647  93533202.06347  22841783.6314   22841789.6114   22841783.7024
        48.000          41.000
 105107297.82147  81901784.40047  20001255.9414   20001258.4554   20001256.2794
        54.000          49.000
 120125766.40247  93604479.40947  22859182.9924   22859185.5704   22859183.4274
        49.000          41.000
 125814719.74947  98037434.23747  23941751.2274   23941756.0654   23941751.3374
        44.000          39.000
 128647955.93947 100245139.90247  24480909.7384   24480913.5974   24480909.1934
        43.000          38.000
 113089729.61847  88121865.52247  21520260.8374   21520263.1214   21520260.6864
        53.000          47.000
 123293149.31347  96072577.80947  23461910.5634   23461911.5354   23461910.5064
        47.000          40.000
 09  1 24  0 27 30.0000000  0 12G 5G 6G30G 9G14G24G21G18G29G12G31G22
 123571452.25447  96289419.24947  23514882.9364   23514888.8214   23514883.4434
        45.000          40.000
 125822535.59447  98043511.23647  23943250.4554   23943254.8284   23943250.6844
        43.000          37.000
 119708057.47847  93278997.59947  22779690.5384   22779694.6384   22779690.3184
        49.000          42.000
 126991923.56747  98954731.18247  24165772.0234   24165775.0704   24165772.5784
        43.000          38.000
 118187625.41447  92094251.93047  22490357.7674   22490360.6474   22490358.0114
        49.000          43.000
 120114828.26947  93595949.43047  22857107.3194   22857112.9654   22857107.6084
        47.000          41.000
 105126339.30847  81916621.91747  20004879.3104   20004881.7724   20004879.6684
        54.000          49.000
 120088138.06147  93575158.62747  22852022.8854   22852025.4154   22852023.2354
        49.000          42.000
 125881230.38747  98089260.72947  23954407.9774   23954412.7674   23954408.0294
        44.000          39.000
 128660730.68347 100255094.31947  24483340.1614   24483344.3854   24483339.6294
        43.000          38.000
 113013708.65047  88062628.42947  21505794.4404   21505796.7814   21505793.8534
        53.000          47.000
 123247515.79747  96037019.21247  23453226.8934   23453227.5284   23453226.8274
        46.000          41.000
 09  1 24  0 28  0.0000000  0 12G 5G 6G30G 9G14G24G21G18G29G12G31G22
 123571170.42247  96289199.67747  23514830.0294   23514835.2464   23514830.3294
        45.000          40.000
 125803268.27947  98028497.77247  23939583.9204   23939588.9054   23939584.1174
        42.000          37.000
 119682605.29147  93259164.74647  22774847.2674   22774851.4934   22774846.8094
        49.000          43.000
 127096980.70547  99036593.98047  24185763.2234   24185766.7254   24185763.8124
        44.000          37.000
 118226547.27847  92124580.68647  22497763.9974   22497766.9024   22497764.4304
        49.000          43.000
 120195674.19247  93658946.22547  22872491.8884   22872497.6154   22872492.0004
        47.000          41.000
 105145999.17547  81931941.29147  20008620.4324   20008622.8424   20008620.9564
        54.000          49.000
 120050480.43247  93545815.02147  22844856.4594   22844859.1604   22844857.1074
        49.000          42.000
 125947572.29747  98140955.74347  23967033.0284   23967036.9544   23967032.5864
        44.000          39.000
 128673720.30047 100265216.17147  24485812.1144   24485816.6384   24485811.7254
        45.000          39.000
 112938091.78147  88003706.22447  21491405.0804   21491407.3064   21491404.6534
        53.000          47.000
 123201706.92447  96001323.97447  23444510.0374   23444510.8064   23444510.2404
        47.000          41.000
 09  1 24  0 28 30.0000000  0 12G 5G 6G30G 9G14G24G21G18G29G12G31G22
 123571124.55047  96289163.96747  23514820.9584   23514826.2774   23514821.3944
        45.000          40.000
 125784232.75847  98013664.91747  23935961.7254   23935967.1894   23935962.2324
        43.000          38.000
 119657245.24447  93239403.68247  22770021.4464   22770025.7914   22770021.0804
        49.000          43.000
 127202220.39447  99118599.01847  24205790.2864   24205793.1014   24205790.3014
        43.000          37.000
 118265580.36647  92154996.10547  22505191.8474   22505194.6814   22505191.9964
        48.000          43.000
 120276829.55647  93722184.15447  22887935.2534   22887940.8254   22887935.1704
        47.000          41.000
 105166268.55447  81947735.60447  20012477.6234   20012480.0764   20012477.9454
        54.000          49.000
 120012787.60347  93516443.98147  22837683.8984   22837686.5044   22837684.3774
        49.000          42.000
 126013736.21347  98192512.03447  23979623.5554   23979628.1294   23979623.0654
        44.000          39.000
 128686918.35947 100275500.44347  24488324.0924   24488327.8894   24488323.8224
        43.000          38.000
 112862873.35247  87945094.49447  21477091.3564   21477093.4384   21477090.9734
        53.000          47.000
 123155715.50647  95965486.48347  23435757.8884   23435759.2694   23435758.0674
        47.000          41.000
 09  1 24  0 29  0.0000000  0 12G 5G 6G30G 9G14G24G21G18G29G12G31G22
 123571321.03947  96289317.09947  23514858.2924   23514863.5184   23514858.6524
        45.000          39.000
 125765432.43547  97999015.33147  23932384.6814   23932388.4084   23932384.2134
        43.000          37.000
 119631984.30947  93219719.86447  22765214.6734   22765218.8374   22765214.2324
        50.000          43.000
 127307644.55047  99200747.78647  24225851.3404   24225854.5394   24225851.8254
        42.000          37.000
 118304726.29347  92185499.44947  22512640.7954   22512644.2094   22512641.2954
        49.000          43.000
 120358296.80147  93785665.10647  22903437.9634   22903443.4974   22903437.9634
        47.000          41.000
 105187151.43447  81964007.97747  20016451.8034   20016454.0694   20016452.2524
        54.000          49.000
 119975066.15147  93487050.64647  22830505.9704   22830508.5084   22830506.1434
        49.000          42.000
 126079725.32047  98243932.11247  23992180.1034   23992185.2674   23992179.4684
        44.000          39.000
 128700330.76547 100285951.72447  24490875.8594   24490879.8794   24490875.8814
        44.000          38.000
 112788060.44447  87886798.75247  21462855.0024   21462856.9014   21462854.5314
        53.000          47.000
 123109547.30447  95929511.23847  23426972.5814   23426973.7504   23426972.5104
        47.000          41.000
 09  1 24  0 29 30.0000000  0 12G 5G 6G30G 9G14G24G21G18G29G12G31G22
 123571761.79247  96289660.57347  23514942.1384   23514947.2204   23514942.2134
        45.000          39.000
 125746865.73247  97984547.81347  23928851.0664   23928855.6164   23928851.1764
        43.000          37.000
 119606824.72747  93200115.01147  22760426.8044   22760430.6804   22760426.3564
        49.000          43.000
 127413250.16447  99283037.95647  24245947.9774   24245950.1754   24245948.3974
        41.000          36.000
 118343982.46647  92216088.69847  22520111.1364   22520114.4054   22520111.4584
        48.000          43.000
 120440073.86247  93849387.47447  22918999.7074   22919005.2504   22918999.7464
        47.000          41.000
 105208647.08747  81980757.83147  20020542.2204   20020544.6294   20020542.6764
        54.000          49.000
 119937318.11447  93457636.60747  22823322.1784   22823325.2824   22823322.7604
        49.000          42.000
 126145538.36647  98295215.00647  24004704.5584   24004709.5474   24004703.4984
        44.000          39.000
 128713959.07147 100296571.28947  24493468.8684   24493473.2334   24493468.8174
        44.000          38.000
 112713655.57847  87828820.97447  21448696.2284   21448698.1054   21448695.9734
        53.000          47.000
 123063203.37347  95893399.06647  23418153.7454   23418154.7264   23418153.6814
        48.000          42.000
 09  1 24  0 30  0.0000000  0 12G 5G 6G30G 9G14G24G21G18G29G12G31G22
 123572446.78047  96290194.36147  23515072.4794   23515077.7034   23515072.7904
        45.000          39.000
 125728529.41147  97970259.77747  23925361.6254   23925365.9094   23925361.6794
        42.000          37.000
 119581766.64447  93180589.25547  22755659.0984   22755662.5664   22755658.7444
        50.000          43.000
 127519032.46347  99365465.79847  24266077.4794   24266080.3494   24266077.6384
        40.000          36.000
 118383344.34747  92246760.32647  22527601.4064   22527604.3944   22527601.5944
        49.000          43.000
 120522156.32347  93913347.79447  22934618.8664   22934624.8054   22934619.1174
        47.000          40.000
 105230753.10947  81997983.29547  20024748.6484   20024751.1824   20024748.9974
        54.000          49.000
 119899543.84347  93428202.11947  22816134.3704   22816137.0224   22816135.0754
        49.000          42.000
 126211172.28647  98346358.32647  24017193.9234   24017198.5404   24017193.3264
        44.000          39.000
 128727802.72447 100307358.61047  24496103.8794   24496107.7474   24496103.1454
        44.000          38.000
 112639659.40347  87771161.64747  21434615.0444   21434617.0804   21434614.6774
        53.000          47.000
 123016682.84847  95857149.29547  23409301.0504   23409302.2144   23409301.3114
        48.000          41.000
 09  1 24  0 30 30.0000000  0 12G 5G 6G30G 9G14G24G21G18G29G12G31G22
 123573381.45347  96290922.70547  23515250.3444   23515255.7344   23515250.6494
        45.000          39.000
 125710425.74147  97956153.04447  23921916.6324   23921921.1004   23921916.6964
        43.000          37.000
 119556816.09647  93161147.29847  22750910.7314   22750914.7114   22750910.3924
        49.000          43.000
 127624992.02547  99448031.74747  24286240.1064   24286244.5134   24286241.0544
        40.000          36.000
 118422813.16047  92277515.27447  22535112.1464   22535115.0794   22535112.2964
        48.000          43.000
 120604545.48047  93977547.12547  22950297.2324   22950303.0234   22950297.5004
        47.000          41.000
 105253472.55747  82015686.75847  20029071.9724   20029074.5274   20029072.4784
        54.000          49.000
 119861748.89547  93398751.50947  22808942.2434   22808944.3854   22808942.5814
        49.000          42.000
 126276629.30847  98397363.80047  24029650.1494   24029654.3314   24029649.6624
        44.000          39.000
 128741866.98747 100318317.88547  24498780.3974   24498783.7344   24498780.2364
        44.000          38.000
 112566078.01347  87713825.53547  21420612.7364   21420615.2154   21420612.2604
        53.000          47.000
 122969990.34847  95820765.52347  23400415.6364   23400416.8124   23400415.6414
        47.000          41.000
 09  1 24  0 31  0.0000000  0 12G 5G 6G30G 9G14G24G21G18G29G12G31G22
 123574562.73247  96291843.22047  23515474.4584   23515480.8644   23515474.9894
        44.000          39.000
 125692548.51847  97942222.76247  23918514.8354   23918519.6134   23918514.9254
        43.000          38.000
 119531970.31947  93141786.97547  22746182.5284   22746186.6214   22746182.2824
        50.000          43.000
 127731121.56147  99530730.13447  24306436.0024   24306439.4394   24306436.0024
        38.000          35.000
 118462381.37047  92308347.65947  22542641.6684   22542644.8234   22542641.9364
        49.000          43.000
 120687234.53447  94041980.14547  22966032.4434   22966038.1284   22966032.5744
        47.000          40.000
 105276799.59847  82033863.67447  20033510.9474   20033513.6014   20033511.2564
        54.000          49.000
 119823930.38447  93369282.55147  22801745.7964   22801748.2134   22801746.0514
        49.000          42.000
 126341903.41347  98448226.73947  24042071.0034   24042075.5694   24042071.1944
        43.000          39.000
 128756148.46747 100329446.39947  24501497.2094   24501501.2964   24501496.7414
        44.000          39.000
 112492909.06747  87656810.80347  21406689.1054   21406691.8584   21406688.7854
        53.000          47.000
 122923122.20847  95784244.88747  23391497.0154   23391498.1994   23391497.0624
        48.000          42.000
 09  1 24  0 31 30.0000000  0 12G 5G 6G30G 9G14G24G21G18G29G12G31G22
 123575996.33647  96292960.33547  23515747.5294   23515753.3994   23515748.0834
        45.000          39.000
 125674900.14147  97928470.80847  23915156.4334   23915160.8154   23915156.5274
        43.000          38.000
 119507235.80247  93122513.34447  22741475.6494   22741479.8424   22741475.5104
        50.000          43.000
 127837421.68847  99613561.45847  24326664.8784   24326666.9014   24326664.1984
        40.000          35.000
 118502050.13947  92339258.42147  22550190.5404   22550193.4994   22550190.7924
        49.000          43.000
 120770224.70747  94106647.80447  22981824.6064   22981830.9354   22981824.8014
        47.000          41.000
 105300737.58947  82052516.65047  20038066.2094   20038068.7694   20038066.5704
        54.000          49.000
 119786094.53847  93339800.08147  22794545.8604   22794548.1524   22794546.3984
        50.000          42.000
 126406997.28447  98498949.24147  24054458.2924   24054462.3624   24054458.2214
        44.000          39.000
 128770653.02247 100340748.73547  24504258.0774   24504261.7304   24504257.8864
        44.000          38.000
 112420158.99447  87600122.46747  21392845.2354   21392847.7184   21392844.8434
        53.000          47.000
 122876083.56447  95747591.38947  23382546.1844   23382546.9024   23382546.3754
        48.000          42.000
 09  1 24  0 32  0.0000000  0 12G 5G 6G30G 9G14G24G21G18G29G12G31G22
 123577683.97647  96294275.40747  23516068.9264   23516074.0814   23516069.1114
        45.000          39.000
 125657479.04447  97914895.95547  23911841.6574   23911845.7314   23911841.6654
        43.000          38.000
 119482614.57147  93103327.97447  22736790.3784   22736794.6264   22736790.1214
        50.000          43.000
 127943889.53647  99696523.49547  24346924.7074   24346928.1644   24346925.0744
        40.000          35.000
 118541816.94147  92370245.57047  22557757.7364   22557760.7254   22557757.8684
        49.000          43.000
 120853513.57847  94171548.21147  22997674.0074   22997680.5634   22997673.9074
        47.000          40.000
 105325285.62047  82071644.97847  20042737.5354   20042740.1544   20042737.9504
        54.000          49.000
 119748243.18247  93310305.53647  22787343.0034   22787345.3644   22787343.5374
        49.000          42.000
 126471909.43247  98549530.15947  24066810.8004   24066815.4064   24066810.8654
        44.000          39.000
 128785381.66147 100352225.69547  24507060.2404   24507064.1244   24507060.1824
        44.000          38.000
 112347830.22647  87543762.41447  21379081.6484   21379083.9454   21379081.2734
        53.000          47.000
 122828875.25147  95710805.70147  23373562.4504   23373563.6324   23373562.5304
        47.000          42.000
 09  1 24  0 32 30.0000000  0 12G 5G 6G30G 9G14G24G21G18G29G12G31G22
 123579626.20347  96295788.85647  23516439.1414   23516443.8894   23516439.6124
        46.000          39.000
 125640282.55347  97901496.10547  23908568.9374   23908573.3044   23908569.2614
        43.000          38.000
 119458107.86247  93084231.85347  22732126.8994   22732131.5704   22732126.9364
        49.000          43.000
 128050520.70647  99779612.77547  24367215.7884   24367219.7294   24367216.4714
        40.000          36.000
 118581677.71647  92401305.94147  22565343.2524   22565345.8064   22565343.2144
        49.000          43.000
 120937097.72947  94236678.69647  23013579.6074   23013585.9994   23013579.6734
        47.000          41.000
 105350441.22847  82091246.74447  20047524.6074   20047527.1574   20047524.9474
        54.000          49.000
 119710377.10247  93280799.53047  22780137.1134   22780140.0024   22780137.4844
        49.000          42.000
 126536637.54947  98599967.67047  24079128.2884   24079132.3444   24079127.8924
        45.000          39.000
 128800334.58747 100363877.41947  24509905.6414   24509909.6744   24509905.5314
        44.000          38.000
 112275923.74247  87487731.41547  21365398.4434   21365400.5064   21365398.1874
        53.000          47.000
 122781497.26847  95673887.79347  23364546.7254   23364547.9224   23364546.5824
        47.000          42.000
 09  1 24  0 33  0.0000000  0 12G 5G 6G30G 9G14G24G21G18G29G12G31G22
 123581826.10147  96297503.08847  23516857.3894   23516862.7564   23516857.8504
        45.000          39.000
 125623310.65447  97888271.26047  23905339.2244   23905343.8174   23905339.7304
        43.000          38.000
 119433719.04847  93065227.59747  22727485.8014   22727489.9204   22727485.4164
        50.000          43.000
 128157313.88547  99862828.28547  24387537.2034   24387540.8174   24387537.7814
        39.000          35.000
 118621631.21647  92432438.55947  22572946.0204   22572948.9004   22572946.2214
        48.000          43.000
 121020976.32547  94302038.63947  23029541.3834   23029547.6604   23029541.3554
        47.000          41.000
 105376205.29147  82111322.63147  20052427.4244   20052429.8204   20052427.7704
        54.000          49.000
 119672499.88647  93251284.82947  22772929.0034   22772932.2844   22772929.3904
        48.000          42.000
 126601181.80847  98650261.91947  24091410.2234   24091414.4804   24091410.3714
        45.000          39.000
 128815514.74647 100375706.22147  24512794.4414   24512798.2534   24512794.3964
        44.000          38.000
 112204443.71547  87432032.72747  21351796.2484   21351798.3004   21351796.0464
        53.000          48.000
 122733952.07447  95636839.60647  23355498.9434   23355500.1824   23355498.9914
        47.000          42.000
 09  1 24  0 33 30.0000000  0 12G 5G 6G30G 9G14G24G21G18G29G12G31G22
 123584283.79147  96299418.18947  23517324.8594   23517330.2694   23517325.1004
        45.000          40.000
 125606559.95347  97875218.78047  23902152.2094   23902155.9804   23902151.6684
        44.000          38.000
 119409448.73847  93046315.67547  22722867.4934   22722871.6484   22722867.3104
        50.000          43.000
 128264264.47047  99946166.46347  24407889.5584   24407893.0904   24407889.0974
        40.000          35.000
 118661673.13947  92463640.08247  22580565.4334   22580568.5434   22580565.8984
        49.000          43.000
 121105145.23447  94367624.78747  23045558.7104   23045564.4324   23045559.0134
        47.000          41.000
 105402575.04347  82131870.48447  20057445.3714   20057447.7774   20057445.7954
        54.000          49.000
 119634611.84547  93221761.69247  22765719.3364   22765722.2884   22765719.7534
        49.000          42.000
 126665539.34547  98700410.66947  24103657.7194   24103661.0214   24103657.6954
        44.000          39.000
 128830921.74347 100387711.76347  24515726.5094   24515729.5114   24515725.8854
        44.000          38.000
 112133390.63947  87376666.72047  21338275.2794   21338277.3104   21338274.6684
        53.000          47.000
 122686238.87647  95599660.51247  23346419.5134   23346420.6974   23346419.5704
        48.000          42.000
 09  1 24  0 34  0.0000000  0 12G 5G 6G30G 9G14G24G21G18G29G12G31G22
 123587001.79947  96301536.14447  23517841.9054   23517847.4464   23517842.6344
        45.000          39.000
 125590029.82147  97862338.15947  23899006.2254   23899010.8824   23899006.4344
        44.000          38.000
 119385300.09347  93027498.55347  22718271.7004   22718276.1704   22718271.6174
        50.000          43.000
 128371370.15147 100029625.48747  24428271.0944   24428274.6774   24428270.8094
        41.000          35.000
 118701801.65247  92494909.07947  22588202.0874   22588204.5504   22588202.0144
        48.000          43.000
 121189602.99047  94433436.01847  23061630.3334   23061636.2714   23061630.2054
        47.000          41.000
 105429550.26147  82152890.13347  20062578.6364   20062581.0284   20062578.9934
        54.000          49.000
 119596715.74047  93192232.27547  22758507.8904   22758510.6754   22758508.1764
        48.000          42.000
 126729709.45447  98750413.34847  24115868.6694   24115872.4974   24115868.2174
        44.000          38.000
 128846557.83747 100399895.82847  24518702.3064   24518705.4494   24518701.7074
        44.000          38.000
 112062767.65547  87321635.85747  21324836.1044   21324838.1364   21324835.9284
        53.000          47.000
 122638360.30947  95562352.54847  23337308.7794   23337309.7494   23337308.8004
        48.000          42.000
 09  1 24  0 34 30.0000000  0 12G 5G 6G30G 9G14G24G21G18G29G12G31G22
 123589982.88247  96303859.08847  23518409.4404   23518414.5744   23518410.0164
        46.000          40.000
 125573720.07247  97849629.26947  23895902.9784   23895906.9714   23895902.9284
        44.000          39.000
 119361276.54547  93008778.90747  22713700.3824   22713704.6854   22713700.4194
        49.000          43.000
 128478628.97047 100113203.81547  24448681.6134   24448685.7414   24448682.5104
        40.000          35.000
 118742015.16347  92526244.31747  22595853.9344   22595856.7004   22595854.2784
        48.000          43.000
 121274348.05647  94499471.12447  23077757.0094   23077762.6844   23077757.3914
        48.000          41.000
 105457131.34547  82174381.88447  20067827.1234   20067829.4374   20067827.4974
        54.000          49.000
 119558815.24947  93162699.44847  22751295.9024   22751298.6944   22751295.9584
        49.000          42.000
 126793692.39247  98800270.18547  24128043.7544   24128047.8774   24128043.3474
        44.000          38.000
 128862425.47647 100412260.32347  24521720.8224   24521724.2294   24521721.0134
        43.000          38.000
 111992578.12647  87266942.74647  21311479.1354   21311481.5294   21311478.6014
        53.000          48.000
 122590318.20147  95524917.15047  23328166.5054   23328167.8204   23328166.4804
        48.000          42.000
 09  1 24  0 35  0.0000000  0 12G 5G 6G30G 9G14G24G21G18G29G12G31G22
 123593227.80047  96306387.60547  23519027.2804   23519031.9064   23519027.7394
        45.000          40.000
 125557628.01647  97837090.01047  23892840.1344   23892844.7564   23892840.3904
        44.000          38.000
 119337379.48247  92990157.81247  22709153.0534   22709157.1284   22709152.5994
        49.000          43.000
 128586037.14047 100196898.57347  24469120.7324   24469124.4864   24469121.3254
        41.000          34.000
 118782310.34347  92557643.18947  22603522.1974   22603525.0714   22603522.4494
        48.000          43.000
 121359377.21647  94565727.60347  23093937.4554   23093943.3544   23093937.7724
        47.000          41.000
 105485316.19747  82196344.10247  20073190.3784   20073193.0024   20073190.8704
        54.000          49.000
 119520911.23947  93133163.85447  22744082.7614   22744085.8814   22744083.2234
        49.000          42.000
 126857485.94947  98849979.46847  24140183.2074   24140187.2404   24140183.0524
        44.000          39.000
 128878525.10347 100424805.60147  24524784.4614   24524787.4054   24524784.6374
        44.000          37.000
 111922823.68647  87212588.66147  21298205.4374   21298207.8444   21298204.8044
        53.000          48.000
 122542112.86247  95487354.54947  23318993.4274   23318994.4214   23318993.5524
        48.000          42.000
 09  1 24  0 35 30.0000000  0 11G 5G 6G30G14G24G21G18G29G12G31G22
 123596737.51747  96309122.47147  23519694.8334   23519700.2294   23519695.3034
        45.000          40.000
 125541751.43147  97824718.64547  23889819.2394   23889823.9704   23889819.0614
        43.000          38.000
 119313610.14047  92971636.24647  22704630.1204   22704634.0874   22704629.8394
        49.000          43.000
 118822683.68047  92589102.96447  22611204.8594   22611207.6524   22611205.0754
        48.000          43.000
 121444687.34247  94632203.01647  23110171.5304   23110177.3584   23110171.6684
        47.000          41.000
 105514103.14947  82218775.48247  20078668.3924   20078670.8194   20078668.7334
        54.000          49.000
 119483004.89147  93103626.43547  22736869.7524   22736872.1924   22736870.3274
        49.000          42.000
 126921088.16547  98899539.64947  24152286.8264   24152290.8224   24152286.2264
        44.000          39.000
 128894857.25247 100437532.05147  24527891.8734   24527896.2274   24527891.9754
        43.000          38.000
 111853505.70147  87158574.67647  21285014.5654   21285017.0064   21285014.5114
        53.000          48.000
 122493744.62047  95449665.02247  23309789.2854   23309790.2134   23309789.2654
        48.000          42.000
 09  1 24  0 36  0.0000000  0 11G 5G 6G30G14G24G21G18G29G12G31G22
 123600517.71447  96312068.10347  23520414.1704   23520419.2224   23520414.7804
        45.000          40.000
 125526092.80147  97812517.12847  23886839.2224   23886844.0474   23886839.2884
        43.000          38.000
 119289974.72547  92953219.03947  22700132.2494   22700136.3164   22700131.8264
        50.000          43.000
 118863136.49447  92620624.68447  22618902.7724   22618905.3514   22618902.9374
        48.000          43.000
 121530280.09047  94698898.66047  23126459.2214   23126464.7904   23126459.2354
        47.000          40.000
 105543494.97647  82241678.19547  20084261.5594   20084263.8794   20084261.9384
        54.000          49.000
 119445102.47747  93074092.07647  22729656.9544   22729659.6754   22729657.5744
        49.000          42.000
 126984502.05747  98948953.08347  24164353.6864   24164357.9654   24164353.2834
        44.000          39.000
 128911427.53047 100450444.06147  24531045.0804   24531048.9154   24531045.0614
        43.000          37.000
 111784630.52147  87104905.72247  21271908.1784   21271910.5134   21271907.5374
        53.000          48.000
 122445218.62047  95411852.56147  23300555.0814   23300555.9064   23300555.1554
        49.000          42.000
 09  1 24  0 36 30.0000000  0 12G 5G 6G30G 9G14G24G21G18G29G12G31G22
 123604565.86647  96315222.55147  23521184.6744   23521189.8074   23521184.8914
        45.000          40.000
 125510646.22847  97800480.84547  23883899.4844   23883904.3374   23883899.8004
        43.000          38.000
 119266471.56747  92934904.90347  22695659.8624   22695663.5654   22695659.4744
        50.000          43.000
 138909027.39957  90448552.50057  24530602.7915   24530612.6525   24530603.5845
        38.000          33.000
 118903661.68947  92652202.79647  22626614.3484   22626616.9124   22626614.6204
        48.000          43.000
 121616148.59247  94765809.17147  23142799.4664   23142804.8884   23142799.6584
        47.000          40.000
 105573486.55347  82265048.24347  20089968.7944   20089971.1224   20089969.1074
        54.000          49.000
 119407202.16847  93044559.36247  22722444.7124   22722447.3234   22722445.1784
        49.000          42.000
 127047722.09947  98998215.48747  24176383.7454   24176388.3434   24176383.4624
        44.000          39.000
 128928232.90147 100463539.25447  24534243.2164   24534246.2274   24534242.6254
        42.000          37.000
 111716196.37347  87051580.43747  21258885.5864   21258887.8814   21258885.3824
        53.000          48.000
 122396532.16647  95373915.08047  23291290.5764   23291291.1044   23291290.6184
        48.000          42.000
 09  1 24  0 37  0.0000000  0 11G 5G 6G30G14G24G21G18G29G12G31G22
 123608886.20447  96318589.07347  23522006.5754   23522011.8404   23522007.0084
        45.000          39.000
 125495412.76447  97788610.62247  23881001.0854   23881005.7064   23881001.0114
        43.000          38.000
 119243105.45647  92916697.53547  22691213.6434   22691217.3464   22691213.3784
        50.000          43.000
 118944259.35147  92683837.37347  22634339.7654   22634342.6354   22634340.1514
        48.000          42.000
 121702293.10247  94832934.75847  23159192.0294   23159197.7404   23159192.5654
        47.000          40.000
 105604079.25747  82288886.70547  20095790.2964   20095792.8054   20095790.5984
        54.000          49.000
 119369308.25447  93015031.61747  22715233.7974   22715236.4904   22715234.3284
        49.000          42.000
 127110749.17147  99047327.49147  24188377.6674   24188382.4294   24188377.3524
        44.000          39.000
 128945277.40147 100476820.77547  24537486.8444   24537490.6224   24537486.6224
        43.000          37.000
 111648207.98547  86998602.48847  21245947.5944   21245950.0714   21245946.9404
        53.000          48.000
 122347689.03947  95335855.50847  23281995.9434   23281996.5774   23281996.0374
        48.000          41.000
 09  1 24  0 37 30.0000000  0 11G 5G 6G30G14G24G21G18G29G12G31G22
 123613479.07247  96322167.96647  23522880.8264   23522885.2304   23522881.0744
        45.000          40.000
 125480389.48547  97776904.19247  23878141.7344   23878146.4034   23878142.0064
        43.000          38.000
 119219877.21747  92898597.61847  22686793.3564   22686797.0814   22686793.1914
        50.000          43.000
 118984925.72647  92715525.50347  22642078.6104   22642081.0614   22642078.9624
        48.000          43.000
 121788710.12747  94900272.70647  23175636.4284   23175641.8674   23175636.6944
        47.000          40.000
 105635270.70647  82313191.72147  20101725.7284   20101728.2904   20101726.1634
        54.000          49.000
 119331421.82247  92985509.71047  22708024.3334   22708026.5464   22708024.5114
        49.000          42.000
 127173581.13747  99096287.47747  24200334.1704   24200338.2934   24200333.7874
        44.000          39.000
 128962560.79147 100490288.43947  24540776.1194   24540778.9804   24540775.8164
        44.000          38.000
 111580666.74447  86945972.97247  21233095.0894   21233097.4264   21233094.7924
        53.000          48.000
 122298689.05347  95297673.72247  23272671.3204   23272672.2064   23272671.3604
        48.000          41.000
 09  1 24  0 38  0.0000000  0 11G 5G 6G30G14G24G21G18G29G12G31G22
 123618345.37447  96325959.91047  23523806.8444   23523811.6794   23523806.9924
        46.000          40.000
 125465574.34447  97765359.92347  23875322.8654   23875327.1884   23875322.9694
        43.000          38.000
 119196788.55547  92880606.45647  22682399.6984   22682403.6614   22682399.4284
        50.000          43.000
 119025657.58247  92747264.65447  22649829.4744   22649832.5584   22649829.7774
        48.000          43.000
 121875396.43547  94967820.46247  23192132.2764   23192138.2744   23192132.6054
        46.000          40.000
 105667058.74847  82337961.61647  20107774.7514   20107777.4034   20107775.1134
        54.000          49.000
 119293544.07547  92955994.56347  22700816.2104   22700818.5554   22700816.5294
        49.000          42.000
 127236217.02747  99145094.68947  24212253.6234   24212258.1374   24212253.4784
        45.000          39.000
 128980083.91747 100503942.92447  24544110.1024   24544114.1994   24544110.1364
        43.000          38.000
 111513573.76347  86893692.74847  21220327.6044   21220329.9644   21220327.2344
        53.000          48.000
 122249532.78247  95259370.15147  23263317.2904   23263318.0654   23263317.0524
        48.000          41.000
 09  1 24  0 38 30.0000000  0 11G 5G 6G30G14G24G21G18G29G12G31G22
 123623489.44147  96329968.31347  23524785.8544   23524790.5524   23524786.2754
        45.000          40.000
 125450968.09347  97753978.44647  23872543.6704   23872547.8904   23872543.4424
        44.000          38.000
 119173844.19647  92862727.75047  22678033.2824   22678037.7764   22678032.8194
        50.000          43.000
 119066454.49047  92779054.50147  22657592.5734   22657595.8714   22657592.9774
        48.000          43.000
 121962352.13347  95035578.14947  23208679.7294   23208685.5624   23208679.7364
        46.000          40.000
 105699444.64347  82363197.36947  20113937.7424   20113940.1234   20113938.2024
        54.000          49.000
 119255679.94447  92926490.02447  22693611.2274   22693613.4744   22693611.2304
        49.000          42.000
 127298657.75147  99193749.81447  24224136.0574   24224140.3424   24224135.4514
        44.000          39.000
 128997850.70547 100517787.28347  24547491.1134   24547494.5774   24547491.2614
        43.000          38.000
 111446933.78347  86841765.51347  21207646.4944   21207648.9384   21207645.9074
        53.000          48.000
 122200223.89547  95220947.65747  23253933.9474   23253934.6694   23253933.7284
        48.000          41.000
 09  1 24  0 39  0.0000000  0 11G 5G 6G30G14G24G21G18G29G12G31G22
 123628911.40447  96334193.26747  23525817.2484   23525822.3574   23525817.3994
        46.000          40.000
 125436567.79547  97742757.43547  23869803.2954   23869807.1264   23869803.2804
        44.000          38.000
 119151044.84847  92844962.03247  22673694.6274   22673698.9254   22673694.4214
        50.000          43.000
 119107312.82247  92810892.20247  22665367.8304   22665370.7724   22665367.7884
        48.000          43.000
 122049573.12547  95103542.56247  23225277.4774   23225282.8714   23225277.9104
        47.000          40.000
 105732426.00147  82388897.12347  20120213.8774   20120216.3534   20120214.2994
        54.000          49.000
 119217830.38447  92896996.84847  22686408.5334   22686411.2414   22686409.0504
        49.000          42.000
 127360900.84447  99242250.96147  24235980.3464   24235984.9084   24235979.9074
        44.000          39.000
 129015860.96547 100531821.32347  24550918.4594   24550921.8834   24550917.5884
        42.000          38.000
 111380747.72547  86790191.98647  21195051.7254   21195054.1264   21195051.3234
        53.000          48.000
 122150762.44847  95182406.29547  23244521.7514   23244522.7254   23244521.6234
        48.000          41.000
 09  1 24  0 39 30.0000000  0 11G 5G 6G30G14G24G21G18G29G12G31G22
 123634614.54047  96338637.31847  23526902.4904   23526907.8904   23526902.9024
        46.000          40.000
 125422373.42947  97731696.90447  23867101.9544   23867106.0824   23867101.6554
        43.000          38.000
 119128394.47847  92827312.40747  22669384.4704   22669388.8034   22669384.2214
        49.000          43.000
 119148231.65447  92842777.04047  22673154.5914   22673157.2774   22673154.6324
        48.000          42.000
 122137058.80447  95171713.20447  23241925.7264   23241931.3074   23241925.6144
        46.000          40.000
 105766003.30647  82415061.24747  20126603.4744   20126606.0224   20126603.8824
        54.000          49.000
 119179999.12347  92867517.91747  22679209.7294   22679212.0494   22679210.0564
        49.000          42.000
 127422946.55847  99290598.29247  24247786.6444   24247791.7874   24247786.6124
        44.000          39.000
 129034117.64347 100546047.38347  24554391.7064   24554395.9674   24554391.5504
        42.000          37.000
 111315019.83547  86738975.47847  21182544.0474   21182546.4744   21182543.8804
        53.000          48.000
 122101151.12947  95143748.16447  23235080.7324   23235081.7524   23235080.7294
        48.000          41.000
 09  1 24  0 40  0.0000000  0 11G 5G 6G30G14G24G21G18G29G12G31G22
 123640598.49247  96343300.16647  23528040.8714   23528046.2664   23528041.2614
        46.000          40.000
 125408381.52547  97720794.12947  23864439.8934   23864443.4994   23864439.6334
        44.000          38.000
 119105893.32247  92809779.04347  22665102.3924   22665106.8334   22665102.1664
        49.000          43.000
 119189206.17347  92874705.27147  22680951.5814   22680953.9594   22680951.7764
        48.000          42.000
 122224804.68847  95240086.61847  23258622.7454   23258628.7134   23258622.5564
        46.000          40.000
 105800173.14647  82441687.08547  20133105.7114   20133108.2234   20133106.1124
        54.000          49.000
 119142186.14347  92838053.23647  22672014.0444   22672016.4124   22672014.5344
        50.000          42.000
 127484792.09647  99338789.63147  24259556.1904   24259560.1904   24259556.2334
        44.000          39.000
 129052619.99347 100560464.86347  24557912.8794   24557916.3194   24557912.4964
        42.000          37.000
 111249749.76647  86688115.70547  21170123.5354   21170125.9214   21170123.0014
        54.000          48.000
 122051389.26747  95104972.70947  23225611.6194   23225612.5304   23225611.3384
        48.000          41.000
 09  1 24  0 40 30.0000000  0 11G 5G 6G30G14G24G21G18G29G12G31G22
 123646864.83247  96348183.07447  23529233.6204   23529238.6154   23529234.2344
        45.000          40.000
 125394590.47347  97710047.89347  23861814.9234   23861818.7474   23861815.4114
        45.000          38.000
 119083543.89147  92792363.91947  22660849.3514   22660853.5624   22660849.0454
        49.000          43.000
 119230233.83147  92906674.91647  22688758.3934   22688761.5004   22688758.8434
        48.000          42.000
 122312808.28847  95308660.85547  23275369.1764   23275375.2224   23275369.4174
        46.000          40.000
 105834934.22247  82468773.63047  20139720.5544   20139723.1484   20139720.9784
        54.000          49.000
 119104393.69647  92808604.57447  22664822.4334   22664825.0574   22664822.8924
        49.000          42.000
 127546436.55347  99386824.30347  24271286.0964   24271290.5034   24271286.0634
        44.000          39.000
 129071369.47447 100575074.92547  24561480.8134   24561484.0854   24561480.5934
        42.000          37.000
 111184939.93147  86637614.57047  21157790.6534   21157792.8424   21157790.5224
        54.000          48.000
 122001478.32947  95066081.09847  23216114.0904   23216114.4854   23216114.1324
        48.000          41.000
 09  1 24  0 41  0.0000000  0 11G 5G 6G30G14G24G21G18G29G12G31G22
 123653419.18647  96353290.39747  23530480.5224   23530485.3834   23530481.0494
        45.000          39.000
 125381002.51647  97699459.88947  23859230.2444   23859233.5474   23859230.0494
        44.000          38.000
 119061352.17547  92775071.68647  22656626.6414   22656630.6454   22656626.2444
        50.000          43.000
 119271316.17147  92938687.16647  22696576.1994   22696579.0834   22696576.4314
        48.000          42.000
 122401071.18647  95377437.12247  23292165.1544   23292170.8314   23292165.2044
        46.000          40.000
 105870289.04647  82496322.83347  20146448.4574   20146450.8684   20146448.9194
        54.000          49.000
 119066627.94147  92779176.69447  22657635.7014   22657638.4234   22657636.0824
        49.000          42.000
 127607882.62047  99434704.37947  24282979.1684   24282983.0044   24282978.6214
        43.000          38.000
 129090371.21047 100589881.56047  24565096.7114   24565100.4544   24565096.1734
        42.000          37.000
 111120596.64747  86587476.97947  21145546.6184   21145548.6024   21145546.0054
        54.000          48.000
 121951423.38947  95027077.28947  23206588.7184   23206589.3234   23206588.9314
        48.000          41.000
 09  1 24  0 41 30.0000000  0 11G 5G 6G30G14G24G21G18G29G12G31G22
 123660258.01947  96358619.38847  23531782.0104   23531786.8354   23531782.6784
        46.000          39.000
 125367611.20847  97689025.11447  23856680.9734   23856685.2534   23856681.1884
        44.000          38.000
 119039315.58147  92757900.33447  22652433.4304   22652437.3044   22652433.1484
        50.000          43.000
 119312445.23747  92970735.82547  22704402.6944   22704405.6134   22704402.7364
        48.000          42.000
 122489585.76747  95446409.51847  23309009.0804   23309014.5804   23309009.2364
        45.000          40.000
 105906231.34947  82524329.82247  20153287.8764   20153290.4744   20153288.1604
        54.000          49.000
 119028886.14747  92749767.49147  22650453.8974   22650456.2504   22650454.1264
        49.000          42.000
 127669124.65147  99482425.45547  24294633.3064   24294637.1504   24294632.7364
        44.000          38.000
 129109621.52247 100604881.89847  24568759.7324   24568763.4334   24568759.5584
        42.000          37.000
 111056717.02647  86537700.69047  21133390.8644   21133392.7564   21133390.5834
        54.000          48.000
 121901220.74447  94987958.38147  23197035.4674   23197036.1464   23197035.5174
        48.000          41.000
 09  1 24  0 42  0.0000000  0 11G 5G 6G30G14G24G21G18G29G12G31G22
 123667386.13747  96364173.81347  23533138.2024   23533143.1474   23533138.5574
        45.000          39.000
 125354417.80247  97678744.54647  23854170.6794   23854174.8284   23854170.8104
        44.000          38.000
 119017439.46447  92740854.03047  22648270.6364   22648274.5134   22648270.3484
        50.000          43.000
 119353621.96647  93002821.62347  22712238.6964   22712241.1104   22712238.9584
        48.000          42.000
 122578352.80747  95515578.64347  23325900.9644   23325906.2094   23325900.8214
        46.000          40.000
 105942762.93747  82552795.98847  20160239.5264   20160242.3304   20160239.9174
        54.000          49.000
 118991173.89147  92720381.30947  22643277.1874   22643280.1234   22643277.6264
        49.000          42.000
 127730164.45347  99529988.94647  24306249.0484   24306252.9434   24306248.8564
        44.000          38.000
 129129124.63147 100620079.21447  24572471.3004   24572474.6044   24572471.2374
        43.000          37.000
 110993305.96547  86488289.50547  21121324.1324   21121325.9134   21121323.6694
        54.000          48.000
 121850875.31647  94948728.19847  23187455.0314   23187455.4464   23187454.9304
        48.000          41.000
 09  1 24  0 42 30.0000000  0 11G 5G 6G30G14G24G21G18G29G12G31G22
 123674804.00347  96369954.00647  23534549.8574   23534554.7334   23534550.5394
        45.000          39.000
 125341419.68747  97668616.16547  23851697.2424   23851701.2104   23851697.0774
        44.000          38.000
 118995725.20347  92723933.84447  22644138.6644   22644142.1424   22644138.1954
        50.000          43.000
 119394842.71447  93034941.72047  22720082.8564   22720085.4674   22720083.2334
        48.000          42.000
 122667368.83547  95584941.77547  23342840.0214   23342845.7314   23342840.2704
        46.000          40.000
 105979881.33747  82581719.40747  20167303.0584   20167305.6694   20167303.3864
        54.000          49.000
 118953492.15947  92691018.92947  22636106.5594   22636109.2954   22636106.7944
        49.000          42.000
 127790999.94147  99577393.23947  24317825.4854   24317829.4464   24317825.1464
        43.000          38.000
 129148880.82947 100635473.73947  24576230.3674   24576234.0024   24576230.3054
        42.000          37.000
 110930364.89447  86439244.55047  21109346.7994   21109348.5364   21109346.4494
        54.000          48.000
 121800386.89047  94909386.63147  23177847.3394   23177848.3004   23177847.5284
        47.000          41.000
 09  1 24  0 43  0.0000000  0 11G 5G 6G30G14G24G21G18G29G12G31G22
 123682513.68547  96375961.60647  23536017.2064   23536022.1234   23536017.5264
        46.000          39.000
 125328615.84147  97658639.15047  23849260.4884   23849264.7314   23849261.0534
        44.000          38.000
 118974175.44847  92707141.85647  22640037.6464   22640041.7644   22640037.2384
        50.000          43.000
 119436105.50147  93067094.58247  22727934.8324   22727937.4674   22727935.1594
        48.000          42.000
 122756631.95047  95654497.44747  23359826.1064   23359831.5904   23359826.0214
        46.000          40.000
 106017585.45847  82611099.23647  20174478.0924   20174480.4854   20174478.4974
        54.000          49.000
 118915843.47947  92661682.29047  22628942.1194   22628945.2064   22628942.5064
        49.000          42.000
 127851630.99147  99624638.22347  24329363.0414   24329366.6024   24329362.7924
        43.000          38.000
 129168891.88347 100651066.86847  24580038.2054   24580041.2914   24580038.3904
        42.000          37.000
 110867896.36647  86390567.80647  21097459.1334   21097461.1244   21097458.6924
        54.000          48.000
 121749758.06047  94869935.64847  23168212.5324   23168214.1404   23168212.6544
        47.000          41.000
 09  1 24  0 43 30.0000000  0 11G 5G 6G30G14G24G21G18G29G12G31G22
 123690516.52247  96382197.62247  23537539.7764   23537544.5524   23537540.4084
        46.000          39.000
 125316004.17247  97648811.89747  23846860.9074   23846865.2804   23846860.5614
        44.000          38.000
 118952791.95547  92690479.40947  22635968.3434   22635972.2414   22635967.8274
        50.000          43.000
 119477407.49047  93099277.98547  22735794.0854   22735796.6994   22735794.4594
        48.000          42.000
 122846139.14147  95724243.30147  23376858.2794   23376864.2204   23376858.2774
        45.000          40.000
 106055874.02647  82640934.47847  20181764.0884   20181766.6624   20181764.4114
        54.000          49.000
 118878230.17047  92632373.21447  22621784.9294   22621787.3944   22621785.3734
        50.000          42.000
 127912056.34747  99671722.93747  24340861.4834   24340865.2864   24340861.0144
        43.000          38.000
 129189158.59447 100666859.19747  24583894.3644   24583898.4874   24583894.4354
        42.000          37.000
 110805901.95947  86342260.51247  21085661.8554   21085664.1664   21085661.4244
        54.000          48.000
 121698989.48047  94830375.75347  23158551.7454   23158552.9854   23158551.8224
        47.000          41.000
 09  1 24  0 44  0.0000000  0 11G 5G 6G30G14G24G21G18G29G12G31G22
 123698815.00447  96388664.02147  23539119.0834   23539123.8824   23539119.4764
        46.000          40.000
 125303584.23047  97639134.01247  23844497.5394   23844501.5564   23844497.9164
        44.000          38.000
 118931578.15847  92673949.20447  22631931.4234   22631935.2434   22631931.3264
        50.000          43.000
 119518747.09347  93131490.70147  22743660.4084   22743663.2324   22743660.8904
        48.000          42.000
 122935889.18847  95794178.39847  23393937.3774   23393943.3454   23393937.7304
        46.000          40.000
 106094745.95647  82671224.28347  20189161.4194   20189163.8504   20189161.8794
        55.000          49.000
 118840655.50247  92603094.24447  22614634.9754   22614637.1864   22614635.6464
        50.000          42.000
 127972276.04547  99718647.40047  24352320.9204   24352324.6964   24352320.4904
        44.000          37.000
 129209683.47647 100682852.70847  24587800.9594   24587803.6354   24587800.8224
        41.000          37.000
 110744385.27647  86294325.46947  21073955.4454   21073957.9644   21073955.1304
        53.000          48.000
 121648084.02447  94790709.20647  23148865.0504   23148865.3834   23148865.3004
        47.000          41.000
 09  1 24  0 44 30.0000000  0 11G 5G 6G30G14G24G21G18G29G12G31G22
 123707410.37047  96395361.74647  23540754.4914   23540759.4254   23540754.7654
        46.000          40.000
 125291353.98647  97629603.96147  23842169.6904   23842174.1884   23842169.8254
        45.000          39.000
 118910536.27247  92657552.93647  22627927.2974   22627931.4284   22627927.0944
        50.000          43.000
 119560121.63847  93163730.63647  22751533.9504   22751536.5094   22751534.2044
        48.000          42.000
 123025879.39147  95864300.62947  23411062.2574   23411067.9854   23411062.3284
        46.000          39.000
 106134199.63347  82701967.40547  20196669.0944   20196671.5314   20196669.3944
        55.000          49.000
 118803121.25547  92573846.77147  22607492.2704   22607494.3454   22607492.6624
        50.000          42.000
 128032288.78347  99765410.60047  24363740.5534   24363744.8044   24363740.7654
        43.000          37.000
 129230467.32847 100699048.01047  24591755.8164   24591758.8334   24591755.7004
        42.000          37.000
 110683347.93547  86246763.94247  21062340.5404   21062342.8134   21062340.1564
        54.000          48.000
 121597042.09247  94750936.32247  23139151.9514   23139152.5184   23139152.1074
        48.000          41.000
 09  1 24  0 45  0.0000000  0 11G 5G 6G30G14G24G21G18G29G12G31G22
 123716303.92847  96402291.84247  23542446.8854   23542452.0454   23542447.0584
        46.000          40.000
 125279311.63047  97620220.30747  23839878.5524   23839882.9274   23839878.7674
        44.000          38.000
 118889668.17047  92641292.08847  22623956.1164   22623960.2894   22623955.8944
        50.000          43.000
 119601528.10247  93195995.44447  22759413.6414   22759416.1884   22759413.9094
        47.000          42.000
 123116106.78447  95934607.67247  23428231.8954   23428237.5384   23428231.8424
        46.000          39.000
 106174233.54747  82733162.65247  20204287.4484   20204289.5614   20204287.8734
        54.000          49.000
 118765629.49947  92544632.40547  22600357.9064   22600360.1294   22600358.4544
        50.000          42.000
 128092093.47847  99812011.68847  24375120.7334   24375124.9684   24375120.7354
        42.000          37.000
 129251510.76947 100715445.58247  24595760.3534   24595763.0104   24595760.5274
        42.000          37.000
 110622791.50147  86199577.14647  21050817.0714   21050819.1674   21050816.7564
        54.000          48.000
 121545865.42047  94711058.44647  23129413.2434   23129414.0224   23129413.1114
        48.000          41.000
 09  1 24  0 45 30.0000000  0 11G 5G 6G30G14G24G21G18G29G12G31G22
 123725496.54547  96409454.98247  23544195.9774   23544201.4344   23544196.5684
        46.000          40.000
 125267454.86547  97610981.26947  23837622.4554   23837626.5164   23837622.3814
        44.000          38.000
 118868975.23747  92625167.73947  22620018.5534   22620022.5424   22620018.1504
        50.000          43.000
 119642963.45247  93228282.76647  22767298.4204   22767301.0524   22767298.4934
        47.000          42.000
 123206568.12247  96005097.03647  23445446.1714   23445451.6684   23445445.6494
        46.000          40.000
 106214845.71447  82764808.49247  20212015.4284   20212017.8344   20212015.7294
        55.000          49.000
 118728181.95647  92515452.50447  22593232.0134   22593234.2334   22593232.2254
        49.000          42.000
 128151688.78647  99858449.60747  24386461.5064   24386465.3674   24386461.0054
        42.000          37.000
 129272814.74647 100732046.17347  24599814.3324   24599816.6994   24599814.0824
        41.000          36.000
 110562717.45447  86152766.23747  21039385.3334   21039387.3674   21039384.9584
        54.000          48.000
 121494554.89847  94671076.26347  23119649.4844   23119649.8744   23119649.6714
        48.000          41.000
 09  1 24  0 46  0.0000000  0 11G 5G 6G30G14G24G21G18G29G12G31G22
 123734991.09747  96416853.39047  23546002.5824   23546008.0464   23546003.0574
        46.000          39.000
 125255783.45647  97601886.65947  23835401.0924   23835405.2984   23835401.0924
        43.000          38.000
 118848461.30847  92609182.87447  22616114.6094   22616118.8724   22616114.2594
        50.000          43.000
 119684426.65147  93260591.77947  22775188.2374   22775191.0964   22775188.2494
        47.000          42.000
 123297262.64147  96075768.08747  23462704.5774   23462710.5624   23462704.7624
        46.000          39.000
 106256035.09847  82796904.11047  20219853.5374   20219855.9744   20219853.9504
        54.000          49.000
 118690782.42847  92486310.02747  22586114.9224   22586117.7564   22586115.5964
        49.000          42.000
 128211075.05847  99904724.61447  24397762.3574   24397766.2934   24397762.1244
        42.000          37.000
 129294381.85147 100748851.77047  24603918.1774   24603920.3754   24603917.5264
        42.000          37.000
 110503129.28947  86106333.93447  21028046.1094   21028048.1444   21028045.7774
        54.000          48.000
 121443112.94247  94630991.65447  23109860.0034   23109860.5104   23109860.0654
        48.000          41.000
 09  1 24  0 46 30.0000000  0 11G 5G 6G30G14G24G21G18G29G12G31G22
 123744787.10047  96424486.68847  23547866.7084   23547871.9044   23547867.0724
        45.000          39.000
 125244293.55347  97592933.48747  23833214.6954   23833218.7874   23833215.1584
        44.000          38.000
 118828126.61447  92593337.66447  22612245.2214   22612249.1164   22612245.1134
        50.000          43.000
 119725913.35047  93292919.11547  22783083.1194   22783085.7994   22783083.2004
        48.000          42.000
 123388185.69247  96146617.21347  23480006.9074   23480012.4114   23480007.0944
        45.000          39.000
 106297798.36447  82829446.90847  20227800.8174   20227803.4364   20227801.1314
        54.000          49.000
 118653430.97447  92457205.01547  22579006.8604   22579009.6974   22579007.3554
        49.000          42.000
 128270249.04647  99950834.24747  24409022.9594   24409026.9594   24409022.4584
        42.000          37.000
 129316211.04447 100765861.59447  24608072.1744   24608074.4584   24608071.8194
        42.000          37.000
 110444026.91547  86060280.17347  21016799.2554   21016801.2354   21016798.9024
        54.000          48.000
 121391539.24447  94590804.37947  23100045.9674   23100046.5894   23100045.8454
        48.000          41.000
 09  1 24  0 47  0.0000000  0 11G 5G 6G30G14G24G21G18G29G12G31G22
 123754889.49647  96432358.72347  23549788.7334   23549794.7364   23549789.0774
        45.000          39.000
 125232986.89047  97584123.08547  23831063.2624   23831067.6684   23831062.8474
        44.000          38.000
 118807977.05947  92577636.72347  22608410.7364   22608414.8524   22608410.3054
        50.000          43.000
 119767424.30347  93325265.34747  22790982.4574   22790985.0204   22790982.8234
        48.000          42.000
 123479338.27647  96217645.19747  23497352.4444   23497358.2204   23497352.6694
        45.000          39.000
 106340137.45247  82862438.40047  20235857.7464   20235860.3074   20235858.2374
        55.000          49.000
 118616133.44947  92428142.01947  22571909.4854   22571912.0014   22571909.9744
        49.000          42.000
 128329213.63347  99996780.69947  24420243.6624   24420247.8494   24420243.4744
        42.000          38.000
 129338306.97947 100783079.29347  24612276.6844   24612279.4994   24612276.2934
        41.000          37.000
 110385416.38447  86014609.66247  21005645.9544   21005648.1244   21005645.5644
        54.000          48.000
 121339839.47147  94550518.87347  23090207.5954   23090208.5454   23090207.7174
        48.000          41.000
 09  1 24  0 47 30.0000000  0 11G 5G 6G30G14G24G21G18G29G12G31G22
 123765296.95047  96440468.47047  23551769.5104   23551774.7134   23551770.0214
        46.000          39.000
 125221859.25347  97575452.20347  23828945.6204   23828950.1204   23828945.4904
        43.000          38.000
 118788012.14947  92562079.68147  22604611.5984   22604615.3154   22604611.3314
        50.000          43.000
 119808954.67147  93357626.69547  22798885.5004   22798887.8964   22798885.4814
        48.000          42.000
 123570715.33247  96288848.09047  23514741.1634   23514747.0464   23514741.3724
        45.000          39.000
 106383047.86747  82895875.08547  20244023.1604   20244025.8694   20244023.5414
        54.000          49.000
 118578889.47147  92399120.74347  22564822.2824   22564824.7594   22564822.5644
        49.000          43.000
 128387965.81247 100042561.64947  24431423.4824   24431428.0494   24431423.4924
        42.000          37.000
 129360668.12047 100800503.62047  24616531.8604   24616534.0994   24616531.1334
        42.000          37.000
 110327295.99347  85969321.08047  20994586.0744   20994588.0694   20994585.6894
        54.000          48.000
 121288011.04747  94510133.13247  23080345.0634   23080346.0134   23080345.0334
        48.000          41.000
 09  1 24  0 48  0.0000000  0 11G 5G 6G30G14G24G21G18G29G12G31G22
 123776012.61047  96448818.37647  23553808.9564   23553813.7514   23553809.6934
        46.000          39.000
 125210910.69447  97566920.85647  23826862.0784   23826866.5514   23826862.0934
        44.000          38.000
 118768235.90347  92546669.63647  22600848.4844   22600852.3684   22600848.1334
        50.000          43.000
 119850503.27647  93390002.25847  22806791.7024   22806794.2284   22806791.6134
        48.000          42.000
 123662316.14247  96360225.33647  23532172.2704   23532178.1244   23532172.7924
        45.000          39.000
 106426529.93847  82929757.21347  20252297.6364   20252300.2014   20252298.0064
        54.000          49.000
 118541703.05347  92370144.33647  22557746.1044   22557748.4084   22557746.6624
        50.000          43.000
 128446506.03347 100088177.40847  24442563.4604   24442567.8934   24442563.5084
        43.000          38.000
 129383297.28147 100818136.80347  24620837.0484   24620839.9134   24620837.0814
        41.000          36.000
 110269669.73547  85924417.53647  20983620.2354   20983622.0784   20983619.9764
        54.000          48.000
 121236057.65547  94469650.00447  23070458.6244   23070459.2794   23070458.7024
        48.000          41.000
 09  1 24  0 48 30.0000000  0 11G 5G 6G30G14G24G21G18G29G12G31G22
 123787036.93347  96457408.80347  23555906.8184   23555911.2504   23555907.4894
        46.000          40.000
 125200138.30847  97558526.77047  23824812.5194   23824816.7254   23824812.9774
        44.000          38.000
 118748649.44947  92531407.49047  22597121.2514   22597125.1614   22597120.5384
        49.000          43.000
 119892066.67147  93422389.35647  22814701.1004   22814703.7264   22814701.2954
        48.000          42.000
 123754136.63047  96431773.75947  23549645.2024   23549650.9064   23549645.2134
        45.000          39.000
 106470581.22447  82964082.88947  20260680.3534   20260682.8424   20260680.7014
        54.000          49.000
 118504575.59247  92341213.87347  22550680.6184   22550683.3944   22550681.4064
        50.000          43.000
 128504832.07047 100133626.26447  24453662.6184   24453666.7664   24453662.9304
        43.000          38.000
 129406194.41347 100835978.74847  24625194.1514   24625197.1524   24625194.3964
        41.000          36.000
 110212538.47247  85879899.69947  20972748.2874   20972750.4654   20972747.7894
        54.000          48.000
 121183980.47347  94429070.40447  23060548.4354   23060549.2574   23060548.5664
        48.000          42.000
 09  1 24  0 49  0.0000000  0 11G 5G 6G30G14G24G21G18G29G12G31G22
 123798371.88047  96466241.27447  23558063.7234   23558068.6174   23558064.4624
        46.000          40.000
 125189541.01947  97550269.15247  23822795.8514   23822799.6514   23822795.7944
        44.000          38.000
 118729255.71847  92516295.51347  22593430.3064   22593434.7764   22593430.2484
        50.000          43.000
 119933643.07247  93454786.57447  22822613.0144   22822615.5324   22822613.1494
        49.000          42.000
 123846175.07047  96503492.01247  23567159.6184   23567165.2114   23567159.7254
        46.000          39.000
 106515199.76347  82998850.57647  20269171.0644   20269173.6164   20269171.4724
        55.000          49.000
 118467509.90947  92312331.54947  22543627.4604   22543630.2234   22543627.7364
        49.000          43.000
 128562944.06547 100178908.35347  24464721.4904   24464724.9534   24464720.5814
        42.000          38.000
 129429361.23947 100854030.89847  24629603.4514   24629606.1224   24629603.2814
        42.000          36.000
 110155904.56547  85835769.41247  20961971.2134   20961973.1764   20961970.9004
        54.000          48.000
 121131780.74147  94388395.31547  23050615.1644   23050616.0764   23050615.1774
        48.000          42.000
 09  1 24  0 49 30.0000000  0 11G 5G 6G30G14G24G21G18G29G12G31G22
 123810019.68747  96475317.53047  23560279.9874   23560285.3394   23560280.5514
        45.000          40.000
 125179117.87947  97542147.22047  23820812.3784   23820816.3144   23820812.3384
        44.000          38.000
 118710057.67247  92501335.99347  22589777.2194   22589781.4864   22589776.6304
        50.000          43.000
 119975231.04047  93487192.81547  22830526.8754   22830529.5664   22830527.0924
        48.000          42.000
 123938429.91747  96575378.90047  23584715.2654   23584720.3344   23584715.4544
        46.000          39.000
 106560384.68947  83034059.60547  20277769.3034   20277771.8934   20277769.7244
        54.000          49.000
 118430509.12747  92283499.78647  22536586.2144   22536588.7244   22536586.6694
        50.000          43.000
 128620842.09547 100224023.71547  24475738.2854   24475743.4584   24475738.1734
        41.000          37.000
 129452799.69247 100872294.70347  24634063.1234   24634066.3684   24634063.3344
        42.000          37.000
 110099771.00647  85792029.00147  20951289.2194   20951291.2944   20951288.7744
        54.000          48.000
 121079462.23547  94347627.66447  23040659.2764   23040660.1334   23040659.3624
        48.000          42.000
 09  1 24  0 50  0.0000000  0 11G 5G 6G30G14G24G21G18G29G12G31G22
 123821978.72647  96484636.31547  23562555.7644   23562560.6444   23562556.2714
        46.000          39.000
 125168864.29447  97534157.40147  23818861.0034   23818865.0454   23818861.0124
        44.000          39.000
 118691054.52547  92486528.36047  22586161.1764   22586165.0984   22586161.0294
        50.000          43.000
 120016825.08347  93519603.78347  22838441.7654   22838444.5634   22838442.0284
        48.000          42.000
 124030895.74447  96647430.19047  23602311.0144   23602315.7714   23602310.9174
        45.000          39.000
 106606131.62547  83069706.55947  20286474.7094   20286477.2184   20286475.1134
        54.000          49.000
 118393572.46647  92254717.98947  22529557.5184   22529559.8364   22529558.1854
        50.000          43.000
 128678522.48247 100268969.47647  24486714.1094   24486718.8364   24486714.1994
        41.000          37.000
 129476508.08247 100890768.82347  24638574.4174   24638577.3594   24638574.5754
        41.000          36.000
 110044136.49847  85748677.46447  20940702.4264   20940704.4824   20940702.0984
        54.000          49.000
 121027021.69347  94306764.91947  23030680.0884   23030681.0884   23030679.8814
        48.000          42.000
 09  1 24  0 50 30.0000000  0 11G 5G 6G30G14G24G21G18G29G12G31G22
 123834255.72347  96494202.85747  23564891.7954   23564897.2114   23564892.3404
        45.000          39.000
 125158783.79347  97526302.47547  23816942.7564   23816947.4994   23816943.1244
        44.000          38.000
 118672253.89447  92471878.53847  22582583.3764   22582587.6864   22582583.1624
        50.000          43.000
 120058427.80547  93552021.51747  22846358.5134   22846361.0654   22846358.6114
        48.000          42.000
 124123575.07447  96719647.85447  23619947.2894   23619951.8044   23619947.2424
        46.000          38.000
 106652443.83947  83105793.99547  20295287.4154   20295290.1674   20295287.7124
        54.000          48.000
 118356707.69147  92225992.18747  22522542.5464   22522544.7254   22522542.9594
        49.000          42.000
 128735989.69147 100313749.13947  24497650.0334   24497654.4924   24497649.3014
        42.000          37.000
 129500492.45547 100909457.99347  24643138.9514   24643141.1684   24643138.6784
        41.000          37.000
 109989008.43747  85705720.56047  20930211.9074   20930213.9674   20930211.4414
        54.000          49.000
 120974466.67847  94265812.97347  23020679.5354   23020680.1544   23020679.4704
        49.000          42.000
 09  1 24  0 51  0.0000000  0 11G 5G 6G30G14G24G21G18G29G12G31G22
 123846846.96847  96504014.24647  23567287.9654   23567293.2554   23567288.4604
        45.000          39.000
 125148869.60647  97518577.14247  23815055.8054   23815060.3414   23815056.2504
        43.000          38.000
 118653652.96447  92457384.32947  22579044.0734   22579048.1484   22579043.9764
        50.000          43.000
 120100031.64647  93584440.11747  22854275.4054   22854277.9664   22854275.7154
        48.000          42.000
 124216460.42447  96792026.04947  23637622.6094   23637627.3304   23637622.6674
        45.000          39.000
 106699314.58147  83142316.64747  20304206.6614   20304209.4074   20304207.0584
        54.000          49.000
 118319911.99247  92197320.21147  22515540.3244   22515542.6144   22515540.9774
        49.000          43.000
 128793237.78247 100358358.04647  24508543.8714   24508547.9994   24508543.7294
        41.000          37.000
 129524748.81647 100928359.10747  24647754.1334   24647758.0384   24647754.4734
        42.000          37.000
 109934383.22147  85663155.48647  20919817.2024   20919819.2574   20919816.8334
        54.000          49.000
 120921793.75447  94224769.15947  23010656.0934   23010657.0644   23010656.2764
        49.000          43.000
 09  1 24  0 51 30.0000000  0 11G 5G 6G30G14G24G21G18G29G12G31G22
 123859757.54947  96514074.48447  23569744.5624   23569749.6654   23569745.0514
        45.000          39.000
 125139123.60347  97510982.85447  23813201.1494   23813205.9744   23813201.3204
        43.000          38.000
 118635257.73947  92443050.40447  22575543.3834   22575547.4824   22575543.0944
        50.000          43.000
 120141638.18447  93616860.82547  22862193.1614   22862195.4764   22862193.2134
        48.000          42.000
 124309553.04047  96864565.74647  23655337.2374   23655342.4904   23655337.7314
        44.000          39.000
 106746745.22647  83179275.58747  20313232.4454   20313235.1934   20313232.8894
        54.000          48.000
 118283191.55947  92168706.90147  22508553.0044   22508555.4084   22508553.2524
        50.000          43.000
 128850270.02247 100402798.79047  24519396.6044   24519401.8374   24519396.5914
        41.000          37.000
 129549281.99947 100947475.91647  24652423.3454   24652426.7034   24652423.3474
        42.000          37.000
 109880266.45747  85620986.60047  20909518.9824   20909521.1834   20909518.5964
        54.000          49.000
 120869008.30547  94183637.65347  23000611.3674   23000612.5114   23000611.1634
        49.000          43.000
 09  1 24  0 52  0.0000000  0 11G 5G 6G30G14G24G21G18G29G12G31G22
 123872986.04547  96524382.43547  23572261.9104   23572266.6694   23572262.5394
        46.000          39.000
 125129541.40147  97503516.21547  23811377.6554   23811382.5304   23811377.6804
        44.000          38.000
 118617067.46447  92428876.17747  22572081.9984   22572085.6904   22572081.7184
        50.000          43.000
 120183242.26747  93649279.63447  22870110.1274   22870112.6144   22870110.3554
        48.000          42.000
 124402847.76947  96937262.93247  23673090.4134   23673096.2934   23673091.0354
        45.000          38.000
 106794731.58247  83216667.54547  20322364.1494   20322366.5554   20322364.5294
        54.000          49.000
 118246545.93247  92140151.86647  22501579.1984   22501581.5554   22501579.8274
        50.000          43.000
 128907082.57147 100447068.30547  24530207.6374   24530212.7554   24530207.2334
        41.000          37.000
 129574090.48847 100966807.29047  24657144.7264   24657146.9734   24657144.2184
        42.000          37.000
 109826657.29147  85579213.24947  20899317.5124   20899319.6324   20899317.2314
        54.000          49.000
 120816109.01647  94142417.43647  22990545.3264   22990545.8364   22990545.3244
        49.000          43.000
 09  1 24  0 52 30.0000000  0 11G 5G 6G30G14G24G21G18G29G12G31G22
 123886535.89347  96534940.80047  23574840.2274   23574845.5334   23574840.5164
        45.000          40.000
 125120123.52047  97496177.62047  23809585.5524   23809590.3094   23809585.5094
        43.000          38.000
 118599086.93047  92414865.38447  22568660.1364   22568664.5514   22568660.0174
        49.000          43.000
 120224843.58547  93681696.28047  22878025.9624   22878028.9074   22878026.3464
        47.000          42.000
 124496344.08247  97010117.20047  23690881.9344   23690888.7784   23690882.0554
        44.000          38.000
 106843273.79647  83254492.63547  20331601.3414   20331603.8384   20331601.7624
        55.000          49.000
 118209979.81747  92111658.79147  22494621.1444   22494623.4864   22494621.6804
        50.000          43.000
 128963676.96447 100491167.86647  24540978.0084   24540982.1644   24540978.1474
        42.000          37.000
 129599177.34647 100986355.55747  24661918.3194   24661920.7744   24661917.7834
        42.000          37.000
 109773559.44347  85537838.32347  20889213.1964   20889215.3654   20889212.7504
        54.000          49.000
 120763100.06947  94101111.76647  22980457.8104   22980458.3194   22980458.0704
        49.000          42.000
 09  1 24  0 53  0.0000000  0 11G 5G 6G30G14G24G21G18G29G12G31G22
 123900408.06347  96545750.33647  23577480.2214   23577485.0904   23577480.6844
        46.000          40.000
 125110867.57547  97488965.21947  23807824.7854   23807828.7654   23807825.1684
        44.000          38.000
 118581317.62247  92401019.18847  22565278.4994   22565282.7804   22565278.0094
        49.000          43.000
 120266439.39747  93714108.64047  22885941.4884   22885944.0624   22885941.5084
        48.000          42.000
 124590038.71547  97083125.99047  23708711.5634   23708717.9664   23708711.5384
        44.000          38.000
 106892369.46047  83292748.99347  20340944.0444   20340946.2994   20340944.4184
        54.000          48.000
 118173495.06347  92083229.12147  22487678.1574   22487680.6534   22487678.5704
        49.000          43.000
 129020052.39647 100535096.78647  24551705.7884   24551710.1184   24551706.3464
        43.000          37.000
 129624542.95147 101006121.04347  24666744.2284   24666747.1884   24666744.3964
        43.000          36.000
 109720974.31747  85496862.92947  20879206.5724   20879208.7694   20879206.1824
        54.000          49.000
 120709982.41947  94059721.38647  22970349.7224   22970350.5864   22970349.8704
        48.000          42.000
 09  1 24  0 53 30.0000000  0 11G 5G 6G30G14G24G21G18G29G12G31G22
 123914604.10647  96556812.23047  23580181.6514   23580186.9414   23580182.0964
        45.000          40.000
 125101772.18347  97481877.92547  23806093.4414   23806097.9244   23806093.7654
        43.000          38.000
 118563762.00647  92387339.49847  22561937.9664   22561942.4784   22561937.7544
        49.000          43.000
 120308027.29647  93746514.83247  22893855.5264   22893857.8114   22893855.7824
        48.000          42.000
 124683929.45647  97156287.60347  23726578.3164   23726584.6604   23726578.6374
        44.000          38.000
 106942016.89147  83331435.29147  20350391.5994   20350394.0004   20350392.0474
        54.000          48.000
 118137094.07447  92054864.72047  22480751.3124   22480754.0824   22480751.7674
        50.000          43.000
 129076208.07847 100578854.48347  24562391.9484   24562396.2074   24562391.4904
        42.000          37.000
 129650188.68247 101026104.79847  24671624.9454   24671627.8414   24671624.6094
        42.000          37.000
 109668903.92247  85456288.61847  20869297.9554   20869300.1244   20869297.5614
        54.000          49.000
 120656757.94447  94018247.76647  22960221.3284   22960222.1384   22960221.3394
        48.000          42.000
 09  1 24  0 54  0.0000000  0 11G 5G 6G30G14G24G21G18G29G12G31G22
 123929124.55347  96568126.93547  23582944.9674   23582949.5514   23582945.4164
        45.000          39.000
 125092834.84547  97474913.79447  23804392.6854   23804397.3294   23804392.2524
        44.000          38.000
 118546421.78547  92373827.64247  22558638.3104   22558642.4054   22558637.7594
        50.000          43.000
 120349604.54147  93778912.72447  22901766.9594   22901769.9034   22901767.2864
        48.000          42.000
 124778013.51047  97229599.86447  23744482.0044   23744487.9204   23744482.2204
        45.000          38.000
 106992213.29347  83370549.36647  20359943.7494   20359945.9994   20359944.0284
        55.000          49.000
 118100778.93147  92026567.20647  22473841.1264   22473843.1174   22473841.4754
        50.000          43.000
 129132142.61547 100622439.85047  24573036.1134   24573039.5184   24573035.2944
        43.000          37.000
 129676114.91847 101046307.13347  24676558.4534   24676561.4654   24676557.9784
        41.000          36.000
 109617349.26147  85416116.18347  20859487.3054   20859489.5214   20859487.0624
        54.000          49.000
 120603427.86347  93976691.85047  22950073.1324   22950074.1954   22950072.9014
        48.000          42.000
 09  1 24  0 54 30.0000000  0 11G 5G 6G30G14G24G21G18G29G12G31G22
 123943970.34847  96579695.13047  23585769.4964   23585774.7484   23585770.1444
        45.000          39.000
 125084053.55747  97468071.26147  23802721.9154   23802726.6174   23802722.1234
        43.000          38.000
 118529298.68547  92360484.98347  22555379.9714   22555384.0274   22555379.7624
        49.000          43.000
 120391168.51247  93811300.26247  22909676.4244   22909678.8864   22909676.6394
        47.000          42.000
 124872287.83447  97303060.39447  23762421.7704   23762428.2944   23762422.1324
        44.000          38.000
 107042956.38147  83410089.42447  20369599.9994   20369602.1964   20369600.5174
        55.000          48.000
 118064551.25447  91998337.86547  22466947.2534   22466949.4064   22466947.6174
        50.000          43.000
 129187855.34747 100665852.38447  24583637.9074   24583641.1214   24583637.7514
        43.000          37.000
 129702322.00447 101066728.30847  24681546.2104   24681548.5434   24681545.9644
        42.000          37.000
 109566311.64047  85376346.62747  20849775.1454   20849777.4104   20849774.6084
        54.000          49.000
 120549993.44247  93935054.63747  22939904.7444   22939905.6684   22939904.9644
        49.000          42.000
 09  1 24  0 55  0.0000000  0 11G 5G 6G30G14G24G21G18G29G12G31G22
 123959144.75747  96591519.39047  23588657.3584   23588662.6184   23588657.8914
        45.000          39.000
 125075428.32847  97461350.35747  23801079.9384   23801084.9384   23801080.1794
        44.000          38.000
 118512397.02547  92347314.87547  22552163.7414   22552167.6914   22552163.3614
        50.000          43.000
 120432718.33447  93843676.78047  22917583.3814   22917585.4554   22917583.4604
        48.000          41.000
 124966751.71847  97376668.61447  23780398.0764   23780403.6494   23780398.2804
        45.000          38.000
 107094246.15147  83450055.46947  20379359.9324   20379362.4154   20379360.2474
        55.000          48.000
 118028415.50447  91970180.13947  22460070.7284   22460072.9894   22460071.0214
        50.000          43.000
 129243347.36347 100709092.92647  24594197.6004   24594201.3304   24594197.2444
        41.000          37.000
 129728812.92547 101087370.65347  24686586.7124   24686589.7894   24686586.5344
        42.000          37.000
 109515794.76347  85336982.85747  20840162.0944   20840164.3784   20840161.8954
        54.000          49.000
 120496458.04047  93893338.73347  22929717.2564   22929718.0584   22929717.1624
        48.000          42.000
 09  1 24  0 55 30.0000000  0 11G 5G 6G30G14G24G21G18G29G12G31G22
 123974646.27447  96603598.55147  23591606.3314   23591612.0274   23591606.7144
        44.000          39.000
 125066954.79547  97454747.63247  23799468.0784   23799471.8344   23799468.5634
        43.000          38.000
 118495716.40247  92334317.00547  22548989.4984   22548993.4824   22548989.0084
        50.000          43.000
 120474249.10147  93876038.44847  22925486.2424   22925488.5444   22925486.5524
        48.000          42.000
 125061399.88247  97450420.44047  23798408.6124   23798414.5864   23798409.1144
        44.000          38.000
 107146077.65647  83490443.64847  20389223.2314   20389225.5904   20389223.7214
        54.000          48.000
 117992371.61047  91942093.98547  22453211.9164   22453214.3584   22453212.5064
        51.000          43.000
 129298615.54347 100752159.05147  24604715.0624   24604718.6214   24604714.2584
        42.000          37.000
 129755586.00647 101108232.88747  24691681.0174   24691684.4234   24691681.0344
        42.000          37.000
 109465797.41447  85298023.90347  20830647.8234   20830650.1084   20830647.4094
        54.000          49.000
 120442820.53747  93851543.28247  22919510.5364   22919511.4794   22919510.4964
        49.000          42.000
 09  1 24  0 56  0.0000000  0 11G 5G 6G30G14G24G21G18G29G12G31G22
 123990479.95347  96615936.52447  23594619.9844   23594625.1944   23594620.4424
        45.000          39.000
 125058635.14447  97448264.82447  23797884.3474   23797889.2944   23797884.0004
        43.000          38.000
 118479262.63247  92321495.91147  22545858.5994   22545861.9694   22545858.2324
        50.000          43.000
 120515762.40347  93908386.50247  22933386.0684   22933388.4844   22933386.2234
        47.000          42.000
 125156233.69947  97524316.92647  23816455.2844   23816461.5254   23816455.0934
        44.000          38.000
 107198453.00747  83531255.60147  20399189.7114   20399192.4534   20399190.0254
        55.000          48.000
 117956425.56847  91914084.07447  22446371.4444   22446373.7984   22446372.1344
        50.000          43.000
 129353662.89047 100795053.07847  24615190.2544   24615194.6314   24615190.1734
        42.000          37.000
 129782645.81947 101129318.53947  24696830.3434   24696833.4414   24696830.1644
        42.000          37.000
 109416324.93847  85259473.95147  20821233.4104   20821235.5714   20821232.9734
        54.000          49.000
 120389086.68347  93809672.74147  22909285.3254   22909286.1304   22909285.3294
        48.000          42.000
 09  1 24  0 56 30.0000000  0 11G 5G 6G30G14G24G21G18G29G12G31G22
 124006646.50547  96628533.87847  23597696.5574   23597701.3604   23597696.8614
        44.000          39.000
 125050466.90247  97441899.98747  23796330.3304   23796334.9254   23796330.0294
        44.000          38.000
 118463037.47647  92308852.95747  22542770.6934   22542774.3934   22542770.3564
        50.000          43.000
 120557255.07747  93940718.48847  22941281.9474   22941284.2314   22941282.2444
        47.000          42.000
 125251250.10947  97598355.69847  23834536.0974   23834541.9934   23834536.6374
        44.000          38.000
 107251369.12147  83572488.92747  20409259.5994   20409262.0594   20409260.0794
        55.000          48.000
 117920579.21847  91886151.86247  22439549.7374   22439552.2654   22439550.0884
        50.000          43.000
 129408488.32147 100837774.20547  24625623.4584   24625627.1734   24625623.1714
        41.000          37.000
 129809992.93247 101150628.07947  24702034.1794   24702037.5584   24702033.7924
        42.000          36.000
 109367378.48947  85221333.88347  20811919.5694   20811921.3474   20811919.1404
        54.000          49.000
 120335257.52247  93767727.94247  22899041.9494   22899042.6224   22899041.9124
        48.000          42.000
 09  1 24  0 57  0.0000000  0 11G 5G 6G30G14G24G21G18G29G12G31G22
 124023143.04447  96641388.37447  23600835.0874   23600840.2744   23600835.5284
        44.000          39.000
 125042444.10847  97435648.48747  23794803.6704   23794808.1264   23794803.8694
        44.000          38.000
 118447038.98047  92296386.62647  22539726.7634   22539729.7604   22539726.2244
        50.000          43.000
 120598721.14747  93973029.73747  22949172.6814   22949174.9534   22949172.7314
        47.000          42.000
 125346442.28947  97672531.44447  23852650.4884   23852656.8674   23852651.1674
        44.000          38.000
 107304819.68647  83614138.70647  20419430.6954   20419433.4204   20419431.0444
        55.000          48.000
 117884830.89347  91858296.02147  22432747.0794   22432749.7574   22432747.4384
        50.000          43.000
 129463087.03447 100880318.67847  24636012.0714   24636016.3884   24636011.6924
        41.000          37.000
 129837623.80047 101172158.68447  24707292.1394   24707294.9984   24707291.5754
        41.000          36.000
 109318955.51847  85183601.72247  20802704.8744   20802706.7894   20802704.4574
        54.000          49.000
 120281330.63447  93725706.99347  22888780.1194   22888780.4694   22888780.0834
        49.000          42.000
 09  1 24  0 57 30.0000000  0 11G 5G 6G30G14G24G21G18G29G12G31G22
 124039974.87847  96654504.13647  23604038.5954   23604043.0784   23604039.3264
        44.000          39.000
 125034569.15947  97429512.18847  23793304.7874   23793309.7454   23793305.2924
        44.000          38.000
 118431273.56347  92284101.89947  22536726.4304   22536729.8754   22536726.0644
        50.000          43.000
 120640162.25747  94005321.54647  22957058.6004   22957061.0854   22957058.3784
        48.000          42.000
 125441812.08847  97746845.59247  23870799.0224   23870804.1524   23870798.2724
        44.000          38.000
 107358807.50647  83656207.13447  20429704.2034   20429706.9294   20429704.6414
        54.000          48.000
 117849187.10147  91830521.63047  22425964.4254   22425966.8774   22425964.8794
        51.000          43.000
 129517462.62747 100922689.28647  24646359.2084   24646363.9924   24646359.9224
        42.000          37.000
 129865543.70947 101193914.51947  24712605.5174   24712607.4114   24712605.5344
        42.000          36.000
 109271061.81447  85146281.97847  20793590.9414   20793592.8554   20793590.4794
        54.000          49.000
 120227312.13947  93683614.66447  22878500.5774   22878501.4274   22878500.9574
        48.000          42.000
 09  1 24  0 58  0.0000000  0 11G 5G 6G30G14G24G21G18G29G12G31G22
 124057142.49847  96667881.54147  23607305.5554   23607309.9394   23607305.6644
        45.000          39.000
 125026839.59047  97423489.15947  23791834.0704   23791838.5914   23791834.3224
        43.000          38.000
 118415742.56247  92271999.84247  22533770.6784   22533774.7264   22533770.3524
        50.000          43.000
 120681575.14647  94037591.35147  22964939.3104   22964941.4784   22964939.2334
        47.000          42.000
 125537356.18447  97821295.56047  23888979.8874   23888986.2174   23888980.1564
        44.000          38.000
 107413329.21247  83698691.57447  20440079.3234   20440082.0094   20440079.6074
        55.000          48.000
 117813649.85747  91802830.27747  22419202.1264   22419204.6194   22419202.7604
        50.000          43.000
 129571614.12447 100964885.31047  24656664.4874   24656668.8204   24656664.2504
        42.000          37.000
 129893753.09947 101215895.94847  24717972.1534   24717976.2244   24717972.3884
        41.000          36.000
 109223698.34347  85109375.39847  20784577.9434   20784580.0364   20784577.4984
        54.000          49.000
 120173202.95847  93641451.67547  22868204.0054   22868205.0714   22868203.8664
        49.000          42.000
 09  1 24  0 58 30.0000000  0 11G 5G 6G30G14G24G21G18G29G12G31G22
 124074644.59247  96681519.58947  23610636.3574   23610640.4824   23610636.7124
        45.000          39.000
 125019251.28247  97417576.21247  23790390.0124   23790394.6694   23790389.3234
        43.000          38.000
 118400445.89847  92260080.39647  22530859.8044   22530864.0464   22530859.5974
        50.000          43.000
 120722955.76947  94069836.01147  22972813.2574   22972815.8994   22972813.5164
        47.000          41.000
 125633069.67947  97895877.51047  23907193.6894   23907199.8154   23907194.4364
        44.000          38.000
 107468380.38947  83741588.58347  20450555.4184   20450557.8964   20450555.8124
        54.000          48.000
 117778218.74347  91775221.62047  22412459.3604   22412462.1734   22412459.8294
        49.000          43.000
 129625539.23347 101006904.90147  24666926.0914   24666930.5464   24666925.3004
        41.000          36.000
 129922250.31847 101238101.63147  24723395.5914   24723399.0404   24723395.6264
        42.000          36.000
 109176863.98947  85072881.11947  20775665.6464   20775667.6704   20775665.3544
        54.000          49.000
 120119002.93647  93599217.91347  22857890.0354   22857890.8694   22857890.1804
        49.000          42.000
 09  1 24  0 59  0.0000000  0 11G 5G 6G30G14G24G21G18G29G12G31G22
 124092485.04147  96695421.28647  23614030.7654   23614035.8184   23614031.1504
        45.000          39.000
 125011805.01547  97411773.95047  23788973.0664   23788977.9124   23788973.0374
        44.000          38.000
 118385388.33047  92248347.24547  22527994.4204   22527998.5664   22527993.9434
        50.000          43.000
 120764303.81347  94102055.29847  22980681.5364   22980683.6964   22980681.6194
        47.000          41.000
 125728952.60247  97970591.48547  23925440.0214   23925445.5714   23925439.8314
        43.000          38.000
 107523960.95147  83784898.10447  20461131.9344   20461134.4844   20461132.1994
        55.000          48.000
 117742899.39947  91747700.05647  22405738.2624   22405741.1864   22405738.7824
        49.000          43.000
 129679238.44747 101048748.48647  24677144.7614   24677148.0564   24677143.8914
        40.000          36.000
 129951038.44847 101260534.01347  24728874.2844   24728876.9844   24728874.0584
        41.000          36.000
 109130562.67947  85036802.20047  20766854.8924   20766856.6334   20766854.4064
        54.000          49.000
 120064715.75547  93556916.22447  22847559.6074   22847559.9734   22847559.9594
        49.000          42.000
 09  1 24  0 59 30.0000000  0 12G 5G 6G30G16G14G24G21G18G29G12G31G22
 124110664.63547  96709587.25047  23617490.1874   23617494.9444   23617490.4174
        44.000          39.000
 125004498.42047  97406080.52047  23787582.6584   23787587.3154   23787582.7554
        44.000          38.000
 118370571.82347  92236801.94347  22525175.1474   22525179.2404   22525174.8354
        49.000          43.000
 142115198.19557  92946877.81857  25140709.7725   25140717.3155   25140711.8025
        40.000          34.000
 120805617.04047  94134247.45347  22988543.4244   22988545.9774   22988543.6024
        48.000          42.000
 125825001.94747  98045435.13247  23943717.4384   23943723.3294   23943716.9434
        43.000          38.000
 107580068.63047  83828618.36947  20471809.0544   20471811.4384   20471809.5204
        55.000          48.000
 117707693.71247  91720267.05447  22399038.7734   22399041.7834   22399039.2554
        50.000          43.000
 129732711.83547 101090416.10647  24687319.9894   24687324.2254   24687319.6504
        40.000          36.000
 129980118.34747 101283193.73547  24734408.3654   24734410.5924   24734407.6384
        41.000          36.000
 109084795.81647  85001139.73247  20758145.7464   20758147.5164   20758145.5044
        54.000          49.000
 120010343.46547  93514548.20947  22837212.6304   22837213.3084   22837212.8704
        48.000          42.000
 09  1 24  1  0  0.0000000  0 12G 5G 6G30G16G14G24G21G18G29G12G31G22
 124129184.48147  96724018.35447  23621014.6854   23621019.0334   23621015.0334
        45.000          39.000
 124997330.10447  97400494.82947  23786218.9304   23786223.3014   23786218.9754
        44.000          38.000
 118355998.26847  92225445.95947  22522401.8974   22522405.8494   22522401.3044
        50.000          43.000
 122051273.57757 112897084.29657  25128532.8515   25128535.9235   25128532.7505
        40.000          33.000
 120846893.19147  94166410.69647  22996397.8974   22996400.6994   22996398.4554
        47.000          41.000
 125921215.20947  98120406.50747  23962026.1284   23962032.0894   23962026.2014
        44.000          38.000
 107636701.62647  83872747.97247  20482585.9874   20482588.4454   20482586.5234
        55.000          48.000
 117672603.84347  91692924.27947  22392361.9054   22392364.3564   22392362.2224
        51.000          43.000
 129785958.55647 101131907.09347  24697452.4734   24697456.6224   24697451.4614
        41.000          37.000
 130009490.62247 101306081.30447  24739997.8474   24739999.5504   24739997.1564
        42.000          36.000
 109039564.61647  84965894.67247  20749538.6594   20749540.3224   20749538.3054
        54.000          49.000
 119955887.61047  93472115.09447  22826850.1404   22826850.5854   22826850.1064
        49.000          42.000
 09  1 24  1  0 30.0000000  0 12G 5G 6G30G16G14G24G21G18G29G12G31G22
 124148045.76147  96738715.49747  23624604.0084   23624608.1424   23624604.2454
        45.000          39.000
 124990297.85447  97395015.15747  23784880.4614   23784884.5464   23784880.7384
        44.000          38.000
 118341670.23747  92214281.29747  22519675.2114   22519679.1544   22519675.1564
        50.000          43.000
 141987042.54057  92847033.89957  25116305.1075   25116310.5195   25116308.1605
        40.000          34.000
 120888129.99547  94198543.27847  23004244.9154   23004247.5504   23004245.1564
        47.000          41.000
 126017589.95547  98195503.71147  23980365.8554   23980371.7824   23980365.9394
        44.000          38.000
 107693857.46747  83917284.98647  20493462.3544   20493464.9104   20493462.7664
        55.000          48.000
 117637632.15547  91665673.60247  22385706.8614   22385709.2984   22385707.4174
        50.000          43.000
 129838978.44747 101173221.32647  24707542.1944   24707546.5324   24707541.6814
        40.000          37.000
 130039156.19147 101329197.37647  24745642.0394   24745644.2424   24745641.9374
        40.000          36.000
 108994870.77147  84931068.31147  20741033.6234   20741035.6284   20741033.0164
        55.000          49.000
 119901349.94847  93429618.22147  22816472.0344   22816472.4414   22816472.2144
        49.000          42.000
 09  1 24  1  1  0.0000000  0 12G 5G 6G30G16G14G24G21G18G29G12G31G22
 124167248.94947  96753679.08147  23628257.5934   23628262.1814   23628258.3444
        45.000          39.000
 124983399.85247  97389640.10147  23783568.2454   23783572.1134   23783567.8364
        44.000          38.000
 118327589.16447  92203309.05247  22516995.6544   22516999.6704   22516995.2374
        50.000          43.000
 141922551.98447  92796781.66347  25104034.2214   25104038.1094   25104036.7114
        40.000          34.000
 120929324.33947  94230642.80047  23012084.0014   23012086.3494   23012084.4444
        47.000          41.000
 126114123.13147  98270724.38647  23998735.7734   23998741.4164   23998736.1494
        44.000          37.000
 107751533.05047  83962226.98747  20504437.4984   20504440.1164   20504437.9444
        55.000          48.000
 117602780.79947  91638516.70847  22379074.7914   22379077.1574   22379074.9424
        50.000          43.000
 129891769.98747 101214357.64447  24717586.9824   24717591.8124   24717587.2844
        40.000          36.000
 130069115.33647 101352542.22947  24751343.3254   24751345.4414   24751343.1404
        40.000          36.000
 108950714.94847  84896661.20147  20732630.9684   20732632.9254   20732630.7664
        54.000          49.000
 119846731.22947  93387058.18647  22806078.4774   22806078.9884   22806078.3334
        50.000          43.000
 09  1 24  1  1 30.0000000  0 12G 5G 6G30G16G14G24G21G18G29G12G31G22
 124186796.20347  96768910.75047  23631978.1524   23631981.5994   23631978.4384
        45.000          39.000
 124976634.91347  97384368.73947  23782280.4974   23782285.0094   23782280.5584
        45.000          38.000
 118313758.04347  92192531.58647  22514363.6874   22514367.8174   22514363.4244
        50.000          43.000
 141857815.28147  92746337.61047  25091715.0704   25091718.8514   25091716.4594
        39.000          34.000
 120970475.20047  94262708.42647  23019914.6594   23019917.2414   23019915.0094
        47.000          41.000
 126210813.25847  98346067.33947  24017135.3644   24017141.0614   24017135.8954
        43.000          38.000
 107809727.29347  84007573.15147  20515511.4854   20515514.0174   20515511.7304
        55.000          48.000
 117568053.20147  91611456.25147  22372466.1804   22372469.0624   22372466.6944
        50.000          43.000
 129944334.26747 101255316.88747  24727589.8294   24727595.1654   24727589.5564
        41.000          36.000
 130099369.80247 101376117.20947  24757100.3684   24757103.4574   24757100.2924
        42.000          36.000
 108907099.46347  84862675.13147  20724331.2114   20724333.1744   20724330.7244
        54.000          49.000
 119792035.39247  93344438.05847  22795670.2994   22795670.8264   22795670.6184
        50.000          43.000
 09  1 24  1  2  0.0000000  0 12G 5G 6G30G16G14G24G21G18G29G12G31G22
 124206690.94947  96784413.20647  23635763.2754   23635767.8854   23635764.1504
        45.000          39.000
 124970003.78347  97379201.62447  23781018.6164   23781023.3064   23781018.5954
        44.000          38.000
 118300181.82147  92181952.74247  22511780.0454   22511784.3074   22511779.8704
        50.000          43.000
 141792835.53847  92695704.15247  25079349.2984   25079355.0204   25079350.5674
        40.000          34.000
 121011582.71947  94294740.26547  23027736.9474   23027739.7304   23027737.2024
        47.000          41.000
 126307659.82447  98421532.19847  24035564.5254   24035570.0534   24035564.3944
        43.000          37.000
 107868439.75747  84053323.11147  20526684.1404   20526686.6264   20526684.5264
        54.000          48.000
 117533454.51647  91584496.23747  22365882.7254   22365885.0744   22365883.1004
        50.000          43.000
 129996673.22547 101296100.54047  24737550.0854   24737554.4014   24737549.6414
        41.000          36.000
 130129922.60647 101399924.65547  24762914.8704   24762916.9544   24762914.1444
        41.000          36.000
 108864028.11847  84829113.06547  20716134.9504   20716136.8854   20716134.4444
        55.000          49.000
 119737266.16847  93301760.75047  22785248.3264   22785248.8014   22785248.3384
        50.000          43.000
 09  1 24  1  2 30.0000000  0 12G 5G 6G30G16G14G24G21G18G29G12G31G22
 124226929.73847  96800183.74147  23639615.0684   23639618.9704   23639615.3664
        45.000          39.000
 124963500.01647  97374133.76447  23779781.2924   23779785.8694   23779781.0294
        44.000          38.000
 118286858.02547  92171570.60347  22509244.6894   22509248.5854   22509244.5154
        50.000          43.000
 121727473.06157 112644744.43557  25066935.1845   25066943.6605   25066938.6605
        40.000          34.000
 121052640.10847  94326733.05547  23035550.1864   23035552.4864   23035550.3084
        47.000          41.000
 126404656.01147  98497113.64547  24054022.0544   24054027.1354   24054022.4464
        43.000          37.000
 107927664.39747  84099472.17647  20537954.2014   20537956.6614   20537954.4924
        54.000          48.000
 117498982.31547  91557634.78047  22359322.7404   22359325.3194   22359323.0664
        50.000          43.000
 130048781.73447 101336704.59647  24747465.5154   24747469.8424   24747465.4734
        40.000          36.000
 130160770.22847 101423961.84547  24768784.8274   24768786.8444   24768784.3234
        41.000          36.000
 108821497.88847  84795972.65247  20708041.7474   20708043.5764   20708041.4424
        54.000          49.000
 119682420.71347  93259024.04747  22774811.5574   22774811.9504   22774811.5894
        50.000          43.000
 09  1 24  1  3  0.0000000  0 12G 5G 6G30G16G14G24G21G18G29G12G31G22
 124247512.94447  96816222.67347  23643531.6394   23643535.5864   23643531.9694
        45.000          39.000
 124957121.45047  97369163.44947  23778567.5184   23778571.5164   23778567.8924
        43.000          38.000
 118273787.99047  92161386.19447  22506757.4464   22506761.3514   22506757.1154
        50.000          43.000
 121661999.29847 112593726.04347  25054478.8594   25054481.7244   25054479.5434
        39.000          34.000
 121093644.47147  94358684.52347  23043352.9364   23043355.2564   23043353.2124
        47.000          41.000
 126501798.70247  98572809.24047  24072507.4754   24072513.8354   24072507.9004
        43.000          37.000
 107987397.42747  84146017.39047  20549321.1084   20549323.3674   20549321.5274
        54.000          48.000
 117464638.37347  91530873.26347  22352787.0774   22352789.8604   22352787.6404
        50.000          43.000
 130100658.63247 101377128.20647  24757337.9454   24757341.9684   24757337.9314
        41.000          36.000
 130191912.53047 101448228.67447  24774710.4994   24774713.0724   24774709.8074
        41.000          36.000
 108779509.12647  84763254.16647  20700051.5104   20700053.2884   20700051.0974
        55.000          49.000
 119627500.56847  93216229.13947  22764360.5194   22764360.9534   22764360.4774
        49.000          43.000
 09  1 24  1  3 30.0000000  0 12G 5G 6G30G16G14G24G21G18G29G12G31G22
 124268446.00147  96832534.18947  23647514.8524   23647519.7764   23647515.2454
        45.000          39.000
 124950870.40347  97364292.50347  23777377.7624   23777381.9514   23777377.2644
        43.000          38.000
 118260978.11447  92151404.51547  22504319.7244   22504323.7984   22504319.1774
        50.000          43.000
 121596283.77847 112542519.32447  25041973.5544   25041977.4874   25041974.0754
        41.000          34.000
 121134598.39447  94390596.68747  23051146.0234   23051148.5724   23051146.4664
        47.000          41.000
 126599089.69947  98648620.42547  24091021.3124   24091027.0154   24091021.9814
        43.000          37.000
 108047641.49747  84192960.81647  20560785.1544   20560787.6464   20560785.5914
        55.000          48.000
 117430429.57147  91504217.05247  22346277.5504   22346280.2694   22346278.1854
        49.000          43.000
 130152308.26047 101417374.73747  24767166.1854   24767170.6264   24767165.5304
        40.000          36.000
 130223354.98447 101472729.34947  24780693.4844   24780696.8794   24780693.0694
        41.000          36.000
 108738067.56947  84730962.06447  20692165.5424   20692167.1944   20692165.0434
        55.000          49.000
 119572511.97547  93173380.90447  22753896.4044   22753896.6444   22753896.2934
        49.000          43.000
 09  1 24  1  4  0.0000000  0 12G 5G 6G30G16G14G24G21G18G29G12G31G22
 124289726.56147  96849116.50947  23651564.4034   23651568.7704   23651564.9744
        45.000          39.000
 124944741.74047  97359516.91947  23776211.6794   23776215.7494   23776211.9574
        43.000          38.000
 118248427.56647  92141624.88847  22501931.3664   22501935.4684   22501931.1764
        50.000          44.000
 121530323.67647 112491121.96447  25029421.3024   25029425.1554   25029421.8924
        41.000          34.000
 121175496.11447  94422465.05447  23058929.0414   23058931.3244   23058929.2474
        47.000          41.000
 126696523.08347  98724542.55247  24109562.3444   24109567.7834   24109562.5894
        43.000          37.000
 108108390.88547  84240297.98847  20572345.4644   20572347.9644   20572345.9474
        54.000          48.000
 117396355.08647  91477665.52347  22339793.0214   22339796.0204   22339793.5054
        50.000          43.000
 130203726.52847 101457440.97547  24776951.0434   24776954.2144   24776951.0114
        41.000          36.000
 130255094.55247 101497461.54447  24786733.6084   24786736.2764   24786733.6294
        40.000          36.000
 108697171.29247  84699094.86547  20684383.2194   20684384.7894   20684382.8924
        54.000          49.000
 119517453.27547  93130478.04147  22743418.6464   22743419.2694   22743418.6004
        49.000          43.000
 09  1 24  1  4 30.0000000  0 12G 5G 6G30G16G14G24G21G18G29G12G31G22
 124311358.87947  96865972.91747  23655680.8344   23655685.3854   23655681.1054
        45.000          39.000
 124938736.88647  97354837.83147  23775068.4584   23775073.2934   23775068.4054
        44.000          38.000
 118236141.43547  92132051.31647  22499593.5584   22499597.5804   22499593.4274
        50.000          44.000
 121464122.93047 112439537.07247  25016824.7214   25016828.3394   25016824.6184
        40.000          34.000
 121216338.73347  94454290.50447  23066701.1104   23066703.6484   23066701.5194
        47.000          41.000
 126794099.49747  98800576.14347  24128130.8014   24128135.6024   24128130.2174
        43.000          37.000
 108169646.25647  84288029.43647  20584001.8834   20584004.5894   20584002.2134
        55.000          48.000
 117362420.61547  91451223.07547  22333335.7084   22333338.5944   22333336.4034
        50.000          43.000
 130254916.59747 101497329.40147  24786691.6114   24786695.4754   24786691.6484
        40.000          36.000
 130287135.08447 101522428.28447  24792830.6644   24792832.3614   24792830.5164
        39.000          35.000
 108656824.85047  84667656.10447  20676705.5654   20676707.1304   20676705.1904
        55.000          49.000
 119462329.65247  93087524.56847  22732929.3064   22732929.7814   22732929.2794
        50.000          43.000
 09  1 24  1  5  0.0000000  0 12G 5G 6G30G16G14G24G21G18G29G12G31G22
 124333342.15547  96883102.78847  23659863.5574   23659868.9354   23659863.9704
        45.000          39.000
 124932852.32847  97350252.45447  23773949.3344   23773953.4514   23773949.3214
        44.000          38.000
 118224119.94547  92122683.94647  22497305.8964   22497309.7774   22497305.5964
        50.000          43.000
 121397680.02147 112387763.48547  25004180.4734   25004184.4844   25004180.6754
        40.000          34.000
 121257122.27147  94486069.89747  23074461.7554   23074463.6374   23074462.0944
        47.000          41.000
 126891814.44047  98876717.67847  24146724.5844   24146729.9664   24146724.4944
        43.000          37.000
 108231403.15047  84336151.67647  20595753.9554   20595756.4564   20595754.4854
        54.000          48.000
 117328626.96747  91424890.35847  22326904.9834   22326907.8134   22326905.3964
        50.000          43.000
 130305876.01747 101537038.09647  24796389.4254   24796392.8944   24796388.7764
        41.000          36.000
 130319475.92847 101547629.01147  24798984.5234   24798987.5304   24798984.2724
        40.000          35.000
 108617027.20247  84636644.97047  20669132.1544   20669133.9764   20669131.8004
        54.000          49.000
 119407141.25147  93044520.62247  22722427.2424   22722427.8944   22722427.3034
        49.000          43.000
 09  1 24  1  5 30.0000000  0 12G 5G 6G30G16G14G24G21G18G29G12G31G22
 124355678.17647  96900507.54347  23664114.3294   23664118.8744   23664114.6494
        44.000          39.000
 124927086.92747  97345759.95247  23772851.5084   23772856.0084   23772851.3174
        43.000          38.000
 118212365.95547  92113525.02947  22495069.0174   22495073.2734   22495068.9624
        49.000          43.000
 121330996.68147 112335802.55447  24991490.4844   24991494.6794   24991490.6054
        39.000          34.000
 121297845.00047  94517801.90347  23082211.2194   23082213.2204   23082211.4644
        47.000          41.000
 126989666.47647  98952966.02147  24165345.6824   24165350.7744   24165345.8834
        42.000          37.000
 108293660.26847  84384663.70347  20607601.1194   20607603.4274   20607601.5704
        54.000          48.000
 117294977.35547  91398669.86747  22320501.8384   22320504.0274   22320502.1034
        50.000          43.000
 130356605.17647 101576567.36547  24806042.9734   24806046.0044   24806042.5984
        41.000          36.000
 130352118.56247 101573064.93247  24805196.0244   24805199.0304   24805195.9364
        41.000          36.000
 108577780.60647  84606063.23847  20661663.9364   20661665.6704   20661663.6094
        55.000          49.000
 119351890.94347  93001468.43747  22711913.5744   22711914.2044   22711913.6184
        49.000          43.000
 09  1 24  1  6  0.0000000  0 12G 5G 6G30G16G14G24G21G18G29G12G31G22
 124378366.13447  96918186.52047  23668431.4934   23668435.9484   23668432.1164
        45.000          39.000
 124921437.31547  97341357.67347  23771777.2204   23771780.9744   23771776.9904
        44.000          38.000
 118200879.89847  92104574.88647  22492883.0944   22492887.0874   22492882.6094
        50.000          44.000
 121264071.99147 112283653.59047  24978753.8804   24978759.4404   24978755.0324
        40.000          34.000
 121338503.81747  94549484.12847  23089948.2294   23089950.3454   23089948.3494
        46.000          41.000
 127087651.42247  99029317.91847  24183990.9604   24183997.0004   24183992.1664
        42.000          36.000
 108356413.35747  84433562.20447  20619542.3314   20619545.0254   20619542.6754
        54.000          48.000
 117261472.56347  91372562.23547  22314125.7324   22314128.3444   22314126.2294
        50.000          43.000
 130407102.31647 101615915.83047  24815651.3934   24815655.4014   24815651.4584
        42.000          36.000
 130385061.86147 101598735.11247  24811465.2074   24811468.6994   24811465.2434
        41.000          36.000
 108539084.45947  84575910.41647  20654300.2314   20654301.8974   20654299.6704
        55.000          50.000
 119296578.68747  92958367.98347  22701388.0824   22701388.4284   22701388.1864
        49.000          43.000
 09  1 24  1  6 30.0000000  0 12G 5G 6G30G16G14G24G21G18G29G12G31G22
 124401408.32747  96936141.52547  23672816.4944   23672820.6614   23672817.0354
        45.000          39.000
 124915902.98947  97337045.26047  23770723.3204   23770727.4844   23770723.7034
        44.000          38.000
 118189665.55447  92095836.45547  22490749.6904   22490753.2954   22490749.2734
        49.000          44.000
 121196907.90747 112231318.07047  24965973.6954   24965978.8014   24965974.6244
        41.000          34.000
 121379097.55447  94581115.61847  23097672.6364   23097674.8754   23097672.7594
        46.000          41.000
 127185767.99147  99105772.38147  24202662.3874   24202667.8364   24202662.9654
        42.000          37.000
 108419661.15447  84482846.18847  20631578.0734   20631580.6044   20631578.4384
        54.000          48.000
 117228116.35147  91346570.38047  22307778.6844   22307780.9694   22307779.1724
        50.000          43.000
 130457368.43647 101655084.33447  24825216.4324   24825221.5234   24825216.2744
        42.000          37.000
 130418307.63447 101624640.98347  24817792.3494   24817794.0844   24817791.8224
        40.000          36.000
 108500941.41547  84546188.59447  20647041.7644   20647043.4104   20647041.4354
        55.000          49.000
 119241207.43047  92915221.54847  22690851.1894   22690851.8474   22690851.2594
        49.000          43.000
 09  1 24  1  7  0.0000000  0 12G 5G 6G30G16G14G24G21G18G29G12G31G22
 124424805.65847  96954373.26547  23677268.5944   23677273.1744   23677269.2574
        44.000          39.000
 124910481.98647  97332821.12947  23769692.3534   23769696.0004   23769692.6204
        43.000          39.000
 118178724.97447  92087311.36147  22488667.4004   22488671.5274   22488666.9704
        50.000          44.000
 121129505.19347 112178796.60447  24953147.8304   24953151.8584   24953148.1954
        42.000          35.000
 121419623.87447  94612694.57047  23105384.7274   23105387.0784   23105385.0014
        46.000          41.000
 127284013.53347  99182327.37947  24221357.6504   24221363.7284   24221357.9544
        41.000          36.000
 108483401.37247  84532513.87747  20643707.6824   20643709.9074   20643708.0294
        54.000          48.000
 117194911.10047  91320696.15447  22301460.1284   22301462.3924   22301460.4164
        50.000          43.000
 130507403.16447 101694072.48647  24834738.6434   24834742.4834   24834738.3204
        42.000          37.000
 130451856.35247 101650782.89747  24824175.9664   24824177.6654   24824176.1424
        40.000          35.000
 108463352.43647  84516898.50847  20639888.8774   20639890.3924   20639888.4114
        55.000          50.000
 119185780.13347  92872031.45147  22680303.5094   22680304.6864   22680303.9044
        49.000          43.000
 09  1 24  1  7 30.0000000  0 12G 5G 6G30G16G14G24G21G18G29G12G31G22
 124448559.92047  96972883.13447  23681788.3344   23681793.0574   23681788.7064
        44.000          39.000
 124905173.40447  97328684.61547  23768680.9114   23768685.7034   23768681.1144
        44.000          38.000
 118168061.01847  92079001.81747  22486637.7454   22486642.1044   22486637.4424
        50.000          43.000
 121061865.30447 112126090.28947  24940276.3884   24940279.6434   24940277.2024
        41.000          34.000
 121460081.61347  94644220.09947  23113083.8134   23113086.0264   23113083.9894
        46.000          41.000
 127382386.50747  99258981.66147  24240077.2934   24240083.1984   24240077.0554
        42.000          36.000
 108547632.22447  84582563.87247  20655930.1394   20655932.7864   20655930.6044
        54.000          48.000
 117161860.28847  91294942.26947  22295170.5004   22295172.8964   22295170.8474
        50.000          43.000
 130557206.82947 101732880.60347  24844215.6234   24844219.9874   24844215.2464
        42.000          37.000
 130485709.78847 101677162.25447  24830617.7274   24830620.6894   24830617.9194
        40.000          35.000
 108426319.57947  84488041.75747  20632841.6324   20632843.4734   20632841.2234
        55.000          50.000
 119130299.07747  92828799.45547  22669745.6444   22669746.7444   22669745.8074
        49.000          43.000
 09  1 24  1  8  0.0000000  0 12G 5G 6G30G16G14G24G21G18G29G12G31G22
 124472672.10147  96991671.90147  23686377.4394   23686381.5564   23686377.8344
        45.000          39.000
 124899975.43447  97324634.26147  23767693.1084   23767696.3224   23767693.1994
        43.000          38.000
 118157675.83247  92070909.49547  22484662.0854   22484665.6814   22484661.6014
        50.000          43.000
 120993989.32147 112073200.01647  24927359.6954   24927362.9694   24927360.0854
        40.000          34.000
 121500468.94247  94675690.76347  23120768.7514   23120771.4994   23120769.2214
        46.000          41.000
 127480884.41247  99335733.30547  24258820.5434   24258826.4324   24258821.2964
        43.000          36.000
 108612351.29247  84632994.30147  20668245.7184   20668248.3754   20668246.0824
        54.000          47.000
 117128966.35047  91269310.61747  22288911.0374   22288913.1894   22288911.3974
        50.000          43.000
 130606779.46847 101771508.67647  24853648.3604   24853652.7554   24853648.7764
        41.000          37.000
 130519868.51347 101703779.48747  24837118.1454   24837120.4674   24837117.7274
        41.000          35.000
 108389843.80847  84459619.10847  20625900.4214   20625902.2904   20625900.1764
        54.000          49.000
 119074766.40347  92785527.23747  22659178.2554   22659178.8994   22659178.4544
        49.000          43.000
 09  1 24  1  8 30.0000000  0 12G 5G 6G30G16G14G24G21G18G29G12G31G22
 124497140.47147  97010738.20647  23691033.9724   23691038.0954   23691034.3104
        45.000          39.000
 124894883.82447  97320666.83047  23766723.3864   23766728.0194   23766722.6604
        44.000          38.000
 118147568.72247  92063033.83847  22482738.5584   22482742.0974   22482738.0384
        50.000          44.000
 140925981.36657  92020230.31957  24914397.0145   24914400.5055   24914398.5585
        40.000          34.000
 121540781.18147  94707102.91147  23128440.0124   23128442.2844   23128440.4574
        47.000          41.000
 127579502.40547  99412578.49147  24277586.9794   24277593.0694   24277587.9754
        42.000          36.000
 108677553.69047  84683801.34847  20680653.5424   20680656.0284   20680653.9734
        54.000          48.000
 117096229.41547  91243801.31547  22282681.4114   22282684.0764   22282681.7384
        50.000          43.000
 130656118.23847 101809954.54147  24863037.7784   24863041.2684   24863038.0344
        41.000          36.000
 130554330.99447 101730633.42947  24843676.9624   24843677.8554   24843676.4344
        40.000          35.000
 108353923.57147  84431629.33947  20619064.9614   20619066.8354   20619064.5954
        55.000          49.000
 119019181.72947  92742214.48847  22648600.8844   22648601.6084   22648601.2284
        50.000          43.000
 09  1 24  1  9  0.0000000  0 12G 5G 6G30G16G14G24G21G18G29G12G31G22
 124521967.83747  97030084.26447  23695758.0834   23695762.1864   23695758.6414
        45.000          39.000
 124889898.59547  97316782.24747  23765775.2644   23765779.6144   23765775.8244
        42.000          39.000
 118137743.80647  92055378.08747  22480868.9884   22480872.7754   22480868.8994
        50.000          43.000
 140857632.06347  91966971.27047  24901390.9504   24901395.2114   24901391.2654
        40.000          34.000
 121581018.22547  94738456.46647  23136097.2814   23136099.0674   23136097.7194
        46.000          41.000
 127678239.71547  99489516.66247  24296376.1924   24296382.1344   24296376.6764
        42.000          36.000
 108743238.26247  84734984.11147  20693152.8004   20693155.4744   20693153.2304
        54.000          48.000
 117063653.79047  91218417.71547  22276482.2734   22276484.9754   22276482.9324
        50.000          43.000
 130705224.83047 101848219.46647  24872382.2804   24872385.9644   24872382.4644
        41.000          36.000
 130589099.10947 101757725.54147  24850292.8454   24850295.7644   24850292.1634
        39.000          35.000
 108318561.89747  84404074.81147  20612335.8614   20612337.6554   20612335.4674
        54.000          49.000
 118963548.62047  92698864.00247  22638014.4514   22638015.0474   22638014.4224
        50.000          43.000
 09  1 24  1  9 30.0000000  0 12G 5G 6G30G16G14G24G21G18G29G12G31G22
 124547155.77547  97049711.26247  23700551.4924   23700555.6284   23700552.2414
        45.000          39.000
 124885018.76247  97312979.83647  23764845.9374   23764850.0114   23764845.3834
        43.000          38.000
 118128203.98947  92047944.49247  22479053.3954   22479057.3924   22479052.9804
        50.000          43.000
 140789048.82247  91913529.92947  24888339.4674   24888343.6754   24888340.7904
        42.000          35.000
 121621178.65547  94769750.31447  23143739.3284   23143741.2154   23143739.7544
        46.000          41.000
 127777094.63947  99566546.48747  24315187.2024   24315193.4894   24315187.3254
        40.000          36.000
 108809403.57147  84786541.47447  20705743.6624   20705746.2394   20705744.0784
        54.000          47.000
 117031242.60447  91193162.25047  22270314.6254   22270317.2174   22270314.9644
        50.000          43.000
 130754099.67147 101886303.80547  24881683.0464   24881686.6804   24881683.1574
        42.000          37.000
 130624174.41447 101785057.01747  24856965.7654   24856968.4774   24856966.7914
        39.000          34.000
 108283760.63947  84376956.97747  20605713.3294   20605715.1544   20605712.9234
        54.000          49.000
 118907870.18647  92655478.19847  22627419.2374   22627419.4854   22627419.2074
        50.000          43.000
 09  1 24  1 10  0.0000000  0 12G 5G 6G30G16G14G24G21G18G29G12G31G22
 124572704.69347  97069619.56247  23705413.0264   23705416.9664   23705413.6204
        45.000          39.000
 124880241.97047  97309257.67847  23763937.1814   23763942.1584   23763938.0134
        43.000          38.000
 118118950.85647  92040734.28047  22477292.5574   22477296.5374   22477292.3084
        50.000          43.000
 140720232.25847  91859906.73747  24875244.9014   24875248.4744   24875246.1874
        42.000          36.000
 121661259.92847  94800982.48047  23151366.2564   23151368.6474   23151366.6484
        46.000          41.000
 127876064.07047  99643665.55247  24334020.8324   24334026.4234   24334020.3814
        42.000          36.000
 108876046.47147  84838470.98447  20718425.5234   20718427.9434   20718426.0144
        54.000          47.000
 116998998.13147  91168036.69347  22264178.9164   22264181.5094   22264179.5784
        50.000          43.000
 130802742.20047 101924207.13947  24890939.5984   24890943.6844   24890939.1154
        41.000          37.000
 130659557.03647 101812627.95247  24863701.3814   24863701.9954   24863700.2724
        41.000          34.000
 108249520.12847  84350276.08147  20599197.5114   20599199.3834   20599197.1434
        55.000          49.000
 118852147.99547  92612058.29547  22616815.5714   22616815.9564   22616815.4784
        50.000          43.000
 09  1 24  1 10 30.0000000  0 12G 5G 6G30G16G14G24G21G18G29G12G31G22
 124598613.69547  97089808.45547  23710342.8324   23710347.6294   23710343.3304
        44.000          38.000
 124875564.67747  97305613.07547  23763046.8294   23763051.6154   23763046.5304
        43.000          38.000
 118109984.53947  92033747.56347  22475586.4014   22475590.4264   22475586.1574
        49.000          43.000
 140651181.47647  91806101.03747  24862105.4924   24862108.9664   24862106.2384
        42.000          36.000
 121701258.54647  94832150.25647  23158978.2354   23158980.2324   23158978.5474
        47.000          41.000
 127975143.86447  99720870.61347  24352875.3944   24352881.5694   24352874.9724
        42.000          36.000
 108943162.78147  84890769.39147  20731197.4924   20731199.8244   20731197.8334
        54.000          47.000
 116966921.02547  91143041.55147  22258074.7524   22258077.4164   22258075.1464
        50.000          43.000
 130851150.43647 101961927.88847  24900151.4054   24900155.3794   24900150.8104
        41.000          37.000
 130695245.88547 101840437.48347  24870490.9344   24870493.4914   24870491.0504
        40.000          34.000
 108215839.56147  84324031.50747  20592788.3074   20592790.1224   20592787.8554
        54.000          50.000
 118796382.41247  92568604.57547  22606203.5654   22606204.3474   22606203.6814
        49.000          43.000
 09  1 24  1 11  0.0000000  0 12G 5G 6G30G16G14G24G21G18G29G12G31G22
 124624886.43047  97110280.77947  23715341.9484   23715346.6434   23715342.4764
        44.000          38.000
 124870987.92347  97302046.79247  23762176.3744   23762180.8544   23762176.2494
        44.000          39.000
 118101310.23847  92026988.39147  22473935.3444   22473939.7534   22473935.0384
        49.000          43.000
 140581900.18447  91752115.73247  24848921.0334   24848925.0394   24848921.3744
        41.000          35.000
 121741174.99547  94863254.01647  23166574.0284   23166576.1844   23166574.5664
        46.000          41.000
 128074334.48847  99798162.02847  24371751.5594   24371756.0064   24371750.4044
        40.000          35.000
 109010752.63647  84943436.78547  20744059.1634   20744061.6364   20744059.6534
        54.000          47.000
 116935016.78247  91118181.09447  22252003.7404   22252006.1534   22252003.9024
        50.000          43.000
 130899327.01347 101999468.09947  24909318.8294   24909323.0864   24909318.6494
        42.000          37.000
 130731244.06147 101868488.08347  24877340.8754   24877343.8824   24877340.3254
        39.000          35.000
 108182722.94547  84298226.37747  20586486.4764   20586488.3334   20586486.1164
        54.000          50.000
 118740578.70447  92525121.16147  22595584.2874   22595585.3154   22595584.2384
        49.000          43.000
 09  1 24  1 11 30.0000000  0 12G 5G 6G30G16G14G24G21G18G29G12G31G22
 124651522.29847  97131036.05747  23720411.1724   23720415.3904   23720411.9304
        45.000          39.000
 124866508.51647  97298556.36447  23761323.8464   23761328.1464   23761324.0534
        44.000          38.000
 118092928.23347  92020457.00447  22472340.5194   22472344.2604   22472340.3974
        49.000          43.000
 140512387.45347  91697950.08347  24835693.1784   24835696.8414   24835693.7564
        42.000          35.000
 121781005.82747  94894291.03047  23174152.9264   23174156.0624   23174153.2304
        45.000          40.000
 128173631.64947  99875536.49747  24390646.0264   24390650.7714   24390646.5754
        41.000          36.000
 109078811.95247  84996469.99647  20757010.4424   20757012.9734   20757010.8234
        54.000          47.000
 116903286.34247  91093456.06447  22245965.8574   22245967.8814   22245966.2464
        50.000          43.000
 130947270.30247 102036826.56447  24918442.6874   24918445.7574   24918441.6154
        41.000          37.000
 130767550.77047 101896779.05647  24884249.3394   24884251.6624   24884248.6294
        39.000          35.000
 108150169.43747  84272860.03147  20580291.8424   20580293.5264   20580291.4914
        55.000          50.000
 118684736.56647  92481607.80147  22584957.8614   22584958.8264   22584957.9354
        49.000          43.000
 09  1 24  1 12  0.0000000  0 12G 5G 6G30G16G14G24G21G18G29G12G31G22
 124678520.85547  97152073.94647  23725549.0354   23725552.9444   23725549.6884
        45.000          38.000
 124862123.41147  97295139.43847  23760489.3344   23760493.8444   23760489.0764
        44.000          38.000
 118084839.53147  92014154.14447  22470801.0324   22470805.4444   22470800.6254
        49.000          43.000
 140442643.01147  91643603.80947  24822421.8724   24822424.6934   24822421.9524
        41.000          35.000
 121820748.25147  94925259.16047  23181715.9084   23181718.4894   23181716.1044
        46.000          41.000
 128273031.96147  99952991.31447  24409562.6374   24409567.2214   24409561.8164
        42.000          36.000
 109147336.99247  85049866.10547  20770050.4674   20770053.0284   20770051.0014
        54.000          47.000
 116871730.98347  91068867.47347  22239960.8254   22239963.2424   22239961.2564
        50.000          43.000
 130994978.91447 102074002.15547  24927520.6794   24927524.8844   24927520.0974
        41.000          36.000
 130804165.39247 101925309.98647  24891217.5514   24891221.0674   24891217.2474
        38.000          35.000
 108118178.54347  84247932.08547  20574204.1314   20574205.8964   20574203.6434
        54.000          50.000
 118628857.45347  92438065.62547  22574324.5114   22574325.2044   22574324.7514
        49.000          43.000
 09  1 24  1 12 30.0000000  0 12G 5G 6G30G16G14G24G21G18G29G12G31G22
 124705885.33447  97173396.96647  23730756.1514   23730759.9914   23730756.3684
        44.000          38.000
 124857833.35447  97291796.54147  23759673.0094   23759677.2124   23759673.1904
        43.000          38.000
 118077048.56247  92008083.29347  22469318.1524   22469322.5344   22469317.9694
        49.000          43.000
 140372670.94047  91589080.18847  24809105.9844   24809109.8624   24809106.2034
        42.000          35.000
 121860402.46847  94956158.56647  23189262.0284   23189264.3064   23189262.0004
        46.000          41.000
 128372535.42647 100030526.52147  24428496.4204   24428501.5454   24428496.3564
        41.000          36.000
 109216327.61047  85103625.01547  20783178.6834   20783181.4534   20783178.9724
        54.000          47.000
 116840355.59947  91044419.12747  22233990.0074   22233993.0494   22233990.3004
        50.000          44.000
 131042455.36047 102110996.87747  24936555.4424   24936558.9954   24936555.0434
        40.000          36.000
 130841090.97147 101954083.23047  24898243.4664   24898245.7114   24898243.2984
        38.000          34.000
 108086754.04947  84223445.49247  20568224.2904   20568225.8954   20568224.0154
        55.000          50.000
 118572945.84547  92394498.14047  22563684.9354   22563685.6674   22563684.8414
        50.000          43.000
 09  1 24  1 13  0.0000000  0 12G 5G 6G30G16G14G24G21G18G29G12G31G22
 124733615.06447  97195004.60947  23736033.0114   23736036.8364   23736033.2404
        44.000          38.000
 124853634.98947  97288525.10347  23758873.2784   23758878.3934   23758873.4844
        43.000          38.000
 118069555.81347  92002244.81447  22467892.5914   22467896.5834   22467892.1614
        50.000          43.000
 140302470.21147  91534378.41747  24795746.9014   24795751.1264   24795747.6954
        41.000          36.000
 121899965.07447  94986986.60147  23196790.1574   23196792.7014   23196790.3624
        46.000          41.000
 128472138.21247 100108139.12547  24447449.8804   24447455.5004   24447449.6144
        41.000          36.000
 109285779.79447  85157743.57947  20796395.1474   20796397.7104   20796395.6104
        54.000          47.000
 116809161.67647  91020112.17747  22228054.0664   22228056.8724   22228054.4374
        50.000          43.000
 131089697.93147 102147809.31147  24945544.0744   24945549.3634   24945543.8404
        39.000          36.000
 130878326.54947 101983097.99047  24905330.9894   24905331.8754   24905329.5934
        39.000          34.000
 108055895.53147  84199399.91747  20562352.0794   20562353.6224   20562351.6174
        55.000          50.000
 118517003.03347  92350906.33947  22553039.9244   22553040.0304   22553039.9144
        50.000          43.000
 09  1 24  1 13 30.0000000  0 12G 5G 6G30G16G14G24G21G18G29G12G31G22
 124761710.91747  97216897.52847  23741378.9244   23741383.6264   23741379.3714
        45.000          38.000
 124849526.65147  97285323.80447  23758092.3104   23758096.5884   23758092.0734
        43.000          38.000
 118062363.61547  91996640.54147  22466524.0864   22466528.1624   22466523.9854
        50.000          43.000
 140232041.81847  91479499.22347  24782345.1074   24782348.7304   24782345.1314
        41.000          36.000
 121939434.24347  95017741.81647  23204300.8794   23204303.6134   23204300.9544
        46.000          41.000
 128571837.94647 100185827.27947  24466422.8674   24466427.7354   24466422.4784
        41.000          36.000
 109355690.80447  85212219.67647  20809698.9474   20809701.4124   20809699.3374
        54.000          47.000
 116778151.51247  90995948.41647  22222153.0954   22222155.5684   22222153.5004
        50.000          43.000
 131136706.83747 102184439.66647  24954489.4924   24954495.0004   24954489.6034
        40.000          36.000
 130915872.58547 102012354.69247  24912474.3344   24912476.1794   24912474.7054
        39.000          34.000
 108025603.18247  84175795.51347  20556587.4524   20556589.3494   20556587.0844
        54.000          50.000
 118461030.23247  92307291.16547  22542388.5064   22542389.1024   22542388.3574
        50.000          44.000
 09  1 24  1 14  0.0000000  0 12G 5G 6G30G16G14G24G21G18G29G12G31G22
 124790174.20147  97239076.78147  23746795.4484   23746799.6934   23746795.9394
        44.000          38.000
 124845507.09547  97282191.69047  23757327.1654   23757332.0804   23757327.2934
        44.000          38.000
 118055474.35347  91991272.31447  22465213.1654   22465217.1194   22465212.7294
        50.000          44.000
 140161387.52947  91424444.00947  24768899.5684   24768904.1094   24768899.5804
        41.000          35.000
 121978808.61747  95048423.16847  23211794.0154   23211796.0214   23211794.3554
        46.000          41.000
 128671632.45847 100263589.23247  24485412.8044   24485418.4134   24485413.5874
        42.000          36.000
 109426058.64347  85267051.74047  20823089.5514   20823091.9714   20823089.9104
        54.000          47.000
 116747328.35447  90971930.37647  22216288.0534   22216290.3114   22216288.5014
        50.000          43.000
 131183482.24047 102220888.05547  24963392.3044   24963394.7864   24963391.6974
        40.000          36.000
 130953729.82047 102041853.91147  24919679.0734   24919680.2624   24919678.7154
        39.000          34.000
 107995878.94647  84152633.79747  20550931.1964   20550932.8384   20550930.8224
        55.000          50.000
 118405030.69947  92263655.16847  22531732.0724   22531732.7204   22531732.0384
        50.000          44.000
 09  1 24  1 14 30.0000000  0 12G 5G 6G30G16G14G24G21G18G29G12G31G22
 124819004.39547  97261541.94447  23752281.6984   23752286.1384   23752282.0074
        44.000          38.000
 124841573.44047  97279126.50647  23756578.7274   23756582.7454   23756579.0154
        43.000          38.000
 118048889.03747  91986140.93747  22463960.0344   22463964.1574   22463959.7224
        49.000          43.000
 140090506.54547  91369212.14947  24755411.4244   24755416.1764   24755412.3154
        41.000          35.000
 122018085.37047  95079028.43947  23219267.9854   23219270.2684   23219268.1444
        46.000          41.000
 128771518.28147 100341422.39247  24504420.5164   24504424.7694   24504421.3654
        43.000          36.000
 109496879.44147  85322236.75547  20836566.3904   20836568.7304   20836566.7354
        54.000          47.000
 116716693.35747  90948058.96147  22210457.5464   22210460.5574   22210458.0694
        51.000          43.000
 131230023.01947 102257153.62647  24972247.0204   24972251.6464   24972247.6014
        39.000          36.000
 130991898.10647 102071595.51047  24926941.3944   24926943.2824   24926940.5384
        38.000          34.000
 107966722.39647  84129914.42947  20545382.8024   20545384.4394   20545382.3754
        55.000          50.000
 118349005.35747  92219999.06747  22521070.7684   22521071.4814   22521070.7774
        50.000          44.000
 09  1 24  1 15  0.0000000  0 12G 5G 6G30G16G14G24G21G18G29G12G31G22
 124848204.30247  97284295.15647  23757837.2594   23757842.3954   23757837.8064
        44.000          38.000
 124837725.82147  97276128.39347  23755845.8644   23755850.8874   23755846.0344
        43.000          38.000
 118042611.63447  91981249.47747  22462765.6914   22462769.2344   22462765.1064
        49.000          44.000
 140019402.39047  91313806.37947  24741880.7194   24741884.3324   24741881.3584
        41.000          35.000
 122057264.42447  95109557.60047  23226723.4384   23226725.8504   23226723.7154
        46.000          41.000
 128871495.02847 100419326.39547  24523445.2474   24523450.3944   24523445.8394
        43.000          36.000
 109568152.36647  85377774.07447  20850129.2574   20850131.4004   20850129.6034
        54.000          47.000
 116686251.27047  90924337.85747  22204665.1944   22204667.5304   22204665.5154
        51.000          44.000
 131276331.15847 102293237.92847  24981059.0594   24981063.1744   24981058.9264
        39.000          36.000
 131030379.89147 102101581.33847  24934264.3654   24934266.8264   24934263.6794
        38.000          34.000
 107938135.86647  84107639.23247  20539942.7634   20539944.7444   20539942.3704
        54.000          50.000
 118292958.11347  92176325.90247  22510405.2594   22510406.0004   22510405.3314
        50.000          43.000
 09  1 24  1 15 30.0000000  0 12G 5G 6G30G16G14G24G21G18G29G12G31G22
 124877772.77047  97307335.59047  23763465.0394   23763468.3904   23763465.2564
        44.000          38.000
 124833960.78147  97273194.59447  23755130.0354   23755134.5214   23755130.2824
        44.000          38.000
 118036642.38447  91976598.13247  22461629.6154   22461633.7594   22461629.5344
        50.000          44.000
 139948074.53847  91258226.32347  24728307.1234   24728311.4634   24728307.5624
        41.000          35.000
 122096342.06847  95140007.73247  23234159.7094   23234161.9264   23234160.0744
        47.000          41.000
 128971558.42747 100497297.92147  24542486.8834   24542491.8224   24542486.8414
        43.000          36.000
 109639873.08747  85433660.33247  20863777.1894   20863779.4474   20863777.7014
        54.000          47.000
 116656002.92147  90900767.71947  22198908.7764   22198911.4124   22198909.2504
        50.000          43.000
 131322404.89047 102329139.56247  24989827.1484   24989830.6894   24989825.9124
        38.000          36.000
 131069173.65747 102131810.32147  24941646.3804   24941647.4564   24941645.5364
        39.000          34.000
 107910118.52647  84085807.56047  20534611.2774   20534613.2334   20534610.8294
        54.000          50.000
 118236889.65647  92132636.20847  22499735.9104   22499736.5584   22499736.1124
        50.000          43.000
 09  1 24  1 16  0.0000000  0 12G 5G 6G30G16G14G24G21G18G29G12G31G22
 124907711.08747  97330664.20947  23769161.3244   23769166.1684   23769161.7014
        44.000          38.000
 124830276.92247  97270324.08547  23754428.7814   23754433.7074   23754428.5494
        43.000          38.000
 118030983.89547  91972188.94847  22460553.0734   22460556.7454   22460553.0384
        50.000          44.000
 139876524.01347  91202472.70747  24714691.3074   24714695.6304   24714691.7084
        42.000          35.000
 122135316.98647  95170377.81947  23241576.2924   23241578.3954   23241576.7334
        46.000          40.000
 129071706.71447 100575335.62347  24561544.0624   24561549.0064   24561544.3284
        42.000          36.000
 109712039.17947  85489893.63347  20877509.8674   20877512.1784   20877510.1954
        54.000          47.000
 116625951.22947  90877350.82347  22193190.2394   22193193.0864   22193190.7554
        51.000          43.000
 131368244.73947 102364858.96447  24998549.8664   24998553.8004   24998549.1144
        39.000          35.000
 131108280.00447 102162282.82547  24949086.9924   24949091.0444   24949087.8054
        39.000          35.000
 107882671.46747  84064420.26447  20529388.3944   20529390.2974   20529388.0894
        55.000          50.000
 118180802.72647  92088932.12747  22489062.6584   22489063.7774   22489062.7374
        50.000          43.000
 09  1 24  1 16 30.0000000  0 12G 5G 6G30G16G14G24G21G18G29G12G31G22
 124938019.95147  97354281.57647  23774929.6044   23774934.3084   23774929.5644
        44.000          38.000
 124826672.74647  97267515.64347  23753743.7254   23753747.5424   23753743.8364
        44.000          39.000
 118025637.86347  91968023.22847  22459535.6234   22459539.4374   22459535.0784
        49.000          43.000
 139804752.19747  91146546.70547  24701035.0684   24701036.8274   24701034.7934
        42.000          36.000
 122174187.29047  95200666.37847  23248972.9174   23248975.3244   23248973.2064
        47.000          40.000
 129171937.49047 100653437.57947  24580617.7044   24580622.5194   24580617.4694
        41.000          36.000
 109784648.37147  85546472.20347  20891327.0174   20891329.6104   20891327.5414
        54.000          47.000
 116596098.69147  90854089.09847  22187509.9464   22187512.1534   22187510.3374
        51.000          44.000
 131413850.62847 102400396.07347  25007228.7024   25007232.2474   25007227.6804
        41.000          35.000
 131147699.77347 102192999.57447  24956589.4524   24956591.6684   24956588.9054
        39.000          35.000
 107855795.63347  84043478.07747  20524274.0744   20524275.8714   20524273.6734
        55.000          50.000
 118124699.55147  92045215.38647  22478386.6204   22478387.5944   22478386.4574
        50.000          44.000
 09  1 24  1 17  0.0000000  0 12G 5G 6G30G16G14G24G21G18G29G12G31G22
 124968717.58847  97378201.88747  23780770.8394   23780775.2024   23780770.9604
        45.000          38.000
 124823163.96147  97264781.53147  23753075.4014   23753080.1354   23753075.5634
        43.000          38.000
 118020624.05947  91964116.39047  22458581.5574   22458585.5004   22458581.1134
        49.000          43.000
 139732777.69447  91090462.75047  24687338.4494   24687341.8454   24687338.0814
        41.000          36.000
 122212968.74847  95230885.70347  23256353.0634   23256355.2364   23256353.3424
        46.000          41.000
 129272265.66147 100731615.43247  24599709.0674   24599714.5554   24599709.3834
        42.000          36.000
 109857715.15147  85603407.33747  20905231.1674   20905233.6874   20905231.5494
        54.000          47.000
 116566465.47547  90830998.29247  22181870.3884   22181872.9954   22181870.9014
        51.000          44.000
 131459240.21247 102435764.64447  25015865.5184   25015870.4734   25015865.4744
        40.000          35.000
 131187450.82647 102223974.47347  24964154.0644   24964155.8614   24964153.6394
        40.000          34.000
 107829509.16347  84022995.13847  20519271.9084   20519273.6224   20519271.5894
        55.000          50.000
 118068599.95047  92001501.42447  22467711.2484   22467711.9534   22467711.1764
        50.000          44.000
 09  1 24  1 17 30.0000000  0 12G 5G 6G30G16G14G24G21G18G29G12G31G22
 124999766.37847  97402395.82347  23786679.1144   23786683.3034   23786679.5984
        45.000          38.000
 124819710.54147  97262090.56347  23752418.5404   23752423.0464   23752418.0194
        43.000          38.000
 118015906.32347  91960440.26047  22457683.5314   22457687.1474   22457683.3844
        49.000          43.000
 139660563.26547  91034191.83847  24673595.6784   24673599.3534   24673595.5344
        42.000          36.000
 122251621.43847  95261004.69547  23263708.5294   23263710.9164   23263708.6254
        46.000          41.000
 129372650.68047 100809837.57947  24618812.1764   24618817.5094   24618812.1214
        42.000          36.000
 109931198.89647  85660667.37547  20919214.6584   20919217.3144   20919215.0954
        54.000          47.000
 116537016.00847  90808050.65547  22176266.5024   22176269.2214   22176266.8694
        51.000          44.000
 131504375.31247 102470934.92747  25024454.3554   25024458.0024   25024453.8994
        41.000          35.000
 131227495.69847 102255178.26747  24971773.8344   24971777.1874   24971773.7854
        39.000          34.000
 107803774.54447  84002942.20647  20514374.6424   20514376.3714   20514374.2074
        55.000          50.000
 118012468.03047  91957762.27247  22457029.6114   22457030.4344   22457029.7164
        51.000          44.000
 09  1 24  1 18  0.0000000  0 12G 5G 6G30G16G14G24G21G18G29G12G31G22
 125031190.50647  97426882.23247  23792658.7954   23792663.2374   23792659.2564
        44.000          38.000
 124816334.15947  97259459.61247  23751775.8374   23751779.6934   23751776.0194
        43.000          38.000
 118011510.11447  91957014.66747  22456847.1204   22456851.0664   22456846.7444
        49.000          43.000
 139588133.39147  90977753.03647  24659812.4814   24659816.6474   24659812.7464
        42.000          36.000
 122290167.01947  95291040.21647  23271043.5254   23271045.4064   23271043.4534
        46.000          41.000
 129473113.82747 100888120.61147  24637929.6304   24637934.3784   24637929.6214
        41.000          35.000
 110005120.25047  85718268.40847  20933281.4464   20933283.9804   20933282.0254
        54.000          47.000
 116507776.37247  90785266.52447  22170702.3534   22170704.9454   22170702.7384
        50.000          44.000
 131549279.22047 102505924.99547  25032999.2374   25033002.5414   25032999.5234
        39.000          35.000
 131267857.65347 102286629.19047  24979454.6004   24979457.3284   24979454.3134
        39.000          34.000
 107778615.70947  83983337.93747  20509587.1554   20509588.8124   20509586.7934
        55.000          50.000
 117956329.74247  91914018.15547  22446347.1904   22446347.5414   22446347.0874
        51.000          44.000
 09  1 24  1 18 30.0000000  0 12G 5G 6G30G16G14G24G21G18G29G12G31G22
 125062988.82147  97451660.21347  23798709.3194   23798714.0154   23798709.6894
        44.000          38.000
 124813031.25047  97256885.94847  23751147.2584   23751152.0864   23751147.2374
        43.000          38.000
 118007435.44547  91953839.63747  22456071.4484   22456075.4724   22456071.1834
        50.000          43.000
 139515487.61247  90921145.99647  24645988.4144   24645992.4274   24645989.1754
        41.000          36.000
 122328601.79747  95320989.39447  23278357.1874   23278359.5754   23278357.4364
        46.000          41.000
 129573651.03147 100966461.33247  24657060.9104   24657065.3324   24657061.1574
        42.000          36.000
 110079474.65547  85776206.88047  20947430.5854   20947433.1334   20947430.9204
        54.000          47.000
 116478747.23447  90762646.43147  22165178.4934   22165180.7644   22165178.9224
        51.000          44.000
 131593950.59647 102540733.91747  25041499.8904   25041504.2494   25041500.1664
        40.000          35.000
 131308535.59947 102318326.36547  24987195.6144   24987197.6544   24987195.1534
        38.000          34.000
 107754031.47447  83964181.41647  20504909.0524   20504910.6734   20504908.6494
        55.000          50.000
 117900185.44247  91870269.35347  22435663.0834   22435663.7324   22435663.2914
        50.000          44.000
 09  1 24  1 19  0.0000000  0 12G 5G 6G30G16G14G24G21G18G29G12G31G22
 125095145.19947  97476717.21647  23804829.0304   23804832.7094   23804829.5994
        45.000          38.000
 124809783.54547  97254355.27347  23750528.9374   23750533.6034   23750528.9224
        43.000          38.000
 118003667.60947  91950903.68547  22455354.7324   22455358.5334   22455354.2064
        50.000          44.000
 139442610.04347  90864358.34547  24632120.9844   24632124.6174   24632120.7214
        42.000          36.000
 122366907.48147  95350838.00047  23285646.8074   23285648.8174   23285647.0204
        46.000          41.000
 129674243.06447 101044844.80647  24676203.1424   24676207.9254   24676202.9534
        41.000          35.000
 110154242.81947  85834467.75947  20961658.5294   20961661.0334   20961659.0284
        54.000          47.000
 116449914.65347  90740179.48347  22159692.0954   22159693.9364   22159692.3974
        51.000          44.000
 131638372.75247 102575348.57747  25049953.6494   25049957.1204   25049953.4224
        39.000          35.000
 131349513.23347 102350257.01547  24994991.9224   24994994.6534   24994992.7254
        39.000          34.000
 107730005.78247  83945460.11447  20500337.0154   20500338.6814   20500336.5934
        55.000          50.000
 117844020.55147  91826504.52047  22424975.2094   22424976.0784   22424975.0224
        50.000          44.000
 09  1 24  1 19 30.0000000  0 12G 5G 6G30G16G14G24G21G18G29G12G31G22
 125127692.87447  97502079.11647  23811022.6604   23811026.5764   23811022.7464
        44.000          38.000
 124806621.85747  97251891.64047  23749927.3544   23749932.0064   23749927.7104
        44.000          38.000
 118000241.30447  91948233.86747  22454702.5734   22454706.4594   22454702.2964
        49.000          43.000
 139369534.78247  90807416.64547  24618215.5924   24618218.5944   24618215.0224
        42.000          36.000
 122405114.70347  95380609.86947  23292917.0594   23292919.2824   23292917.1944
        46.000          40.000
 129774920.07147 101123294.47547  24695361.2574   24695366.6184   24695360.5374
        42.000          36.000
 110229454.29747  85893074.07947  20975970.7124   20975973.3854   20975971.1064
        54.000          47.000
 116421313.64947  90717892.98447  22154249.0884   22154251.6004   22154249.4864
        51.000          44.000
 131682578.21947 102609794.43347  25058364.9844   25058369.6544   25058364.6654
        39.000          35.000
 131390823.29847 102382446.69547  25002853.5174   25002856.4164   25002853.8304
        40.000          34.000
 107706571.78347  83927199.87847  20495877.8224   20495879.3234   20495877.5614
        55.000          50.000
 117787870.10047  91782750.93047  22414289.8934   22414290.9524   22414290.1424
        51.000          44.000
 09  1 24  1 20  0.0000000  0 12G 5G 6G30G16G14G24G21G18G29G12G31G22
 125160612.36547  97527730.73547  23817286.7244   23817290.6664   23817287.7384
        44.000          38.000
 124803524.41247  97249478.05447  23749338.2244   23749342.5174   23749338.3754
        43.000          38.000
 117997138.29247  91945815.97347  22454111.9204   22454115.7654   22454111.3334
        49.000          44.000
 139296243.01447  90750306.24947  24604267.1724   24604271.3384   24604268.1654
        41.000          36.000
 122443201.91847  95410288.23347  23300164.2494   23300167.0434   23300164.6454
        46.000          40.000
 129875659.76847 101201793.02647  24714531.6244   24714536.8314   24714531.1064
        42.000          36.000
 110305086.57447  85952008.29147  20990363.1814   20990365.7064   20990363.6594
        54.000          47.000
 116392926.62047  90695773.21947  22148847.0534   22148849.3834   22148847.6074
        51.000          44.000
 131726547.52647 102644056.28047  25066732.5094   25066736.1334   25066732.8044
        40.000          35.000
 131432446.53547 102414880.44147  25010775.3524   25010776.2774   25010775.0204
        40.000          35.000
 107683709.97047  83909385.49747  20491527.2034   20491528.9354   20491526.7304
        55.000          50.000
 117731716.29647  91738994.72347  22403604.4864   22403605.2864   22403604.4954
        50.000          44.000
 09  1 24  1 20 30.0000000  0 12G 5G 6G30G16G14G24G21G18G29G12G31G22
 125193905.98447  97553673.89747  23823622.4834   23823625.8584   23823622.8234
        45.000          38.000
 124800491.25147  97247114.57347  23748760.8114   23748765.2014   23748760.8104
        44.000          38.000
 117994362.17547  91943652.79647  22453583.6164   22453587.8784   22453583.2604
        50.000          44.000
 139222737.50747  90693029.31847  24590278.9274   24590282.9534   24590280.1934
        41.000          36.000
 122481168.97347  95439872.96847  23307389.5084   23307391.7184   23307389.5954
        46.000          40.000
 129976461.50347 101280339.89747  24733712.9664   24733718.5894   24733713.2174
        42.000          36.000
 110381138.44347  86011269.46647  21004835.4884   21004837.8064   21004835.8014
        54.000          47.000
 116364758.39647  90673823.95547  22143487.1994   22143489.4004   22143487.4634
        51.000          44.000
 131770281.92447 102678135.07047  25075055.4204   25075058.8504   25075055.6124
        40.000          36.000
 131474384.63447 102447559.50447  25018755.6254   25018757.4114   25018755.6344
        40.000          35.000
 107661422.49847  83892018.65547  20487285.9604   20487287.6044   20487285.5874
        55.000          50.000
 117675563.07547  91695238.97447  22392918.9934   22392919.7794   22392919.2954
        50.000          44.000
 09  1 24  1 21  0.0000000  0 12G 5G 6G30G16G14G24G21G18G29G12G31G22
 125227576.21747  97579910.51547  23830029.7204   23830033.0384   23830030.5794
        44.000          38.000
 124797522.54647  97244801.28847  23748196.7784   23748200.3854   23748196.6594
        44.000          39.000
 117991916.74447  91941747.30347  22453118.4744   22453122.1164   22453118.2114
        50.000          44.000
 139149021.77447  90635588.55647  24576251.9464   24576255.9114   24576253.1064
        43.000          36.000
 122519016.09347  95469364.23947  23314591.8324   23314593.9434   23314591.5054
        45.000          40.000
 130077324.83847 101358934.77247  24752906.7254   24752912.3534   24752907.3684
        42.000          36.000
 110457609.15647  86070857.00747  21019387.2034   21019389.8264   21019387.6934
        53.000          47.000
 116336812.91847  90652048.26347  22138169.1344   22138171.9274   22138169.4624
        51.000          44.000
 131813783.69847 102712032.59447  25083333.1574   25083337.0784   25083332.9064
        41.000          36.000
 131516639.98247 102480485.78847  25026796.2044   25026798.3844   25026795.7914
        39.000          35.000
 107639711.83247  83875101.27947  20483154.6254   20483155.9944   20483154.2164
        55.000          50.000
 117619414.74247  91651487.04547  22382233.9394   22382234.9374   22382234.0434
        50.000          44.000
 09  1 24  1 21 30.0000000  0 12G 5G 6G30G16G14G24G21G18G29G12G31G22
 125261622.82747  97606440.39547  23836508.1894   23836512.8304   23836508.7674
        44.000          38.000
 124794615.63347  97242536.20547  23747642.8574   23747647.1554   23747642.4914
        45.000          39.000
 117989803.32547  91940100.53247  22452716.0844   22452720.0994   22452715.9194
        49.000          44.000
 139075095.40347  90577983.65447  24562184.1314   24562188.4844   24562184.6504
        43.000          36.000
 122556740.92547  95498760.22847  23321770.2244   23321772.8454   23321770.1184
        45.000          40.000
 130178246.56847 101437575.12947  24772110.8764   24772117.4394   24772112.1344
        42.000          35.000
 110534495.05847  86130768.07547  21034018.3064   21034020.9394   21034018.6294
        53.000          47.000
 116309092.40847  90630447.85847  22132894.3504   22132896.6974   22132894.5134
        51.000          44.000
 131857052.37447 102745748.49747  25091566.6824   25091570.8194   25091566.7294
        41.000          36.000
 131559212.02247 102513658.85147  25034897.5494   25034899.5504   25034897.4024
        40.000          35.000
 107618577.59547  83858633.05847  20479132.8444   20479134.4174   20479132.3704
        55.000          50.000
 117563273.06347  91607740.28647  22371550.7324   22371551.4264   22371550.8134
        50.000          44.000
 09  1 24  1 22  0.0000000  0 12G 5G 6G30G16G14G24G21G18G29G12G31G22
 125296045.37347  97633263.23647  23843058.4364   23843062.8954   23843059.0644
        44.000          38.000
 124791768.23147  97240317.44747  23747101.5474   23747105.3804   23747102.2184
        45.000          39.000
 117988023.03447  91938713.32947  22452377.4844   22452381.1594   22452377.1294
        50.000          43.000
 139000959.36247  90520215.37447  24548077.6234   24548080.4154   24548076.7284
        42.000          36.000
 122594340.99747  95528058.99247  23328925.2064   23328927.9544   23328925.5394
        45.000          40.000
 130279223.54747 101516258.56947  24791327.2884   24791332.3694   24791327.5384
        42.000          36.000
 110611792.64847  86190999.94047  21048727.4534   21048730.3574   21048727.8764
        53.000          47.000
 116281598.09247  90609023.71647  22127661.8944   22127664.4204   22127662.6974
        50.000          44.000
 131900087.08247 102779282.06347  25099755.6244   25099759.9684   25099755.8304
        39.000          36.000
 131602100.25047 102547078.29047  25043059.0414   25043061.3844   25043058.3504
        39.000          34.000
 107598019.28447  83842613.62147  20475220.6964   20475222.2874   20475220.3614
        55.000          50.000
 117507139.06447  91563999.51447  22360868.8454   22360869.2004   22360868.9104
        51.000          44.000
 09  1 24  1 22 30.0000000  0 12G 5G 6G30G16G14G24G21G18G29G12G31G22
 125330845.33947  97660380.17747  23849680.5064   23849685.0654   23849681.1194
        43.000          38.000
 124788979.27247  97238144.26647  23746570.4524   23746574.9494   23746569.8494
        44.000          39.000
 117986578.48247  91937587.75047  22452102.5524   22452106.2484   22452102.3774
        49.000          43.000
 138926615.79847  90462285.40147  24533929.6104   24533933.8424   24533929.3174
        43.000          36.000
 122631815.20947  95557259.68747  23336056.4904   23336058.9284   23336056.6844
        45.000          40.000
 130380254.33747 101594983.94047  24810552.3854   24810557.5384   24810552.4664
        41.000          35.000
 110689499.70347  86251550.87047  21063514.5314   21063517.4724   21063514.9634
        53.000          46.000
 116254333.77247  90587778.79647  22122473.3924   22122476.5644   22122473.8584
        51.000          44.000
 131942889.13847 102812634.32347  25107901.5824   25107904.9024   25107900.7334
        40.000          36.000
 131645305.66447 102580744.85447  25051280.0094   25051282.0784   25051279.0804
        38.000          34.000
 107578038.29547  83827044.04447  20471418.3954   20471420.0504   20471418.0174
        55.000          50.000
 117451016.55947  91520267.71447  22350189.1444   22350189.6404   22350189.1014
        51.000          44.000
 09  1 24  1 23  0.0000000  0 12G 5G 6G30G16G14G24G21G18G29G12G31G22
 125366021.64347  97687790.34147  23856374.4744   23856378.7144   23856374.8224
        44.000          38.000
 124786245.51247  97236014.11047  23746049.6054   23746055.0984   23746049.7144
        44.000          39.000
 117985469.79647  91936723.88047  22451891.1054   22451895.3784   22451890.8384
        49.000          43.000
 138852064.01047  90404193.13847  24519742.5024   24519746.7574   24519742.4884
        42.000          36.000
 122669160.36647  95586359.82647  23343162.8764   23343165.3044   23343163.3024
        46.000          40.000
 130481335.00347 101673748.15647  24829786.7954   24829792.5814   24829787.3994
        42.000          35.000
 110767611.60547  86312417.26647  21078378.6864   21078381.4564   21078379.0384
        53.000          46.000
 116227300.20447  90566713.67147  22117329.8714   22117332.1014   22117330.3234
        51.000          44.000
 131985456.83247 102845803.97747  25116001.6534   25116004.9054   25116001.7424
        41.000          36.000
 131688827.06347 102614657.68347  25059562.3114   25059563.8214   25059561.2204
        36.000          34.000
 107558633.07247  83811923.11447  20467725.6864   20467727.4274   20467725.3194
        55.000          50.000
 117394906.20547  91476545.36847  22339511.8664   22339512.2674   22339511.9694
        51.000          44.000
 09  1 24  1 23 30.0000000  0 12G 5G 6G30G16G14G24G21G18G29G12G31G22
 125401576.11847  97715495.18247  23863140.9574   23863144.9194   23863141.3454
        44.000          38.000
 124783566.75147  97233926.76647  23745540.7594   23745544.9784   23745540.7594
        44.000          39.000
 117984700.52647  91936124.48247  22451745.0094   22451748.8934   22451744.9214
        49.000          43.000
 138777307.08247  90345941.05847  24505517.1154   24505520.7754   24505516.7934
        42.000          36.000
 122706376.52247  95615359.43047  23350245.2614   23350247.6224   23350245.4054
        46.000          41.000
 130582464.93847 101752550.79947  24849031.0834   24849037.3184   24849031.5984
        41.000          35.000
 110846127.58847  86373598.53647  21093319.7444   21093322.4924   21093320.1224
        53.000          46.000
 116200501.66147  90545831.69347  22112229.7824   22112232.5654   22112230.2824
        51.000          44.000
 132027791.93447 102878792.40547  25124057.8814   25124061.4314   25124057.7694
        40.000          36.000
 131732666.04447 102648817.93947  25067904.5224   25067905.6214   25067904.0664
        39.000          34.000
 107539805.84147  83797252.56547  20464143.0654   20464144.6834   20464142.6374
        55.000          50.000
 117338812.06447  91432835.66447  22328837.2914   22328837.8424   22328837.3214
        51.000          44.000
 09  1 24  1 24  0.0000000  0 12G 5G 6G30G16G14G24G21G18G29G12G31G22
 125437508.92147  97743494.82447  23869978.0284   23869981.9804   23869978.3244
        43.000          38.000
 124780940.79847  97231880.60247  23745040.6344   23745045.2244   23745040.4594
        44.000          39.000
 117984271.98347  91935790.58747  22451663.2834   22451667.0744   22451662.7764
        49.000          43.000
 138702345.72847  90287529.67447  24491253.0754   24491255.8494   24491252.4764
        43.000          36.000
 122743461.62747  95644256.94147  23357302.8404   23357304.6564   23357302.9344
        46.000          40.000
 130683641.00047 101831389.35647  24868284.8354   24868290.1724   24868284.0924
        40.000          35.000
 110925044.28447  86435092.04647  21108337.2094   21108339.8924   21108337.5974
        53.000          46.000
 116173940.20047  90525134.44547  22107175.3184   22107178.1304   22107175.8244
        51.000          44.000
 132069894.39347 102911599.56447  25132068.8344   25132072.6724   25132069.4084
        41.000          36.000
 131776822.41647 102683225.54947  25076306.9674   25076309.3834   25076306.7274
        38.000          34.000
 107521556.21247  83783032.10047  20460670.1534   20460671.6464   20460669.7834
        55.000          50.000
 117282735.84847  91389139.92247  22318166.5934   22318166.8764   22318166.5924
        51.000          44.000
 09  1 24  1 24 30.0000000  0 12G 5G 6G30G16G14G24G21G18G29G12G31G22
 125473819.90347  97771789.17147  23876887.6544   23876891.3364   23876887.6494
        44.000          38.000
 124778365.42747  97229873.83547  23744549.9184   23744554.7104   23744550.2724
        44.000          38.000
 117984185.75647  91935723.44847  22451646.9374   22451650.4914   22451646.5914
        50.000          43.000
 138627180.77147  90228959.64247  24476949.1084   24476951.9294   24476949.1034
        43.000          36.000
 122780413.16347  95673050.36147  23364333.9644   23364336.1964   23364334.3564
        45.000          40.000
 130784860.37647 101910261.68847  24887545.5054   24887551.4554   24887545.1584
        40.000          35.000
 111004358.12647  86496895.02147  21123430.0734   21123432.8514   21123430.5014
        53.000          46.000
 116147617.75847  90504623.44147  22102166.7124   22102168.6374   22102166.9484
        51.000          44.000
 132111763.83247 102944225.10747  25140037.2484   25140040.5194   25140036.3024
        40.000          36.000
 131821296.05147 102717880.40047  25084770.9554   25084772.2884   25084769.8384
        39.000          34.000
 107503884.13747  83769261.67647  20457307.4154   20457308.8654   20457307.0644
        55.000          50.000
 117226679.41247  91345459.58447  22307499.1364   22307499.8834   22307499.2444
        51.000          45.000
 09  1 24  1 25  0.0000000  0 12G 5G 6G30G16G14G24G21G18G29G12G31G22
 125510510.49747  97800379.30147  23883869.8084   23883874.1294   23883870.4414
        44.000          38.000
 124775839.83547  97227905.88147  23744069.3784   23744074.0734   23744069.3454
        44.000          39.000
 117984444.45647  91935925.05847  22451696.6794   22451699.8634   22451696.1824
        50.000          43.000
 138551814.68547  90170232.87847  24462606.8814   24462611.3054   24462607.1614
        41.000          36.000
 122817230.83747  95701739.45547  23371340.0334   23371342.1984   23371340.2924
        45.000          40.000
 130886121.85747 101989166.79347  24906814.9264   24906820.3454   24906814.9754
        40.000          34.000
 111084067.10747  86559005.89047  21138598.4294   21138601.0544   21138598.7934
        53.000          46.000
 116121537.71847  90484301.33147  22097203.5404   22097206.3054   22097204.1034
        51.000          44.000
 132153401.45747 102976670.05447  25147960.4204   25147963.5184   25147960.1424
        41.000          36.000
 131866088.19647 102752783.35847  25093293.9844   25093296.4134   25093292.9484
        36.000          34.000
 107486790.86547  83755942.26447  20454054.6774   20454056.2244   20454054.2754
        55.000          50.000
 117170646.08747  91301797.27347  22296836.4144   22296836.9904   22296836.4944
        51.000          44.000
 09  1 24  1 25 30.0000000  0 12G 5G 6G30G16G14G24G21G18G29G12G31G22
 125547580.12047  97829264.75847  23890924.1164   23890927.6364   23890924.3214
        43.000          38.000
 124773361.50447  97225974.72547  23743598.5384   23743602.5684   23743598.4954
        45.000          39.000
 117985048.97547  91936396.15347  22451811.3594   22451814.7434   22451811.0344
        50.000          43.000
 138476247.55147  90111349.44047  24448226.4654   24448230.4814   24448226.3254
        42.000          36.000
 122853911.98247  95730322.17947  23378320.3074   23378322.5514   23378320.4664
        46.000          40.000
 130987422.03447 102068102.06947  24926092.1184   24926097.8084   24926091.8634
        40.000          35.000
 111164167.53147  86621421.78747  21153841.1814   21153843.6504   21153841.6244
        53.000          46.000
 116095701.98447  90464169.59147  22092287.5024   22092289.7474   22092287.8664
        51.000          44.000
 132194806.66247 103008933.89047  25155840.2944   25155843.1044   25155839.9944
        40.000          36.000
 141911147.33757  92787882.36957  25101877.3885   25101879.6705   25101876.8585
        37.000          34.000
 107470275.41947  83743073.11347  20450911.8994   20450913.3934   20450911.5744
        55.000          50.000
 117114637.31747  91258154.09047  22286178.3284   22286178.8924   22286178.2264
        51.000          44.000
 09  1 24  1 26  0.0000000  0 12G 5G 6G30G16G14G24G21G18G29G12G31G22
 125585028.83147  97858445.64047  23898050.0704   23898053.8034   23898050.5704
        44.000          38.000
 124770928.41647  97224078.83847  23743134.7764   23743139.5654   23743135.0634
        44.000          39.000
 117986000.67847  91937137.78647  22451992.4514   22451995.9274   22451992.1584
        50.000          43.000
 138400480.52047  90052310.22847  24433809.1354   24433811.8534   24433808.6874
        43.000          36.000
 122890454.83447  95758797.14747  23385274.4374   23385276.6394   23385274.5764
        46.000          40.000
 131088758.65447 102147065.73547  24945375.2964   24945380.2584   24945375.5674
        41.000          35.000
 111244656.84247  86684140.70747  21169157.8044   21169160.4184   21169158.1604
        53.000          46.000
 116070112.68247  90444229.87447  22087417.6584   22087420.1264   22087418.0464
        50.000          44.000
 132235979.51947 103041016.65947  25163674.5694   25163677.3934   25163673.8934
        40.000          36.000
 141956574.23747  92823279.98947  25110522.3864   25110524.5194   25110522.3974
        39.000          34.000
 107454337.67247  83730654.11147  20447878.9124   20447880.4814   20447878.5794
        55.000          50.000
 117058655.60247  91214531.98847  22275525.1134   22275525.9334   22275525.1684
        51.000          44.000
 09  1 24  1 26 30.0000000  0 12G 5G 6G30G16G14G24G21G18G29G12G31G22
 125622856.80847  97887922.06647  23905248.6094   23905251.9934   23905248.9424
        43.000          38.000
 124768538.54047  97222216.60447  23742680.7124   23742684.4854   23742681.1044
        45.000          39.000
 117987301.10247  91938151.13647  22452239.7014   22452243.5144   22452239.2654
        49.000          43.000
 138324514.65447  89993116.10847  24419352.7444   24419356.7084   24419353.1624
        43.000          36.000
 122926857.34647  95787162.75947  23392201.3504   23392203.4684   23392201.5274
        46.000          40.000
 131190129.18147 102226055.81647  24964666.0804   24964670.2834   24964666.1484
        40.000          34.000
 111325531.08047  86747159.56547  21184547.4524   21184550.2384   21184547.8764
        53.000          46.000
 116044771.96847  90424483.86647  22082595.3224   22082598.4074   22082595.7724
        51.000          44.000
 132276919.96947 103072918.33547  25171465.2274   25171468.2264   25171464.2424
        39.000          36.000
 122002355.48257 112858961.90057  25119225.0005   25119228.9005   25119226.4435
        38.000          34.000
 107438977.60547  83718685.25547  20444955.7104   20444957.5844   20444955.3324
        55.000          50.000
 117002703.21347  91170932.72747  22264877.6214   22264878.3944   22264877.6804
        51.000          44.000
 09  1 24  1 27  0.0000000  0 12G 5G 6G30G16G14G24G21G18G29G12G31G22
 125661065.68347  97917695.25147  23912519.0394   23912523.5744   23912519.7164
        44.000          38.000
 124766191.34547  97220387.64947  23742233.4954   23742237.7754   23742233.4164
        44.000          39.000
 117988953.43947  91939438.72847  22452554.3824   22452557.5184   22452553.6214
        49.000          43.000
 138248352.74147  89933769.20347  24404859.5664   24404863.2624   24404860.4104
        43.000          36.000
 122963119.34347  95815418.87347  23399102.1754   23399104.0414   23399102.2964
        46.000          40.000
 131291532.56347 102305071.47547  24983961.4364   24983967.0874   24983962.1634
        39.000          34.000
 111406789.07647  86810477.45747  21200010.4134   21200013.1394   21200010.7264
        53.000          46.000
 116019684.01847  90404934.81347  22077821.8714   22077824.1714   22077822.1514
        51.000          44.000
 132317629.51247 103104640.05947  25179211.7654   25179215.4124   25179210.9074
        39.000          36.000
 142048408.69257  92894846.32757  25127992.9185   25127995.8965   25127992.3475
        39.000          34.000
 107424196.84647  83707167.80347  20442142.8954   20442144.8084   20442142.3514
        55.000          50.000
 116946783.09147  91127358.60047  22254236.4944   22254237.0834   22254236.6514
        51.000          44.000
 09  1 24  1 27 30.0000000  0 12G 5G 6G30G16G14G24G21G18G29G12G31G22
 125699654.50047  97947764.52647  23919862.5364   23919866.5654   23919863.0434
        43.000          38.000
 124763884.05047  97218589.78647  23741794.2374   23741799.3074   23741794.7624
        45.000          39.000
 117990958.40847  91941001.07847  22452935.5734   22452939.1984   22452935.0444
        49.000          43.000
 138171994.77047  89874269.50147  24390329.3564   24390332.2434   24390329.8664
        43.000          36.000
 122999238.08447  95843563.35847  23405975.2464   23405977.3254   23405975.5894
        46.000          40.000
 131392965.28447 102384110.03447  25003264.1524   25003268.8634   25003263.5354
        39.000          34.000
 111488426.33247  86874090.87947  21215545.5274   21215548.2414   21215546.0574
        53.000          46.000
 115994849.90947  90385583.55647  22073095.7934   22073098.3964   22073096.0984
        51.000          44.000
 132358107.43247 103136181.30447  25186915.0944   25186917.9084   25186914.2534
        40.000          35.000
 122094782.41257 112930978.18657  25136816.4435   25136821.3945   25136817.9465
        38.000          34.000
 107409994.16647  83696100.80647  20439440.3054   20439442.1274   20439439.9794
        55.000          50.000
 116890897.56447  91083811.44047  22243601.7964   22243602.5494   22243602.0164
        51.000          44.000
 09  1 24  1 28  0.0000000  0 12G 5G 6G30G16G14G24G21G18G29G12G31G22
 125738624.15347  97978130.55147  23927278.4384   23927281.5784   23927278.7384
        43.000          37.000
 124761615.57747  97216822.15947  23741363.0814   23741366.8374   23741362.6014
        44.000          39.000
 117993318.05447  91942839.80647  22453384.8924   22453388.0684   22453384.3344
        49.000          43.000
 138095442.94847  89814618.73547  24375762.3424   24375765.4324   24375762.4804
        43.000          36.000
 123035212.54947  95871595.42847  23412820.6464   23412823.2784   23412820.9024
        45.000          40.000
 131494425.52447 102463170.01647  25022572.1564   25022576.0054   25022570.3464
        39.000          34.000
 111570440.73347  86937998.18247  21231152.2384   21231154.8494   21231152.5874
        53.000          46.000
 115970272.55447  90366432.37547  22068418.8454   22068421.5134   22068419.1734
        51.000          44.000
 132398354.39647 103167542.61547  25194573.8234   25194576.3984   25194573.6624
        40.000          36.000
 142141479.51457  92967366.07257  25145704.2405   25145706.7235   25145703.6555
        38.000          34.000
 107396370.15347  83685484.71547  20436847.7564   20436849.5124   20436847.3044
        55.000          50.000
 116835048.98147  91040293.07547  22232973.9364   22232974.8714   22232974.2414
        51.000          44.000
 09  1 24  1 28 30.0000000  0 12G 5G 6G30G16G14G24G21G18G29G12G31G22
 125777974.18247  98008792.97147  23934766.2954   23934769.8434   23934766.5804
        44.000          38.000
 124759383.37147  97215082.80547  23740938.5704   23740941.9704   23740939.1324
        44.000          39.000
 117996033.31947  91944955.63547  22453900.8734   22453904.8094   22453900.5684
        49.000          43.000
 138018697.56947  89754817.16747  24361158.3314   24361160.8354   24361158.2094
        42.000          36.000
 123071040.44147  95899513.28947  23419638.2774   23419640.6474   23419638.4444
        45.000          40.000
 131595910.21147 102542249.04047  25041883.6724   25041889.0984   25041881.9504
        39.000          34.000
 111652828.72747  87002196.58647  21246830.3384   21246832.7774   21246830.7494
        53.000          46.000
 115945953.84747  90347482.73447  22063791.3704   22063793.4964   22063791.6934
        51.000          44.000
 132438369.89647 103198723.54547  25202187.9064   25202191.2144   25202187.8964
        41.000          36.000
 142188496.07347  93004002.40547  25154652.2964   25154653.4994   25154651.7224
        39.000          35.000
 107383324.13747  83675319.01347  20434365.1464   20434366.9184   20434364.7484
        55.000          50.000
 116779238.81647  90996804.64747  22222353.7964   22222354.6114   22222353.8574
        51.000          44.000
 09  1 24  1 29  0.0000000  0 12G 5G 6G30G16G14G24G21G18G29G12G31G22
 125817705.72547  98039752.66747  23942326.8654   23942331.1354   23942327.5234
        44.000          38.000
 124757186.64947  97213371.09547  23740520.3524   23740524.8664   23740519.9464
        44.000          38.000
 117999106.58747  91947350.42747  22454486.1664   22454489.7334   22454485.8744
        49.000          43.000
 137941761.20447  89694866.78347  24346517.5024   24346520.9264   24346517.0204
        42.000          36.000
 123106721.17047  95927316.45647  23426428.1634   23426430.1054   23426428.0324
        44.000          39.000
 131697417.99247 102621346.07847  25061198.9434   25061204.3084   25061198.7374
        39.000          34.000
 111735588.21147  87066684.47547  21262578.8524   21262581.6864   21262579.2304
        53.000          46.000
 115921897.12247  90328737.24547  22059213.0794   22059215.5844   22059213.4274
        51.000          44.000
 132478155.19447 103229725.08447  25209758.8644   25209762.3514   25209757.9184
        41.000          36.000
 142235831.16547  93040886.90247  25163660.5214   25163661.9604   25163659.5854
        40.000          34.000
 107370856.92047  83665604.32247  20431992.8224   20431994.4764   20431992.3824
        55.000          50.000
 116723471.02047  90953349.22947  22211741.6384   22211742.2344   22211741.7154
        51.000          44.000
 09  1 24  1 29 30.0000000  0 12G 5G 6G30G16G14G24G21G18G29G12G31G22
 125857818.05447  98071009.08547  23949959.6544   23949963.1104   23949960.5084
        43.000          37.000
 124755022.69647  97211684.92247  23740107.8744   23740112.4864   23740108.0084
        44.000          38.000
 118002539.04347  91950025.09747  22455139.1344   22455142.7624   22455138.7124
        49.000          43.000
 137864634.26147  89634767.88847  24331840.2934   24331844.1504   24331840.3994
        42.000          36.000
 123142252.20147  95955002.98947  23433189.2694   23433191.5124   23433189.5024
        46.000          40.000
 131798945.38247 102700458.38247  25080519.4214   25080524.8104   25080519.5004
        39.000          34.000
 111818715.18147  87131458.69647  21278397.4594   21278400.2244   21278398.0304
        53.000          46.000
 115898104.10747  90310197.22347  22054685.7404   22054687.9434   22054686.2064
        51.000          44.000
 132517710.16847 103260547.18547  25217286.0174   25217289.0224   25217285.6444
        40.000          36.000
 122283614.26857 113078149.22957  25172728.3115   25172729.3175   25172727.4375
        39.000          34.000
 107358967.58747  83656339.92847  20429730.3304   20429732.0584   20429730.0024
        55.000          50.000
 116667746.70247  90909927.68347  22201137.3804   22201138.4784   22201137.4824
        51.000          44.000
 09  1 24  1 30  0.0000000  0 12G 5G 6G30G16G14G24G21G18G29G12G31G22
 125898312.25447  98102563.09147  23957665.4874   23957669.4164   23957666.1574
        44.000          38.000
 124752890.62447  97210023.57647  23739702.6304   23739706.0224   23739702.8634
        44.000          38.000
 118006332.87847  91952981.37147  22455861.1734   22455864.9124   22455860.9894
        50.000          43.000
 137787318.63347  89574521.94947  24317128.0294   24317131.1094   24317128.3534
        42.000          36.000
 123177632.87847  95982572.35047  23439922.2934   23439924.4204   23439922.6184
        46.000          40.000
 131900491.41247 102779585.22747  25099842.7434   25099847.2714   25099843.0634
        40.000          34.000
 111902207.69547  87196517.76747  21294285.5154   21294288.2914   21294285.9134
        53.000          46.000
 115874577.99947  90291865.19647  22050208.6504   22050211.3034   22050209.2364
        51.000          44.000
 132557035.41847 103291190.24347  25224769.0014   25224772.8714   25224768.9804
        40.000          36.000
 122331585.65147 113115529.55047  25181856.4914   25181857.7914   25181855.9164
        38.000          34.000
 107347657.14447  83647526.62347  20427578.0594   20427579.7784   20427577.6894
        55.000          50.000
 116612069.20147  90866542.61747  22190542.5674   22190543.2424   22190542.6254
        51.000          44.000
 09  1 24  1 30 30.0000000  0 12G 5G 6G30G16G14G24G21G18G29G12G31G22
 125939187.77647  98134414.19147  23965443.9124   23965447.7914   23965444.3224
        45.000          38.000
 124750788.08247  97208385.26347  23739302.5274   23739306.5374   23739302.1554
        43.000          38.000
 118010489.33347  91956220.18847  22456652.1484   22456655.9924   22456651.8764
        50.000          43.000
 137709815.56047  89514129.96647  24302379.2584   24302382.7304   24302379.7544
        42.000          36.000
 123212861.04647  96010022.88647  23446626.1444   23446627.8584   23446626.3464
        45.000          39.000
 132002053.02147 102858724.22247  25119169.5914   25119175.0414   25119169.6224
        41.000          34.000
 111986061.82247  87261858.61347  21310242.2574   21310245.3464   21310242.4734
        52.000          45.000
 115851320.61047  90273742.54547  22045783.0104   22045785.3104   22045783.3014
        51.000          44.000
 132596130.77547 103321654.15447  25232209.3704   25232211.9104   25232208.5394
        40.000          36.000
 122379874.99347 113153157.65047  25191044.8874   25191047.2674   25191044.6424
        39.000          34.000
 107336924.48647  83639163.53747  20425535.5844   20425537.3114   20425535.1354
        55.000          50.000
 116556440.69647  90823195.72447  22179956.7964   22179957.2254   22179956.8694
        51.000          45.000
 09  1 24  1 31  0.0000000  0 12G 5G 6G30G16G14G24G21G18G29G12G31G22
 125980444.65547  98166562.45647  23973294.1824   23973298.5604   23973294.7434
        43.000          37.000
 124748713.25047  97206768.51647  23738907.6864   23738912.2474   23738907.7434
        44.000          38.000
 118015009.52647  91959742.46347  22457512.3034   22457515.5854   22457512.1384
        50.000          43.000
 137632126.10147  89453592.72947  24287595.9184   24287599.1634   24287595.5484
        42.000          36.000
 123247934.95547  96037353.23247  23453300.3394   23453302.1214   23453300.2494
        45.000          39.000
 132103627.54247 102937873.24547  25138498.2264   25138503.2464   25138498.6254
        41.000          34.000
 112070274.46647  87327478.81247  21326267.4554   21326270.3564   21326267.8034
        53.000          45.000
 115828333.87947  90255830.80347  22041408.9784   22041411.2424   22041409.2044
        51.000          44.000
 132634996.32247 103351938.99647  25239604.6194   25239608.3014   25239604.0734
        40.000          36.000
 142428402.93957  93190952.18557  25200295.4775   25200298.1755   25200294.0045
        40.000          33.000
 107326769.41247  83631250.51547  20423603.2324   20423604.8744   20423602.8834
        55.000          50.000
 116500863.70447  90779888.96647  22169380.8774   22169381.2294   22169380.9274
        52.000          44.000
 09  1 24  1 31 30.0000000  0 12G 5G 6G30G16G14G24G21G18G29G12G31G22
 126022083.76947  98199008.59747  23981218.2294   23981222.0434   23981218.8494
        43.000          37.000
 124746665.13447  97205172.59747  23738517.9264   23738522.1274   23738518.2354
        44.000          38.000
 118019896.09447  91963550.21147  22458441.9284   22458445.7404   22458441.6514
        50.000          43.000
 137554252.55847  89392912.03747  24272776.8494   24272780.4954   24272776.2334
        42.000          36.000
 123282853.91547  96064562.82947  23459945.2344   23459947.3514   23459945.2994
        46.000          40.000
 132205213.62947 103017031.30647  25157829.6614   25157834.7314   25157830.2344
        40.000          34.000
 112154843.62847  87393376.83347  21342360.5544   21342363.3404   21342360.8894
        52.000          45.000
 115805621.22247  90238132.61547  22037086.7104   22037089.3874   22037087.3974
        51.000          44.000
 132673633.37447 103382045.80247  25246956.8634   25246960.1374   25246956.3834
        40.000          35.000
 122477301.03557 113229052.70757  25209603.5445   25209607.2485   25209605.2465
        40.000          34.000
 107317192.66347  83623788.13347  20421780.6764   20421782.3274   20421780.1954
        55.000          50.000
 116445340.80847  90736624.37647  22158815.0954   22158815.5924   22158815.1054
        51.000          45.000
 09  1 24  1 32  0.0000000  0 12G 5G 6G30G16G14G24G21G18G29G12G31G22
 126064104.01947  98231751.70747  23989214.2154   23989218.0064   23989214.5854
        44.000          37.000
 124744640.70547  97203595.14947  23738132.5764   23738136.6834   23738132.5914
        44.000          38.000
 118025149.36347  91967643.70047  22459441.9734   22459445.0954   22459441.6954
        50.000          44.000
 137476195.16747  89332088.08447  24257923.2434   24257926.5424   24257923.1344
        43.000          37.000
 123317615.21347  96091649.55947  23466560.4244   23466562.1264   23466560.6874
        46.000          40.000
 132306807.85947 103096195.71747  25177161.9284   25177166.7564   25177162.5674
        40.000          34.000
 112239764.80047  87459549.14347  21358520.5784   21358523.2734   21358520.9174
        53.000          45.000
 115783184.25647  90220649.26447  22032816.9754   22032819.5244   22032817.4294
        51.000          44.000
 132712041.37647 103411974.15647  25254265.5454   25254268.6834   25254265.1504
        39.000          35.000
 122526543.35647 113267423.35247  25218975.3124   25218978.1004   25218974.6444
        40.000          34.000
 107308192.66547  83616775.17247  20420068.1284   20420069.8064   20420067.8004
        55.000          50.000
 116389873.05447  90693402.74747  22148259.9964   22148260.6944   22148260.0534
        52.000          45.000
 09  1 24  1 32 30.0000000  0 12G 5G 6G30G16G14G24G21G18G29G12G31G22
 126106506.63147  98264792.75047  23997283.6554   23997287.4834   23997283.8454
        44.000          38.000
 124742639.34547  97202035.67447  23737751.9334   23737755.7924   23737751.9134
        43.000          38.000
 118030771.76547  91972024.82747  22460511.4954   22460515.3984   22460510.8634
        49.000          43.000
 137397956.89547  89271123.19847  24243034.6944   24243038.4344   24243034.7274
        43.000          37.000
 123352218.37947  96118613.07947  23473144.4834   23473146.7954   23473144.8644
        45.000          40.000
 132408409.03147 103175365.57047  25196495.1434   25196500.3754   25196496.3574
        40.000          35.000
 112325036.21447  87525994.36547  21374747.1514   21374749.9794   21374747.7604
        52.000          45.000
 115761025.95147  90203383.04247  22028600.6774   22028603.3854   22028601.1104
        51.000          44.000
 132750221.09347 103441724.57547  25261531.6074   25261534.8084   25261531.6894
        41.000          36.000
 122576103.55247 113306041.68647  25228406.2124   25228407.6614   25228406.7434
        40.000          34.000
 107299770.11847  83610212.17747  20418465.2984   20418466.9104   20418464.8764
        55.000          50.000
 116334464.81147  90650227.49647  22137716.3314   22137716.7484   22137716.4154
        52.000          45.000
 09  1 24  1 33  0.0000000  0 10G 5G 6G30G16G14G21G18G12G31G22
 126149290.42147  98298130.81647  24005425.4194   24005428.8114   24005425.7164
        44.000          38.000
 124740658.17847  97200491.91647  23737374.4134   23737378.3794   23737374.3644
        44.000          38.000
 118036764.10547  91976694.21847  22461651.8124   22461655.3874   22461651.3604
        50.000          43.000
 137319537.36247  89210017.06547  24228111.9404   24228115.0364   24228112.2014
        43.000          37.000
 123386660.80947  96145451.34247  23479698.8204   23479700.7224   23479699.0224
        46.000          40.000
 112410653.53047  87592709.11547  21391039.5124   21391042.2994   21391039.8124
        52.000          45.000
 115739147.90047  90186335.20447  22024437.3754   22024439.8254   22024437.6304
        51.000          44.000
 122625980.21547 113344906.65947  25237896.7844   25237899.1364   25237897.4664
        39.000          34.000
 107291923.97447  83604098.32247  20416972.1684   20416973.6974   20416971.7574
        55.000          50.000
 116279116.82947  90607099.19347  22127184.0214   22127184.4844   22127184.0464
        52.000          45.000
 09  1 24  1 33 30.0000000  0 10G 5G 6G30G16G14G21G18G12G31G22
 126192457.41547  98331767.50347  24013639.5064   24013642.5524   24013640.4124
        43.000          37.000
 124738697.43347  97198964.08047  23737001.3734   23737005.3644   23737002.0264
        44.000          38.000
 118043129.70647  91981654.46147  22462863.1064   22462866.9504   22462862.6664
        50.000          43.000
 137240939.69647  89148772.12247  24213155.3764   24213158.7424   24213155.2874
        42.000          37.000
 123420943.08447  96172164.81647  23486222.5714   23486224.4974   23486222.9374
        46.000          40.000
 112496615.75447  87659692.63147  21407397.7384   21407400.4134   21407398.1144
        52.000          45.000
 115717554.24647  90169508.97547  22020328.1564   22020330.5884   22020328.6584
        51.000          44.000
 122676175.56747 113384019.92347  25247450.5814   25247450.5184   25247449.5194
        40.000          34.000
 107284655.69347  83598434.75147  20415589.1554   20415590.4854   20415588.7614
        55.000          50.000
 116223833.31247  90564021.12447  22116663.7944   22116664.3044   22116663.7754
        52.000          45.000
 09  1 24  1 34  0.0000000  0 10G 5G 6G30G16G14G21G18G12G31G22
 126236006.30447  98365701.77647  24021926.5584   24021929.7204   24021926.8244
        43.000          37.000
 124736754.08547  97197449.80747  23736631.8484   23736635.4124   23736631.5364
        44.000          38.000
 118049868.51247  91986905.51147  22464145.6834   22464148.8064   22464145.0844
        50.000          43.000
 137162164.70447  89087389.02447  24198164.6714   24198168.5744   24198164.7584
        43.000          37.000
 123455062.54847  96198751.42147  23492715.5174   23492717.1894   23492715.6684
        45.000          39.000
 112582918.49547  87726941.48047  21423820.6634   21423823.3714   21423821.3034
        52.000          45.000
 115696245.89347  90152905.06447  22016273.3614   22016275.7854   22016273.8704
        51.000          44.000
 122726688.15747 113423380.40747  25257061.3354   25257065.3454   25257061.9484
        39.000          34.000
 107277963.59647  83593220.15547  20414315.6464   20414317.1134   20414315.1904
        55.000          50.000
 116168615.67747  90520994.39547  22106156.1284   22106156.8174   22106156.2584
        51.000          45.000
 09  1 24  1 34 30.0000000  0 10G 5G 6G30G16G14G21G18G12G31G22
 126279937.22647  98399933.69347  24030286.1784   24030290.0224   24030287.3894
        43.000          37.000
 124734826.31547  97195947.63947  23736265.1194   23736268.9754   23736265.7714
        43.000          38.000
 118056982.09747  91992448.60347  22465499.3184   22465502.7114   22465499.0374
        50.000          43.000
 137083213.87147  89025868.90547  24183140.8504   24183144.6314   24183141.5234
        43.000          37.000
 123489017.34347  96225209.70547  23499176.7344   23499178.7584   23499176.6114
        45.000          39.000
 112669558.56647  87794453.19347  21440307.8024   21440310.5684   21440308.1484
        52.000          45.000
 115675225.63547  90136525.63747  22012273.6424   22012275.7904   22012273.9604
        51.000          44.000
 122777517.72447 113462987.85547  25266733.4444   25266736.7114   25266733.7444
        40.000          35.000
 107271847.52047  83588454.40647  20413151.9584   20413153.3304   20413151.5124
        55.000          50.000
 116113466.60347  90478021.09047  22095661.6004   22095662.5034   22095661.6444
        51.000          45.000
 09  1 24  1 35  0.0000000  0 10G 5G 6G30G16G14G21G18G12G31G22
 126324248.97247  98434462.35547  24038718.3264   24038721.9474   24038718.9434
        44.000          38.000
 124732911.43247  97194455.57047  23735899.9694   23735904.8104   23735899.2324
        43.000          38.000
 118064470.60747  91998283.84947  22466924.3274   22466927.6594   22466924.0704
        50.000          44.000
 137004087.59447  88964212.06347  24168083.9014   24168087.8994   24168084.5334
        42.000          37.000
 123522805.20947  96251537.91447  23505606.2424   23505608.3604   23505606.5664
        45.000          39.000
 112756531.99847  87862224.66247  21456858.4014   21456861.0434   21456858.9644
        52.000          45.000
 115654494.48647  90120371.49647  22008328.5114   22008331.0394   22008328.8244
        51.000          44.000
 122828663.16847 113502841.45647  25276467.2534   25276468.5964   25276467.4094
        41.000          35.000
 107266305.82447  83584136.22647  20412097.3934   20412098.7204   20412097.0034
        55.000          50.000
 116058387.15547  90435102.04247  22085180.0324   22085181.1154   22085180.1624
        51.000          45.000
 09  1 24  1 35 30.0000000  0 10G 5G 6G30G16G14G21G18G12G31G22
 126368945.09847  98469290.57347  24047224.2854   24047226.6534   24047224.4964
        44.000          37.000
 124731011.24847  97192974.92547  23735539.0834   23735542.9504   23735539.7054
        44.000          38.000
 118072339.08347  92004415.16547  22468421.6094   22468425.0034   22468421.1324
        50.000          44.000
 136924790.91847  88902422.45347  24152993.9844   24152998.1624   24152994.0594
        43.000          37.000
 123556428.26547  96277737.70047  23512004.7454   23512006.9664   23512005.0774
        45.000          39.000
 112843839.47847  87930256.42947  21473472.3564   21473475.2284   21473472.8184
        52.000          45.000
 115634058.41647  90104447.26147  22004439.3654   22004441.7754   22004439.8974
        51.000          44.000
 122880127.52647 113542943.56647  25286260.1624   25286262.0794   25286260.1424
        41.000          35.000
 107261341.52347  83580267.96547  20411152.5814   20411154.0634   20411152.1864
        55.000          50.000
 116003383.78247  90392242.27347  22074713.2984   22074714.3094   22074713.2184
        51.000          45.000
 09  1 24  1 36  0.0000000  0 10G 5G 6G30G16G14G21G18G12G31G22
 126414020.25547  98504414.13147  24055801.0664   24055804.7854   24055801.4534
        43.000          37.000
 124729118.59147  97191500.13847  23735178.7734   23735182.4724   23735178.2594
        44.000          38.000
 118080584.11447  92010839.90947  22469990.2144   22469993.8994   22469989.9164
        50.000          44.000
 136845319.86047  88840496.95047  24137871.1744   24137874.6934   24137871.7504
        44.000          37.000
 123589880.04647  96303804.04647  23518370.2224   23518372.7484   23518370.3514
        45.000          39.000
 112931472.47647  87998541.85147  21490148.3704   21490151.4814   21490148.6664
        52.000          45.000
 115613914.58247  90088750.76547  22000606.2974   22000608.7064   22000606.8744
        51.000          44.000
 122931905.18347 113583289.80847  25296113.1874   25296114.4714   25296112.7724
        41.000          35.000
 107256949.22647  83576845.42047  20410316.7054   20410318.1644   20410316.2534
        55.000          50.000
 115948453.58547  90349439.52047  22064260.5764   22064261.2824   22064260.6394
        52.000          45.000
 09  1 24  1 36 30.0000000  0 10G 5G 6G30G16G14G21G18G12G31G22
 126459479.13947  98539836.68447  24064451.7224   24064454.9724   24064452.8854
        44.000          38.000
 124727236.68847  97190033.73547  23734820.9914   23734824.3354   23734820.4884
        44.000          38.000
 118089211.65447  92017562.70247  22471631.9684   22471635.6914   22471631.6874
        50.000          43.000
 136765680.84347  88778440.57847  24122716.8894   24122719.9294   24122717.0414
        43.000          37.000
 123623163.59447  96329739.29647  23524703.3784   23524706.0274   23524703.8334
        45.000          39.000
 113019432.72647  88067082.26247  21506886.6894   21506889.7964   21506887.1814
        52.000          45.000
 115594070.03547  90073287.46847  21996829.7254   21996832.3164   21996830.3484
        51.000          44.000
 122984000.99647 113623883.96147  25306027.4424   25306028.0704   25306027.1694
        41.000          36.000
 107253133.30447  83573871.99547  20409590.5424   20409591.9274   20409590.0984
        55.000          50.000
 115893603.71747  90306699.36047  22053823.2834   22053823.6194   22053823.3214
        52.000          45.000
 09  1 24  1 37  0.0000000  0 10G 5G 6G30G16G14G21G18G12G31G22
 126505319.37347  98575556.40747  24073174.5904   24073177.9514   24073175.4834
        43.000          37.000
 124725361.48347  97188572.54247  23734464.0344   23734467.4384   23734464.3434
        45.000          38.000
 118098220.93347  92024582.96147  22473346.3444   22473349.9124   22473346.0484
        50.000          44.000
 136685873.32447  88716252.91547  24107529.9674   24107533.7114   24107530.3904
        44.000          37.000
 123656274.80147  96355540.24947  23531004.5294   23531006.7264   23531004.7774
        45.000          40.000
 113107714.64147  88135873.33447  21523686.2164   21523689.2464   21523686.7074
        52.000          45.000
 115574524.77447  90058057.38847  21993110.4494   21993112.9054   21993110.8634
        51.000          44.000
 123036412.43847 113664724.03647  25316000.9254   25316002.0024   25316000.4144
        42.000          36.000
 107249890.42747  83571345.10347  20408973.6174   20408974.8744   20408973.2434
        55.000          50.000
 115838834.69247  90264022.21047  22043400.8634   22043401.6154   22043400.7374
        51.000          45.000
 09  1 24  1 37 30.0000000  0 10G 5G 6G30G16G14G21G18G12G31G22
 126551541.75647  98611573.90047  24081970.4014   24081974.2334   24081971.1634
        43.000          37.000
 124723492.13747  97187115.92247  23734108.0264   23734111.9554   23734108.1594
        44.000          38.000
 118107614.05047  92031902.31047  22475133.8744   22475137.6954   22475133.4194
        50.000          44.000
 136605899.83547  88653935.91747  24092312.1714   24092314.8874   24092312.3464
        44.000          38.000
 123689214.01447  96381207.18447  23537273.0984   23537274.9904   23537273.2154
        45.000          39.000
 113196315.97447  88204913.29947  21540546.4994   21540549.5574   21540546.8184
        52.000          45.000
 115555281.93447  90043062.97047  21989448.9374   21989451.5154   21989449.4904
        51.000          44.000
 123089140.05147 113705810.51547  25326034.2854   25326036.1394   25326034.3184
        42.000          36.000
 107247221.40347  83569265.36647  20408465.4764   20408466.9694   20408464.9554
        55.000          50.000
 115784149.74447  90221410.57347  22032994.5824   22032995.2244   22032994.5184
        51.000          45.000
 09  1 24  1 38  0.0000000  0 10G 5G 6G30G16G14G21G18G12G31G22
 126598144.64547  98647887.88647  24090838.7994   24090842.4784   24090839.0904
        43.000          37.000
 124721625.37047  97185661.32547  23733752.0854   23733757.0384   23733751.8914
        44.000          38.000
 118117391.04247  92039520.78647  22476994.5884   22476997.7994   22476994.1644
        50.000          44.000
 136525760.30347  88591489.53247  24077062.1344   24077065.2254   24077062.0394
        44.000          38.000
 123721978.18847  96406737.72247  23543507.2434   23543509.9404   23543507.5294
        44.000          39.000
 113285232.26847  88274198.68547  21557466.4464   21557469.9144   21557466.9214
        51.000          45.000
 115536342.40247  90028304.88347  21985844.5484   21985847.3254   21985845.0844
        50.000          44.000
 123142181.69647 113747141.66147  25336127.8124   25336129.8934   25336128.0784
        42.000          37.000
 107245124.04647  83567631.08747  20408066.4744   20408067.9294   20408066.2144
        55.000          50.000
 115729549.82747  90178865.18547  22022604.4734   22022605.2844   22022604.5174
        51.000          45.000
 09  1 24  1 38 30.0000000  0 10G 5G 6G30G16G14G21G18G12G31G22
 126645129.17147  98684499.24447  24099779.1704   24099783.4714   24099779.2624
        44.000          38.000
 124719760.96347  97184208.55347  23733397.7314   23733402.4034   23733398.1584
        43.000          38.000
 118127554.73547  92047440.59147  22478928.5194   22478931.9984   22478928.0904
        50.000          44.000
 136445457.60347  88528915.98947  24061781.1954   24061784.3254   24061781.1954
        44.000          38.000
 123754567.14247  96432131.73347  23549708.4964   23549711.1924   23549708.4314
        44.000          39.000
 113374461.85947  88343728.19447  21574446.4784   21574449.6664   21574446.9484
        51.000          45.000
 115517709.78547  90013785.96347  21982298.8464   21982301.8304   21982299.1794
        50.000          44.000
 123195538.75447 113788718.59747  25346281.5854   25346283.8174   25346280.8154
        41.000          36.000
 107243599.13947  83566442.86347  20407776.1944   20407777.5744   20407775.7234
        55.000          50.000
 115675038.91647  90136389.15447  22012231.5584   22012232.2814   22012231.6434
        52.000          45.000
 09  1 24  1 39  0.0000000  0 10G 5G 6G30G16G14G21G18G12G31G22
 126692496.11647  98721408.62147  24108793.2354   24108796.7274   24108793.5994
        43.000          37.000
 124717898.09547  97182756.96447  23733044.3314   23733047.7714   23733043.7464
        46.000          38.000
 118138107.13547  92055663.27447  22480936.1694   22480939.7754   22480935.9114
        50.000          43.000
 136364994.13747  88466217.20547  24046469.0864   24046472.6844   24046468.8464
        44.000          38.000
 123786980.42547  96457388.84547  23555876.8454   23555879.0504   23555876.9534
        44.000          39.000
 113464002.43247  88413500.03347  21591485.7944   21591488.6784   21591486.2384
        52.000          45.000
 115499387.35447  89999508.73847  21978812.2804   21978815.1504   21978812.8924
        51.000          44.000
 123249212.03747 113830541.97047  25356495.0954   25356497.1824   25356494.4074
        40.000          35.000
 107242646.86947  83565700.86047  20407595.0004   20407596.3614   20407594.7294
        55.000          50.000
 115620620.48147  90093985.17947  22001876.4674   22001876.8104   22001876.3864
        52.000          45.000
 09  1 24  1 39 30.0000000  0 10G 5G 6G30G16G14G21G18G12G31G22
 126740242.85947  98758613.90747  24117878.6894   24117882.2944   24117879.5804
        44.000          37.000
 124716032.47847  97181303.24147  23732688.9624   23732692.3254   23732689.0384
        44.000          38.000
 118149046.89747  92064187.80447  22483017.9764   22483021.6994   22483018.0564
        50.000          43.000
 136284369.18047  88403392.55747  24031126.2714   24031130.2674   24031126.4444
        43.000          38.000
 123819214.10547  96482506.03047  23562010.8624   23562013.0604   23562011.2384
        45.000          39.000
 113553848.56747  88483509.96747  21608582.8794   21608585.7794   21608583.2444
        51.000          44.000
 115481374.91747  89985473.06747  21975384.6154   21975387.1674   21975385.1784
        50.000          44.000
 123303198.54947 113872609.37647  25366768.6664   25366769.0684   25366767.3034
        40.000          34.000
 107242264.23847  83565402.72847  20407522.1904   20407523.5394   20407521.7134
        55.000          50.000
 115566294.22747  90051653.03347  21991538.5564   21991538.8584   21991538.5414
        52.000          45.000
 09  1 24  1 40  0.0000000  0 10G 5G 6G30G16G14G21G18G12G31G22
 126788371.12047  98796116.51747  24127037.4934   24127040.8344   24127038.1124
        44.000          37.000
 124714164.57447  97179847.73947  23732333.3234   23732337.1874   23732333.2094
        44.000          38.000
 118160377.50947  92073016.89247  22485174.3154   22485177.4054   22485174.0524
        50.000          44.000
 136203586.34947  88340444.90447  24015754.1284   24015757.6004   24015753.7934
        43.000          38.000
 123851268.87647  96507483.81047  23568110.7114   23568113.0534   23568110.9934
        45.000          39.000
 113643998.99847  88553757.02147  21625737.5684   21625740.8714   21625737.9394
        52.000          44.000
 115463676.62647  89971682.18847  21972016.5214   21972019.3104   21972017.1734
        51.000          44.000
 123357499.79347 113914922.07647  25377100.4964   25377102.0754   25377100.7964
        42.000          35.000
 107242452.63647  83565549.55347  20407558.0054   20407559.3284   20407557.6844
        55.000          50.000
 115512065.13747  90009396.61347  21981218.6684   21981219.3814   21981218.8454
        52.000          45.000
 09  1 24  1 40 30.0000000  0 10G 5G 6G30G16G14G21G18G12G31G22
 126836879.93347  98833915.64047  24136268.0664   24136271.9224   24136268.5674
        44.000          37.000
 124712291.76547  97178388.39947  23731976.7294   23731980.3834   23731976.6124
        43.000          38.000
 118172099.33947  92082150.82447  22487405.0204   22487408.2544   22487404.9474
        50.000          43.000
 136122646.64047  88277375.00747  24000351.2044   24000354.6224   24000351.5714
        44.000          38.000
 123883142.90047  96532320.73947  23574175.5174   23574178.0974   23574175.6554
        44.000          39.000
 113734449.85247  88624238.17147  21642950.3724   21642952.9944   21642951.0224
        51.000          44.000
 115446294.23147  89958137.45947  21968709.1084   21968711.6434   21968709.5434
        51.000          44.000
 123412114.65047 113957479.13847  25387494.2574   25387495.9654   25387493.3244
        39.000          34.000
 107243210.25547  83566139.92547  20407702.3364   20407703.4674   20407701.9434
        55.000          50.000
 115457934.65947  89967217.02347  21970918.1074   21970918.6794   21970918.1314
        52.000          45.000
 09  1 24  1 41  0.0000000  0 10G 5G 6G30G16G14G21G18G12G31G22
 126885768.50547  98872010.66747  24145571.5844   24145575.0384   24145571.9524
        44.000          37.000
 124710411.82947  97176923.52647  23731618.9954   23731622.9254   23731618.6784
        44.000          38.000
 118184213.17047  92091590.21447  22489710.2134   22489713.1704   22489709.7254
        50.000          43.000
 136041551.12747  88214183.69147  23984919.4234   23984922.9674   23984919.4874
        44.000          38.000
 123914834.33947  96557015.37947  23580206.7874   23580208.9374   23580206.7394
        44.000          40.000
 113825197.54247  88694950.62147  21660218.8664   21660221.6694   21660219.1434
        51.000          44.000
 115429229.11347  89944839.95547  21965461.9374   21965464.2894   21965462.3344
        51.000          44.000
 123467042.13147 114000279.74547  25397946.0374   25397948.1514   25397945.8584
        39.000          34.000
 107244536.10047  83567173.06847  20407954.5074   20407955.8964   20407954.0844
        55.000          50.000
 115403904.83547  89925115.86347  21960636.6314   21960637.1984   21960636.5904
        52.000          45.000
 09  1 24  1 41 30.0000000  0 10G 5G 6G30G16G14G21G18G12G31G22
 126935037.84047  98910402.39547  24154946.8094   24154951.4574   24154947.2584
        44.000          37.000
 124708524.33347  97175452.73747  23731259.4544   23731263.9474   23731259.6824
        43.000          38.000
 118196721.58747  92101337.07047  22492090.0174   22492093.7394   22492089.6034
        49.000          43.000
 135960302.60347  88150873.14947  23969458.8064   23969461.6804   23969458.6294
        45.000          38.000
 123946342.94847  96581567.56747  23586202.6104   23586204.6404   23586202.9344
        45.000          40.000
 113916240.32647  88765893.01647  21677543.7834   21677546.6134   21677544.0484
        51.000          44.000
 115412484.99847  89931792.59547  21962275.3254   21962278.1354   21962275.8084
        51.000          44.000
 143522257.26757  94043294.77457  25408457.2645   25408462.6325   25408457.9105
        37.000          34.000
 107246430.56147  83568649.29347  20408314.9684   20408316.4424   20408314.7064
        55.000          50.000
 115349979.57147  89883096.17947  21950374.6264   21950375.3604   21950374.7834
        52.000          45.000
 09  1 24  1 42  0.0000000  0 10G 5G 6G30G16G14G21G18G12G31G22
 126984686.13547  98949089.42347  24164394.4624   24164398.0544   24164395.0954
        44.000          37.000
 124706626.18947  97173973.69147  23730898.3854   23730902.3254   23730898.4394
        44.000          38.000
 118209624.37447  92111391.22047  22494545.6014   22494548.9184   22494545.3184
        50.000          43.000
 135878901.29047  88087443.54547  23953968.6084   23953972.0284   23953968.7444
        44.000          38.000
 123977665.93047  96605975.12247  23592163.1214   23592165.3124   23592163.6134
        44.000          39.000
 114007573.26547  88837061.50547  21694923.7784   21694926.8074   21694924.2184
        51.000          44.000
 115396062.40547  89918995.76047  21959150.3364   21959152.8764   21959150.7924
        51.000          44.000
 123577828.12257 114086600.72557  25419029.7875   25419032.3075   25419029.1585
        39.000          35.000
 107248891.37747  83570566.82447  20408783.1774   20408784.5594   20408782.6524
        55.000          50.000
 115296159.78147  89841158.68447  21940133.2494   21940133.7774   21940133.4354
        52.000          45.000
 09  1 24  1 42 30.0000000  0 10G 5G 6G30G16G14G21G18G12G31G22
 127034715.25347  98988073.21447  24173914.6304   24173918.0554   24173915.4694
        42.000          37.000
 124704717.86947  97172486.68747  23730536.1654   23730539.1514   23730536.4044
        44.000          38.000
 118222924.91947  92121755.31547  22497076.7734   22497079.7864   22497076.7444
        50.000          43.000
 135797350.95147  88023897.83347  23938449.5604   23938453.1914   23938449.8334
        45.000          38.000
 124008804.39847  96630238.88247  23598088.4244   23598090.6484   23598088.9994
        44.000          39.000
 114099195.48447  88908455.40447  21712358.9894   21712362.1114   21712359.1064
        51.000          44.000
 115379965.91347  89906453.04747  21956087.4584   21956089.7974   21956087.8004
        51.000          44.000
 123633694.21447 114130132.78047  25429660.9154   25429662.5144   25429660.9074
        39.000          34.000
 107251920.29047  83572927.03147  20409359.5294   20409361.1024   20409359.1064
        55.000          50.000
 115242450.54147  89799307.31947  21929912.8504   21929913.2304   21929912.8294
        52.000          45.000
 09  1 24  1 43  0.0000000  0  9G 5G 6G30G16G14G21G18G31G22
 127085123.49547  99027352.39647  24183506.5914   24183511.0144   24183507.1024
        43.000          37.000
 124702796.20347  97170989.30547  23730169.3504   23730173.8344   23730169.4184
        43.000          38.000
 118236622.93147  92132429.11047  22499683.2914   22499686.3564   22499683.1594
        50.000          43.000
 135715652.13347  87960236.40747  23922903.1024   23922906.5244   23922902.9804
        45.000          38.000
 124039755.64647  96654356.73247  23603978.4714   23603980.4114   23603978.7144
        44.000          39.000
 114191102.21047  88980071.01247  21729848.3034   21729851.4194   21729848.7954
        51.000          44.000
 115364196.28247  89894165.02347  21953086.2774   21953088.9714   21953086.6604
        51.000          44.000
 107255514.42047  83575727.66947  20410043.5084   20410044.9854   20410043.1124
        55.000          50.000
 115188852.84547  89757542.88347  21919713.4164   21919713.8794   21919713.4594
        52.000          45.000
 09  1 24  1 43 30.0000000  0 10G 5G 6G30G16G14G 3G21G18G31G22
 127135908.14547  99066924.89147  24193171.0504   24193174.3904   24193171.6214
        43.000          37.000
 124700857.22747  97169478.43547  23729800.3164   23729805.0504   23729800.2874
        44.000          38.000
 118250717.28447  92143411.75747  22502365.3354   22502368.7474   22502365.0844
        49.000          43.000
 135633804.24847  87896458.82847  23907327.9614   23907331.0464   23907327.8894
        44.000          38.000
 124070516.19647  96678326.00047  23609831.7274   23609833.6864   23609832.0174
        44.000          39.000
 140174390.67457  91434578.87657  24771371.4595   24771374.4985   24771371.4355
        42.000          36.000
 114283288.51547  89051904.45547  21747390.7684   21747394.1584   21747391.3724
        51.000          44.000
 115348753.46147  89882131.65247  21950147.5804   21950150.3584   21950147.9264
        51.000          44.000
 107259671.01847  83578966.58947  20410834.5174   20410835.9294   20410834.1664
        55.000          50.000
 115135366.82447  89715865.47647  21909535.1494   21909535.8864   21909535.1774
        52.000          45.000
 09  1 24  1 44  0.0000000  0 10G 5G 6G30G16G14G 3G21G18G31G22
 127187071.32447  99106792.34847  24202906.9534   24202910.5924   24202907.7204
        43.000          37.000
 124698901.78647  97167954.72647  23729428.7054   23729432.2484   23729429.0244
        44.000          39.000
 118265211.55747  92154706.02947  22505123.3984   22505126.9024   22505122.9224
        50.000          43.000
 135551811.28947  87832568.19847  23891725.0974   23891728.7304   23891725.4024
        45.000          38.000
 124101087.09747  96702147.50447  23615649.3024   23615651.2674   23615649.8544
        45.000          39.000
 140170980.06047  91431921.25347  24770722.9914   24770726.5494   24770723.6274
        42.000          36.000
 114375753.59147  89123955.13747  21764986.1124   21764989.6544   21764986.3834
        51.000          44.000
 115333642.12947  89870356.58747  21947272.3364   21947274.9124   21947272.8894
        52.000          44.000
 107264391.38547  83582644.80947  20411732.8174   20411734.1604   20411732.4824
        55.000          50.000
 115081997.62447  89674279.08847  21899379.4424   21899380.2434   21899379.3584
        52.000          45.000
 09  1 24  1 44 30.0000000  0 10G 5G 6G30G16G14G 3G21G18G31G22
 127238613.89547  99146955.39847  24212715.4284   24212718.9204   24212715.5534
        44.000          38.000
 124696929.23047  97166417.66947  23729053.6274   23729057.2344   23729053.8934
        44.000          39.000
 118280107.77247  92166313.50147  22507958.0794   22507961.1384   22507957.7554
        49.000          43.000
 135469676.00447  87768566.69647  23876095.1774   23876099.1494   23876096.1614
        45.000          38.000
 124131468.27247  96725821.15547  23621430.8554   23621432.9564   23621431.0854
        44.000          39.000
 140167520.97547  91429225.92147  24770063.9924   24770068.1344   24770063.5784
        42.000          36.000
 114468495.26647  89196221.33847  21782634.4444   21782637.7434   21782635.0384
        51.000          44.000
 115318865.52647  89858842.35247  21944460.5584   21944462.8354   21944461.1834
        51.000          44.000
 107269675.90447  83586762.62847  20412738.3374   20412739.7624   20412737.9794
        55.000          50.000
 115028748.64947  89632786.37847  21889246.4634   21889247.2484   21889246.4484
        52.000          45.000
 09  1 24  1 45  0.0000000  0 10G 5G 6G30G16G14G 3G21G18G31G22
 127290534.70347  99187413.21547  24222595.4474   24222598.9094   24222595.8084
        43.000          37.000
 124694937.38847  97164865.60947  23728674.5194   23728678.2094   23728674.2024
        44.000          39.000
 118295406.84147  92178234.89347  22510869.3174   22510872.6944   22510868.8624
        49.000          43.000
 135387399.56547  87704455.17447  23860438.6524   23860442.2164   23860439.4414
        44.000          38.000
 124161657.83147  96749345.50847  23627175.6514   23627177.5314   23627175.9504
        44.000          39.000
 140164011.18147  91426491.00447  24769396.9124   24769400.4984   24769397.3944
        43.000          36.000
 114561509.91147  89268700.26347  21800334.6794   21800337.7374   21800335.0114
        51.000          44.000
 115304425.12747  89847590.08947  21941712.5554   21941715.0204   21941712.9524
        51.000          44.000
 107275522.97447  83591318.79947  20413850.9304   20413852.3484   20413850.5554
        55.000          50.000
 114975622.10047  89591389.07347  21879137.0314   21879137.3014   21879137.1584
        52.000          45.000
 09  1 24  1 45 30.0000000  0 10G 5G 6G30G16G14G 3G21G18G31G22
 127342834.14747  99228166.07647  24232547.7054   24232551.1494   24232547.7984
        43.000          37.000
 124692925.37147  97163297.80747  23728291.8034   23728295.4894   23728292.0194
        45.000          39.000
 118311110.33347  92190471.40847  22513857.3674   22513860.6974   22513857.0094
        49.000          43.000
 135304985.22147  87640236.19647  23844756.3564   23844759.1534   23844756.2014
        45.000          38.000
 124191655.84847  96772720.59847  23632884.2034   23632885.9954   23632884.6574
        44.000          39.000
 140160449.91847  91423716.00247  24768718.1694   24768722.8054   24768718.3024
        41.000          36.000
 114654795.13047  89341390.00347  21818086.3024   21818089.3034   21818086.9024
        51.000          44.000
 115290323.82747  89836602.05547  21939028.6674   21939031.7184   21939029.1214
        51.000          44.000
 107281932.27847  83596313.07747  20415070.5164   20415071.9684   20415070.1504
        55.000          50.000
 114922621.35947  89550089.79947  21869051.3284   21869051.5924   21869051.2564
        52.000          45.000
 09  1 24  1 46  0.0000000  0 10G 5G 6G30G16G14G 3G21G18G31G22
 127395510.14447  99269212.34247  24242571.4384   24242575.1164   24242572.0684
        43.000          37.000
 124690889.88247  97161711.70547  23727904.5124   23727907.8744   23727904.6154
        45.000          39.000
 118327217.97347  92203022.86247  22516922.7854   22516925.6204   22516922.2094
        50.000          43.000
 135222432.15547  87575909.11747  23829046.8654   23829049.9984   23829047.3774
        45.000          38.000
 124221458.84647  96795943.73847  23638555.3154   23638557.4494   23638555.7184
        45.000          39.000
 140156834.20047  91420898.57047  24768030.7724   24768034.8414   24768030.7334
        43.000          36.000
 114748346.06747  89414286.80247  21835888.4344   21835891.4724   21835888.9834
        51.000          44.000
 115276562.04347  89825878.59447  21936410.2054   21936412.9004   21936410.5034
        51.000          44.000
 107288901.16847  83601743.39147  20416396.6404   20416398.1294   20416396.3044
        55.000          50.000
 114869747.36347  89508889.28347  21858989.6474   21858990.1184   21858989.4804
        52.000          45.000
 09  1 24  1 46 30.0000000  0 10G 5G 6G30G16G14G 3G21G18G31G22
 127448563.32747  99310552.51047  24252666.8974   24252670.5354   24252667.2174
        42.000          37.000
 124688830.26747  97160106.83847  23727511.8814   23727515.8724   23727512.1884
        44.000          39.000
 118343731.28947  92215890.41947  22520065.3064   22520068.0814   22520064.9114
        50.000          43.000
 135139743.63947  87511476.51547  23813311.6494   23813314.6464   23813312.6714
        45.000          38.000
 124251066.93147  96819014.99947  23644189.5734   23644191.5364   23644189.5594
        44.000          39.000
 140153163.11347  91418037.97847  24767331.9314   24767336.0754   24767332.0314
        42.000          36.000
 114842160.46447  89487388.90347  21853740.7164   21853743.7714   21853741.1084
        51.000          44.000
 115263143.07147  89815422.25447  21933856.7294   21933859.2444   21933856.9944
        51.000          44.000
 107296429.70847  83607609.79747  20417829.3264   20417830.7304   20417828.9734
        55.000          50.000
 114817003.52247  89467790.19247  21848952.9534   21848953.4074   21848953.1374
        52.000          45.000
 09  1 24  1 47  0.0000000  0 10G 5G 6G30G16G14G 3G21G18G31G22
 127501991.94747  99352185.22347  24262834.4364   24262837.7644   24262834.2964
        43.000          37.000
 124686743.58647  97158480.86647  23727115.0984   23727119.3024   23727115.1704
        44.000          38.000
 118360650.38547  92229074.16347  22523284.6124   22523288.0454   22523284.2344
        50.000          43.000
 135056920.21447  87446938.78247  23797550.7214   23797554.2664   23797551.5804
        45.000          38.000
 124280477.74347  96841932.53247  23649785.6484   23649788.4764   23649786.2624
        44.000          39.000
 140149433.68747  91415131.95647  24766623.0364   24766626.3574   24766622.4914
        41.000          35.000
 114936234.40347  89560693.23847  21871642.9164   21871645.5414   21871643.4354
        51.000          44.000
 115250067.73147  89805233.68447  21931368.5394   21931370.8534   21931368.7374
        51.000          44.000
 107304515.64447  83613910.53847  20419367.9054   20419369.4094   20419367.5884
        55.000          50.000
 114764391.45647  89426793.79047  21838940.9784   21838941.8284   21838940.9344
        52.000          46.000
 09  1 24  1 47 30.0000000  0 10G 5G 6G30G16G14G 3G21G18G31G22
 127555795.97447  99394110.47247  24273073.0254   24273076.2244   24273073.0664
        42.000          37.000
 124684628.68147  97156832.90147  23726712.1654   23726716.5524   23726712.0434
        43.000          38.000
 118377976.85047  92242575.34247  22526582.0324   22526585.1384   22526582.0304
        50.000          43.000
 134973963.98247  87382297.55747  23781764.5474   23781767.9204   23781764.7354
        44.000          38.000
 124309690.71847  96864695.90947  23655345.1344   23655347.2544   23655345.0084
        45.000          39.000
 140145644.62347  91412179.46947  24765900.6344   24765905.0174   24765900.6724
        40.000          35.000
 115030564.91247  89634197.49847  21889593.4364   21889595.9764   21889593.9514
        51.000          44.000
 115237338.73947  89795314.99747  21928946.1304   21928948.6914   21928946.6104
        51.000          44.000
 107313158.65447  83620645.36647  20421012.7324   20421014.0394   20421012.3404
        55.000          50.000
 114711913.87747  89385902.18447  21828954.6444   21828955.6854   21828954.5574
        52.000          46.000
 09  1 24  1 48  0.0000000  0 10G 5G 6G30G16G14G 3G21G18G31G22
 127609976.83547  99436329.34247  24283383.2684   24283386.7404   24283383.6914
        42.000          37.000
 124682486.05847  97155163.33247  23726304.7124   23726308.4394   23726304.4964
        44.000          38.000
 118395713.39547  92256396.06547  22529956.7564   22529959.9184   22529956.4034
        49.000          43.000
 134890878.74147  87317555.82447  23765953.9324   23765957.3954   23765954.0874
        45.000          38.000
 124338706.62247  96887305.71947  23660866.9144   23660868.8654   23660867.1154
        45.000          39.000
 140141796.00647  91409180.55147  24765167.7524   24765173.2944   24765169.0944
        41.000          35.000
 115125150.55747  89707900.57447  21907592.1054   21907595.3934   21907592.2954
        51.000          44.000
 115224959.93247  89785669.17547  21926590.6544   21926593.3354   21926591.0924
        51.000          44.000
 107322359.02147  83627814.48647  20422763.3754   20422764.8844   20422762.9354
        55.000          50.000
 114659574.88647  89345118.55847  21818995.2144   21818995.8744   21818995.2964
        52.000          46.000
 09  1 24  1 48 30.0000000  0 10G 5G 6G30G16G14G 3G21G18G31G22
 127664531.88347  99478839.78447  24293764.3434   24293767.4804   24293764.4464
        42.000          37.000
 124680311.70547  97153469.02247  23725890.9964   23725894.7514   23725891.5254
        43.000          38.000
 118413858.77247  92270535.35747  22533409.8214   22533413.1794   22533409.4284
        50.000          43.000
 134807664.05847  87252713.19547  23750118.4314   23750121.8944   23750118.9144
        45.000          38.000
 124367522.14647  96909759.37947  23666350.5224   23666352.5644   23666350.5814
        45.000          39.000
 140137884.29347  91406132.45847  24764424.3464   24764428.0774   24764425.0164
        41.000          35.000
 115219986.28847  89781798.52247  21925638.5084   21925641.9664   21925638.9334
        51.000          43.000
 115212931.27947  89776296.19347  21924301.7444   21924304.0994   21924302.1824
        51.000          44.000
 107332113.49747  83635415.38347  20424619.6154   20424620.9444   20424619.2044
        55.000          50.000
 114607376.65847  89304444.62047  21809062.2754   21809062.7544   21809062.4284
        53.000          46.000
 09  1 24  1 49  0.0000000  0 10G 5G 6G30G16G14G 3G21G18G31G22
 127719460.17747  99521641.09247  24304217.3474   24304220.4264   24304217.3064
        43.000          37.000
 124678103.73947  97151748.53947  23725470.6084   23725474.4424   23725470.3124
        43.000          38.000
 118432413.68647  92284993.77647  22536940.8594   22536943.7544   22536940.6584
        50.000          43.000
 134724321.80847  87187771.19947  23734259.1154   23734261.8064   23734259.5794
        45.000          38.000
 124396136.03847  96932055.91847  23671795.3784   23671797.3484   23671795.6844
        45.000          39.000
 140133907.06147  91403033.30147  24763668.2264   24763672.3364   24763668.0854
        43.000          36.000
 115315068.71347  89855888.67847  21943732.2054   21943735.9074   21943732.7454
        50.000          43.000
 115201254.61647  89767197.49247  21922079.6894   21922082.1244   21922080.0824
        51.000          44.000
 107342420.98047  83643447.19647  20426581.0574   20426582.4534   20426580.6514
        55.000          50.000
 114555320.28047  89263881.21947  21799156.2144   21799156.8874   21799156.3364
        53.000          46.000
 09  1 24  1 49 30.0000000  0 10G 5G 6G30G16G14G 3G21G18G31G22
 127774763.15747  99564734.35947  24314740.6834   24314744.4874   24314741.4564
        43.000          37.000
 124675862.67347  97150002.25947  23725044.3434   23725047.9194   23725044.6734
        44.000          38.000
 118451381.34047  92299773.79947  22540550.3994   22540553.3244   22540550.1294
        50.000          43.000
 134640855.89847  87122732.81247  23718375.9344   23718379.2874   23718376.3354
        45.000          38.000
 124424548.98547  96954195.89147  23677202.3084   23677204.0914   23677202.6224
        45.000          39.000
 140129865.34347  91399883.90947  24762898.4924   24762901.5874   24762898.5044
        42.000          36.000
 115410396.63247  89930170.14547  21961872.6844   21961876.0604   21961872.8544
        51.000          43.000
 115189934.11547  89758376.31247  21919925.4574   21919928.0014   21919925.9694
        51.000          44.000
 107353282.28247  83651910.55647  20428647.9064   20428649.2654   20428647.5674
        55.000          50.000
 114503410.11347  89223431.74747  21789277.9424   21789278.8614   21789277.8784
        52.000          46.000
 09  1 24  1 50  0.0000000  0 10G 5G 6G30G16G14G 3G21G18G31G22
 127830438.45047  99608117.73147  24325335.6664   24325339.0014   24325336.1764
        42.000          37.000
 124673585.06647  97148227.49947  23724611.1014   23724614.6284   23724611.3854
        44.000          38.000
 118470760.83547  92314874.74347  22544237.6684   22544240.9354   22544237.3974
        49.000          43.000
 134557266.15147  87057597.94847  23702468.9534   23702472.8444   23702469.1334
        45.000          38.000
 124452757.95647  96976176.91647  23682570.1684   23682571.6464   23682570.3054
        45.000          39.000
 140125755.34747  91396681.33147  24762116.3454   24762119.6294   24762116.7334
        42.000          36.000
 115505964.94447  90004638.92447  21980058.7634   21980061.9754   21980059.3374
        51.000          43.000
 115178969.76547  89749832.65947  21917838.9904   21917841.4864   21917839.3844
        51.000          44.000
 107364693.81247  83660802.66347  20430819.5474   20430820.8464   20430819.1314
        55.000          50.000
 114451647.31747  89183097.10247  21779427.7124   21779428.5504   21779427.7194
        52.000          46.000
 09  1 24  1 50 30.0000000  0 10G 5G 6G30G16G14G 3G21G18G31G22
 127886486.34247  99651791.41847  24336001.2504   24336004.7304   24336002.1814
        43.000          37.000
 124671269.86447  97146423.46647  23724169.9264   23724174.4784   23724169.5004
        44.000          38.000
 118490553.99647  92330298.04147  22548004.0884   22548007.3574   22548004.0294
        49.000          43.000
 134473555.32547  86992368.72347  23686539.7694   23686543.1864   23686539.7534
        45.000          38.000
 124480762.86247  96997998.94547  23687899.1244   23687901.2534   23687899.1134
        45.000          39.000
 140121576.28347  91393424.92947  24761320.6654   24761325.0524   24761321.0174
        41.000          35.000
 115601771.01047  90079292.98247  21998290.0354   21998293.2464   21998290.4994
        50.000          43.000
 115168364.46547  89741568.78447  21915820.8804   21915823.4894   21915821.2954
        51.000          44.000
 107376655.45747  83670123.42647  20433095.6954   20433097.0324   20433095.2904
        55.000          50.000
 114400034.84047  89142879.59547  21769606.1174   21769607.0464   21769606.1114
        53.000          46.000
